~VERSION INFORMATION
 VERS.                2.0:   CWLS LOG ASCII STANDARD - VERSION 2.0
 WRAP.                 NO:   ONE LINE PER DEPTH STEP
~WELL INFORMATION
#MNEM.UNIT      DATA TYPE    INFORMATION
#----------   ------------   ------------------------------
 STRT.F           11.5000:   START DEPTH
 STOP.F         1726.0000:   STOP DEPTH
 STEP.F            0.5000:   STEP LENGTH
 NULL.          -999.2500:   NO VALUE
 COMP. LAWRENCE ALLISON & ASSOC WEST:   COMPANY
 WELL. LAWRENCE NPR 3 "X" #51-26:   WELL
 FLD .                NPR:   FIELD
 LOC .      S26 T38N R78W:   LOCATION
 CNTY.            NATRONA:   COUNTY
 STAT.            WYOMING:   STATE
 CTRY. UNITED STATES OF AMERICA:   COUNTRY
 SRVC.      DRESSER ATLAS:   SERVICE COMPANY
 DATE.        13-AUG-1983:   LOGDATE
 API .     49025109270000:   API NUMBER
~CURVE INFORMATION
#MNEM.UNIT       API CODE    CURVE DESCRIPTION
#----------   ------------   ------------------------------
 DEPT.F                  :   
 CALD.IN     45 280 60 00:   CALIPER FROM DENSITY LOG
 RHOB.G/C3   45 350 01 00:   BULK DENSITY
 CORR.G/C3   45 356 01 00:   DENSITY CORRECTION
 TEND.LBS    45 635 01 00:   TENSION FROM DENSITY LOG
 GRR .GAPI   07 310 01 00:   GAMMA RAY FROM RESISTIVITY
 RILD.OHMM   07 120 46 00:   INDUCTION LOG DEEP RESISTIVITY
 RILM.OHMM   07 120 44 00:   INDUCTION LOG MEDIUM RESISTIVITY
 TENR.LBS    07 635 01 00:   TENSION
~PARAMETER INFORMATION
#MNEM.UNIT          VALUE    DESCRIPTION
#----------   ------------   ------------------------------
 EKB .F         5455.0000:   Kelly bushing
 EGL .F         5444.0000:   Ground level
 EDF .F            0.0000:   Drilling floor
 EPD .F         5444.0000:   Permanent datum
 TD  .F         1726.0000:   Total depth
 DATE.        13-AUG-1983:   Date logged
 CLNT.            A2DTECH:   Client Code
 PD  .                 GL:   Permanent Datum
 LMF .                 KB:   Log Measured From
 DMF .                 KB:   Drilling Measured From
 DAPD.F                11:   Feet Above Permanent Datum
 DD  .F              1726:   Depth driller
 DL  .F              1724:   Depth logger
 BLI .F              1718:   Bottom log interval
 CBD1.F                47:   Casing driller 1
 CBL1.F                48:   Casing logger 1
 BS1 .IN            12.25:   Bit size
 BSD1.F              1726:   Depth drilled with bit1
 DFT .           AIR/FOAM:   Type fluid in hole
 TCS .HRS               1:   Time Circ. stopped
 MRT .F                85:   Maximum recorded temp.
 LUN .               6270:   Logging unit number
 LUL .              WLSTN:   Logging unit location
 ENGI.            QUICKEL:   Recorded By
 WITN.           JENNINGS:   Witnessed by
 ORIG.           5" PRINT:   Origin of data
 UWI .     49025109270000:   Unique Well ID
 DICO. A2D TECHNOLOGIES, INC.:   Digitizing Company
~OTHER INFORMATION
~A   DEPT     CALD       RHOB       CORR       TEND         GRR      RILD       RILM       TENR   
# ...
 1469.5000    13.0410     2.3650    -0.0260   -60.1450   149.6770     3.8710     4.1240   -49.9580
 1470.0000    13.0450     2.3580    -0.0160   -60.8600   148.1150     3.7450     4.0140   -49.8820
 1470.5000    13.0490     2.0010    -0.0030   -61.5750   151.9250     3.7180     3.9350   -49.8060
 1471.0000    13.0530     2.0050    -0.0120   -58.9790   152.9260     3.6910     3.9350   -49.7300
 1471.5000    13.0570     2.0030    -0.0510   -55.3360   152.0230     3.8160     3.9350   -49.6540
 1472.0000    13.0610     2.0030    -0.0890   -51.7070   150.0480     3.9590     4.0560   -49.5790
 1472.5000    13.0650     2.1260    -0.1280   -51.5900   148.5020     4.1030     4.2280   -49.5030
 1473.0000    13.0690     2.2760    -0.1520   -51.4750   147.6100     4.2470     4.4000   -49.4270
 1473.5000    13.0740     2.4180    -0.0840   -51.3590   147.3120     4.3960     4.5720   -49.3510
 1474.0000    13.0780     2.4360    -0.0260   -51.2430   147.2050     4.6930     4.8470   -49.2750
 1474.5000    13.0820     2.4530    -0.0110   -51.1270   148.9480     5.0040     5.2020   -49.1990
 1475.0000    13.0860     2.4640     0.0030   -51.0110   152.4720     5.3140     5.5180   -49.1230
 1475.5000    13.0900     2.4700     0.0170   -50.8950   153.6280     5.4370     5.6410   -49.0470
 1476.0000    13.0940     2.4680     0.0280   -50.7790   152.3830     5.2800     5.3410   -48.9710
 1476.5000    13.0980     2.4530     0.0110   -50.6630   148.0100     4.9090     4.9730   -48.8950
 1477.0000    13.1020     2.4390    -0.0180   -50.5470   146.9190     4.5370     4.6050   -48.8190
 1477.5000    13.1060     2.4250    -0.0380   -50.4310   149.0660     4.1660     4.2370   -48.7430
 1478.0000    13.1110     2.4060    -0.0220   -50.3150   150.7510     3.8490     3.8690   -48.6670
 1478.5000    13.1150     2.2680    -0.0050   -50.1990   156.0490     3.6730     3.7920   -48.5910
 1479.0000    13.1190     2.2120     0.0690   -50.0840   156.2250     3.6210     3.7920   -48.5150
 1479.5000    13.1230     2.1740     0.1930   -49.9680   154.3660     3.6970     3.8990   -48.4390
 1480.0000    13.1270     2.2240     0.1550   -49.8520   149.6870     3.7810     4.0450   -48.3630
 1480.5000    13.1400     2.3290     0.0600   -49.7360   142.0250     3.8650     4.1900   -48.2870
 1481.0000    13.1530     2.4350    -0.0470   -49.6200   138.7540     3.9740     4.3440   -48.2110
 1481.5000    13.1660     2.4890     0.0310   -49.5040   138.3400     4.2110     4.4980   -48.1350
 1482.0000    13.1800     2.4940     0.0420   -49.3880   139.9590     4.4470     4.6520   -48.0590
 1482.5000    13.1930     2.5170     0.0540   -49.2720   145.8390     4.6840     4.8070   -47.9840
 1483.0000    13.2060     2.4870     0.1690   -49.1560   148.8960     4.8530     4.9570   -47.9080
 1483.5000    13.2190     2.4540     0.2650   -49.0400   149.4710     4.9980     5.2260   -47.8320
 1484.0000    13.2300     2.4100     0.1120   -48.9240   147.4040     5.1420     5.4880   -47.7560
 1484.5000    13.2380     2.4320     0.0510   -48.8080   145.2160     5.4480     5.7500   -47.6800
 1485.0000    13.2460     2.4690    -0.0010   -48.6920   143.2240     6.0080     6.0130   -47.6040
 1485.5000    13.2490     2.4730    -0.0130   -48.5770   141.3830     6.1670     6.2750   -47.5280
 1486.0000    13.2520     2.4690    -0.0230   -48.4610   139.6230     6.2720     6.3320   -47.4520
 1486.5000    13.2550     2.4710    -0.0190   -48.3450   137.9060     6.3030     6.3610   -47.3760
 1487.0000    13.2590     2.4790    -0.0140   -48.2290   136.4320     6.2700     6.3610   -47.3000
 1487.5000    13.2620     2.4780    -0.0080   -48.1130   135.6130     6.2450     6.4490   -47.2240
 1488.0000    13.2650     2.4760    -0.0030   -47.9970   134.2020     6.2450     6.5430   -47.1480
 1488.5000    13.2690     2.4740     0.0070   -47.8810   130.9860     6.2450     6.6360   -47.0720
 1489.0000    13.2720     2.4740     0.0220   -47.7650   127.8970     6.2450     6.7300   -46.9960
 1489.5000    13.2750     2.4860     0.0380   -47.6490   128.8220     6.2450     6.7920   -46.9200
 1490.0000    13.2790     2.4970     0.0530   -47.5330   130.2820     6.2880     6.8190   -46.7390
 1490.5000    13.2820     2.5040     0.0680   -47.4170   132.1840     6.3600     6.8470   -46.4920
 1491.0000    13.2850     2.5020     0.0710   -47.3010   137.1770     6.4310     6.8750   -46.2440
 1491.5000    13.2880     2.4970     0.0720   -47.1860   142.7580     6.5030     6.9020   -45.9960
 1492.0000    13.2900     2.4920     0.0650   -47.0700   144.5600     6.5740     6.9300   -45.7490
 1492.5000    13.2930     2.4870     0.0580   -46.9540   141.5510     6.6450     6.9570   -45.5010
 1493.0000    13.2950     2.4830     0.0520   -46.8380   139.1320     6.7170     6.9940   -45.2540
 1493.5000    13.2980     2.4780     0.0450   -46.7220   138.1430     6.7880     7.0530   -45.0060
 1494.0000    13.3000     2.4730     0.0360   -45.2060   139.0370     6.8590     7.1110   -44.7580
 1494.5000    13.3030     2.4690     0.0240   -43.0810   139.8250     6.9660     7.1730   -44.5110
 1495.0000    13.3050     2.4660     0.0060   -40.9550   138.9750     6.9130     7.2920   -44.2630
 1495.5000    13.3080     2.4690    -0.0140   -38.8300   137.1910     6.9130     7.4180   -44.0150
 1496.0000    13.3100     2.4760     0.0010   -36.7050   134.5800     6.9130     7.5450   -43.7680
 1496.5000    13.3130     2.4830     0.0220   -34.5800   132.9900     6.9130     7.6710   -43.5200
 1497.0000    13.3150     2.4860     0.0430   -32.4550   133.2870     6.9130     7.7950   -43.2730
 1497.5000    13.3180     2.4830     0.0520   -33.2650   133.5570     6.5370     7.2210   -43.0250
 1498.0000    13.3200     2.4810     0.0330   -35.9490   133.8220     6.0330     6.6570   -42.7770
 1498.5000    13.3230     2.4740     0.0150   -38.6330   134.1060     5.5300     6.0920   -42.5300
 1499.0000    13.3250     2.4560     0.0150   -41.3180   135.1550     5.0270     5.5280   -42.2820
 1499.5000    13.3320     2.4100     0.0540   -44.0020   137.7070     4.5240     4.9640   -42.0350
 1500.0000    13.3400     2.3510     0.1140   -46.6870   140.6960     3.9710     4.3990   -41.7870
 1500.5000    13.3480     2.2930     0.1920   -49.3710   143.1210     3.9710     4.1210   -41.5390
 1501.0000    13.3560     2.2650     0.1730   -52.0560   139.2750     4.0080     4.2160   -41.2920
 1501.5000    13.3640     2.2720     0.1360   -54.7400   133.8800     4.2090     4.4000   -41.0440
 1502.0000    13.3730     2.3250     0.1010   -57.4240   131.1040     4.4250     4.7790   -40.7960
 1502.5000    13.3810     2.3780     0.0660   -60.1090   132.7960     4.8500     5.5200   -40.5490
 1503.0000    13.3850     2.4310     0.0440   -61.7470   131.7790     5.4380     6.2600   -40.3010
 1503.5000    13.3820     2.4750     0.0310   -59.4380   129.3340     6.0270     7.0000   -40.0540
 1504.0000    13.3800     2.4870     0.0320   -57.1190   127.5850     6.6150     7.7400   -39.8060
 1504.5000    13.3780     2.4960     0.0330   -54.8010   129.2080     7.2030     8.3210   -39.5580
 1505.0000    13.3750     2.5020     0.0340   -52.4830   132.4260     7.6520     8.3440   -39.3110
 1505.5000    13.3730     2.5040     0.0350   -51.9660   134.8090     7.9050     8.3670   -39.0630
 1506.0000    13.3700     2.5020     0.0370   -52.3550   134.1340     7.9530     8.3930   -38.8160
 1506.5000    13.3680     2.4990     0.0380   -52.7450   133.6540     7.9670     8.3860   -38.5680
 1507.0000    13.3660     2.4970     0.0400   -53.1340   133.4890     7.9820     8.3770   -38.3200
 1507.5000    13.3690     2.4970     0.0410   -53.5230   132.0860     7.9970     8.3670   -38.0730
 1508.0000    13.3720     2.5010     0.0430   -53.9130   129.0750     8.0120     8.3580   -37.8250
 1508.5000    13.3750     2.5040     0.0440   -54.3020   126.1380     8.0260     8.3480   -37.5770
 1509.0000    13.3780     2.5040     0.0460   -54.6910   124.7720     8.0410     8.3390   -37.3300
 1509.5000    13.3810     2.5020     0.0470   -55.0810   127.5410     8.0560     8.3290   -37.0820
