~VERSION INFORMATION
 VERS.                2.0:   CWLS LOG ASCII STANDARD - VERSION 2.0
 WRAP.                 NO:   ONE LINE PER DEPTH STEP
~WELL INFORMATION
#MNEM.UNIT      DATA TYPE    INFORMATION
#----------   ------------   ------------------------------
 STRT.F          407.0000:   START DEPTH
 STOP.F         3228.0000:   STOP DEPTH
 STEP.F            0.5000:   STEP LENGTH
 NULL.          -999.2500:   NO VALUE
 COMP.    FENIX & SCISSON:   COMPANY
 WELL.   FENIX "A" #21-34:   WELL
 FLD .             N.P.R.:   FIELD
 LOC .      S34 T39N R78W:   LOCATION
 CNTY.            NATRONA:   COUNTY
 STAT.            WYOMING:   STATE
 CTRY. UNITED STATES OF AMERICA:   COUNTRY
 SRVC.       SCHLUMBERGER:   SERVICE COMPANY
 DATE.        05-MAY-1977:   LOGDATE
 API .     49025103710000:   API NUMBER
~CURVE INFORMATION
#MNEM.UNIT       API CODE    CURVE DESCRIPTION
#----------   ------------   ------------------------------
 DEPT.F                  :   
 SPR .MV     11 010 01 00:   SPONTANEOUS POTENTIAL FROM RES.
 LLS .OHMM   11 220 09 00:   LATEROLOG LOG SHALLOW
 LLD .OHMM   11 220 10 00:   LATEROLOG DEEP
 MSFL.OHMM   11 270 04 00:   MICRO SPHERICALLY FOCUSED
 CALD.IN     45 280 60 00:   CALIPER FROM DENSITY LOG
 NPHI.DEC    42 890 03 00:   NEUTRON POROSITY SANDSTONE
 GRD .GAPI   45 310 01 00:   GAMMA RAY FROM DENSITY LOG
 CORR.G/C3   45 356 01 00:   DENSITY CORRECTION
 RHOB.G/C3   45 350 01 00:   BULK DENSITY
~PARAMETER INFORMATION
#MNEM.UNIT          VALUE    DESCRIPTION
#----------   ------------   ------------------------------
 EKB .F         5086.0000:   Kelly bushing
 EGL .F         5074.0000:   Ground level
 TD  .F         3226.0000:   Total depth
 CLNT.            A2DTECH:   Client Code
 SL  . 990' FWL & 330' FNL:   Surface Location
 PD  .                 GL:   Permanent Datum
 EPD .F              5074:   Elevation Permanent Datum
 LMF .                 KB:   Log Measured From
 DMF .                 KB:   Drilling Measured From
 DAPD.F                12:   Feet Above Permanent Datum
 DATE.        05-MAY-1977:   Date Logged [DD-MMM-YYYY]
 DD  .F              3226:   Depth driller
 DL  .F              3229:   Depth logger
 BLI .F              3227:   Bottom log interval
 TLI .F               430:   Top log interval
 CS1 .IN            8.625:   Casing size
 CBD1.      8.625" @ 424':   Casing driller 1
 CBL1.F               430:   Casing logger 1
 BS1 .IN            7.875:   Bit size
 BSD1.F              3226:   Depth drilled with bit1
 DFT .                KCL:   Type fluid in hole
 DFD .                9.4:   Density
 DFV .                 31:   Viscosity
 DFPH.                  8:   pH
 DFL .                9.6:   Fluid loss
 MSS .           MUD TANK:   Source of sample
 RMS .OHMM          0.202:   Rm
 MST .F                78:   Rm Meas. temp.
 RMF .OHMM          0.191:   Rmf
 MFST.F                76:   Rmf Meas. temp.
 MFSS.               MEAS:   Source Rmf.
 RMC .OHMM           0.30:   Rmc
 MCST.F                78:   Rmc Meas. temp.
 MCSS.               CALC:   Source Rmc.
 RMB .OHMM          0.123:   Rm. at BHT
 BHT .F               128:   BHT.
 TCS .HRS            1400:   Time Circ. stopped
 TLAB.HRS            0300:   Time logger at bottom
 MRT .F               128:   Maximum recorded temp.
 LUN .               5642:   Logging unit number
 LUL .               CSPR:   Logging unit location
 ENGI.                FIX:   Recorded By
 WITN.         HARRINGTON:   Witnessed by
 ORIG.           5" PRINT:   Origin of data
 UWI .     49025103710000:   Unique Well ID
 DICO. A2D TECHNOLOGIES, INC.:   Digitizing Company
~OTHER INFORMATION
~A   DEPT      SPR        LLS        LLD       MSFL       CALD       NPHI         GRD      CORR       RHOB   
# ...
 1502.0000   -51.9572     7.1907     6.5952     8.9632     8.3059     0.3730   114.5263     0.0057     2.5139
 1502.5000   -51.8877     7.2156     6.6354     8.8135     8.3047     0.3597   112.6881     0.0066     2.5027
 1503.0000   -51.5173     7.2405     6.6576     8.6399     8.3036     0.3476   110.8498     0.0128     2.5096
 1503.5000   -49.6509     7.2654     6.6647     8.5285     8.3024     0.3419   109.0115     0.0257     2.5187
 1504.0000   -47.6164     7.2903     6.5788     8.4168     8.3013     0.3388   106.9123     0.0319     2.5015
 1504.5000   -48.0967     7.3152     6.4046     8.3661     8.3001     0.3379   106.0299     0.0054     2.4978
 1505.0000   -49.0831     7.3433     6.3206     8.2601     8.2990     0.3394   111.9277     0.0109     2.5182
 1505.5000   -49.1708     7.3498     6.2825     8.2103     8.2978     0.3436   115.1120     0.0201     2.5130
 1506.0000   -47.5531     7.4589     6.2446     8.1046     8.2967     0.3492   114.2363     0.0263     2.5312
 1506.5000   -48.6264     7.5696     6.2515     8.0557     8.2955     0.3537   110.2026     0.0241     2.5426
 1507.0000   -50.5361     7.5763     6.2571     8.0725     8.2944     0.3581   106.1689     0.0113     2.5155
 1507.5000   -51.5269     7.6887     6.2626     8.4142     8.2932     0.3614   106.6543     0.0054     2.5016
 1508.0000   -51.8770     7.6955     6.2248     8.7789     8.2922     0.3626   109.0016     0.0055     2.5077
 1508.5000   -50.0936     7.8098     6.2315     8.9092     8.2850     0.3601   110.0829     0.0056     2.5169
 1509.0000   -48.7531     7.8711     6.2840     8.9790     8.2752     0.3550   102.6724     0.0049     2.5200
 1509.5000   -48.5992     7.9344     6.4628     8.9869     8.2653     0.3507   106.0823     0.0034     2.5223
 1510.0000   -47.1730     8.0522     6.5588     8.9949     8.2552     0.3479   100.9208     0.0014     2.5112
 1510.5000   -47.0553     8.0593     6.7025     8.9407     8.2536     0.3461    99.1362     0.0022     2.5015
 1511.0000   -48.3411     8.1789     6.8494     8.9486     8.2558     0.3448   101.8760     0.0061     2.5023
 1511.5000   -50.0149     8.1861     6.9511     8.9564     8.2581     0.3442   100.7747     0.0093     2.5054
 1512.0000   -50.1389     8.1933     7.0544     8.9643     8.2604     0.3430   100.1233     0.0063     2.5161
 1512.5000   -49.4539     8.2006     7.0606     9.0348     8.2627     0.3514   101.7299     0.0004     2.5011
 1513.0000   -48.3930     8.2648     7.0668     9.1058     8.2650     0.3507   102.2091    -0.0033     2.4876
 1513.5000   -48.3133     8.3296     7.0731     9.1155     8.2673     0.3458   102.6857    -0.0032     2.4824
 1514.0000   -48.3016     8.3370     7.0793     9.1235     8.2696     0.3398   101.8159     0.0007     2.4992
 1514.5000   -48.3853     8.3443     6.9880     9.1315     8.2719     0.3364   100.0312     0.0061     2.5181
 1515.0000   -48.6608     8.3518     6.8980     9.1396     8.2742     0.3339   101.1922     0.0131     2.5235
 1515.5000   -49.1000     8.3591     6.9043     9.2752     8.2765     0.3294   101.8887     0.0154     2.5123
 1516.0000   -48.8499     8.2514     6.8165     9.4783     8.2788     0.3270    99.8917     0.0080     2.5004
 1516.5000   -47.6985     8.0907     6.7755     9.6858     8.2811     0.3227   101.2716     0.0042     2.5163
 1517.0000   -44.3302     7.9296     6.7337     9.8979     8.2834     0.3215   101.0725     0.0104     2.5232
 1517.5000   -44.3873     7.7751     6.6824     9.1166     8.2857     0.3211   100.1901     0.0196     2.5285
 1518.0000   -47.2978     7.7265     6.6077     9.0617     8.2880     0.3283   101.8021     0.0288     2.5520
 1518.5000   -48.6230     7.6287     6.5664     9.2071     8.2903     0.3310   103.1820     0.0259     2.5340
 1519.0000   -47.4001     7.5810     6.5268     9.4632     8.2917     0.3300   103.9053     0.0094     2.5212
 1519.5000   -46.9350     7.5354     6.4875     9.5391     8.2917     0.3282   105.2001    -0.0011     2.5037
 1520.0000   -47.2625     7.5437     6.4498     9.6139     8.2917     0.3400   109.1327    -0.0041     2.4944
 1520.5000   -47.7102     7.4982     6.4108     9.6224     8.2917     0.3474   111.8659    -0.0032     2.5074
 1521.0000   -47.7320     7.5049     6.4166     9.6308     8.2917     0.3425   113.2458     0.0022     2.5112
 1521.5000   -47.7547     7.5117     6.4125     9.6393     8.2917     0.3349   111.4677     0.0114     2.5076
 1522.0000   -47.1476     7.5198     6.4293     9.6471     8.2917     0.3367   105.6295     0.0153     2.5001
 1522.5000   -46.5075     7.5264     6.4350     9.6564     8.2917     0.3379   103.8449    -0.0051     2.4859
 1523.0000   -46.2181     7.5838     6.4407     9.6649     8.2917     0.3309   106.5847    -0.0095     2.4777
 1523.5000   -45.5666     7.5921     6.3577     9.6734     8.2917     0.3290   109.0924    -0.0032     2.4877
 1524.0000   -42.8383     7.5447     6.3633     9.5819     8.2917     0.3314   111.6001     0.0051     2.4983
 1524.5000   -45.3142     7.5530     6.3689     9.5519     8.2917     0.3363   112.3038    -0.0039     2.4931
 1525.0000   -45.3490     7.5597     6.3745     9.4235     8.2917     0.3407   110.6014     0.0000     2.5128
 1525.5000   -46.0474     7.5664     6.3802     9.3125     8.2917     0.3316   105.3703     0.0122     2.5302
 1526.0000   -46.0935     7.5731     6.3415     9.1945     8.2917     0.3255   103.3601     0.0146     2.5325
 1526.5000   -46.5241     7.5273     6.3914     9.0741     8.2917     0.3219   102.7165     0.0071     2.5086
 1527.0000   -47.2326     7.5341     6.3971     9.0214     8.2917     0.3224   100.4873     0.0126     2.5147
 1527.5000   -47.7019     7.4370     6.4028     8.9651     8.2917     0.3260    98.0260     0.0119     2.5148
 1528.0000   -47.7267     7.3922     6.4086     8.8495     8.2917     0.3284   101.6681     0.0082     2.5064
 1528.5000   -47.0043     7.3477     6.4155     8.6772     8.2917     0.3298   101.9135     0.0060     2.4970
 1529.0000   -46.1533     7.3050     6.3754     8.5650     8.2917     0.3301   100.5932     0.0015     2.4881
 1529.5000   -44.8203     7.2594     6.3370     8.5729     8.2917     0.3234   101.0708    -0.0008     2.4821
 1530.0000   -44.1467     7.2157     6.3440     8.6401     8.2917     0.3207   103.8649    -0.0020     2.4950
 1530.5000   -44.6999     7.1722     6.3496     8.6479     8.2917     0.3227   101.1238     0.0103     2.5079
 1531.0000   -45.7163     7.1290     6.3552     8.6557     8.2917     0.3270   102.0591     0.0172     2.5050
 1531.5000   -46.1141     7.0861     6.3169     8.4282     8.2917     0.3317   104.7924     0.0196     2.5187
 1532.0000   -46.1342     7.0434     6.2788     8.0923     8.2917     0.3277   109.1045     0.0189     2.5067
 1532.5000   -46.1000     7.0023     6.2843     7.7698     8.2917     0.3268   109.5821     0.0137     2.5153
 1533.0000   -46.8161     7.0087     6.2033     7.4087     8.2917     0.3303   111.1876     0.0169     2.5100
 1533.5000   -47.4050     7.0149     6.2088     7.3624     8.2917     0.3399   113.0119     0.0200     2.5177
 1534.0000   -46.7845     6.9726     6.1692     7.3705     8.2917     0.3426   104.9247     0.0201     2.5376
 1534.5000   -46.0277     6.9803     6.1341     7.6900     8.2917     0.3350   106.7557     0.0178     2.5457
 1535.0000   -45.4326     6.9865     6.1409     8.0791     8.2917     0.3230   100.6919     0.0165     2.5270
 1535.5000   -44.9459     6.9926     6.1463     8.1424     8.2908     0.3205   104.7918     0.0144     2.5104
 1536.0000   -44.2553     7.0475     6.2376     7.9269     8.2893     0.3462   101.2004     0.0114     2.4850
 1536.5000   -43.2867     7.0537     6.2866     7.8248     8.2878     0.3644    98.5201     0.0078     2.4926
 1537.0000   -42.9385     7.1584     6.3799     7.9597     8.2862     0.3637    98.5466     0.0041     2.4777
 1537.5000   -43.8029     7.3151     6.4747     8.3445     8.2847     0.3595    98.7986     0.0011     2.4823
 1538.0000   -44.1316     7.4753     6.6166     8.5865     8.2832     0.3655    99.7274     0.0028     2.4960
