~VERSION INFORMATION
 VERS.                2.0:   CWLS LOG ASCII STANDARD - VERSION 2.0
 WRAP.                 NO:   ONE LINE PER DEPTH STEP
~WELL INFORMATION
#MNEM.UNIT      DATA TYPE    INFORMATION
#----------   ------------   ------------------------------
 STRT.F          740.0000:   START DEPTH
 STOP.F         2749.0000:   STOP DEPTH
 STEP.F            0.5000:   STEP LENGTH
 NULL.          -999.2500:   NO VALUE
 COMP.    FENIX & SCISSON:   COMPANY
 WELL.   FENIX SHX #11-10:   WELL
 FLD .                NPR:   FIELD
 LOC .      S10 T38N R78W:   LOCATION
 CNTY.            NATRONA:   COUNTY
 STAT.            WYOMING:   STATE
 CTRY. UNITED STATES OF AMERICA:   COUNTRY
 SRVC.              WELEX:   SERVICE COMPANY
 DATE.        09-APR-1980:   LOGDATE
 API .     49025108060000:   API NUMBER
~CURVE INFORMATION
#MNEM.UNIT       API CODE    CURVE DESCRIPTION
#----------   ------------   ------------------------------
 DEPT.F                  :   
 GRD .GAPI   45 310 01 00:   GAMMA RAY FROM DENSITY LOG
 CALD.IN     45 280 60 00:   CALIPER FROM DENSITY LOG
 TEND.LBS    45 635 01 00:   TENSION FROM DENSITY LOG
 RHOB.G/C3   45 350 01 00:   BULK DENSITY
 CORR.G/C3   45 356 01 00:   DENSITY CORRECTION
~PARAMETER INFORMATION
#MNEM.UNIT          VALUE    DESCRIPTION
#----------   ------------   ------------------------------
 EKB .F         5287.0000:   Kelly bushing
 EGL .F         5277.0000:   Ground level
 EDF .F            0.0000:   Drilling floor
 EPD .F         5277.0000:   Permanent datum
 TD  .F         2762.0000:   Total depth
 DATE.        09-APR-1980:   Date logged
 CLNT.            A2DTECH:   Client Code
 SL  . 474' FNL & 644' FWL:   Surface Location
 PD  .                 GL:   Permanent Datum
 LMF .                 KB:   Log Measured From
 DMF .                 KB:   Drilling Measured From
 DAPD.F                10:   Feet Above Permanent Datum
 DD  .F              2762:   Depth driller
 DL  .F            2751.5:   Depth logger
 BLI .F              2750:   Bottom log interval
 TLI .F               750:   Top log interval
 CS1 .IN            9.625:   Casing size
 CBD1.      9.625" @ 760':   Casing driller 1
 BS1 .IN             8.75:   Bit size
 BSD1.F              2762:   Depth drilled with bit1
 DFT .                AIR:   Type fluid in hole
 TCS .HRS               3:   Time Circ. stopped
 MRT .F               118:   Maximum recorded temp.
 ENGI.            BENTSEN:   Recorded By
 WITN.           DINSMORE:   Witnessed by
 ORIG.         2.5" PRINT:   Origin of data
 UWI .     49025108060000:   Unique Well ID
 DICO. A2D TECHNOLOGIES, INC.:   Digitizing Company
~OTHER INFORMATION
~A   DEPT       GRD      CALD       TEND       RHOB       CORR   
# ...
 2570.0000    85.3300     8.7650  1629.7310     2.5070     0.0510
 2570.5000    85.5860     8.7620  1630.1700     2.5100     0.0470
 2571.0000    85.8110     8.7600  1630.6090     2.5130     0.0420
 2571.5000    85.9720     8.7580  1631.0480     2.5290     0.0520
 2572.0000    85.5400     8.7600  1631.4871     2.5450     0.0520
 2572.5000    85.1870     8.7620  1631.9260     2.5210     0.0370
 2573.0000    84.8020     8.7650  1632.3650     2.4980     0.0210
 2573.5000    84.3530     8.7670  1632.8040     2.5020     0.0170
 2574.0000    84.6480     8.7690  1633.2430     2.5060     0.0180
 2574.5000    85.6350     8.7710  1633.6820     2.5120     0.0340
 2575.0000    86.5410     8.7730  1634.1210     2.5180     0.0480
 2575.5000    87.4660     8.7750  1634.5590     2.5260     0.0690
 2576.0000    87.9100     8.7770  1634.9980     2.5010     0.0580
 2576.5000    88.0390     8.7790  1635.4370     2.3900    -0.0030
 2577.0000    88.2140     8.7810  1635.8760     2.4080     0.0060
 2577.5000    88.3710     8.7830  1636.3149     2.4130     0.0340
 2578.0000    89.3010     8.7850  1636.7540     2.4300     0.0720
 2578.5000    90.5470     8.7880  1637.1930     2.4850     0.1110
 2579.0000    91.7190     8.7900  1637.6320     2.4670     0.1400
 2579.5000    92.9310     8.7920  1638.0710     2.4440     0.1250
 2580.0000    94.3130     8.7940  1638.5100     2.4210     0.1060
 2580.5000    93.9600     8.7960  1638.9490     2.4410     0.0820
 2581.0000    91.3230     8.7970  1639.3879     2.4680     0.0630
 2581.5000    90.5020     8.7840  1639.8270     2.4640     0.0300
 2582.0000    89.5130     8.7730  1640.2660     2.4410     0.0260
 2582.5000    89.2310     8.7610  1640.7050     2.4310     0.0300
 2583.0000    90.0290     8.7600  1641.1440     2.4330     0.0360
 2583.5000    90.7150     8.7650  1641.5830     2.4340     0.0410
 2584.0000    91.4100     8.7690  1642.0220     2.4290     0.0370
 2584.5000    91.8470     8.7730  1642.4600     2.4040     0.0350
 2585.0000    91.3400     8.7770  1642.8990     2.4100     0.0350
 2585.5000    90.8010     8.7810  1643.3380     2.4470     0.0610
 2586.0000    90.0090     8.7850  1643.7770     2.4410     0.0820
 2586.5000    89.1250     8.7890  1644.2159     2.4080     0.0640
 2587.0000    88.4090     8.7940  1644.6550     2.4120     0.0500
 2587.5000    88.3980     8.7980  1645.0940     2.4260     0.0650
 2588.0000    88.4050     8.8090  1645.5330     2.4500     0.1030
 2588.5000    87.9990     8.8210  1645.9720     2.4800     0.1230
 2589.0000    87.0000     8.8330  1646.4110     2.4890     0.1200
 2589.5000    85.9310     8.8450  1646.8500     2.5000     0.1060
 2590.0000    85.8350     8.8570  1647.2889     2.4510     0.0610
 2590.5000    87.3000     8.8690  1647.7280     2.4670     0.0690
 2591.0000    88.6520     8.8800  1648.1670     2.4650     0.0830
 2591.5000    90.1130     8.8930  1648.6060     2.4710     0.0880
 2592.0000    90.7140     8.9040  1649.0450     2.4750     0.0910
 2592.5000    90.3040     8.9150  1649.4840     2.4720     0.0750
 2593.0000    89.9970     8.9000  1649.9230     2.4700     0.0650
 2593.5000    89.7760     8.8820  1650.3621     2.5150     0.0900
 2594.0000    88.7600     8.8630  1650.8000     2.5000     0.1180
 2594.5000    87.0940     8.8450  1651.2390     2.4500     0.0600
 2595.0000    85.5520     8.8270  1651.6780     2.5060     0.0440
 2595.5000    84.9170     8.8080  1652.1169     2.4970     0.0340
 2596.0000    87.3400     8.7900  1652.5560     2.4830     0.0470
 2596.5000    89.5360     8.7720  1652.9950     2.4460     0.0460
 2597.0000    91.7030     8.7530  1653.4340     2.4130     0.0390
 2597.5000    94.1710     8.7350  1653.8730     2.4010     0.0410
 2598.0000    94.1920     8.7190  1654.3120     2.4590     0.0960
 2598.5000    94.1320     8.7220  1654.7510     2.4070     0.0690
 2599.0000    93.9560     8.7260  1655.1899     2.3710     0.0240
 2599.5000    93.7600     8.7290  1655.6290     2.3820     0.0060
 2600.0000    94.2980     8.7330  1656.0680     2.4290     0.0120
 2600.5000    95.4160     8.7370  1656.5070     2.4730     0.1440
 2601.0000    95.8870     8.7400  1656.9460     2.5070     0.1830
 2601.5000    94.8820     8.7440  1657.3850     2.4310     0.1350
 2602.0000    93.9560     8.7480  1657.8240     2.4410     0.1050
 2602.5000    92.9480     8.7510  1658.2629     2.4900     0.1440
 2603.0000    91.9280     8.7550  1658.7010     2.5380     0.1760
 2603.5000    90.1670     8.7560  1659.1400     2.4790     0.0980
 2604.0000    88.3790     8.7500  1659.5790     2.4530     0.0540
 2604.5000    86.5370     8.7440  1660.0179     2.4730     0.0570
 2605.0000    84.7550     8.7370  1660.4821     2.4680     0.0600
 2605.5000    82.9540     8.7310  1660.9430     2.4520     0.0300
 2606.0000    80.9980     8.7250  1661.3420     2.4390     0.0140
 2606.5000    80.2500     8.7180  1661.9290     2.4650     0.0340
 2607.0000    81.1560     8.7120  1662.2430     2.4890     0.0500
 2607.5000    81.8970     8.7050  1662.5940     2.5170     0.1260
 2608.0000    82.6630     8.6990  1664.0110     2.4760     0.0980
 2608.5000    83.4360     8.6920  1654.1050     2.5170     0.0790
 2609.0000    84.1910     8.6860  1631.4780     2.5120     0.0880
 2609.5000    84.4750     8.6790  1609.8560     2.5040     0.0720
 2610.0000    84.7440     8.6680  1588.2371     2.4990     0.0680
 2610.5000    84.9840     8.6560  1566.6150     2.5040     0.0940
 2611.0000    85.2850     8.6430  1544.3290     2.5060     0.1190
 2611.5000    85.3640     8.6700  1523.3280     2.5240     0.1420
 2612.0000    85.1040     8.7170  1504.7760     2.5410     0.1620
 2612.5000    85.0160     8.7630  1521.7760     2.5490     0.1140
 2613.0000    83.5560     8.7910  1537.9390     2.5430     0.0710
 2613.5000    81.2860     8.7680  1555.7590     2.5340     0.0230
 2614.0000    80.5810     8.7450  1572.8210     2.5240     0.0190
 2614.5000    79.9460     8.7200  1589.9430     2.5140     0.0160
 2615.0000    79.3060     8.6960  1607.2469     2.5070     0.0140
 2615.5000    78.6800     8.6720  1624.4821     2.5010     0.0260
 2616.0000    78.0500     8.6470  1641.4611     2.5130     0.0390
 2616.5000    77.3770     8.6380  1658.7581     2.5240     0.0450
 2617.0000    77.1170     8.6390  1664.4860     2.5360     0.0520
 2617.5000    77.3120     8.6390  1665.3580     2.5240     0.0550
 2618.0000    77.4560     8.6390  1666.4070     2.5070     0.0200
 2618.5000    77.6090     8.6390  1667.6160     2.5200     0.0380
 2619.0000    77.7660     8.6390  1668.6810     2.5400     0.0570
 2619.5000    77.9050     8.6390  1669.8070     2.5040     0.0390
 2620.0000    78.0980     8.6390  1670.9260     2.5100     0.0190
 2620.5000    78.2220     8.6390  1672.0370     2.5550     0.0500
 2621.0000    79.7080     8.6390  1673.1630     2.5530     0.0720
 2621.5000    81.8790     8.6390  1674.2900     2.5570     0.0520
 2622.0000    83.6210     8.6390  1675.4160     2.5150     0.0380
 2622.5000    84.7290     8.6390  1676.5430     2.5130     0.0550
 2623.0000    85.9620     8.6390  1677.6700     2.5060     0.0410
 2623.5000    87.3180     8.6390  1678.7960     2.4670     0.0390
 2624.0000    87.1260     8.6390  1679.9230     2.4990     0.0630
 2624.5000    85.4660     8.6390  1681.0490     2.4990     0.0780
 2625.0000    83.8120     8.6390  1682.1760     2.4770     0.0300
 2625.5000    83.3770     8.6390  1683.3020     2.5030     0.0170
 2626.0000    84.5130     8.6390  1684.4290     2.4930     0.0160
 2626.5000    85.5390     8.6390  1685.5560     2.4820     0.0220
 2627.0000    86.4980     8.6390  1686.6820     2.5120     0.0400
 2627.5000    87.5380     8.6390  1687.8090     2.4990     0.0440
 2628.0000    86.0700     8.6390  1688.9351     2.5030     0.0560
 2628.5000    83.7440     8.6390  1690.0620     2.5350     0.0760
 2629.0000    81.3910     8.6390  1691.1880     2.5770     0.0920
 2629.5000    79.1290     8.6390  1692.3149     2.5560     0.0760
 2630.0000    77.1460     8.6390  1693.4410     2.5060     0.0330
 2630.5000    77.6130     8.6390  1694.5680     2.4860    -0.0020
