~VERSION INFORMATION
 VERS.                2.0:   CWLS LOG ASCII STANDARD - VERSION 2.0
 WRAP.                 NO:   ONE LINE PER DEPTH STEP
~WELL INFORMATION
#MNEM.UNIT      DATA TYPE    INFORMATION
#----------   ------------   ------------------------------
 STRT.F          448.5000:   START DEPTH
 STOP.F         4490.5000:   STOP DEPTH
 STEP.F            0.5000:   STEP LENGTH
 NULL.          -999.2500:   NO VALUE
 COMP.  FENIX AND SCISSON:   COMPANY
 WELL. FENIX AND SCISSON NPR 3 #11-10:   WELL
 FLD .              NPR-3:   FIELD
 LOC .      S10 T38N R78W:   LOCATION
 CNTY.            NATRONA:   COUNTY
 STAT.            WYOMING:   STATE
 CTRY. UNITED STATES OF AMERICA:   COUNTRY
 SRVC.              WELEX:   SERVICE COMPANY
 DATE.        22-DEC-1978:   LOGDATE
 API .     49025107450000:   API NUMBER
~CURVE INFORMATION
#MNEM.UNIT       API CODE    CURVE DESCRIPTION
#----------   ------------   ------------------------------
 DEPT.F                  :   
 SPR .MV     07 010 01 00:   SPONTANEOUS POTENTIAL
 ILM .OHMM   07 120 44 00:   INDUCTION LOG MEDIUM
 ILD .OHMM   07 120 46 00:   DEEP RESISTIVITY
 SGRD.OHMM   07 220 01 00:   SHALLOW SHORT GUARD RESISTIVITY
 TENR.LBS    07 635 01 00:   TENSION FROM RESISTIVITY
 NPHI.DEC    42 890 03 00:   NEUTRON POROSITY SANDSTONE
 CALD.IN     45 280 60 00:   CALIPER FROM DENSITY LOG
 GRD .GAPI   45 310 01 00:   GAMMA RAY FROM DENSITY LOG
 RHOB.G/C3   45 350 01 00:   BULK DENSITY
 DRHO.G/C3   45 356 01 00:   DENSITY CORRECTION
 TEND.LBS    45 635 01 00:   TENSION FROM DENSITY
~PARAMETER INFORMATION
#MNEM.UNIT          VALUE    DESCRIPTION
#----------   ------------   ------------------------------
 EKB .F         5275.0000:   Kelly bushing
 EGL .F         5265.0000:   Ground level
 EDF .F            0.0000:   Drilling floor
 EPD .F         5265.0000:   Permanent datum
 TD  .F         4500.0000:   Total depth
 DATE.        22-DEC-1978:   Date logged
 CLNT.            A2DTECH:   Client Code
 SL  . 300' FNL & 500' FWL:   Surface Location
 DD  .F              4500:   Depth driller
 DL  .F              4481:   Depth logger
 BLI .F              4479:   Bottom log interval
 TLI .F               450:   Top log interval
 CS1 .IN            8.625:   Casing size
 CBD1.      8.625" @ 500':   Casing driller 1
 CBL1.F               473:   Casing logger 1
 BS1 .IN            7.875:   Bit size
 BSD1.F              4500:   Depth drilled with bit1
 DFT .               LSND:   Type fluid in hole
 DFD .                8.7:   Density
 DFV .                 49:   Viscosity
 DFPH.               11.0:   pH
 DFL .                7.6:   Fluid loss
 MSS .           FLOWLINE:   Source of sample
 RMS .OHMM            1.1:   Rm
 MST .F                86:   Rm Meas. temp.
 RMF .OHMM           0.73:   Rmf
 MFST.F                86:   Rmf Meas. temp.
 RMC .OHMM           1.68:   Rmc
 MCST.F                86:   Rmc Meas. temp.
 MFSS.               CALC:   Source Rmf.
 MCSS.               CALC:   Source Rmc.
 RMB .OHMM           0.72:   Rm. at BHT
 BHT .F               130:   BHT.
 TCS .HRS             3.5:   Time Circ. stopped
 MRT .F               130:   Maximum recorded temp.
 LUN .               9685:   Logging unit number
 LUL .             CASPER:   Logging unit location
 ENGI.            BENTSEN:   Recorded By
 WITN.           DINSMORE:   Witnessed by
 ORIG.           5" PRINT:   Origin of data
 UWI .     49025107450000:   Unique Well ID
 DICO. A2D TECHNOLOGIES, INC.:   Digitizing Company
~OTHER INFORMATION
~A  DEPTH      SPR        ILM        ILD       SGRD       TENR       NPHI       CALD        GRD       RHOB       DRHO       TEND
# ...
 4169.5000   -46.7393     3.4583     3.3480     4.0257  1696.0276     0.3194     9.7534   133.0710     2.0376     0.2203  2007.9458
 4170.0000   -46.7259     3.4269     3.3501     4.1147  1701.8075     0.3197    10.3043   137.9732     2.0460     0.2168  1990.8824
 4170.5000   -46.7126     3.3917     3.3522     4.3236  1699.5482     0.3216    10.5355   145.5952     2.0506     0.2231  1943.7523
 4171.0000   -46.6993     3.3704     3.3128     4.0525  1697.2888     0.3263    10.5065   154.0228     2.0462     0.2292  1911.9218
 4171.5000   -46.6859     3.3378     3.2587     3.7470  1695.0295     0.3334    10.4126   154.8336     2.0185     0.2234  1910.0780
 4172.0000   -46.6726     3.2933     3.2144     5.0698  1683.9648     0.3396    10.3379   155.3248     1.9057     0.2130  1967.8953
 4172.5000   -46.6593     3.2495     3.1708     5.8071  1675.4525     0.3426    10.3178   156.1231     1.8892     0.2101  2004.8846
 4173.0000   -46.6459     3.2063     3.1119     4.3891  1673.1934     0.3440    10.4560   158.2493     1.8773     0.2148  2030.4376
 4173.5000   -46.7312     3.1501     3.0477     3.7870  1670.9341     0.3448    10.7109   160.5711     1.8654     0.2164  2037.6317
 4174.0000   -46.7674     3.0862     2.9526     3.5376  1680.2245     0.3454    11.0871   160.9702     1.8459     0.2106  2034.1753
 4174.5000   -46.8609     2.9954     2.8540     3.5060  1696.0990     0.3460    11.3434   160.3602     1.8423     0.2017  2018.3361
 4175.0000   -46.8889     2.9072     2.7778     3.7040  1693.9125     0.3495    11.5847   159.1654     1.8379     0.1913  2001.1926
 4175.5000   -46.8756     2.8136     2.6665     3.7154  1691.7260     0.3548    11.8710   157.5099     1.8327     0.1809  1984.3546
 4176.0000   -46.8597     2.7032     2.5597     3.7200  1689.5394     0.3596    11.3664   156.8562     1.8290     0.1720  1982.5109
 4176.5000   -46.8468     2.5528     2.4572     4.0206  1672.2949     0.3635    11.0642   156.6496     1.8306     0.1661  1980.3583
 4177.0000   -46.8338     2.4510     2.3576     3.8641  1670.1084     0.3668    11.7785   155.3252     1.8639     0.1708  1978.7104
 4177.5000   -46.9690     2.3370     2.2601     3.3494  1652.8616     0.3693    11.8621   150.0788     1.8956     0.1965  1976.6688
 4178.0000   -46.9560     2.2284     2.1654     2.8753  1650.6023     0.3704    11.2605   141.8460     1.9130     0.2088  1974.5182
 4178.5000   -46.9430     2.1101     2.0642     2.3412  1648.3429     0.3710    10.9733   137.8507     1.9312     0.2074  1972.6725
 4179.0000   -46.9301     2.0259     1.9930     2.0276  1646.0836     0.3749    11.0558   138.4660     1.9501     0.1985  1970.8287
 4179.5000   -46.9170     1.9587     1.9265     2.0721  1643.8245     0.3793    10.9752   140.4933     1.9728     0.1881  1968.6761
 4180.0000   -46.9037     1.9739     1.8789     2.3060  1641.5671     0.3823    10.7181   142.8771     1.9862     0.1822  1966.8324
 4180.5000   -46.8904     2.0618     1.8566     2.2618  1639.3077     0.3834    10.5523   144.9741     1.9998     0.1824  1964.6798
 4181.0000   -46.8782     2.1537     1.8555     2.2314  1637.0485     0.3834    10.8580   146.7268     2.0092     0.1840  1963.1184
 4181.5000   -47.0134     2.2483     1.9004     2.5613  1634.7889     0.3809    11.0714   148.2313     2.0131     0.1872  1960.9905
 4182.0000   -46.9985     2.3299     1.9950     2.7646  1632.5294     0.3785    10.3166   149.2475     2.0116     0.1889  1974.2133
 4182.5000   -46.9852     2.3993     2.0964     2.7364  1630.2704     0.3766     9.7932   148.5938     2.0035     0.1880  1987.5951
 4183.0000   -46.9719     2.4676     2.1741     2.8267  1628.0111     0.3757    10.0795   146.8223     1.9713     0.1861  2015.1204
 4183.5000   -46.9585     2.5231     2.2474     3.1072  1625.7527     0.3747    10.4108   144.8273     1.9337     0.1803  2012.9678
 4184.0000   -46.9452     2.5798     2.3141     3.2649  1623.4946     0.3735    10.2000   143.2136     1.9308     0.1729  2011.3949
 4184.5000   -46.9319     2.6377     2.3827     2.9667  1621.2351     0.3728    10.1737   141.7143     1.9444     0.1625  1994.2860
 4185.0000   -46.9185     2.6915     2.4438     2.7906  1625.8258     0.3716    10.5682   138.6971     1.9709     0.1491  1992.1353
 4185.5000   -47.0075     2.7324     2.4984     2.9323  1631.7769     0.3702    10.8956   132.7426     2.0186     0.1267  1990.2897
 4186.0000   -47.1881     2.7672     2.5541     3.1459  1629.5176     0.3686    11.2422   129.7195     2.1208     0.1012  1988.4459
 4186.5000   -47.2343     2.7820     2.5872     3.3984  1636.3004     0.3668    11.7229   128.2341     2.1653     0.0953  1986.2933
 4187.0000   -47.3733     2.7765     2.5949     3.4736  1640.0605     0.3645    11.8294   126.1751     2.2001     0.0819  1984.7070
 4187.5000   -47.5802     2.7426     2.6097     3.4772  1637.8021     0.3622    11.4573   123.3610     2.2429     0.0460  1982.6058
 4188.0000   -47.7274     2.6869     2.6024     3.4206  1635.5427     0.3581    11.3370   121.4851     2.5261     0.0220  1980.4532
 4188.5000   -47.8668     2.6413     2.5998     3.2756  1644.3276     0.3525    10.0252   120.2534     2.5322     0.0372  1978.8611
 4189.0000   -47.9970     2.6251     2.6016     3.0974  1657.6340     0.3439     9.0444   119.9866     2.5263     0.0494  1976.7638
 4189.5000   -48.1530     2.6683     2.6032     2.9325  1658.8853     0.3301     8.8264   120.1590     2.4956     0.0556  1974.6112
 4190.0000   -48.4444     2.7817     2.6048     2.8262  1668.2098     0.3128     8.7664   119.4079     2.4565     0.0542  1972.9210
 4190.5000   -48.7359     2.9389     2.6794     2.8796  1669.4271     0.3026     8.7678   116.2432     2.4325     0.0499  1970.7703
 4191.0000   -49.0272     3.1857     2.7562     3.0366  1682.0093     0.2969     8.7692   112.2362     2.4176     0.0485  1968.9247
 4191.5000   -49.4202     3.4808     2.8554     3.2044  1679.8250     0.2895     8.7557   111.1354     2.4124     0.0470  1963.5735
 4192.0000   -49.8636     3.8325     3.0047     3.4237  1677.6384     0.2712     8.7571   112.9407     2.3922     0.0458  1950.2250
 4192.5000   -50.4173     4.2375     3.1869     4.8959  1675.4519     0.2516     8.7585   111.8791     2.3698     0.0489  1947.9386
 4193.0000   -51.0134     4.6605     3.4530     8.4880  1673.1926     0.2295     8.7427   106.8718     2.3541     0.0521  1946.3276
 4193.5000   -51.8744     5.1739     3.9961    10.4288  1670.9332     0.2145     8.7316    98.4834     2.3496     0.0553  1944.3779
 4194.0000   -52.6022     5.9913     4.6808     9.3482  1668.6740     0.2026     8.7331    85.8916     2.3482     0.0570  1927.4355
 4194.5000   -53.7744     6.8388     5.4750     8.2826  1666.4148     0.1897     8.7346    72.6362     2.3484     0.0571  1925.2603
 4195.0000   -54.7985     7.4886     6.4651     7.7758  1664.1573     0.1758     8.7361    67.2215     2.3485     0.0587  1908.2687
 4195.5000   -55.5263     8.4304     7.9096     7.5218  1661.8976     0.1649     8.7101    64.7499     2.3486     0.0589  1891.2791
 4196.0000   -56.4022     9.8930     9.6277     9.0470  1659.6388     0.1572     8.6558    63.4785     2.3509     0.0590  1898.1963
 4196.5000   -57.2781    11.3708    11.6584    20.3014  1657.3794     0.1544     8.6096    63.2504     2.3571     0.0592  1902.8890
 4197.0000   -57.8577    12.8897    13.5569    33.9185  1655.1201     0.1550     8.5922    63.2683     2.3775     0.0593  1945.7140
 4197.5000   -58.4374    14.0280    15.5733    42.9937  1652.8607     0.1570     8.5937    63.8450     2.4242     0.0625  1958.8627
 4198.0000   -58.4001    14.5228    17.2565    49.7224  1650.6022     0.1599     8.6180    65.7247     2.4469     0.0702  1972.0116
 4198.5000   -57.9056    14.1986    18.5517    36.0600  1654.3623     0.1648     8.6419    69.4351     2.4538     0.0779  1954.5594
 4199.0000   -57.0810    13.7141    19.5107    23.6536  1661.1453     0.1717     8.6583    76.0854     2.4562     0.0886  1968.0153
 4199.5000   -55.8286    13.2453    19.8498    17.3092  1665.9069     0.1809     8.6897    81.6909     2.4578     0.0947  1997.5624
