~VERSION INFORMATION
 VERS.                2.0:   CWLS LOG ASCII STANDARD - VERSION 2.0
 WRAP.                 NO:   ONE LINE PER DEPTH STEP
~WELL INFORMATION
#MNEM.UNIT      DATA TYPE    INFORMATION
#----------   ------------   ------------------------------
 STRT.F            9.5000:   START DEPTH
 STOP.F         3154.0000:   STOP DEPTH
 STEP.F            0.5000:   STEP LENGTH
 NULL.          -999.2500:   NO VALUE
 COMP. LAWRENCE ALISON AND ASSOCIATES:   COMPANY
 WELL. LAWRENCE "X" #86-3:   WELL
 FLD .          N.P.R. #3:   FIELD
 LOC .       S3 T38N R78W:   LOCATION
 CNTY.            NATRONA:   COUNTY
 STAT.            WYOMING:   STATE
 CTRY. UNITED STATES OF AMERICA:   COUNTRY
 SRVC.       DRESSER ALAS:   SERVICE COMPANY
 DATE.        13-JUN-1986:   LOGDATE
 API .     49025110920000:   API NUMBER
~CURVE INFORMATION
#MNEM.UNIT       API CODE    CURVE DESCRIPTION
#----------   ------------   ------------------------------
 DEPT.F                  :   
 CALD.IN     45 280 60 00:   CALIPER FROM DENSITY LOG
 RHOB.G/C3   45 350 01 00:   BULK DENSITY
 CORR.G/C3   45 356 01 00:   DENSITY CORRECTION
 CNC .DEC    42 890 03 00:   NEUTRON PORISITY LIMESTONE
 SPR .MV     07 010 01 00:   SPONTANEOUS POTENTIAL
 GRR .GAPI   07 310 01 00:   GAMMA RAY FROM RESISTIVITY
 RFOC.OHMM   07 220 04 00:   RESISTIVITY FOCUSED LOG RES.
 ILD .OHMM   07 120 46 00:   DEEP INDUCTION RESISTIVITY
 ILM .OHMM   07 120 44 00:   INDUCTION LOG MEDIUM RESISTIVITY
 TENR.LBS    07 635 01 00:   TENSION FROM RESISTIVITY
~PARAMETER INFORMATION
#MNEM.UNIT          VALUE    DESCRIPTION
#----------   ------------   ------------------------------
 EKB .F         5153.0000:   Kelly bushing
 EGL .F         5142.0000:   Ground level
 EDF .F         5151.0000:   Drilling floor
 TD  .F         3151.0000:   Total depth
 DATE.        13-JUN-1986:   Date logged
 CLNT.            A2DTECH:   Client Code
 SL  . 1450' FSL & 144' FEL:   Surface Location
 PD  .                 GL:   Permanent Datum
 EPD .F              5142:   Elevation Permanent Datum
 LMF .                 KB:   Log Measured From
 DMF .                 KB:   Drilling Measured From
 DAPD.F                11:   Feet Above Permanent Datum
 DD  .F              3151:   Depth driller
 DL  .F              3151:   Depth logger
 BLI .F              3146:   Bottom log interval
 TLI .F                11:   Top log interval
 CS1 .IN            8.625:   Casing size
 CBD1.      8.625" @ 584':   Casing driller 1
 CBL1.F               592:   Casing logger 1
 BS1 .IN            7.875:   Bit size
 BSD1.F              3151:   Depth drilled with bit1
 DFT .            KCL-GEL:   Type fluid in hole
 DFD .                8.8:   Density
 DFV .                 35:   Viscosity
 DFPH.                8.5:   pH
 DFL .               15.5:   Fluid loss
 MSS .           FLOWLINE:   Source of sample
 RMS .OHMM           0.49:   Rm
 MST .F                80:   Rm Meas. temp.
 RMF .OHMM           0.38:   Rmf
 MFST.F                80:   Rmf Meas. temp.
 RMC .OHMM           0.61:   Rmc
 MCST.F                80:   Rmc Meas. temp.
 MFSS.               MEAS:   Source Rmf.
 MCSS.               CALC:   Source Rmc.
 RMB .OHMM           0.37:   Rm. at BHT
 BHT .F               112:   BHT.
 TCS .HRS            0.37:   Time Circ. stopped
 MRT .F               112:   Maximum recorded temp.
 LUN .            HL-6274:   Logging unit number
 LUL .           GILLETTE:   Logging unit location
 WITN.             STRONG:   Witnessed by
 ORIG.           5" PRINT:   Origin of data
 UWI .     49025110920000:   Unique Well ID
 DICO. A2D TECHNOLOGIES, INC.:   Digitizing Company
~OTHER INFORMATION
~A    DEPT    CALD       RHOB       CORR        CNC        SPR        GRR       RFOC        ILD        ILM       TENR   
# ...
 2589.0000     8.3599     2.3803     0.0298     0.2025   -65.1317    60.6218    20.8212    31.3478    19.8507   -13.9834
 2589.5000     8.3645     2.3753     0.0155     0.2001   -65.5390    60.6172    21.4016    31.9289    20.4099   -13.6883
 2590.0000     8.3647     2.3703     0.0078     0.1965   -65.7438    61.0176    21.3955    33.1264    20.4040   -13.4425
 2590.5000     8.3649     2.3653     0.0078     0.2001   -66.3535    61.4179    20.4278    33.1195    19.4717    -3.1353
 2591.0000     8.3939     2.3653     0.0118     0.2013   -66.7613    65.0577    21.3876    33.1140    20.3964    -2.8895
 2591.5000     8.3856     2.3693    -0.0042     0.1977   -67.3710    67.0777    21.7826    33.1071    20.7771     7.4176
 2592.0000     8.3657     2.3703    -0.0183     0.1969   -67.9807    68.0918    22.5974    33.0989    21.5626     7.6634
 2592.5000     8.3256     2.3704     0.0038     0.2135   -67.9825    65.0438    23.2273    32.4844    22.1700     7.9091
 2593.0000     8.3662     2.3684     0.0179     0.2195   -68.1878    63.8244    23.6524    32.7827    22.5800     8.1547
 2593.5000     8.3463     2.3643     0.0230     0.2216   -68.1906    60.1729    23.2149    35.2936    22.1580     8.4005
 2594.0000     8.3264     2.3623     0.0259     0.2090   -67.3830    58.9554    22.5780    36.9597    21.5439     8.6462
 2594.5000     8.3419     2.3583     0.0239     0.2026   -66.7785    56.9263    22.1604    38.3474    21.1413     8.8919
 2595.0000     8.3470     2.3533     0.0239     0.2002   -66.5779    52.8728    22.5688    38.6979    21.5349     9.1867
 2595.5000     8.3472     2.3513    -0.0001     0.2034   -66.5797    51.4575    23.6301    39.0500    22.3936   -10.6894
 2596.0000     8.3473     2.3503    -0.0041     0.2046   -66.5821    52.2637    25.6720    39.0419    22.3917   -10.4436
 2596.5000     8.3678     2.3493     0.0019     0.2095   -66.5849    56.5032    25.4309    39.3972    22.3862   -10.1978
 2597.0000     8.3881     2.3493     0.0340     0.2103   -66.5872    60.9524    25.1931    39.3873    22.3798    -9.8537
 2597.5000     8.3681     2.3504     0.0441     0.2127   -66.7915    65.4015    24.2748    39.3791    21.7626     0.3545
 2598.0000     8.3283     2.3554     0.0381     0.2172   -67.4016    69.0407    23.1741    38.2915    21.3595     0.6003
 2598.5000     8.3687     2.3765     0.0281     0.2216   -68.0112    69.4409    22.5365    36.2132    21.1573    -9.2145
 2599.0000     8.3488     2.3875     0.0200     0.2212   -68.4184    68.6265    22.1196    34.8883    20.9579    -8.9687
 2599.5000     8.3489     2.3845     0.0140     0.2160   -68.8256    68.2170    21.7114    32.3875    20.7603    -8.7231
 2600.0000     8.3292     2.3835     0.0140     0.2115   -69.6380    71.4502    21.7052    31.7862    19.9993   -38.6586
 2600.5000     8.3633     2.3865     0.0258     0.2217   -70.1538    73.4995    22.2178    31.2761    19.8141   -12.9882
 2601.0000     8.3901     2.3935     0.0381     0.2236   -71.6636    75.0855    22.1056    30.9091    19.8123   -28.3519
 2601.5000     8.3556     2.3895     0.0501     0.2212   -72.2727    75.8909    21.1074    30.9063    20.3693    -8.1319
 2602.0000     8.3908     2.3835     0.0521     0.2156   -72.2745    78.7203    20.9107    31.4815    19.9370    -8.0327
 2602.5000     8.3710     2.3885     0.0505     0.2006   -72.2788    80.7399    21.1027    31.7716    20.1219    -7.9335
 2603.0000     8.3512     2.4085     0.0399     0.1942   -72.4830    79.1164    22.9288    32.3630    21.8821   -17.8946
 2603.5000     8.3516     2.4186     0.0379     0.1929   -72.4848    73.4452    25.8491    33.5819    24.7000    -7.7351
 2604.0000     8.3519     2.4246     0.0138     0.1990   -72.0819    66.9648    24.9106    34.8467    23.7941     2.4245
 2604.5000     8.3523     2.4115     0.0138     0.2111   -71.4777    64.5324    23.1351    36.1592    22.0811     2.5238
 2605.0000     8.3523     2.3864     0.0178     0.2095   -71.2757    62.5048    22.9205    37.8704    21.8741     2.6231
 2605.5000     8.3530     2.3723     0.0036     0.2022   -71.0755    61.6899    24.2236    38.9344    23.1311    12.7826
 2606.0000     8.3533     2.3733     0.0016     0.1869   -70.8758    63.3065    25.6008    38.5717    24.0448    12.8818
 2606.5000     8.3736     2.4034    -0.0025     0.1833   -71.2816    65.3261    29.3987    37.1642    24.0444    12.9811
 2607.0000     8.3857     2.4194     0.0035     0.1845   -71.2834    70.9878    29.6697    35.8087    22.8681    -7.0405
 2607.5000     8.3945     2.4134     0.0055     0.1938   -71.2849    73.8164    26.5561    34.1844    21.7493   -17.0017
 2608.0000     8.3346     2.4053     0.0055     0.2079   -71.2875    78.2627    24.6638    33.5537    21.7068   -16.8826
 2608.5000     8.3748     2.3873    -0.0006     0.2103   -71.2894    79.4723    22.4868    32.9346    21.7053    -6.7231
 2609.0000     8.3564     2.3812    -0.0187     0.2079   -71.8982    79.0633    21.8706    32.0287    21.3048   -16.6842
 2609.5000     8.3556     2.3772    -0.0267     0.2063   -71.9000    77.8451    21.8687    30.8605    20.5277   -26.6455
 2610.0000     8.3359     2.3782    -0.0208     0.2063   -71.9019    72.1762    21.6653    30.8577    20.1490     3.6349
 2610.5000     8.3359     2.3731     0.0013     0.2071   -72.1060    70.1490    22.6863    30.5703    21.1025     3.7342
 2611.0000     8.3366     2.3621     0.0133     0.2047   -72.1078    68.5266    23.1074    31.7217    21.8973    13.8938
 2611.5000     8.3570     2.3590     0.0213     0.2007   -72.1093    70.1409    23.7541    34.1594    22.6781    13.9931
 2612.0000     8.3373     2.3590     0.0273     0.1930   -72.3141    72.1596    23.7519    39.9836    25.1579    14.0922
 2612.5000     8.3528     2.3660     0.0273     0.1784   -72.5179    71.3464    25.1023    40.7277    26.8413    -5.9294
 2613.0000     8.3580     2.3951     0.0212     0.1611   -72.5197    68.5105    28.8278    41.1031    27.5953    -5.8301
 2613.5000     8.3583     2.4222     0.0132     0.1481   -73.1283    66.0793    37.3274    40.3440    28.1089   -15.7913
 2614.0000     8.3386     2.5116    -0.0110     0.1473   -73.1301    65.0708    55.0001    39.9682    24.0092   -25.7525
 2614.5000     8.3590     2.5216    -0.0612     0.1578   -72.7274    71.7344    49.6848    43.0396    24.0075   -25.6533
 2615.0000     8.3593     2.5105    -0.0532     0.1776   -72.3247    76.5842    30.4579    44.6607    24.0057   -15.4738
 2615.5000     8.3595     2.4583    -0.0111     0.1861   -72.1254    78.1978    25.0882    46.3428    23.7817   -15.3746
 2616.0000     8.3399     2.4412     0.0110     0.1849   -71.7209    74.9569    27.5114    44.2407    23.5606   -15.2754
 2616.5000     8.3403     2.4563     0.0511     0.1841   -71.3190    72.9304    28.5452    38.4964    22.9126   -25.2365
 2617.0000     8.3406     2.4683     0.0571     0.1861   -70.3098    70.9041    29.6152    35.4130    22.2824   -25.1374
 2617.5000     8.3407     2.4532     0.0370     0.1898   -69.7054    70.4955    26.7531    33.4949    21.4697   -25.0381
 2618.0000     8.3413     2.4281    -0.0012     0.1968   -68.8984    74.1312    24.3918    31.3884    20.1242   -14.8785
 2618.5000     8.3617     2.4150     0.0269     0.2054   -68.2942    76.1490    21.4315    29.6883    18.8535   -14.7793
 2619.0000     8.3619     2.4060     0.0389     0.2140   -67.6887    77.3579    19.7222    28.3416    17.9987    -4.6197
 2619.5000     8.3501     2.4060     0.0409     0.2201   -67.4889    78.1624    18.8308    27.3079    17.9342    -4.5205
 2620.0000     8.3426     2.4059     0.0569     0.2221   -67.4909    78.1581    17.9791    26.3119    17.1148     5.6392
 2620.5000     8.3630     2.4140     0.0435     0.2253   -67.6950    78.9625    17.3264    25.3522    16.4871     5.7383
 2621.0000     8.3431     2.4160     0.0367     0.2265   -67.8991    80.5755    17.6476    25.1160    16.7960    15.8980
 2621.5000     8.3436     2.4230     0.0327     0.2233   -67.9011    82.9971    18.6510    25.1133    17.7612    15.9972
 2622.0000     8.4042     2.4250     0.0306     0.2128   -67.9030    83.8022    21.2210    25.1110    17.0160    16.1162
