~VERSION INFORMATION
 VERS.                2.0:   CWLS LOG ASCII STANDARD - VERSION 2.0
 WRAP.                 NO:   ONE LINE PER DEPTH STEP
~WELL INFORMATION
#MNEM.UNIT      DATA TYPE    INFORMATION
#----------   ------------   ------------------------------
 STRT.F          218.0000:   START DEPTH
 STOP.F         3062.0000:   STOP DEPTH
 STEP.F            0.5000:   STEP LENGTH
 NULL.          -999.2500:   NO VALUE
 COMP.    FEXIN & SCISSON:   COMPANY
 WELL. FEXIN 32 "A" #3-34:   WELL
 FLD .              N P R:   FIELD
 LOC .      S34 T39N R78W:   LOCATION
 CNTY.            NATRONA:   COUNTY
 STAT.            WYOMING:   STATE
 CTRY. UNITED STATES OF AMERICA:   COUNTRY
 SRVC.              WELEX:   SERVICE COMPANY
 DATE.        18-JUL-1977:   LOGDATE
 API .     49025103960000:   API NUMBER
~CURVE INFORMATION
#MNEM.UNIT       API CODE    CURVE DESCRIPTION
#----------   ------------   ------------------------------
 DEPT.F                  :   
 CALD.IN     45 280 60 00:   CALIPER FROM DENSITY LOG
 RHOB.G/C3   45 350 01 00:   BULK DENSITY
 GRD .GAPI   45 310 01 00:   GAMMA RAY FROM DENSITY LOG
 CORR.G/C3   45 356 01 00:   DENSITY CORRECTION
 SPR .MV     07 010 01 00:   SPONTANEOUS POTENTIAL
 SGRD.OHMM   07 220 05 00:   SHALLOW SHORT GUARD RESISTIVITY
 ILM .OHMM   07 120 44 00:   INDUCTION LOG MEDIUM RESISTIVITY
 ILD .OHMM   07 120 46 00:   DEEP INDUCTION RESISTIVITY
~PARAMETER INFORMATION
#MNEM.UNIT          VALUE    DESCRIPTION
#----------   ------------   ------------------------------
 EKB .F         5080.0000:   Kelly bushing
 EGL .F         5070.0000:   Ground level
 TD  .F         3070.0000:   Total depth
 DATE.        18-JUL-1977:   Date logged
 CLNT.            A2DTECH:   Client Code
 SL  . 900' FNL & 1650'FWL:   Surface Location
 PD  .                 GL:   Permanent Datum
 DD  .F              3070:   Depth driller
 DL  .F              3063:   Depth logger
 BLI .F              3061:   Bottom log interval
 CS1 .IN            8.625:   Casing size
 CBD1.      8.625" @ 212':   Casing driller 1
 CBL1.F               222:   Casing logger 1
 BS1 .IN            7.875:   Bit size
 DFT .           CEHM-GEL:   Type fluid in hole
 DFD .                8.8:   Density
 DFV .                 42:   Viscosity
 DFPH.                7.5:   pH
 DFL .                  8:   Fluid loss
 MSS .           FLOWLINE:   Source of sample
 RMS .OHMM            .89:   Rm
 MST .F                94:   Rm Meas. temp.
 RMF .OHMM            .54:   Rmf
 MFST.F                94:   Rmf Meas. temp.
 RMC .OHMM           1.24:   Rmc
 MCST.F                94:   Rmc Meas. temp.
 MFSS.               FANN:   Source Rmf.
 RMB .OHMM            .67:   Rm. at BHT
 BHT .F               122:   BHT.
 TCS .HRS               4:   Time Circ. stopped
 MRT .F               122:   Maximum recorded temp.
 LUN .               8611:   Logging unit number
 LUL .             CASPER:   Logging unit location
 ENGI.          C.A. DOAK:   Recorded By
 WITN.         PETTINGILL:   Witnessed by
 ORIG.           5" PRINT:   Origin of data
 UWI .     49025103960000:   Unique Well ID
 DICO. A2D TECHNOLOGIES, INC.:   Digitizing Company
 DAPD.                 12:   Feet Above Permanent Datum
 BSD1.F              3950:   Depth drilled with bit1
 MCSS.                KIT:   Source Rmc.
 EPD .F              5070:   Elevation Permanent Datum
 LMF .                 KB:   Log Measured From
 DMF .                 KB:   Drilling Measured From
 TLI .F               200:   Top log interval
~OTHER INFORMATION
~A   DEPT     CALD       RHOB        GRD       CORR        SPR       SGRD        ILM        ILD   
# ...
  947.0000     8.4830     2.4780    98.0290     0.0130   -65.2110    44.1240    34.8940    30.2760
  947.5000     8.4950     2.4790    96.8760     0.0120   -65.2440    43.4690    34.8830    30.0200
  948.0000     8.5060     2.4850    97.0080     0.0120   -65.2120    44.3430    34.8790    29.7650
  948.5000     8.5130     2.4900    98.1210     0.0120   -65.1710    45.6140    34.8790    29.5090
  949.0000     8.5060     2.4870    98.8850     0.0190   -65.1290    45.0470    34.8790    29.2530
  949.5000     8.5000     2.4820    97.8420     0.0260   -65.0880    43.8410    34.8790    28.9980
  950.0000     8.4930     2.4830   102.3010     0.0220   -65.0460    43.0620    34.8790    28.7670
  950.5000     8.4870     2.4860   103.4020     0.0180   -65.0050    42.6930    34.8790    28.8520
  951.0000     8.4800     2.4890   103.3900     0.0130   -64.9630    42.2890    34.8790    28.9280
  951.5000     8.4730     2.4900   102.1190     0.0180   -64.9220    43.2150    34.8790    29.0050
  952.0000     8.4670     2.4830   100.6650     0.0060   -64.8790    44.3760    34.8790    29.0820
  952.5000     8.4600     2.4880    98.6220     0.0150   -64.8050    43.9180    34.8800    29.1660
  953.0000     8.4560     2.4940    96.5470     0.0200   -64.6370    43.0190    34.8790    29.6200
  953.5000     8.4600     2.5000    95.5340     0.0240   -64.4740    42.5810    34.8790    30.1200
  954.0000     8.4640     2.5030    95.8840     0.0270   -64.3120    43.4450    35.4170    30.6190
  954.5000     8.4670     2.5040    98.5790     0.0310   -64.1490    44.1030    36.4620    31.1190
  955.0000     8.4710     2.5060    98.7060     0.0320   -63.9860    45.0470    37.5060    31.6210
  955.5000     8.4740     2.5070    97.8910     0.0330   -63.8240    48.0940    38.5510    32.1280
  956.0000     8.4780     2.5090    97.0600     0.0330   -63.6610    51.1400    39.5960    32.6340
  956.5000     8.4810     2.5110    98.1880     0.0340   -63.4980    54.1750    40.3800    33.1410
  957.0000     8.4850     2.5120    99.4870     0.0280   -63.3360    53.8760    40.6230    33.6480
  957.5000     8.4880     2.5070   100.2840     0.0220   -63.1740    53.3100    40.8670    34.1550
  958.0000     8.4920     2.4950   101.1640     0.0150   -63.0540    52.7040    41.1100    34.6620
  958.5000     8.4950     2.4830   102.0290     0.0100   -63.0150    51.9840    41.3530    35.1680
  959.0000     8.4920     2.4730   102.8900     0.0110   -62.9750    54.1750    41.5970    35.6060
  959.5000     8.4890     2.4750   103.7520     0.0110   -62.9360    54.0700    41.8400    35.6140
  960.0000     8.4860     2.4790   104.6240     0.0120   -62.8960    53.9260    42.0830    35.6240
  960.5000     8.4830     2.4840   105.4130     0.0130   -62.8560    53.8190    42.3270    35.6350
  961.0000     8.4790     2.4890   103.8050     0.0140   -62.8160    54.3380    42.5700    35.6450
  961.5000     8.4760     2.4930   103.2970     0.0180   -62.7760    54.8070    42.8750    35.6550
  962.0000     8.4730     2.4980   103.8690     0.0220   -62.7370    54.9260    42.3790    35.6660
  962.5000     8.4700     2.5020   104.4260     0.0260   -62.6980    53.4350    41.4250    35.6760
  963.0000     8.4670     2.5070   104.4760     0.0300   -62.6870    53.5680    40.8590    35.6860
  963.5000     8.4640     2.5110   103.8100     0.0300   -62.7210    53.8110    41.4030    35.6970
  964.0000     8.4610     2.5150   102.1090     0.0290   -62.7550    54.0540    41.9990    35.7070
  964.5000     8.4580     2.5110   100.6050     0.0290   -62.7890    54.2970    41.3010    35.7180
  965.0000     8.4550     2.5050    98.9020     0.0290   -62.8220    54.5490    40.5710    35.7280
  965.5000     8.4550     2.5000    97.2740     0.0290   -62.8560    53.9380    39.8400    35.7380
  966.0000     8.4540     2.4940    95.6880     0.0280   -62.8900    53.1350    39.1100    35.7490
  966.5000     8.4530     2.4890    94.1040     0.0280   -62.9240    52.3320    38.0760    35.7590
  967.0000     8.4530     2.4880    92.5250     0.0280   -62.9580    51.2380    37.3630    35.7690
  967.5000     8.4520     2.4930    90.9680     0.0260   -62.9920    49.8820    37.5930    35.7800
  968.0000     8.4510     2.4960    90.0850     0.0230   -63.0260    52.0400    37.8300    35.7900
  968.5000     8.4510     2.4870    91.3520     0.0200   -63.0600    53.3070    38.0680    35.8000
  969.0000     8.4500     2.4770    90.7330     0.0170   -63.0940    51.9840    38.3050    35.8110
  969.5000     8.4490     2.4770    88.5470     0.0160   -63.1270    52.3800    38.4060    35.8210
  970.0000     8.4490     2.4850    89.5790     0.0180   -63.1610    53.0660    38.3530    35.8310
  970.5000     8.4480     2.4920    91.7130     0.0220   -63.1950    53.7520    38.2630    35.8420
  971.0000     8.4470     2.4980    93.3940     0.0260   -63.2290    54.1750    38.1720    35.8500
  971.5000     8.4470     2.5000    92.6870     0.0270   -63.2630    53.3440    38.0810    35.7620
  972.0000     8.4460     2.4980    91.3360     0.0240   -63.2970    52.5000    37.9910    35.6700
  972.5000     8.4450     2.4870    89.9760     0.0210   -63.3310    51.6280    37.9000    35.5780
  973.0000     8.4450     2.4860    88.6150     0.0200   -63.3650    51.3180    37.7810    35.4860
  973.5000     8.4440     2.4900    87.3150     0.0220   -63.3990    51.0060    37.6130    35.3950
  974.0000     8.4430     2.4940    87.2770     0.0240   -63.4320    50.6940    37.4440    35.3030
  974.5000     8.4430     2.4980    87.8110     0.0260   -63.4660    50.3810    37.2760    35.2110
  975.0000     8.4420     2.5010    89.1620     0.0290   -63.5000    50.0690    37.1070    35.1190
  975.5000     8.4410     2.5040    90.6420     0.0310   -63.5340    49.8820    37.0710    35.0270
  976.0000     8.4410     2.4980    92.5920     0.0330   -63.5680    50.5820    37.0340    34.9360
  976.5000     8.4400     2.4930    94.5640     0.0340   -63.6020    51.1660    36.9980    34.8440
  977.0000     8.4400     2.4880    95.2950     0.0310   -63.6360    51.6280    36.9610    34.7520
  977.5000     8.4390     2.4820    93.1180     0.0290   -63.6700    50.9250    36.9250    34.6600
  978.0000     8.4380     2.4770    92.6180     0.0260   -63.7040    50.0570    36.8890    34.5680
  978.5000     8.4380     2.4720    93.1530     0.0230   -63.7370    49.2000    36.8530    34.4770
  979.0000     8.4370     2.4710    93.6530     0.0210   -63.7710    49.2000    37.1000    34.3850
  979.5000     8.4360     2.4760    91.9850     0.0180   -63.8050    49.6020    37.0130    34.2930
  980.0000     8.4370     2.4830    89.9620     0.0200   -63.8390    49.9970    36.9560    34.1680
  980.5000     8.4400     2.4830    87.9190     0.0240   -63.8580    50.2260    36.8980    34.1770
  981.0000     8.4420     2.4820    87.0760     0.0280   -63.8430    49.3540    36.8170    34.1930
  981.5000     8.4440     2.4800    87.5980     0.0280   -63.8290    48.8630    36.6600    34.2100
  982.0000     8.4470     2.4870    89.0310     0.0280   -63.8150    50.0380    36.5030    34.2270
  982.5000     8.4490     2.4960    90.4480     0.0290   -63.8010    51.0510    36.3460    34.2430
  983.0000     8.4520     2.4990    91.8630     0.0330   -63.7870    51.9840    36.1000    34.2600
  983.5000     8.4540     2.4960    93.2740     0.0320   -63.7730    51.5920    36.2360    34.2770
  984.0000     8.4560     2.4830    94.1990     0.0320   -63.7590    50.9730    36.5500    34.2930
  984.5000     8.4590     2.4710    94.0230     0.0300   -63.7450    50.3530    36.8530    34.3100
  985.0000     8.4610     2.4760    93.8210     0.0330   -63.7310    49.8820    36.8390    34.3270
  985.5000     8.4640     2.4810    93.6170     0.0330   -63.7170    50.4630    36.8090    34.3430
  986.0000     8.4660     2.4810    93.4130     0.0330   -63.7030    51.9840    36.7790    34.3600
  986.5000     8.4690     2.4720    93.2080     0.0320   -63.6880    51.3850    36.7490    34.3760
  987.0000     8.4710     2.4680    93.0040     0.0310   -63.6750    50.3950    36.7190    34.4020
