~VERSION INFORMATION
 VERS.                2.0:   CWLS LOG ASCII STANDARD - VERSION 2.0
 WRAP.                 NO:   ONE LINE PER DEPTH STEP
~WELL INFORMATION
#MNEM.UNIT      DATA TYPE    INFORMATION
#----------   ------------   ------------------------------
 STRT.F           34.0000:   START DEPTH
 STOP.F         2909.0000:   STOP DEPTH
 STEP.F            0.5000:   STEP LENGTH
 NULL.          -999.2500:   NO VALUE
 COMP.   TESORO PETROLEUM:   COMPANY
 WELL. TESORO NPR "A" #3-28:   WELL
 FLD .             TEAPOT:   FIELD
 LOC .      S28 T39N R78W:   LOCATION
 CNTY.            NATRONA:   COUNTY
 STAT.            WYOMING:   STATE
 CTRY. UNITED STATES OF AMERICA:   COUNTRY
 SRVC.              WELEX:   SERVICE COMPANY
 DATE.        22-JUL-1968:   LOGDATE
 API .     49025102620000:   API NUMBER
~CURVE INFORMATION
#MNEM.UNIT       API CODE    CURVE DESCRIPTION
#----------   ------------   ------------------------------
 DEPT.F                  :   
 GRD .GAPI   45 310 01 00:   GAMMA RAY FROM DENSITY LOG
 SPR .MV     05 010 01 00:   SPONTANEOUS POTENTIAL FROM RES.
 ASN .OHMM   05 041 16 00:   AMPLIFIED SHORT NORMAL 16"
 ILD .OHMM   05 120 46 00:   INDUCTION LOG DEEP
~PARAMETER INFORMATION
#MNEM.UNIT          VALUE    DESCRIPTION
#----------   ------------   ------------------------------
 EKB .F         5050.0000:   Kelly bushing
 EGL .F         5039.0000:   Ground level
 EDF .F            0.0000:   Drilling floor
 EPD .F         5039.0000:   Permanent datum
 TD  .F         2906.0000:   Total depth
 CLNT.            A2DTECH:   Client Code
 DATE.       22-JULY-1968:   Date Logged [DD-MMM-YYYY]
 DD  .F              2906:   Depth driller
 DL  .F              2906:   Depth logger
 BLI .F              2901:   Bottom log interval
 TLI .F               356:   Top log interval
 CS1 .              10.75:   Casing size
 CBD1.      10.75" @ 356':   Casing driller 1
 CBL1.IN              356:   Casing logger 1
 BS1 .IN                9:   Bit size
 DFT .     WATER BASE MUD:   Type fluid in hole
 DFD .                9.6:   Density
 DFV .                 60:   Viscosity
 DFPH.                9.0:   pH
 DFL .                  6:   Fluid loss
 MSS .               CTRC:   Source of sample
 RMS .OHMM            2.1:   Rm
 MST .F                74:   Rm Meas. temp.
 RMF .OHMM            1.6:   Rmf
 MFST.F                71:   Rmf Meas. temp.
 MFSS.               MEAS:   Source Rmf.
 RMC .OHMM            3.0:   Rmc
 MCST.F                66:   Rmc Meas. temp.
 RMB .OHMM            1.3:   Rm. at BHT
 BHT .F               120:   BHT.
 MRT .F               120:   Maximum recorded temp.
 LUN .               6869:   Logging unit number
 ORIG.         2.5" PRINT:   Origin of data
 UWI .     49025102620000:   Unique Well ID
 DICO. A2D TECHNOLOGIES, INC.:   Digitizing Company
 LUL .          NEWCASTLE:   Logging unit location
~OTHER INFORMATION
~A   DEPT      GRD        SPR         ASN         ILD 
   34.0000  -999.2500   -76.2437    10.1453     0.8364
   34.5000  -999.2500   -76.8943    30.1079     0.9921
   35.0000  -999.2500   -77.7971    58.0752     0.9906
   35.5000  -999.2500   -77.3063    78.4507     0.9890
   36.0000  -999.2500   -74.8879    86.2871     0.9874
   36.5000  -999.2500   -67.7365    87.8539     1.1433
   37.0000  -999.2500   -60.2406    89.4207     1.1415
   37.5000  -999.2500   -55.5207    89.4201     1.1399
   38.0000  -999.2500   -51.4854    89.4194     1.1383
   38.5000  -999.2500   -47.7631    89.4188     1.1368
   39.0000  -999.2500   -45.2586    89.4182     1.1349
   39.5000  -999.2500   -42.7541    89.4176     1.1334
   40.0000  -999.2500   -39.6245    88.6855     1.1319
   40.5000  -999.2500   -38.9950    87.8489     1.1304
   41.0000  -999.2500   -38.6780    86.2808     1.1288
   41.5000  -999.2500   -38.6735    84.7128     1.1273
   42.0000  -999.2500   -39.0041    83.1447     1.1258
   42.5000  -999.2500   -39.6019    83.1441     1.1242
   43.0000  -999.2500   -39.5313    86.2783     1.1227
   43.5000  -999.2500   -38.7932    89.4125     1.1210
   44.0000  -999.2500   -37.1708    90.9793     1.1195
   44.5000  -999.2500   -28.6112    90.8509     1.1179
   45.0000  -999.2500   -17.8856    85.8052     1.0456
   45.5000  -999.2500   -20.0152    80.5463     0.9575
   46.0000  -999.2500   -29.5679    74.4040     0.9557
   46.5000  -999.2500   -41.7509    69.4872     0.9541
   47.0000  -999.2500   -45.4963    65.2338     1.1099
   47.5000  -999.2500   -46.7418    61.9910     1.1083
   48.0000  -999.2500   -46.7373    59.6263     1.1068
   48.5000  -999.2500   -46.7327    59.6256     1.1053
   49.0000  -999.2500   -46.7281    59.6250     1.1038
   49.5000  -999.2500   -46.3802    61.1919     1.2595
   50.0000  -999.2500   -46.0937    61.1912     1.2841
   50.5000  -999.2500   -45.7031    58.0558     1.6082
   51.0000  -999.2500   -44.6449    53.3530     2.0896
   51.5000  -999.2500   -42.3742    50.3743     9.6176
   52.0000  -999.2500   -38.9999    50.3737    12.8721
   52.5000  -999.2500   -36.5313    50.3730    13.1997
   53.0000  -999.2500   -34.8999    49.9444    13.0406
   53.5000  -999.2500    -9.1851    32.6601    13.0391
   54.0000  -999.2500   -51.0556    14.6344    13.6665
   54.5000  -999.2500   -37.6136    12.4394    14.6083
   55.0000  -999.2500   -46.0465    11.9686    14.6253
   55.5000  -999.2500   -47.2922    11.9680    14.4481
   56.0000  -999.2500   -42.9125    13.3781    13.9665
   56.5000  -999.2500   -49.4384    17.7805    13.4861
   57.0000  -999.2500   -99.2302    28.7094    13.3161
   57.5000  -999.2500  -100.0000    38.5085    12.9887
   58.0000  -999.2500   -53.7373  -999.2500    12.6614
   58.5000  -999.2500   -51.8489  -999.2500    12.3341
   59.0000  -999.2500   -51.5104  -999.2500    12.0068
   59.5000  -999.2500   -51.3172  -999.2500    11.7626
   60.0000  -999.2500   -51.3125  -999.2500    11.7607
   60.5000  -999.2500   -51.3069  -999.2500    11.7592
   61.0000  -999.2500   -51.3024  -999.2500    11.7577
   61.5000  -999.2500   -51.2978  -999.2500    11.9135
   62.0000  -999.2500   -50.9808  -999.2500    12.0691
   62.5000  -999.2500   -50.3513  -999.2500    12.0676
   63.0000  -999.2500   -71.2842    42.5407    12.0661
   63.5000  -999.2500   -95.9817    32.9429    11.8913
   64.0000  -999.2500   -98.8499    30.8728    11.7212
   64.5000  -999.2500  -100.0000    31.9386    11.5896
   65.0000  -999.2500   -99.2968    34.9682    11.5880
   65.5000  -999.2500   -91.1365    43.9305    11.5865
   66.0000  -999.2500   -46.8562    29.7354    11.3553
   66.5000  -999.2500   -32.2043    17.4554    10.9444
   67.0000  -999.2500   -29.8437    14.3140    10.6381
   67.5000  -999.2500   -29.6797    12.6126    10.6365
   68.0000  -999.2500   -29.9867    11.4820    10.6350
   68.5000  -999.2500   -30.2946    11.1679    10.7907
   69.0000  -999.2500   -30.6031    10.8538    10.9465
   69.5000  -999.2500   -30.9110    10.6965    11.1022
   70.0000  -999.2500   -31.2185    10.8526    11.2579
   70.5000  -999.2500   -31.8390    11.0088    11.2398
   71.0000  -999.2500   -32.1470    11.1707    11.0697
   71.5000  -999.2500   -32.1422    11.3374    10.8997
   72.0000  -999.2500   -32.0833    11.4772    10.7799
   72.5000  -999.2500   -31.8203    11.4765    10.7167
   73.0000  -999.2500   -31.8156    11.4273    10.5466
   73.5000  -999.2500   -31.6927    10.9457    10.2194
   74.0000  -999.2500   -31.1813    10.4585     9.8299
   74.5000  -999.2500   -30.8641    10.0633     9.5139
   75.0000  -999.2500   -30.3646     9.8432     9.0407
   75.5000  -999.2500   -30.2289     9.5291     8.8819
   76.0000  -999.2500   -30.5369     9.2414     8.8804
   76.5000  -999.2500   -30.8453     9.1831     8.8789
   77.0000  -999.2500   -31.4653     9.3138     9.1919
   77.5000  -999.2500   -31.7735     9.2910     9.3645
   78.0000  -999.2500   -31.7687     9.1607     9.5314
   78.5000  -999.2500   -31.7641     9.0741     9.8162
   79.0000  -999.2500   -31.7594     9.0546     9.9719
   79.5000  -999.2500   -31.7547     9.0706     9.9080
   80.0000  -999.2500   -31.7500     9.0846     9.8113
   80.5000  -999.2500   -31.7453     9.0839     9.8098
   81.0000  -999.2500   -31.7406     9.0520     9.9651
   81.5000  -999.2500   -31.7359     9.0200     9.9636
   82.0000  -999.2500   -31.7313     9.0194    10.1195
   82.5000  -999.2500   -31.7257     9.0815    10.4323
   83.0000  -999.2500   -31.4086     9.1439    10.5880
   83.5000  -999.2500   -31.0916     9.2081    10.7437
   84.0000  -999.2500   -31.0871     9.2724    10.8994
   84.5000  -999.2500   -30.7700     9.3365    11.0551
   85.0000  -999.2500   -30.7655     9.4321    11.0535
   85.5000  -999.2500   -30.7610     9.4963    11.0519
   86.0000  -999.2500   -30.7291     9.5474    10.9990
   86.5000  -999.2500   -30.4390     9.5781    10.7343
   87.0000  -999.2500   -30.4344     9.5600    10.5755
   87.5000  -999.2500   -30.4297     9.4826    10.3315
   88.0000  -999.2500   -30.7383     9.4193    10.2576
   88.5000  -999.2500   -30.7328     9.3247    10.2561
   89.0000  -999.2500   -30.7281     9.2614    10.2545
   89.5000  -999.2500   -30.9000     9.1667    10.2530
   90.0000  -999.2500   -31.0312     9.1661    10.2515
   90.5000  -999.2500   -30.7134     9.2618    10.2500
   91.0000  -999.2500   -30.7089     9.3282    10.2485
   91.5000  -999.2500   -30.3918     9.4151    10.2468
   92.0000  -999.2500   -30.3873     9.3053    10.2453
   92.5000  -999.2500   -30.0703     9.2160    10.2437
   93.0000  -999.2500   -29.7531     9.1506    10.0849
   93.5000  -999.2500   -29.7484     9.0851    10.0833
   94.0000  -999.2500   -29.6875     9.0510    10.0818
   94.5000  -999.2500   -29.4266     8.9855    10.0802
   95.0000  -999.2500   -29.3230     8.9090     9.9211
   95.5000  -999.2500   -28.6719     8.8457     9.9196
   96.0000  -999.2500   -28.3333     8.8137     9.7608
   96.5000  -999.2500   -27.8453     8.7818     9.9166
   97.0000  -999.2500   -27.8397     8.7812     9.9150
   97.5000  -999.2500   -28.1485     8.7806     9.9135
   98.0000  -999.2500   -28.4556     8.7486    10.0692
   98.5000  -999.2500   -28.7636     8.7126    10.0676
   99.0000  -999.2500   -28.1341     8.6785     9.8789
   99.5000  -999.2500   -20.6295     8.5171     9.3943
  100.0000  -999.2500   -17.8125     8.2445     8.9098
  100.5000  -999.2500   -17.1828     8.0180     8.5825
  101.0000  -999.2500   -17.3061     7.8376     8.2553
  101.5000  -999.2500   -20.9314     7.7555     8.1714
  102.0000  -999.2500   -23.1069     7.6776     8.0123
  102.5000  -999.2500   -17.9869     7.6457     7.8535
  103.0000  -999.2500   -17.4728     7.5824     8.0095
  103.5000  -999.2500   -18.2417     7.5504     8.0077
  104.0000  -999.2500   -18.4000     7.5498     8.1635
  104.5000  -999.2500   -18.3944     7.6746     8.1619
  105.0000  -999.2500   -18.0774     7.7999     8.4749
  105.5000  -999.2500   -17.7604     7.8668     8.6497
  106.0000  -999.2500   -17.4433     7.9597     8.7863
  106.5000  -999.2500   -17.1263     8.0483     8.9420
