~VERSION INFORMATION
 VERS.                2.0:   CWLS LOG ASCII STANDARD - VERSION 2.0
 WRAP.                 NO:   ONE LINE PER DEPTH STEP
~WELL INFORMATION
#MNEM.UNIT      DATA TYPE    INFORMATION
#----------   ------------   ------------------------------
 STRT.F          482.0000:   START DEPTH
 STOP.F         4000.0000:   STOP DEPTH
 STEP.F            0.5000:   STEP LENGTH
 NULL.          -999.2500:   NO VALUE
 COMP.    FENIX & SCISSON:   COMPANY
 WELL. FENIX  NPR 3 "LX" #56-10:   WELL
 FLD .              N P R:   FIELD
 LOC .      S10 T38N R78W:   LOCATION
 CNTY.            NATRONA:   COUNTY
 STAT.            WYOMING:   STATE
 CTRY. UNITED STATES OF AMERICA:   COUNTRY
 SRVC.       SCHLUMBERGER:   SERVICE COMPANY
 DATE.        11-JUL-1978:   LOGDATE
 API .     49025107100000:   API NUMBER
~CURVE INFORMATION
#MNEM.UNIT       API CODE    CURVE DESCRIPTION
#----------   ------------   ------------------------------
 DEPT.F                  :   
 GRD .GAPI   45 310 01 00:   GAMMA RAY FROM DENSITY LOG
 CALD.IN     45 280 60 00:   CALIPER FROM DENSITY LOG
 RHOB.G/C3   45 350 01 00:   BULK DENSITY
 NPHI.DEC    42 890 03 00:   NEUTRON POROSITY SANDSTONE
 DRHO.G/C3   45 356 01 00:   DENSITY CORRECTION
 TEND.LBS    45 635 01 00:   TENSION FROM DENSITY LOG
 SPR .MV     07 010 01 00:   SPONTANEOUS POTENTIAL
 TENR.LBS    07 635 01 00:   TENSION FROM RESISTIVITY
 ILD .OHMM   07 120 46 00:   DEEP INDUCTION RESISTIVITY
 ILM .OHMM   07 120 44 00:   INDUCTION LOG MEDIUM RESISTIVITY
 SFLU.OHMM   07 220 01 00:   SPHERICALLY FOCUSED LOG UNAVERAGED RESISTIVITY
~PARAMETER INFORMATION
#MNEM.UNIT          VALUE    DESCRIPTION
#----------   ------------   ------------------------------
 EKB .F         5212.0000:   Kelly bushing
 EGL .F         5202.0000:   Ground level
 EDF .F            0.0000:   Drilling floor
 TD  .F         4000.0000:   Total depth
 DATE.        11-JUL-1978:   Date logged
 CLNT.            A2DTECH:   Client Code
 SL  . 1144' FSL & 2183' FEL:   Surface Location
 PD  .                 GL:   Permanent Datum
 EPD .F              5202:   Elevation Permanent Datum
 LMF .                 KB:   Log Measured From
 DMF .                 KB:   Drilling Measured From
 DD  .F              4000:   Depth driller
 DL  .F              3990:   Depth logger
 BLI .F              3985:   Bottom log interval
 TLI .F               501:   Top log interval
 CS1 .IN            9.625:   Casing size
 CBD1.      9.625" @ 500':   Casing driller 1
 CBL1.F               501:   Casing logger 1
 BS1 .IN            7.875:   Bit size
 DFT .                FGM:   Type fluid in hole
 DFD .                9.1:   Density
 DFV .                 50:   Viscosity
 DFPH.                 12:   pH
 DFL .                4.4:   Fluid loss
 MSS .           MUD/TANK:   Source of sample
 RMS .OHMM           .714:   Rm
 MST .F                83:   Rm Meas. temp.
 RMF .OHMM           .585:   Rmf
 MFST.F                83:   Rmf Meas. temp.
 MFSS.               MEAS:   Source Rmf.
 RMB .OHMM            .42:   Rm. at BHT
 BHT .F               140:   BHT.
 TCS .HRS            1000:   Time Circ. stopped
 MRT .F               140:   Maximum recorded temp.
 LUN .               8035:   Logging unit number
 LUL .       ROCK SPRINGS:   Logging unit location
 ENGI.             MARTIN:   Recorded By
 WITN.           MCCINLEY:   Witnessed by
 ORIG.           5" PRINT:   Origin of data
 UWI .     49025107100000:   Unique Well ID
 DICO. A2D TECHNOLOGIES, INC.:   Digitizing Company
 DAPD.F                10:   Feet Above Permanent Datum
 BSD1.F              4000:   Depth drilled with bit1
 TLAB.HRS            1300:   Time logger at bottom
~OTHER INFORMATION
~A   DEPT       GRD      CALD       RHOB         NPHI     DRHO       TEND        SPR       TENR        ILD        ILM       SFLU   
# ...
 2556.0000    76.6060     9.3090     2.4190     0.2270     0.0450  1084.2620   -44.3750   938.1240    21.2140    16.7480    18.1310
 2556.5000    78.3640     9.3120     2.4060     0.2300     0.0350  1083.8070   -44.6320   938.1240    20.9710    16.9580    18.5620
 2557.0000    80.1950     9.3150     2.3940     0.2280     0.0210  1083.3521   -44.8910   938.1240    20.7490    17.1680    18.9940
 2557.5000    81.6400     9.3180     2.3930     0.2270     0.0070  1082.8979   -45.1470   938.1240    21.1380    17.3780    19.4260
 2558.0000    80.1560     9.3220     2.4010     0.2240     0.0110  1082.4430   -45.4020   938.1240    21.4950    17.5880    19.8570
 2558.5000    76.3740     9.3250     2.4040     0.2210     0.0170  1081.9880   -45.6750   938.1240    21.8520    17.7980    20.0000
 2559.0000    70.4320     9.3280     2.3980     0.2180     0.0240  1081.5341   -45.8120   938.1240    22.2090    17.9110    20.0000
 2559.5000    68.8410     9.3310     2.3900     0.2160     0.0260  1081.0790   -45.7990   938.1240    22.3320    17.9110    20.0000
 2560.0000    69.3350     9.3340     2.3850     0.2140     0.0220  1080.6240   -45.8010   938.1240    22.3320    17.9110    20.0000
 2560.5000    71.6280     9.3370     2.3880     0.2120     0.0170  1080.1700   -45.7990   938.1240    22.3320    17.8470    20.0000
 2561.0000    73.1270     9.3400     2.3930     0.2100     0.0180  1079.7150   -45.8100   938.1240    22.3320    17.7460    20.0000
 2561.5000    73.4750     9.3430     2.4040     0.2130     0.0250  1079.2600   -45.6990   938.1240    22.3320    17.5850    20.0000
 2562.0000    73.8990     9.3460     2.4180     0.2200     0.0410  1078.8060   -45.5010   938.1240    23.3510    18.0240    20.0000
 2562.5000    73.3590     9.3490     2.4260     0.2270     0.0490  1078.3510   -45.3180   938.1240    24.6010    19.0900    20.0000
 2563.0000    72.7730     9.3520     2.4280     0.2310     0.0570  1077.8960   -45.1360   938.1240    25.8520    20.1570    20.7490
 2563.5000    72.0380     9.3550     2.4260     0.2230     0.0430  1077.4420   -44.9510   938.1240    27.1030    21.2240    21.1340
 2564.0000    71.2770     9.3580     2.4250     0.2100     0.0300  1076.9871   -44.7670   938.1240    28.3530    22.2900    27.9410
 2564.5000    68.0220     9.3610     2.4250     0.1890     0.0110  1076.5320   -44.5840   938.1240    28.8880    23.3570    37.6110
 2565.0000    65.3620     9.3640     2.4500     0.1690     0.0160  1076.0780   -44.4000   938.1240    28.8880    24.0360    36.7670
 2565.5000    62.2350     9.3670     2.4790     0.1590     0.0320  1075.6230   -44.2140   938.1240    28.8880    23.1250    32.1280
 2566.0000    62.5110     9.3700     2.4990     0.1760     0.0470  1075.1680   -44.0340   938.1240    27.5020    22.1760    25.1390
 2566.5000    65.5880     9.3730     2.4810     0.2000     0.0570  1074.7140   -43.8480   938.1240    26.3000    21.2270    21.2800
 2567.0000    68.1360     9.3760     2.4640     0.2080     0.0500  1074.2590   -43.8510   938.1240    25.0980    20.2770    20.0000
 2567.5000    74.0220     9.3790     2.4450     0.2120     0.0400  1073.8040   -43.9300   938.1240    23.8960    19.3280    19.6870
 2568.0000    78.9650     9.3820     2.4340     0.2160     0.0350  1073.3500   -44.0090   938.1240    22.6940    18.3780    19.2780
 2568.5000    80.2320     9.3850     2.4420     0.2190     0.0380  1072.8950   -44.0860   938.1240    21.2240    17.7080    19.2780
 2569.0000    80.9940     9.3880     2.4440     0.2230     0.0400  1072.4399   -44.1510   938.1240    21.4460    17.2650    19.2780
 2569.5000    79.9450     9.3910     2.4420     0.2230     0.0390  1071.9860   -44.3520   938.1240    21.8900    17.5540    19.4770
 2570.0000    79.2050     9.3940     2.4400     0.2220     0.0420  1071.5310   -44.6960   938.1240    22.3350    18.1420    19.9050
 2570.5000    78.2960     9.3970     2.4380     0.2210     0.0340  1071.0760   -45.0250   938.1240    22.7470    18.7300    20.8610
 2571.0000    77.5320     9.4000     2.4360     0.2200     0.0270  1070.6219   -45.3520   938.1240    22.8050    19.3180    21.8160
 2571.5000    76.4930     9.4030     2.4290     0.2190     0.0240  1070.1670   -45.6870   938.1240    22.8920    19.6360    22.3320
 2572.0000    76.8560     9.4060     2.4230     0.2190     0.0250  1069.7120   -45.8390   938.1240    22.9800    19.6360    21.6660
 2572.5000    74.8500     9.4090     2.4210     0.2270     0.0330  1069.2581   -45.8860   938.1240    23.0670    19.5960    20.6300
 2573.0000    71.9970     9.4120     2.4220     0.2350     0.0420  1068.8030   -45.9390   938.1240    23.1690    19.5080    19.5930
 2573.5000    69.3710     9.4150     2.4240     0.2270     0.0540  1068.3480   -45.9920   938.1240    23.6740    19.4190    18.5820
 2574.0000    70.4730     9.4180     2.4190     0.2190     0.0500  1067.8940   -46.0420   938.1240    24.8560    19.2780    19.2780
 2574.5000    75.0520     9.4210     2.4250     0.2120     0.0400  1067.4390   -46.0980   938.1240    26.0380    20.2420    19.6360
 2575.0000    79.7460     9.4240     2.4350     0.2030     0.0300  1066.9840   -46.1460   938.1240    27.2200    22.5860    24.3460
 2575.5000    79.3130     9.4270     2.4610     0.1830     0.0210  1066.5300   -46.1900   937.9130    28.4010    24.9300    42.1880
 2576.0000    76.3890     9.4300     2.5020     0.1560     0.0110  1066.0750   -46.0580   937.3780    28.8880    26.8400    60.0300
 2576.5000    73.2100     9.4330     2.5420     0.1230     0.0080  1065.6200   -45.9200   936.8440    28.4070    26.8400    71.1100
 2577.0000    70.6260     9.4360     2.5660     0.1280     0.0140  1065.1660   -45.7750   936.3090    27.1370    26.8400    68.5430
 2577.5000    72.8530     9.4390     2.5410     0.1420     0.0180  1064.7111   -45.6350   935.7750    25.8680    25.0960    47.8450
 2578.0000    77.2410     9.4420     2.5080     0.1650     0.0230  1064.2560   -45.4920   935.2400    24.5990    22.8210    30.1440
 2578.5000    79.9710     9.4450     2.4790     0.1940     0.0250  1063.8020   -45.3510   934.7060    23.3300    20.5450    18.5820
 2579.0000    81.8060     9.4480     2.4470     0.2150     0.0270  1063.3470   -45.2100   934.1710    22.3490    18.5820    18.2440
 2579.5000    82.4160     9.4510     2.4520     0.2210     0.0280  1062.8920   -45.0620   933.6370    21.6120    17.8000    18.2440
 2580.0000    82.4980     9.4540     2.4520     0.2230     0.0400  1062.4380   -44.9940   933.1030    20.8760    16.6410    18.2440
 2580.5000    82.0490     9.4570     2.4480     0.2250     0.0480  1061.9830   -45.0010   932.5680    20.0000    16.7790    19.7240
 2581.0000    81.4880     9.4590     2.4430     0.2240     0.0380  1061.5280   -44.9990   932.0340    20.3470    17.2160    21.0440
 2581.5000    77.4100     9.4580     2.4380     0.2230     0.0280  1061.0740   -44.9990   931.4990    21.0290    17.6520    22.3640
 2582.0000    74.8170     9.4580     2.4380     0.2230     0.0300  1060.6190   -45.0010   930.9650    21.7110    18.0890    23.6840
 2582.5000    74.5480     9.4590     2.4370     0.2160     0.0320  1060.1639   -44.9920   930.4300    22.3560    18.5260    25.0050
 2583.0000    74.3890     9.4580     2.4360     0.2100     0.0330  1059.7100   -45.0820   929.8960    23.8790    18.9630    26.3250
 2583.5000    74.3000     9.4590     2.4420     0.2040     0.0300  1059.2550   -45.2800   929.3610    25.4020    19.6360    27.6450
 2584.0000    74.1140     9.4580     2.4540     0.1980     0.0270  1058.8000   -45.4680   928.8270    26.8400    19.4480    29.4240
 2584.5000    74.0560     9.4580     2.4660     0.1970     0.0260  1058.3459   -45.6560   928.2920    26.5250    19.0380    29.0350
 2585.0000    73.9680     9.4580     2.4780     0.2090     0.0310  1057.8910   -45.8470   927.7580    25.2660    18.6290    25.2970
 2585.5000    75.1060     9.4580     2.4870     0.2220     0.0400  1057.4360   -46.0330   927.2240    24.0070    18.2200    21.5590
 2586.0000    75.8080     9.4580     2.4700     0.2330     0.0520  1056.9821   -46.2270   926.6890    22.7490    17.8100    17.9110
