~VERSION INFORMATION
 VERS.                2.0:   CWLS LOG ASCII STANDARD - VERSION 2.0
 WRAP.                 NO:   ONE LINE PER DEPTH STEP
~WELL INFORMATION
#MNEM.UNIT      DATA TYPE    INFORMATION
#----------   ------------   ------------------------------
 STRT.F           63.5000:   START DEPTH
 STOP.F         4112.0000:   STOP DEPTH
 STEP.F            0.5000:   STEP LENGTH
 NULL.          -999.2500:   NO VALUE
 COMP. LAWRENCE-ALLISON & ASSOC:   COMPANY
 WELL. LAWRENCE "X" #34-34:   WELL
 FLD .           N.P.R.#3:   FIELD
 LOC .      S34 T39N R78W:   LOCATION
 CNTY.            NATRONA:   COUNTY
 STAT.            WYOMING:   STATE
 CTRY. UNITED STATES OF AMERICA:   COUNTRY
 SRVC.      DRESSER ATLAS:   SERVICE COMPANY
 DATE.        19-OCT-1983:   LOGDATE
 API .     49025109440000:   API NUMBER
~CURVE INFORMATION
#MNEM.UNIT       API CODE    CURVE DESCRIPTION
#----------   ------------   ------------------------------
 DEPT.F                  :   
 AC  .US/F   60 250 00 00:   ACCOUSTIC
 TENS.LBS    60 635 01 00:   TENSION FROM SONIC
 ILD .OHMM   07 120 46 00:   DEEP INDUCTION RESISTIVITY
 ILM .OHMM   07 120 44 00:   INDUCTION LOG MEDIUM RESISTIVITY
 RFOC.OHMM   07 220 04 00:   RESISTIVITY FOCUSED LOG RES.
 TENR.LBS    07 635 01 00:   TENSION FROM RESISTIVITY
 SPR .MV     07 010 01 00:   SPONTANEOUS POTENTIAL
 GRR .GAPI   07 310 01 00:   GAMMA RAY FROM RESISTIVITY
 CALD.IN     45 280 60 00:   CALIPER FROM DENSITY LOG
 RHOB.G/C3   45 350 01 00:   BULK DENSITY
 CORR.G/C3   45 356 01 00:   DENSITY CORRECTION
 TEND.LBS    45 635 01 00:   TENSION FROM DENSITY LOG
 NPHI.DEC    42 890 03 00:   NEUTRON POROSITY SANDSTONE
~PARAMETER INFORMATION
#MNEM.UNIT          VALUE    DESCRIPTION
#----------   ------------   ------------------------------
 EKB .F         5100.0000:   Kelly bushing
 EGL .F         5090.0000:   Ground level
 TD  .F         4107.0000:   Total depth
 DATE.        19-OCT-1983:   Date logged
 CLNT.            A2DTECH:   Client Code
 SL  . 1997' FNL & 1661' FWL:   Surface Location
 PD  .                 GL:   Permanent Datum
 EPD .F              5090:   Elevation Permanent Datum
 LMF .                 KB:   Log Measured From
 DMF .                 KB:   Drilling Measured From
 DAPD.F                10:   Feet Above Permanent Datum
 DD  .F              4107:   Depth driller
 DL  .F              4102:   Depth logger
 BLI .F              4100:   Bottom log interval
 CS1 .IN            9.625:   Casing size
 CBD1.      9.625" @ 695':   Casing driller 1
 CBL1.F               696:   Casing logger 1
 BS1 .IN            7.875:   Bit size
 BSD1.F              4107:   Depth drilled with bit1
 DFT .            GEL-KCL:   Type fluid in hole
 DFD .                  9:   Density
 DFV .                 43:   Viscosity
 DFPH.                  9:   pH
 DFL .                 11:   Fluid loss
 MSS .           FLOWLINE:   Source of sample
 RMS .OHMM          0.313:   Rm
 MST .F                72:   Rm Meas. temp.
 RMF .OHMM          0.265:   Rmf
 MFST.F                68:   Rmf Meas. temp.
 RMC .OHMM          0.598:   Rmc
 MCST.F                68:   Rmc Meas. temp.
 MFSS.               MEAS:   Source Rmf.
 MCSS.               MEAS:   Source Rmc.
 RMB .OHMM          0.173:   Rm. at BHT
 BHT .F               130:   BHT.
 TCS .HRS               4:   Time Circ. stopped
 MRT .F               130:   Maximum recorded temp.
 LUN .               6774:   Logging unit number
 LUL .               GLTE:   Logging unit location
 ENGI.           FAHLEING:   Recorded By
 WITN.           JENNINGS:   Witnessed by
 ORIG.           5" PRINT:   Origin of data
 UWI .     49025109440000:   Unique Well ID
 DICO. A2D TECHNOLOGIES, INC.:   Digitizing Company
~OTHER INFORMATION
~A   DEPT       AC       TENS        ILD        ILM       RFOC       TENR        SPR         GRR      CALD       RHOB       CORR       TEND       NPHI   
# ...
 3625.5000    98.5150   -81.6830     1.8430     2.0980     2.9160   -52.8810   -42.0620   152.1400     7.8330     2.4740    -0.0260   -54.9830     0.2670
 3626.0000    96.9630   -81.6830     2.0210     2.1690     3.0770   -52.6640   -42.8720   152.5930     7.8230     2.4920    -0.0210   -57.3040     0.2570
 3626.5000    95.4100   -81.6830     2.1520     2.2410     3.3740   -52.4320   -43.3830   153.4100     7.8120     2.5000    -0.0010   -59.6250     0.2470
 3627.0000    93.8580   -81.6830     2.2950     2.3170     3.4570   -52.4320   -43.7260   155.0700     7.8020     2.5010     0.0200   -61.9460     0.2430
 3627.5000    92.8990   -81.6830     2.2670     2.2740     3.4280   -52.4320   -44.0820   155.1100     7.7910     2.4970     0.0250   -67.4530     0.2530
 3628.0000    93.3200   -81.6830     2.2300     2.2290     3.2830   -52.4320   -44.0970   155.1090     7.7850     2.4870     0.0250   -74.1130     0.2710
 3628.5000    94.0480   -81.6830     2.1910     2.1790     3.1380   -52.4320   -43.9060   157.1170     7.7880     2.4820     0.0250   -80.7740     0.2860
 3629.0000    95.1970   -81.6830     2.1310     2.1080     2.9920   -52.4320   -43.7130   160.5850     7.7910     2.4830     0.0230   -87.4340     0.2940
 3629.5000    96.3470   -81.6830     2.0530     2.0360     2.8620   -52.4320   -43.5190   164.0430     7.7940     2.4840     0.0190   -92.7260     0.3030
 3630.0000    97.4960   -81.6830     1.9740     1.9650     2.7950   -52.4320   -43.3250   166.9950     7.7970     2.4860     0.0140   -91.3640     0.3110
 3630.5000    98.6450   -81.6830     1.8960     1.8930     2.6910   -52.4320   -43.1310   168.4080     7.8000     2.4860    -0.0020   -90.0030     0.3180
 3631.0000    99.7940   -81.6830     1.8180     1.8220     2.5940   -52.4320   -42.9380   167.7460     7.8030     2.4810    -0.0170   -88.6410     0.3220
 3631.5000   100.9440   -81.6830     1.7400     1.7500     2.4750   -52.4320   -42.7440   167.9970     7.8060     2.4760    -0.0120   -87.2790     0.3250
 3632.0000   102.0930   -81.6830     1.6610     1.6790     2.4050   -53.2800   -42.5500   169.6270     7.8090     2.4750     0.0000   -85.9180     0.3250
 3632.5000   103.0690   -81.6830     1.5830     1.6070     2.4050   -55.3560   -42.3540   171.6290     7.8120     2.4810     0.0240   -84.5560     0.3260
 3633.0000   103.6510   -81.6830     1.5170     1.5650     2.4050   -57.4320   -42.1660   170.4900     7.8150     2.4840     0.0510   -83.1940     0.3280
 3633.5000   103.7680   -81.6830     1.4960     1.5570     2.3810   -59.5070   -42.3550   166.0260     7.8180     2.4760     0.0560   -81.8320     0.3270
 3634.0000   104.2360   -81.6830     1.4800     1.5510     2.3380   -61.5830   -42.5680   161.3250     7.8210     2.4620     0.0450   -80.4710     0.3200
 3634.5000   104.7050   -81.6830     1.4860     1.5680     2.2090   -63.6590   -42.7790   158.7400     7.8240     2.4570     0.0310   -79.1090     0.3120
 3635.0000   105.1420   -81.6830     1.4910     1.5820     2.1910   -65.7350   -42.9890   158.8250     7.8230     2.4610     0.0160   -77.7470     0.3060
 3635.5000   105.4460   -81.6830     1.4940     1.5950     2.2270   -67.8100   -43.2000   158.6820     7.8210     2.4660     0.0020   -76.3860     0.3000
 3636.0000   104.6980   -81.6830     1.5000     1.6230     2.3210   -69.8860   -43.4120   155.5400     7.8180     2.4700    -0.0040   -75.0240     0.2890
 3636.5000   103.7300   -81.6830     1.5080     1.6120     2.4230   -71.9620   -43.6180   152.5740     7.8160     2.4700    -0.0090   -73.6620     0.2790
 3637.0000   102.5800   -81.6830     1.4880     1.5970     2.5000   -74.0380   -43.6670   151.0900     7.8130     2.4640     0.0090   -71.7090     0.2810
 3637.5000   101.4310   -81.6830     1.4460     1.5320     2.5200   -76.1130   -43.1090   153.2320     7.8110     2.4570     0.0280   -68.3050     0.2880
 3638.0000   100.2820   -81.6830     1.4000     1.4610     2.4280   -78.1890   -42.5630   163.6030     7.8090     2.4340     0.0320   -64.9000     0.3020
 3638.5000    99.8340   -81.6830     1.3510     1.3910     2.1500   -80.2650   -42.0240   181.8710     7.8060     2.4040     0.0300   -61.4960     0.3140
 3639.0000   100.0970   -81.6830     1.2970     1.3200     1.9540   -82.3410   -41.9530   201.8050     7.8040     2.4050     0.0290   -58.0920     0.3150
 3639.5000   100.2460   -81.6830     1.2400     1.2710     1.7510   -84.4170   -41.9490   222.4370     7.8010     2.4160     0.0320   -54.6880     0.3150
 3640.0000   100.0360   -81.6830     1.2280     1.2630     1.6920   -86.4920   -41.8490   236.8450     7.7990     2.4260     0.0260   -51.2830     0.3050
 3640.5000   100.0910   -81.6830     1.2640     1.3180     1.6710   -88.5680   -41.6200   248.3900     7.7970     2.4350     0.0200   -47.8790     0.2950
 3641.0000   100.6180   -81.6830     1.2920     1.3760     1.8020   -90.6440   -41.3590   243.3580     7.7940     2.4320     0.0140   -44.4750     0.2850
 3641.5000   101.1450   -81.6830     1.3190     1.4340     2.0240   -92.7200   -41.1450   208.0090     7.7920     2.4310     0.0090   -42.3000     0.2850
 3642.0000   101.3260   -81.6830     1.3570     1.4940     2.2960   -94.7950   -41.5050   210.4730     7.7890     2.4350     0.0030   -42.3000     0.2910
 3642.5000   100.8740   -81.6830     1.4140     1.5370     2.4270   -96.8710   -41.8990   160.6760     7.7870     2.4390    -0.0020   -42.3000     0.3160
 3643.0000   100.4230   -81.6830     1.4710     1.5810     2.3890   -98.9470   -42.1810   149.7820     7.7850     2.4370    -0.0050   -42.3000     0.3140
 3643.5000   100.3730   -81.6830     1.5510     1.6250     2.3560  -101.0230   -42.3150   149.9450     7.7820     2.4290    -0.0070   -42.3000     0.3210
 3644.0000   100.4950   -81.6830     1.5250     1.6120     2.3230  -103.0900   -42.4500   152.3300     7.7800     2.4220    -0.0090   -42.3000     0.3200
 3644.5000   101.0650   -81.6830     1.4820     1.5600     2.2550   -98.2650   -42.5310   157.0830     7.7770     2.4150    -0.0070   -42.3000     0.3220
 3645.0000   101.7430   -81.6830     1.4390     1.4970     2.1770   -93.4590   -42.3280   162.0240     7.7750     2.4080    -0.0030   -42.3000     0.3460
 3645.5000   102.5240   -81.6830     1.3960     1.4350     2.0940   -88.6530   -42.1300   166.7900     7.7730     2.3990     0.0000   -42.3000     0.3710
 3646.0000   103.6940   -81.6830     1.3520     1.3870     2.0140   -83.8470   -41.9320   167.4970     7.7700     2.3820    -0.0170   -42.3000     0.3950
 3646.5000   104.8650   -81.6830     1.3110     1.3930     1.9090   -79.0410   -41.7320   166.7790     7.7680     2.3750    -0.0340   -42.3000     0.3820
 3647.0000   106.2380   -81.6830     1.3270     1.4290     1.8690   -74.2350   -41.5600   163.0590     7.7650     2.3730    -0.0300   -42.3000     0.3620
 3647.5000   105.9110   -81.6830     1.3430     1.4930     1.8940   -69.4290   -41.8730   159.3060     7.7630     2.3770    -0.0160   -42.3000     0.3410
 3648.0000   104.9060   -81.6830     1.3800     1.5570     1.9720   -64.6230   -42.1950   159.2590     7.7610     2.3910     0.0080   -42.3000     0.3220
 3648.5000   103.0690   -81.6830     1.4270     1.6210     2.0980   -59.8170   -42.5140   159.8610     7.7580     2.4110     0.0200   -42.3000     0.3010
 3649.0000   101.3050   -81.6830     1.4750     1.6860     2.2680   -55.0110   -42.8330   160.3230     7.7560     2.4310     0.0290   -42.3000     0.2840
 3649.5000    99.1530   -81.6830     1.5650     1.7620     2.4340   -50.2050   -43.1490   158.2310     7.7530     2.4450     0.0360   -42.3000     0.2700
 3650.0000    97.0010   -81.6830     1.6610     1.8500     2.5850   -45.3990   -43.3570   154.3260     7.7510     2.4520     0.0260   -42.3000     0.2620
 3650.5000    94.8490   -81.6830     1.7560     1.9380     2.7400   -40.5930   -43.2640   148.8750     7.7490     2.4600     0.0040   -42.2120     0.2600
 3651.0000    93.8150   -81.6830     1.9120     2.0330     2.6830   -35.7870   -43.1780   148.4470     7.7460     2.4630    -0.0160   -41.9280     0.2760
