~VERSION INFORMATION
 VERS.                2.0:   CWLS LOG ASCII STANDARD - VERSION 2.0
 WRAP.                 NO:   ONE LINE PER DEPTH STEP
~WELL INFORMATION
#MNEM.UNIT      DATA TYPE    INFORMATION
#----------   ------------   ------------------------------
 STRT.F          211.0000:   START DEPTH
 STOP.F         3244.0000:   STOP DEPTH
 STEP.F            0.5000:   STEP LENGTH
 NULL.          -999.2500:   NO VALUE
 COMP.    FENIX & SCISSON:   COMPANY
 WELL.  FENIX "AX" #84-15:   WELL
 FLD .  TEAPOT DOME NPR-3:   FIELD
 LOC .      S15 T38N R78W:   LOCATION
 CNTY.            NATRONA:   COUNTY
 STAT.            WYOMING:   STATE
 CTRY. UNITED STATES OF AMERICA:   COUNTRY
 SRVC.           BIRDWELL:   SERVICE COMPANY
 DATE.        17-MAR-1978:   LOGDATE
 API .     49025106050000:   API NUMBER
~CURVE INFORMATION
#MNEM.UNIT       API CODE    CURVE DESCRIPTION
#----------   ------------   ------------------------------
 DEPT.F                  :   
 SPR .MV     05 010 01 00:   SPONTANEOUS POTENTIAL
 SN  .OHMM   05 040 16 00:   SHORT NORMAL
 ILD .OHMM   05 120 46 00:   INDUCTION LOG DEEP
 CALD.IN     45 280 60 00:   CALIPER FROM DENSITY LOG
 GRD .GAPI   45 310 01 00:   GAMMA RAY FROM DENSITY LOG
 RHOB.G/C3   45 350 01 00:   BULK DENSITY
 CORR.G/C3   45 356 01 00:   DENSITY CORRECTION
~PARAMETER INFORMATION
#MNEM.UNIT          VALUE    DESCRIPTION
#----------   ------------   ------------------------------
 EKB .F         5251.0000:   Kelly bushing
 EGL .F         5241.0000:   Ground level
 TD  .F         3250.0000:   Total depth
 CLNT.            A2DTECH:   Client Code
 SL  . 359' FEL & 2310' FNL:   Surface Location
 PD  .                 GL:   Permanent Datum
 LMF .                 KB:   Log Measured From
 DMF .                 KB:   Drilling Measured From
 DATE.        17-MAR-1978:   Date Logged [DD-MMM-YYYY]
 DD  .F              3250:   Depth driller
 DL  .F              3250:   Depth logger
 BLI .F              3244:   Bottom log interval
 TLI .F               224:   Top log interval
 CS1 .IN            8.625:   Casing size
 CBD1.             8.625":   Casing driller 1
 CBL1.F               224:   Casing logger 1
 BS1 .IN            7.875:   Bit size
 BSD1.F              3250:   Depth drilled with bit1
 MSS .           FLOWLINE:   Source of sample
 RMS .OHMM            1.3:   Rm
 MST .F                70:   Rm Meas. temp.
 RMF .OHMM            1.1:   Rmf
 MFST.F                70:   Rmf Meas. temp.
 MFSS.               MEAS:   Source Rmf.
 RMC .OHMM            1.4:   Rmc
 MCST.F                70:   Rmc Meas. temp.
 RMB .OHMM           0.77:   Rm. at BHT
 BHT .F               118:   BHT.
 TCS .HRS               6:   Time Circ. stopped
 MRT .F               118:   Maximum recorded temp.
 LUN .               2958:   Logging unit number
 LUL .               CASP:   Logging unit location
 ENGI.             MILLER:   Recorded By
 WITN.           MCGINLEY:   Witnessed by
 ORIG.           5" PRINT:   Origin of data
 UWI .     49025106050000:   Unique Well ID
 DICO. A2D TECHNOLOGIES, INC.:   Digitizing Company
~OTHER INFORMATION
~A   DEPT      SPR         SN        ILD       CALD         GRD      RHOB       CORR   
# ...
 1394.0000   -32.3857     7.6987     8.4579    12.6995    77.9415     2.5243     0.0173
 1394.5000   -32.9801     7.7025     8.4613    12.7002    76.0058     2.5229     0.0204
 1395.0000   -33.5746     7.7062     8.4061    12.7010    73.7658     2.5257     0.0235
 1395.5000   -33.8704     7.7100     8.4096    12.7017    73.7861     2.5388     0.0236
 1396.0000   -34.1601     7.7546     8.3548    12.7024    74.1027     2.5419     0.0236
 1396.5000   -34.0000     7.7713     8.3583    12.7032    77.8727     2.5306     0.0207
 1397.0000   -33.6876     7.7812     8.3618    12.7039    79.2563     2.5254     0.0206
 1397.5000   -33.5279     7.8331     8.3653    12.7047    77.9053     2.5202     0.0193
 1398.0000   -33.3682     7.8369     8.3693    12.7054    77.7714     2.5164     0.0194
 1398.5000   -33.3593     7.8962     8.3727    12.7061    77.9384     2.5331     0.0195
 1399.0000   -33.3504     7.9544     8.3762    12.7069    78.5792     2.5339     0.0196
 1399.5000   -33.3415     7.9589     8.4970    12.7076    79.7789     2.5339     0.0196
 1400.0000   -33.3333     8.0183     8.6196    12.7084    79.7908     2.5340     0.0197
 1400.5000   -33.3237     8.0782     8.8050    12.6798    79.0519     2.5340     0.0198
 1401.0000   -33.3152     8.0820     8.9320    12.6659    74.6727     2.5332     0.0199
 1401.5000   -33.3727     8.0859     8.9980    12.6522    74.4199     2.5326     0.0184
 1402.0000   -33.4480     8.1463     9.0645    12.6533    74.8851     2.5387     0.0169
 1402.5000   -33.4380     8.2071     9.1316    12.6544    75.3474     2.5478     0.0138
 1403.0000   -33.2790     8.2110     9.1354    12.6704    75.9599     2.5524     0.0096
 1403.5000   -33.3140     8.2150     9.1392    12.6717    76.5723     2.5502     0.0066
 1404.0000   -33.4123     8.2189     9.1430    12.6728    77.1847     2.5306     0.0021
 1404.5000   -33.2504     8.2229     9.1475    12.6739    77.4969     2.5148    -0.0039
 1405.0000   -33.2415     8.2269     9.1512    12.6750    77.6588     2.5058    -0.0068
 1405.5000   -33.2326     8.2882     9.1545    12.6761    77.3704     2.5028    -0.0083
 1406.0000   -33.2237     8.2922     9.1583    12.6620    76.0309     2.5029    -0.0082
 1406.5000   -33.6669     8.2962     9.1625    12.6709    72.5892     2.5029    -0.0037
 1407.0000   -33.8088     8.3002     9.1662    12.6803    72.7512     2.5037    -0.0022
 1407.5000   -33.9530     8.2467     9.1258    12.6897    73.6640     2.5057     0.0009
 1408.0000   -33.7911     8.2507     9.1100    12.6991    73.2253     2.5090     0.0055
 1408.5000   -33.6314     8.1975     9.1139    12.7086    72.9369     2.5151     0.0086
 1409.0000   -33.4717     8.2015     9.0544    12.7180    73.8980     2.5174     0.0132
 1409.5000   -33.4629     8.1486     9.0582    12.7226    77.5285     2.5122     0.0148
 1410.0000   -33.3032     8.1526     8.9990    12.7083    76.8792     2.5175     0.0179
 1410.5000   -33.1433     8.1565     8.9403    12.7091    77.6418     2.5319     0.0195
 1411.0000   -32.9834     8.1038     8.8820    12.7248    80.2062     2.5327     0.0218
 1411.5000   -32.9727     7.9821     8.8240    12.7304    80.3682     2.5290     0.0226
 1412.0000   -32.9638     7.9311     8.8280    12.7560    80.2269     2.5305     0.0227
 1412.5000   -32.9563     7.9344     8.8322    12.7865    80.6922     2.5336     0.0243
 1413.0000   -32.9472     7.8828     8.7742    12.8319    81.1545     2.5269     0.0243
 1413.5000   -32.9372     7.8861     8.7781    12.8773    81.1663     2.5337     0.0246
 1414.0000   -32.9291     7.8894     8.7209    12.9226    81.0280     2.5353     0.0259
 1414.5000   -32.9195     7.8931     8.7244    12.9234    80.5894     2.5338     0.0260
 1415.0000   -32.9106     7.8967     8.7279    12.9391    78.7994     2.5331     0.0261
 1415.5000   -33.0528     7.8993     8.7315    12.9547    78.0601     2.5422     0.0261
 1416.0000   -33.1946     7.9026     8.6746    12.9555    79.5738     2.5498     0.0262
 1416.5000   -33.1855     7.9061     8.6782    12.9562    80.1892     2.5310     0.0262
 1417.0000   -33.3277     7.9092     8.6215    12.9568    80.0421     2.5287     0.0263
 1417.5000   -33.6182     7.9126     8.6260    12.9576    78.5135     2.5388     0.0294
 1418.0000   -33.7624     7.9158     8.6295    12.9584    76.2702     2.5486     0.0325
 1418.5000   -34.0552     7.9743     8.6330    12.9526    75.8792     2.5462     0.0262
 1419.0000   -34.1972     7.9777     8.6366    12.9378    75.7439     2.5357     0.0169
 1419.5000   -34.1861     7.9811     8.7004    12.9308    74.1041     2.5146     0.0084
 1420.0000   -34.0264     7.9849     8.7648    12.9166    73.6625     2.5094     0.0161
 1420.5000   -33.8667     7.9876     8.7683    12.9025    73.6773     2.5253     0.0207
 1421.0000   -33.4054     7.9915     8.8332    12.9033    73.6891     2.5110     0.0192
 1421.5000   -33.2457     7.9634     8.8985    12.9041    73.8511     2.5080     0.0223
 1422.0000   -33.0860     7.9421     8.9021    12.9048    77.1662     2.5126     0.0269
 1422.5000   -33.0225     7.9461     8.8440    12.9055    80.6315     2.5179     0.0270
 1423.0000   -32.9170     7.9386     8.7839    12.9062    80.7935     2.5195     0.0225
 1423.5000   -33.0572     7.8971     8.6685    12.9070    80.5050     2.5127     0.0150
 1424.0000   -33.0483     7.9004     8.5531    12.9077    77.2136     2.5180     0.0120
 1424.5000   -33.1925     7.8495     8.4964    12.9085    77.2254     2.5196     0.0121
 1425.0000   -33.3344     7.8522     8.4410    12.9092    78.1381     2.5113     0.0138
 1425.5000   -33.3536     7.8015     8.3868    12.9100    79.3603     2.5212     0.0182
 1426.0000   -33.4661     7.8043     8.3312    12.9107    79.6637     2.5333     0.0213
 1426.5000   -33.5450     7.7533     8.3355    12.9115    79.6757     2.5364     0.0244
 1427.0000   -33.5988     7.7028     8.2802    12.9122    79.2395     2.5153     0.0245
 1427.5000   -33.5896     7.7062     8.2641    12.9129    78.5006     2.5100     0.0261
 1428.0000   -33.5800     7.6560     8.2302    12.9137    74.3082     2.5093     0.0246
 1428.5000   -33.4208     7.6596     8.2338    12.9144    73.7165     2.5094     0.0247
 1429.0000   -33.4118     7.6627     8.1539    12.9152    73.1307     2.5094     0.0232
 1429.5000   -33.4216     7.6656     8.1267    12.9159    71.9413     2.5110     0.0218
 1430.0000   -33.5452     7.6688     8.1303    12.9167    70.7519     2.5178     0.0200
 1430.5000   -33.8380     7.6722     8.1334    12.9174    70.4605     2.5194     0.0188
 1431.0000   -33.8269     7.6220     8.1375    12.9182    73.3282     2.5187     0.0174
 1431.5000   -33.9711     7.6252     8.0844    12.9189    77.2449     2.5180     0.0175
 1432.0000   -33.9600     7.6284     8.0877    12.9196    78.7582     2.5173     0.0175
 1432.5000   -33.8004     7.5261     8.0349    12.9204    78.3196     2.5158     0.0206
 1433.0000   -33.7915     7.4253     8.0382    12.9211    77.7308     2.5150     0.0298
 1433.5000   -33.6318     7.3769     7.9694    12.9219    77.4424     2.5071     0.0419
 1434.0000   -33.4721     7.3288     7.8787    12.8929    77.4542     2.5363     0.0556
 1434.5000   -33.4506     7.2813     7.8273    12.8341    77.4660     2.5394     0.0193
 1435.0000   -33.1523     7.2843     7.8305    12.8049    77.6280     2.5206     0.0103
 1435.5000   -33.1416     7.2874     7.8336    12.7909    77.6399     2.5145     0.0134
 1436.0000   -33.1328     7.2907     7.8369    12.7768    76.7508     2.5206     0.0195
 1436.5000   -33.2760     7.2937     7.8401    12.7775    76.4623     2.5282     0.0181
 1437.0000   -33.4167     7.3054     7.8434    12.7783    76.6243     2.5260     0.0105
 1437.5000   -33.4078     7.3506     7.8467    12.7641    75.5355     2.5079     0.0015
 1438.0000   -33.7006     7.3861     7.8434    12.7500    74.8491     2.5027     0.0047
 1438.5000   -33.6918     7.4079     7.7988    12.7211    77.4135     2.5084     0.0170
 1439.0000   -33.8341     7.4627     7.8025    12.7069    79.6776     2.5209     0.0199
