~VERSION INFORMATION
 VERS.                2.0:   CWLS LOG ASCII STANDARD - VERSION 2.0
 WRAP.                 NO:   ONE LINE PER DEPTH STEP
~WELL INFORMATION
#MNEM.UNIT      DATA TYPE    INFORMATION
#----------   ------------   ------------------------------
 STRT.F            0.0000:   START DEPTH
 STOP.F         1165.5000:   STOP DEPTH
 STEP.F            0.5000:   STEP LENGTH
 NULL.          -999.2500:   NO VALUE
 COMP.   JOHN BROWN E & C:   COMPANY
 WELL. BROWN NPR 3 "X" 1 #63-14:   WELL
 FLD .                NPR:   FIELD
 LOC .      S14 T38N R78W:   LOCATION
 CNTY.            NATRONA:   COUNTY
 STAT.            WYOMING:   STATE
 CTRY. UNITED STATES OF AMERICA:   COUNTRY
 SRVC.     ATLAS WIRELINE:   SERVICE COMPANY
 DATE.        15-JAN-1992:   LOGDATE
 API .     49025224960000:   API NUMBER
~CURVE INFORMATION
#MNEM.UNIT       API CODE    CURVE DESCRIPTION
#----------   ------------   ------------------------------
 DEPT.F                  :   
 GRR .GAPI   07 310 01 00:   GAMMA RAY FROM RESISTIVITY
 RILD.OHMM   07 120 46 00:   INDUCTION LOG DEEP RESISTIVITY
 RILM.OHMM   07 120 44 00:   INDUCTION LOG MEDIUM RESISTIVITY
 TENR.LBS    07 635 01 00:   TENSION
~PARAMETER INFORMATION
#MNEM.UNIT          VALUE    DESCRIPTION
#----------   ------------   ------------------------------
 EKB .F         5270.0000:   Kelly bushing
 EGL .F         5260.0000:   Ground level
 EDF .F         5269.0000:   Drilling floor
 TD  .F         1160.0000:   Total depth
 DATE.        15-JAN-1992:   Date logged
 CLNT.            A2DTECH:   Client Code
 SL  . 1893' FNL & 1971' FEL:   Surface Location
 PD  .                 GL:   Permanent Datum
 EPD .F              5260:   Elevation Permanent Datum
 LMF .                 KB:   Log Measured From
 DMF .                 KB:   Drilling Measured From
 DAPD.F                10:   Feet Above Permanent Datum
 DD  .F              1160:   Depth driller
 DL  .F              1158:   Depth logger
 BLI .F              1150:   Bottom log interval
 CS1 .IN            9.625:   Casing size
 CBD1.       9.625" @ 50':   Casing driller 1
 CBL1.F                48:   Casing logger 1
 BS1 .IN             8.75:   Bit size
 BSD1.F              1160:   Depth drilled with bit1
 DFT .                AIR:   Type fluid in hole
 MRT .F                90:   Maximum recorded temp.
 LUN .            HL-6274:   Logging unit number
 LUL .             CASPER:   Logging unit location
 ENGI.             RAUTIO:   Recorded By
 WITN.        GARY STRONG:   Witnessed by
 ORIG.           5" PRINT:   Origin of data
 UWI .     49025224960000:   Unique Well ID
 DICO. A2D TECHNOLOGIES, INC.:   Digitizing Company
 TLI .F                 0:   Top log interval
~OTHER INFORMATION
~A    DEPT      GRR      RILD       RILM       TENR   
# ...
  365.0000   121.1560     3.8550     4.2400    11.6290
  365.5000   125.6200     4.2510     4.5770    11.7050
  366.0000   130.2510     4.6480     4.8600    11.7810
  366.5000   131.6690     5.0440     5.1250    11.8580
  367.0000   130.0970     5.2110     5.3090    11.9340
  367.5000   126.7630     5.1920     5.3580    12.0100
  368.0000   123.9420     5.1750     5.3580    12.0860
  368.5000   122.5890     5.1630     5.3090    12.1630
  369.0000   121.2470     5.0510     5.1860    12.2390
  369.5000   120.3860     4.9290     5.0560    12.3150
  370.0000   120.9390     4.5400     4.8020    12.3910
  370.5000   121.4560     4.0970     4.3430    12.4680
  371.0000   121.0860     3.6530     3.8830    12.5440
  371.5000   120.6420     3.2170     3.4230    12.6200
  372.0000   120.7110     3.0570     3.0250    12.6960
  372.5000   125.3020     2.9050     2.7220    12.7730
  373.0000   130.9240     2.9050     2.8570    12.8490
  373.5000   136.6170     2.9210     2.9870    12.9250
  374.0000   140.9500     2.9320     3.1170    13.0010
  374.5000   130.8000     3.0290     3.3270    13.0780
  375.0000   122.5070     3.1730     3.5750    13.1540
  375.5000   121.3390     3.4790     3.7810    13.2300
  376.0000   123.0060     3.8020     4.0530    13.3060
  376.5000   123.1220     4.1260     4.3100    13.3830
  377.0000   122.2560     4.3060     4.4690    13.4590
  377.5000   121.3970     4.4350     4.6270    13.5350
  378.0000   122.2360     4.5650     4.7850    13.6110
  378.5000   124.7890     4.6190     4.8840    13.6880
  379.0000   127.3050     4.6190     4.8570    13.7640
  379.5000   129.0740     4.6190     4.8300    13.8400
  380.0000   125.8040     4.6190     4.8030    13.9160
  380.5000   119.5270     4.6190     4.7760    13.9920
  381.0000   119.7600     4.5880     4.7500    14.0690
  381.5000   121.7850     4.3860     4.4390    14.1450
  382.0000   126.5240     4.1580     4.1420    14.2210
  382.5000   125.4040     3.9300     3.8440    14.2970
  383.0000   123.9370     3.7020     3.5470    14.3740
  383.5000   126.6010     3.4650     3.3080    14.4500
  384.0000   127.2050     3.4070     3.2770    14.5260
  384.5000   127.0340     3.3390     3.2740    14.6020
  385.0000   124.5840     3.3330     3.2460    14.6790
  385.5000   120.5760     3.2950     3.2170    14.7550
  386.0000   118.3860     3.2560     3.1420    14.8310
  386.5000   116.6240     3.1600     3.0140    14.9070
  387.0000   116.6610     3.0060     2.8860    14.9840
  387.5000   116.6460     2.8520     2.7580    15.0600
  388.0000   116.5230     2.7080     2.6310    15.1360
  388.5000   121.7310     2.5640     2.5030    15.2120
  389.0000   127.5480     2.4200     2.3750    15.2890
  389.5000   130.1120     2.2830     2.3040    15.3650
  390.0000   132.1320     2.2410     2.3210    15.4410
  390.5000   134.1520     2.2410     2.3880    15.5170
  391.0000   135.9030     2.4290     2.4810    15.5940
  391.5000   133.8940     2.5580     2.6520    15.6700
  392.0000   128.2020     2.7010     2.9140    15.7460
  392.5000   121.4950     2.9650     3.1760    15.8220
  393.0000   115.4230     3.2290     3.4380    15.8990
  393.5000   116.5620     3.4930     3.6630    15.9750
  394.0000   119.5940     3.7570     3.8330    16.0510
  394.5000   121.5070     3.9450     4.0190    16.1270
  395.0000   121.4810     3.9820     4.0570    16.2040
  395.5000   121.4850     3.9450     4.0570    16.2800
  396.0000   121.5050     3.8000     3.9450    16.3560
  396.5000   122.6980     3.5570     3.7430    16.4320
  397.0000   125.6000     3.4330     3.4930    16.5090
  397.5000   128.4760     3.1700     3.2420    16.5850
  398.0000   131.3870     2.9140     2.9910    16.6610
  398.5000   132.5880     2.6580     2.7850    16.7370
  399.0000   133.0200     2.4650     2.6010    16.8140
  399.5000   133.3320     2.2820     2.4170    16.8680
  400.0000   138.3100     2.0990     2.2330    16.8680
  400.5000   144.9710     2.0800     2.1590    16.8680
  401.0000   151.0030     2.1590     2.2890    16.8680
  401.5000   149.1790     2.3400     2.4990    16.8680
  402.0000   141.5790     2.5200     2.7470    16.8680
  402.5000   133.6920     2.7010     3.1880    16.8680
  403.0000   129.7740     3.0530     3.6290    16.8680
  403.5000   126.0270     3.5220     4.0700    16.8680
  404.0000   122.2790     3.9900     4.4930    16.8680
  404.5000   119.2400     4.4580     4.6990    16.8680
  405.0000   119.9660     4.7960     4.8970    16.8680
  405.5000   121.2750     4.9640     5.0960    16.8680
  406.0000   122.6230     5.1310     5.2610    16.8680
  406.5000   122.5620     5.2990     5.4230    16.8680
  407.0000   122.4080     5.4670     5.5850    16.8680
  407.5000   122.6650     5.6350     5.7460    16.8680
  408.0000   125.1480     5.8020     5.9080    16.8680
  408.5000   127.6110     5.9700     6.0700    16.8680
  409.0000   129.8170     6.1380     6.2320    16.8680
  409.5000   128.4990     6.3060     6.3940    16.8680
  410.0000   127.5540     6.3910     6.4570    16.8680
  410.5000   127.3150     6.3810     6.4680    16.8680
  411.0000   131.6360     6.3740     6.4780    16.8680
  411.5000   135.9400     6.3660     6.4890    16.8680
  412.0000   138.3610     6.3580     6.4990    16.8680
  412.5000   135.8970     6.3510     6.5100    16.8680
  413.0000   131.2880     6.3430     6.4760    16.8680
  413.5000   128.0260     6.3340     6.4410    16.8680
  414.0000   125.1690     6.2850     6.4050    16.8680
  414.5000   125.7110     6.1680     6.3510    16.8680
  415.0000   126.7560     6.1010     6.2850    16.8680
  415.5000   126.7990     6.0700     6.2190    16.8680
  416.0000   126.3260     6.0390     6.1580    16.8680
  416.5000   127.5450     6.0080     6.1230    16.8680
  417.0000   128.9420     5.9780     6.0900    16.8680
  417.5000   129.9360     5.9470     6.0580    16.8680
  418.0000   130.0890     5.9170     6.0250    16.8680
  418.5000   130.6100     5.8860     5.9930    16.8680
  419.0000   132.2130     5.8250     5.9600    16.8680
  419.5000   134.6770     5.8390     5.9340    16.8680
  420.0000   135.1240     5.8570     5.9570    16.8680
  420.5000   135.4870     5.8750     5.9790    16.8680
  421.0000   135.8520     5.8930     6.0020    16.8680
  421.5000   136.2490     5.9110     6.0240    16.8680
  422.0000   135.3040     5.9280     6.0450    16.8680
  422.5000   133.8200     6.0870     6.2290    16.8680
  423.0000   132.3120     6.3070     6.4120    16.8680
  423.5000   130.7450     6.5260     6.5940    16.8680
  424.0000   128.3830     6.7460     6.7770    16.8680
  424.5000   125.9590     6.8830     6.9050    16.8680
  425.0000   125.3670     6.8660     7.0160    16.8680
  425.5000   127.0490     6.8510     7.1270    16.8680
  426.0000   127.9250     6.8360     7.2370    16.8680
  426.5000   125.8010     6.8220     7.2770    16.8680
  427.0000   123.7590     6.8200     7.1900    16.8680
  427.5000   122.9620     6.7570     7.1200    16.8680
  428.0000   123.5210     6.6800     7.0500    16.8680
  428.5000   123.5480     6.5710     6.9800    16.8680
  429.0000   120.6520     6.5110     6.9470    16.8680
  429.5000   117.7450     5.9910     6.5560    16.8680
  430.0000   114.8450     5.3780     6.0620    16.8680
  430.5000   111.9620     4.7940     5.1940    16.8680
  431.0000   110.1910     4.1440     4.5000    16.8680
  431.5000   110.9020     3.4930     3.8500    16.8680
  432.0000   117.1060     2.8420     3.2000    16.8680
  432.5000   126.2230     2.3890     2.6140    16.8680
  433.0000   135.5620     2.0050     2.2060    16.8680
  433.5000   145.2390     1.8360     1.9970    16.8680
  434.0000   150.0160     1.7280     1.8770    16.8680
  434.5000   151.6000     1.7280     1.8270    16.8680
  435.0000   151.2250     1.8070     1.8630    16.8680
  435.5000   149.9770     1.8790     2.0390    16.8680
  436.0000   146.7870     2.0800     2.2910    16.8680
  436.5000   139.0740     2.3640     2.8290    16.8680
  437.0000   130.4360     2.9200     3.7080    16.8680
  437.5000   122.5090     3.8440     4.7950    16.8680
