~VERSION INFORMATION
 VERS.                2.0:   CWLS LOG ASCII STANDARD - VERSION 2.0
 WRAP.                 NO:   ONE LINE PER DEPTH STEP
~WELL INFORMATION
#MNEM.UNIT      DATA TYPE    INFORMATION
#----------   ------------   ------------------------------
 STRT.F          466.5000:   START DEPTH
 STOP.F         3184.0000:   STOP DEPTH
 STEP.F            0.5000:   STEP LENGTH
 NULL.          -999.2500:   NO VALUE
 COMP. LAWRENCE ALLISON AND ASSOCIATES:   COMPANY
 WELL. LAWRENCE 66 "X" #3-28:   WELL
 FLD .              N P R:   FIELD
 LOC .      S28 T39N R78W:   LOCATION
 CNTY.            NATRONA:   COUNTY
 STAT.            WYOMING:   STATE
 CTRY. UNITED STATES OF AMERICA:   COUNTRY
 SRVC.      DRESSER ATLAS:   SERVICE COMPANY
 DATE.        16-APR-1986:   LOGDATE
 API .     49025111340000:   API NUMBER
~CURVE INFORMATION
#MNEM.UNIT       API CODE    CURVE DESCRIPTION
#----------   ------------   ------------------------------
 DEPT.F                  :   
 RHOB.G/C3   45 350 01 00:   BULK DENSITY
 CORR.G/C3   45 356 01 00:   DENSITY CORRECTION
 TEND.LBS    45 635 01 00:   TENSION FROM DENSITY LOG
 NPHI.DEC    42 890 03 00:   NEUTRON POROSITY SANDSTONE
 DT  .US/F   60 520 00 00:   DELTA TIME
 TENS.LBS    51 635 01 00:   TENSION
 CALR.IN     07 280 01 00:   CALIPER FROM RESISTIVITY
 SPR .MV     07 010 01 00:   SPONTANEOUS POTENTIAL
 TENR.LBS    07 635 01 00:   TENSION FROM RESISTIVITY
 RFOC.OHMM   07 220 04 00:   RESISTIVITY FOCUSED LOG RES.
 GRR .GAPI   07 310 01 00:   GAMMA RAY FROM RESISTIVITY
 RILD.OHMM   07 120 46 00:   DEEP INDUCTION RESISTIVITY
 RILM.OHMM   07 120 44 00:   INDUCTION LOG MEDIUM RESISTIVITY
~PARAMETER INFORMATION
#MNEM.UNIT          VALUE    DESCRIPTION
#----------   ------------   ------------------------------
 EKB .F         5071.0000:   Kelly bushing
 EGL .F         5059.0000:   Ground level
 TD  .F         3176.0000:   Total depth
 DATE.        16-APR-1986:   Date logged
 CLNT.            A2DTECH:   Client Code
 SL  . 1685' FEL & 1915'FSL:   Surface Location
 PD  .                 GL:   Permanent Datum
 EPD .F              5059:   Elevation Permanent Datum
 LMF .                 KB:   Log Measured From
 DD  .F              3176:   Depth driller
 DL  .F              3176:   Depth logger
 BLI .F              3174:   Bottom log interval
 TLI .F               480:   Top log interval
 CS1 .IN            8.625:   Casing size
 BS1 .IN            7.875:   Bit size
 DFT .        POLYMER KCL:   Type fluid in hole
 DFD .                  9:   Density
 DFV .                 40:   Viscosity
 DFPH.                8.5:   pH
 DFL .               10.2:   Fluid loss
 MSS .           FLOWLINE:   Source of sample
 RMS .OHMM           .226:   Rm
 MST .F                65:   Rm Meas. temp.
 RMF .OHMM           .169:   Rmf
 MFST.F                65:   Rmf Meas. temp.
 RMC .OHMM           .283:   Rmc
 MCST.F                65:   Rmc Meas. temp.
 MFSS.               CALC:   Source Rmf.
 MCSS.               CALC:   Source Rmc.
 RMB .OHMM           .118:   Rm. at BHT
 BHT .F               125:   BHT.
 TCS .HRS               5:   Time Circ. stopped
 MRT .F               125:   Maximum recorded temp.
 LUN .               6264:   Logging unit number
 LUL .           GILLETTE:   Logging unit location
 ENGI.             MILLER:   Recorded By
 WITN.             STRONG:   Witnessed by
 ORIG.           5" PRINT:   Origin of data
 UWI .     49025111340000:   Unique Well ID
 DICO. A2D TECHNOLOGIES, INC.:   Digitizing Company
 DMF .                 KB:   Drilling Measured From
 DAPD.F                12:   Feet Above Permanent Datum
 CBD1.      8.625" @ 475':   Casing driller 1
 CBL1.F               480:   Casing logger 1
 BSD1.F              3176:   Depth drilled with bit1
~OTHER INFORMATION
~A   DEPT     RHOB       CORR       TEND       NPHI         DT       TENS       CALR        SPR       TENR       RFOC         GRR      RILD       RILM   
# ...
  674.5000  -999.2500  -999.2500  -999.2500  -999.2500  -999.2500  -999.2500    11.6400   -44.2730   -82.5610     6.3880    98.9180     7.3810     6.9840
  675.0000  -999.2500  -999.2500  -999.2500  -999.2500  -999.2500  -999.2500    11.6320   -43.9120   -62.2220     6.4520   100.1180     7.3970     6.9940
  675.5000  -999.2500  -999.2500  -999.2500  -999.2500  -999.2500  -999.2500    11.6240   -44.0030   -41.8830     6.5040    98.0860     7.4130     7.0040
  676.0000  -999.2500  -999.2500  -999.2500  -999.2500  -999.2500  -999.2500    11.6160   -44.0870   -43.6500     6.5320    95.1510     7.4300     7.0150
  676.5000  -999.2500  -999.2500  -999.2500  -999.2500  -999.2500  -999.2500    11.6100   -44.0480   -56.7250     6.4600    92.9580     7.3900     7.0250
  677.0000  -999.2500  -999.2500  -999.2500  -999.2500  -999.2500  -999.2500    11.6100   -43.9830   -69.8000     6.4110    91.9220     7.3560     7.0310
  677.5000  -999.2500  -999.2500  -999.2500  -999.2500  -999.2500  -999.2500    11.6100   -43.9120   -74.0420     6.3540    90.8810     7.3390     7.0020
  678.0000  -999.2500  -999.2500  -999.2500  -999.2500  -999.2500  -999.2500    11.6080   -44.0630   -69.6830     6.4840    89.8170     7.3220     6.9820
  678.5000  -999.2500  -999.2500  -999.2500  -999.2500  -999.2500  -999.2500    11.5940   -44.2790   -65.3250     6.5920    90.8080     7.3050     6.9610
  679.0000  -999.2500  -999.2500  -999.2500  -999.2500  -999.2500  -999.2500    11.5800   -44.5420   -60.9670     6.4900    93.1880     7.2880     6.9400
  679.5000  -999.2500  -999.2500  -999.2500  -999.2500  -999.2500  -999.2500    11.5640   -45.6690   -56.6080     6.3990    95.6590     7.2710     6.9110
  680.0000  -999.2500  -999.2500  -999.2500  -999.2500  -999.2500  -999.2500    11.5390   -46.7840   -60.2110     6.3080    96.3930     7.2530     6.9030
  680.5000  -999.2500  -999.2500  -999.2500  -999.2500  -999.2500  -999.2500    11.5140   -47.5230   -68.4680     6.2950    90.6400     7.2280     7.4720
  681.0000  -999.2500  -999.2500  -999.2500  -999.2500  -999.2500  -999.2500    11.4900   -47.5500   -76.7260     6.2950    81.3940     7.3630     7.9290
  681.5000  -999.2500  -999.2500  -999.2500  -999.2500  -999.2500  -999.2500    11.4650   -47.5890   -85.0000     6.2950    77.3940     7.7500     8.3850
  682.0000  -999.2500  -999.2500  -999.2500  -999.2500  -999.2500  -999.2500    11.4410   -47.6260   -70.3080     6.5800    77.6540     8.1570     8.8410
  682.5000  -999.2500  -999.2500  -999.2500  -999.2500  -999.2500  -999.2500    11.4160   -47.6630   -50.1920     6.8400    78.6110     8.5640     9.2970
  683.0000  -999.2500  -999.2500  -999.2500  -999.2500  -999.2500  -999.2500    11.3920   -47.6990   -30.0770     7.6030    80.0240     8.9700     9.7530
  683.5000  -999.2500  -999.2500  -999.2500  -999.2500  -999.2500  -999.2500    11.3680   -47.7000   -25.0000     8.0730    83.4880     9.3770    10.2090
  684.0000  -999.2500  -999.2500  -999.2500  -999.2500  -999.2500  -999.2500    11.3510   -47.6990   -56.4000     8.2870    86.9310     9.8140    10.6650
  684.5000  -999.2500  -999.2500  -999.2500  -999.2500  -999.2500  -999.2500    11.3580   -47.7850   -94.1700     8.3670    89.1390    10.2950    11.1220
  685.0000  -999.2500  -999.2500  -999.2500  -999.2500  -999.2500  -999.2500    11.3640   -47.8900   -91.0000     8.4530    89.5450    10.7750    11.4670
  685.5000  -999.2500  -999.2500  -999.2500  -999.2500  -999.2500  -999.2500    11.3690   -47.6290   -87.8300     8.5810    89.7520    11.2560    11.6990
  686.0000  -999.2500  -999.2500  -999.2500  -999.2500  -999.2500  -999.2500    11.3380   -47.3490   -84.6610     8.7190    89.4660    11.6020    11.9320
  686.5000  -999.2500  -999.2500  -999.2500  -999.2500  -999.2500  -999.2500    11.3060   -47.0700   -81.4910     8.8020    88.3770    11.8860    12.2190
  687.0000  -999.2500  -999.2500  -999.2500  -999.2500  -999.2500  -999.2500    11.2740   -46.7920   -78.3210     8.8520    83.5810    11.8700    12.2190
  687.5000  -999.2500  -999.2500  -999.2500  -999.2500  -999.2500  -999.2500    11.2420   -46.5130   -75.0000     8.9020    82.8650    11.8520    12.2300
  688.0000  -999.2500  -999.2500  -999.2500  -999.2500  -999.2500  -999.2500    11.2230   -46.2450   -79.7430     8.9340    84.2990    11.8330    12.2640
  688.5000  -999.2500  -999.2500  -999.2500  -999.2500  -999.2500  -999.2500    11.2050   -45.9960   -84.7240     8.8500    87.0340    11.8150    12.2980
  689.0000  -999.2500  -999.2500  -999.2500  -999.2500  -999.2500  -999.2500    11.1880   -45.7460   -89.7050     8.7890    87.2080    11.7960    12.3320
  689.5000  -999.2500  -999.2500  -999.2500  -999.2500  -999.2500  -999.2500    11.1700   -45.5190   -95.0000     8.7290    85.5620    11.7770    12.3660
  690.0000  -999.2500  -999.2500  -999.2500  -999.2500  -999.2500  -999.2500    11.1640   -45.9290  -124.4000     8.6900    83.6130    11.8360    12.4000
  690.5000  -999.2500  -999.2500  -999.2500  -999.2500  -999.2500  -999.2500    11.1570   -46.6430  -155.0000     8.8550    81.8210    11.9010    12.4340
  691.0000  -999.2500  -999.2500  -999.2500  -999.2500  -999.2500  -999.2500    11.1510   -47.4860  -115.6930     8.9770    81.8310    11.9650    12.5850
  691.5000  -999.2500  -999.2500  -999.2500  -999.2500  -999.2500  -999.2500    11.1440   -48.3350   -77.3400     9.0980    82.4660    12.0280    12.8010
  692.0000  -999.2500  -999.2500  -999.2500  -999.2500  -999.2500  -999.2500    11.1380   -49.2090   -48.1890     9.2190    84.3180    12.0920    13.0180
  692.5000  -999.2500  -999.2500  -999.2500  -999.2500  -999.2500  -999.2500    11.1310   -50.1090   -68.5280     9.3400    85.4080    12.2850    13.2340
  693.0000  -999.2500  -999.2500  -999.2500  -999.2500  -999.2500  -999.2500    11.1240   -50.9990   -88.8670     9.4610    84.9960    12.5140    13.4200
  693.5000  -999.2500  -999.2500  -999.2500  -999.2500  -999.2500  -999.2500    11.1180   -51.1400  -109.2060     9.5820    83.2250    12.7100    13.5140
  694.0000  -999.2500  -999.2500  -999.2500  -999.2500  -999.2500  -999.2500    11.1110   -51.1810  -103.4630     9.6170    81.7330    12.8220    13.6470
  694.5000  -999.2500  -999.2500  -999.2500  -999.2500  -999.2500  -999.2500    11.1080   -51.2210   -81.4420     9.6170    81.5890    12.9130    13.5540
  695.0000  -999.2500  -999.2500  -999.2500  -999.2500  -999.2500  -999.2500    11.1050   -51.2640   -59.4210     9.6170    81.4060    12.8220    13.3980
  695.5000  -999.2500  -999.2500  -999.2500  -999.2500  -999.2500  -999.2500    11.1020   -51.2720   -37.4000     9.5170    81.9160    12.7450    13.2220
  696.0000  -999.2500  -999.2500  -999.2500  -999.2500  -999.2500  -999.2500    11.1000   -50.9990   -53.6400     9.4000    83.6190    12.6690    13.0520
  696.5000  -999.2500  -999.2500  -999.2500  -999.2500  -999.2500  -999.2500    11.0970   -50.7240   -75.0000     9.2820    86.1410    12.5920    12.8830
  697.0000  -999.2500  -999.2500  -999.2500  -999.2500  -999.2500  -999.2500    11.0940   -50.4460   -62.2000     9.1650    82.8690    12.4440    12.7130
  697.5000  -999.2500  -999.2500  -999.2500  -999.2500  -999.2500  -999.2500    11.0910   -50.1280   -49.1250     9.0770    79.0810    12.2460    12.5440
  698.0000  -999.2500  -999.2500  -999.2500  -999.2500  -999.2500  -999.2500    11.0820   -49.7530   -62.9000     9.0260    76.0280    12.0490    12.3740
  698.5000  -999.2500  -999.2500  -999.2500  -999.2500  -999.2500  -999.2500    11.0670   -49.3790   -89.0500     8.9760    76.4840    11.8770    12.2040
  699.0000  -999.2500  -999.2500  -999.2500  -999.2500  -999.2500  -999.2500    11.0510   -49.0050  -106.4560     8.9250    77.9350    11.7140    12.0350
  699.5000  -999.2500  -999.2500  -999.2500  -999.2500  -999.2500  -999.2500    11.0360   -48.6300  -110.1890     8.8750    79.4320    11.5510    11.8650
  700.0000  -999.2500  -999.2500  -999.2500  -999.2500  -999.2500  -999.2500    11.0210   -48.2560  -113.9210     8.8240    81.0430    11.3880    11.7670
