~VERSION INFORMATION
 VERS.                2.0:   CWLS LOG ASCII STANDARD - VERSION 2.0
 WRAP.                 NO:   ONE LINE PER DEPTH STEP
~WELL INFORMATION
#MNEM.UNIT      DATA TYPE    INFORMATION
#----------   ------------   ------------------------------
 STRT.F          634.0000:   START DEPTH
 STOP.F         3464.0000:   STOP DEPTH
 STEP.F            0.5000:   STEP LENGTH
 NULL.          -999.2500:   NO VALUE
 COMP. LAWRENCE-ALLISON & ASSOCIATES W:   COMPANY
 WELL. LAWRENCE "TX" #44-27:   WELL
 FLD .   NAVAL RESERVE #3:   FIELD
 LOC .      S27 T39N R78W:   LOCATION
 CNTY.            NATRONA:   COUNTY
 STAT.            WYOMING:   STATE
 CTRY. UNITED STATES OF AMERICA:   COUNTRY
 SRVC.       SCHLUMBERGER:   SERVICE COMPANY
 DATE.        13-MAR-1982:   LOGDATE
 API .     49025108870000:   API NUMBER
~CURVE INFORMATION
#MNEM.UNIT       API CODE    CURVE DESCRIPTION
#----------   ------------   ------------------------------
 DEPT.F                  :   
 TENR.LBS    07 635 01 00:   TENSION FROM RESISTIVITY
 ILD .OHMM   07 120 46 00:   DEEP INDUCTION RESISTIVITY
 ILM .OHMM   07 120 44 00:   INDUCTION LOG MEDIUM RESISTIVITY
 SFLU.OHMM   07 220 01 00:   SPHERICALLY FOCUSED LOG UNAVERAGED RESISTIVITY
 SPR .MV     07 010 01 00:   SPONTANEOUS POTENTIAL
 TENN.LBS    42 635 01 00:   TENSION FROM COMPENSATE NEUTRON
 CALD.IN     45 280 60 00:   CALIPER FROM DENSITY LOG
 GRD .GAPI   45 310 01 00:   GAMMA RAY FROM DENSITY LOG
 RHOB.G/C3   45 350 01 00:   BULK DENSITY
 DRHO.G/C3   45 356 01 00:   DENSITY CORRECTION
 NPHI.DEC    42 890 03 00:   NEUTRON POROSITY SANDSTONE
~PARAMETER INFORMATION
#MNEM.UNIT          VALUE    DESCRIPTION
#----------   ------------   ------------------------------
 EKB .F         5049.0000:   Kelly bushing
 EGL .F         5039.0000:   Ground level
 EDF .F            0.0000:   Drilling floor
 EPD .F            0.0000:   Permanent datum
 TD  .F         3440.0000:   Total depth
 DATE.        13-MAR-1982:   Date logged
 CLNT.            A2DTECH:   Client Code
 PD  .                 GL:   Permanent Datum
 DD  .F              3440:   Depth driller
 DL  .F              3439:   Depth logger
 BLI .F              3433:   Bottom log interval
 CS1 .IN            9.625:   Casing size
 CBD1.      9.625" @ 650':   Casing driller 1
 CBL1.F               647:   Casing logger 1
 BS1 .IN            7.875:   Bit size
 DFT .                GEL:   Type fluid in hole
 DFD .                9.3:   Density
 DFV .                 48:   Viscosity
 DFPH.                 10:   pH
 DFL .                  8:   Fluid loss
 MSS .                PIT:   Source of sample
 RMS .OHMM           1.82:   Rm
 MST .F                67:   Rm Meas. temp.
 RMF .OHMM           1.32:   Rmf
 MFST.F                67:   Rmf Meas. temp.
 MFSS.               MEAS:   Source Rmf.
 RMB .OHMM           1.09:   Rm. at BHT
 BHT .F               112:   BHT.
 TCS .HRS            1300:   Time Circ. stopped
 MRT .F               112:   Maximum recorded temp.
 LUN .               8039:   Logging unit number
 LUL .               CSPR:   Logging unit location
 ENGI.   WAGNER/CONOSENTI:   Recorded By
 WITN.           JENNINGS:   Witnessed by
 ORIG.           5" PRINT:   Origin of data
 UWI .     49025108870000:   Unique Well ID
 DICO. A2D TECHNOLOGIES, INC.:   Digitizing Company
 DAPD.                 10:   Feet Above Permanent Datum
 BSD1.F              3440:   Depth drilled with bit1
 TLI .F               647:   Top log interval
 TLAB.HRS            1800:   Time logger at bottom
~OTHER INFORMATION
~A   DEPT     TENR        ILD        ILM       SFLU        SPR       TENN       CALD         GRD      RHOB       DRHO       NPHI   
# ...
 1915.0000  1067.8640     5.8190     5.0610     6.3420   -28.7470  1498.0160    10.7290   119.7060     2.5470     0.0090     0.3150
 1915.5000  1067.8640     5.7030     5.1150     6.0270   -28.6730  1498.0160    10.7290   117.1100     2.5530     0.0130     0.3140
 1916.0000  1067.8640     5.7210     5.1950     5.9890   -28.7370  1498.0160    10.7280   115.1830     2.5510     0.0200     0.3090
 1916.5000  1067.8640     5.7460     5.2750     5.9710   -28.9950  1499.3870    10.7250   117.4570     2.5430     0.0140     0.3000
 1917.0000  1067.8640     5.7710     5.3150     6.2330   -29.2520  1500.7321    10.7220   119.6830     2.5350     0.0090     0.2980
 1917.5000  1067.8640     5.7970     5.3480     6.7540   -29.5090  1502.0770    10.7190   119.6240     2.5370     0.0140     0.2970
 1918.0000  1067.8640     5.8970     5.3810     7.1110   -29.7670  1503.4220    10.7160   117.9160     2.5460     0.0240     0.2990
 1918.5000  1067.8640     6.1750     5.4140     7.0510   -30.0240  1504.7670    10.7130   116.1400     2.5500     0.0320     0.2970
 1919.0000  1067.8640     6.2920     5.4470     7.0050   -30.2820  1506.1121    10.7110   117.0920     2.5510     0.0300     0.2910
 1919.5000  1067.8640     6.3470     5.4790     6.9590   -30.5400  1507.4570    10.7020   118.6820     2.5510     0.0280     0.2890
 1920.0000  1067.8640     6.4020     5.5120     6.9130   -30.7990  1508.8020    10.6850   120.0870     2.5420     0.0250     0.2960
 1920.5000  1067.8640     6.4570     5.5450     6.8670   -31.0340  1510.1470    10.6670   119.4890     2.5320     0.0150     0.3010
 1921.0000  1066.7040     6.5110     5.5780     6.8210   -30.5900  1511.4919    10.6500   118.8940     2.5220     0.0050     0.2980
 1921.5000  1065.1510     6.5660     5.6110     6.7990   -30.0700  1512.8370    10.6320   120.7310     2.5210     0.0040     0.2960
 1922.0000  1063.5990     6.6210     5.6430     6.8820   -29.5500  1514.1820    10.6340   122.6560     2.5400     0.0160     0.2950
 1922.5000  1062.0460     6.6760     5.7200     6.9490   -29.0300  1515.5270    10.6420   123.8680     2.5580     0.0300     0.2930
 1923.0000  1060.4930     6.7310     5.8410     7.0160   -28.5100  1516.8719    10.6490   121.1080     2.5660     0.0330     0.2880
 1923.5000  1058.9410     6.7860     5.9240     7.0820   -27.9950  1518.2170    10.6560   117.4510     2.5490     0.0250     0.2820
 1924.0000  1057.3879     6.8410     5.9440     7.1490   -27.6080  1519.5620    10.6640   114.4740     2.5310     0.0140     0.2770
 1924.5000  1055.8361     6.9180     5.9640     7.3020   -27.4860  1520.9070    10.6710   112.6310     2.5360     0.0110     0.2740
 1925.0000  1054.2830     6.8640     5.9830     7.5140   -27.3570  1522.2520    10.6780   111.9120     2.5450     0.0230     0.2760
 1925.5000  1052.7310     6.7750     6.0030     7.7240   -27.2300  1523.5959    10.6860   112.4030     2.5550     0.0320     0.2760
 1926.0000  1051.1780     6.6860     6.0270     7.5520   -27.5610  1524.9410    10.6830   113.6890     2.5580     0.0300     0.2740
 1926.5000  1049.6250     6.5970     5.9600     7.3380   -27.9400  1526.2860    10.6750   114.9720     2.5500     0.0260     0.2720
 1927.0000  1048.0730     6.5080     5.8790     7.1250   -28.3190  1527.6310    10.6660   115.3200     2.5500     0.0230     0.2760
 1927.5000  1046.5200     6.4190     5.7980     6.9180   -28.6980  1528.9760    10.6570   115.4680     2.5500     0.0230     0.2800
 1928.0000  1044.9680     6.3300     5.7160     6.9330   -29.0750  1530.3210    10.6490   116.2830     2.5440     0.0260     0.2830
 1928.5000  1043.4150     6.2410     5.6660     6.9490   -29.4540  1531.6660    10.6690   118.4930     2.5380     0.0290     0.2840
 1929.0000  1041.8630     6.1520     5.5810     6.9640   -29.6900  1533.0110    10.6810   120.5450     2.5460     0.0320     0.2830
 1929.5000  1040.3101     6.1260     5.4960     6.9810   -29.8030  1534.3560    10.6940   119.4810     2.5630     0.0450     0.2880
 1930.0000  1038.7581     6.1000     5.4120     6.8550   -29.9150  1535.7010    10.7070   118.3130     2.5890     0.0600     0.2920
 1930.5000  1037.2050     6.0730     5.3270     6.5780   -30.0270  1537.0460    10.7190   117.1320     2.5820     0.0590     0.2960
 1931.0000  1035.6520     6.0460     5.2990     6.4790   -30.1400  1535.9200    10.7320   117.6730     2.5680     0.0470     0.2980
 1931.5000  1034.1000     6.0270     5.2990     6.4630   -30.2520  1532.4640    10.7440   119.1550     2.5560     0.0360     0.2990
 1932.0000  1032.5470     6.0060     5.2990     6.4480   -30.3620  1529.0090    10.7570   120.3220     2.5440     0.0240     0.3000
 1932.5000  1030.9950     5.9870     5.2990     6.4320   -30.3580  1525.5540    10.7690   120.1440     2.5320     0.0190     0.3000
 1933.0000  1029.4420     5.9680     5.2990     6.3900   -29.8520  1522.0990    10.7650   117.8780     2.5250     0.0150     0.3000
 1933.5000  1027.8900     5.9490     5.2990     6.3360   -29.3460  1518.6440    10.7490   115.2780     2.5230     0.0120     0.2960
 1934.0000  1026.3370     5.9300     5.2990     6.2820   -28.8390  1515.1890    10.7440   116.4370     2.5240     0.0100     0.2900
 1934.5000  1024.7841     5.9170     5.2830     6.2290   -28.3420  1511.7340    10.7410   118.2020     2.5250     0.0080     0.2850
 1935.0000  1023.2320     5.9170     5.2530     6.1750   -27.7940  1508.2791    10.7370   119.2120     2.5320     0.0090     0.2900
 1935.5000  1021.6790     5.9170     5.2230     6.1330   -27.6110  1504.8230    10.7330   120.0590     2.5430     0.0160     0.2940
 1936.0000  1020.1270     5.5860     5.1560     6.0270   -27.3980  1501.3680    10.7280   119.7380     2.5520     0.0240     0.3000
 1936.5000  1018.5740     5.2290     4.8050     6.9180   -27.2180  1497.9130    10.7630   118.7190     2.5520     0.0380     0.3180
 1937.0000  1017.0220     4.8420     4.4530     6.9180   -27.3260  1494.4580    10.7940   115.2080     2.5340     0.0610     0.3360
 1937.5000  1015.4690     4.2750     4.1020     5.9760   -27.4340  1491.0031    10.9030   111.7030     2.4940     0.0840     0.3540
 1938.0000  1013.9160     3.9790     3.7500     4.8880   -27.5380  1487.5480    11.1150   108.2150     2.3870     0.0780     0.3650
 1938.5000  1012.3640     3.9010     3.3990     3.7990   -27.6100  1484.0930    11.2600   104.7180     2.3200     0.0640     0.3900
 1939.0000  1010.8110     3.8240     3.2280     3.0810   -28.1060  1480.6379    11.1720   101.2690     2.3430     0.0590     0.3890
 1939.5000  1009.2590     3.7710     3.1090     3.0250   -28.6920  1479.7729    10.9900   100.8720     2.3910     0.0740     0.3740
 1940.0000  1007.9840     3.9750     3.4890     3.9060   -29.2810  1485.3400    10.8290   105.3390     2.4510     0.0780     0.3540
 1940.5000  1034.8210     4.2370     3.8790     4.8110   -29.6460  1490.9060    10.7560   108.9830     2.5020     0.0500     0.3330
 1941.0000  1062.2030     4.5430     4.2680     5.7150   -29.7280  1496.4730    10.6820   110.9120     2.5200     0.0370     0.3200
 1941.5000  1068.2629     5.0310     4.6580     6.6200   -29.8120  1502.0389    10.6070   112.6250     2.5270     0.0280     0.3130
 1942.0000  1068.7650     5.5190     5.0090     6.9810   -29.8930  1507.6060    10.5300   116.3060     2.5220     0.0190     0.3080
 1942.5000  1069.2670     6.0060     5.2070     6.9810   -29.9700  1513.1720    10.5090   119.8990     2.5170     0.0140     0.2980
 1943.0000  1069.7700     6.4860     5.4050     6.9810   -29.9580  1517.1670    10.5080   122.2250     2.5160     0.0130     0.2950
 1943.5000  1070.2720     6.1970     5.5990     6.9810   -29.6010  1512.8110    10.5080   121.0920     2.5240     0.0120     0.2920
 1944.0000  1070.7740     5.9130     5.4290     6.9810   -29.2530  1508.4540    10.5080   117.9180     2.5330     0.0150     0.2890
 1944.5000  1071.2760     5.6290     5.2610     6.9810   -28.9050  1504.0980    10.5000   117.0700     2.5430     0.0270     0.2880
 1945.0000  1071.7791     5.3440     5.0940     6.6030   -28.5590  1499.7410    10.4930   116.3290     2.5480     0.0380     0.2910
