~VERSION INFORMATION
 VERS.                2.0:   CWLS LOG ASCII STANDARD - VERSION 2.0
 WRAP.                 NO:   ONE LINE PER DEPTH STEP
~WELL INFORMATION
#MNEM.UNIT      DATA TYPE    INFORMATION
#----------   ------------   ------------------------------
 STRT.F           36.0000:   START DEPTH
 STOP.F         3488.0000:   STOP DEPTH
 STEP.F            0.5000:   STEP LENGTH
 NULL.          -999.2500:   NO VALUE
 COMP. LAWRENCE - ALLISON  & ASSOCIATE:   COMPANY
 WELL. LAWRENCE "STX" #76-23:   WELL
 FLD .              NPR 3:   FIELD
 LOC .      S23 T38N R78W:   LOCATION
 CNTY.            NATRONA:   COUNTY
 STAT.            WYOMING:   STATE
 CTRY. UNITED STATES OF AMERICA:   COUNTRY
 SRVC.       SCHLUMBERGER:   SERVICE COMPANY
 DATE.        07-MAY-1982:   LOGDATE
 API .     49025108920000:   API NUMBER
~CURVE INFORMATION
#MNEM.UNIT       API CODE    CURVE DESCRIPTION
#----------   ------------   ------------------------------
 DEPT.F                  :   
 CORR.G/C3   45 356 01 00:   DENSITY CORRECTION
 CALD.IN     45 280 60 00:   CALIPER FROM DENSITY LOG
 GRD .GAPI   45 310 01 00:   GAMMA RAY FROM DENSITY LOG
 RHOB.G/C3   45 350 01 00:   BULK DENSITY
 SFL .OHMM   07 220 01 00:   SHALLOW FOCUSED LOG RESISTIVITY
 ILD .OHMM   07 120 46 00:   DEEP INDUCTION RESISTIVITY
 ILM .OHMM   07 120 44 00:   INDUCTION LOG MEDIUM RESISTIVITY
 TENR.LBS    07 635 01 00:   TENSION
 SPR .MV     07 010 01 00:   SPONTANEOUS POTENTIAL
 NPHI.DEC    42 890 03 00:   NEUTRON POROSITY SANDSTONE
 TEND.LBS    45 635 01 00:   TENSION FROM DENSITY LOG
~PARAMETER INFORMATION
#MNEM.UNIT          VALUE    DESCRIPTION
#----------   ------------   ------------------------------
 EKB .F         5441.0000:   Kelly bushing
 EGL .F         5431.0000:   Ground level
 EDF .F            0.0000:   Drilling floor
 EPD .F            0.0000:   Permanent datum
 TD  .F         3788.0000:   Total depth
 DATE.        07-MAY-1982:   Date logged
 CLNT.            A2DTECH:   Client Code
 SL  . 1327' FSL & 1190' FEL:   Surface Location
 PD  .                 GL:   Permanent Datum
 DAPD.F                10:   Feet Above Permanent Datum
 DD  .F              3788:   Depth driller
 DL  .F              3478:   Depth logger
 BLI .F              3471:   Bottom log interval
 TLI .F              1615:   Top log interval
 CS1 .IN            9.625:   Casing size
 CBD1.     9.625" @ 1603':   Casing driller 1
 CBL1.F              1615:   Casing logger 1
 BS1 .IN            7.875:   Bit size
 BSD1.F              3788:   Depth drilled with bit1
 DFT .                AIR:   Type fluid in hole
 TCS .HRS            1230:   Time Circ. stopped
 TLAB.HRS            1500:   Time logger at bottom
 MRT .F               125:   Maximum recorded temp.
 LUN .               8035:   Logging unit number
 LUL .               CSPR:   Logging unit location
 ENGI.              PENNY:   Recorded By
 WITN.    JENNINGS/STRONG:   Witnessed by
 ORIG.       2.5"5" PRINT:   Origin of data
 UWI .     49025108920000:   Unique Well ID
 DICO. A2D TECHNOLOGIES, INC.:   Digitizing Company
~OTHER INFORMATION
~A   DEPT       CORR     CALD        GRD         RHOB      SFL        ILD        ILM       TENR        SPR        NPHI      TEND   
# ...
 1164.5000     0.0180    12.8150    99.4630     2.5050     8.1930     7.9620     7.9620   946.9000   -16.6220     0.2930  1310.4990
 1165.0000     0.0160    12.8160   100.3840     2.5030     8.2790     7.9320     7.9320   947.1410   -15.7690     0.2890  1310.7520
 1165.5000     0.0140    12.8160    98.8480     2.5010     8.2390     7.9020     7.9020   947.3830   -14.9160     0.2850  1311.0050
 1166.0000     0.0130    12.8170    97.1190     2.4960     8.1880     7.8720     7.8720   947.5810   -14.0240     0.2820  1311.2581
 1166.5000     0.0090    12.8170    96.9330     2.4890     8.1360     7.8420     7.8420   947.5810   -13.2070     0.2810  1311.5110
 1167.0000     0.0050    12.8170    99.6410     2.4830     8.0840     7.8120     7.8120   947.5810   -12.2270     0.2850  1311.7640
 1167.5000     0.0010    12.8180   102.3210     2.4880     8.0330     7.7820     7.7820   947.5810   -12.1610     0.2860  1312.0170
 1168.0000     0.0080    12.8180   103.2770     2.4960     7.9810     7.7520     7.7520   947.5810   -12.1570     0.2830  1312.2700
 1168.5000     0.0150    12.8190   103.1390     2.5020     7.9290     7.7210     7.7210   947.5810   -12.4010     0.2840  1312.5220
 1169.0000     0.0140    12.8190   102.9940     2.4960     7.8770     7.6910     7.6910   947.5810   -12.9410     0.2910  1312.7750
 1169.5000     0.0100    12.8200   102.8530     2.4870     7.8250     7.6610     7.6610   947.5810   -13.6840     0.2990  1313.0280
 1170.0000     0.0060    12.8200   102.0020     2.4810     7.7730     7.6310     7.6310   947.5810   -14.0400     0.2990  1313.2810
 1170.5000     0.0030    12.8200   100.7920     2.4900     7.7210     7.6010     7.6010   947.5810   -13.6400     0.2940  1313.5341
 1171.0000     0.0000    12.8210   100.5790     2.4970     7.6850     7.5710     7.5710   947.5810   -13.2980     0.2890  1313.7870
 1171.5000    -0.0010    12.8210   101.4560     2.4980     7.6990     7.5440     7.5440   947.5810   -12.9600     0.2870  1314.0400
 1172.0000    -0.0010    12.8220   102.3230     2.4980     7.7280     7.5120     7.5120   947.5810   -13.4700     0.2860  1314.2930
 1172.5000    -0.0010    12.8220   102.9050     2.4920     7.7560     7.4830     7.4830   947.5810   -14.2180     0.2880  1314.5460
 1173.0000    -0.0010    12.8220   101.6080     2.4870     7.7850     7.4540     7.4540   947.5810   -14.9580     0.2970  1314.7990
 1173.5000    -0.0010    12.8230    99.5920     2.4810     7.8130     7.4250     7.4250   947.5810   -15.7040     0.3040  1315.0520
 1174.0000    -0.0010    12.8230    97.0520     2.4800     7.8300     7.3960     7.3960   947.5810   -16.4240     0.3120  1315.3040
 1174.5000     0.0020    12.8240    95.9060     2.4960     7.7610     7.3670     7.3670   947.5810   -17.1570     0.3170  1315.5570
 1175.0000     0.0150    12.8240    98.6940     2.5150     7.6420     7.3380     7.3380   947.5810   -17.0330     0.3120  1315.8101
 1175.5000     0.0270    12.8250   101.4800     2.5240     7.5220     7.3090     7.3090   947.5810   -16.5910     0.3060  1316.0630
 1176.0000     0.0270    12.8250   101.9840     2.5210     7.4060     7.2800     7.2700   947.5810   -16.2290     0.3060  1316.3160
 1176.5000     0.0270    12.8250   101.1960     2.5200     7.4060     7.2700     7.2750   947.5810   -15.7990     0.3100  1316.5690
 1177.0000     0.0320    12.8260   101.4540     2.5320     7.4310     7.2700     7.2960   947.5810   -16.5580     0.3140  1316.8220
 1177.5000     0.0380    12.8260   103.0420     2.5430     7.4870     7.2700     7.3180   947.5810   -17.6610     0.3190  1317.0750
 1178.0000     0.0390    12.8270   104.5990     2.5490     7.5440     7.2700     7.3400   947.5810   -17.7990     0.3130  1317.3280
 1178.5000     0.0380    12.8270   105.4780     2.5490     7.6000     7.2700     7.3620   947.5810   -16.8080     0.3060  1317.5811
 1179.0000     0.0300    12.8280   104.3610     2.5470     7.6570     7.2700     7.3830   947.5810   -15.9520     0.3060  1317.8340
 1179.5000     0.0220    12.8280   103.2940     2.5360     7.7130     7.2690     7.4050   947.5810   -15.0790     0.3080  1318.0861
 1180.0000     0.0150    12.8280   103.1650     2.5190     7.7700     7.2700     7.4280   947.5810   -14.1800     0.3090  1318.3390
 1180.5000     0.0080    12.8290   103.8320     2.5030     7.8300     7.2670     7.4500   947.5810   -13.3040     0.3110  1318.5920
 1181.0000     0.0060    12.8290   104.0680     2.4970     7.6870     7.2730     7.4700   947.5810   -12.5650     0.3210  1318.8450
 1181.5000     0.0080    12.8300   103.4810     2.4970     7.5340     7.2700     7.4920   947.5810   -12.4280     0.3170  1319.0980
 1182.0000     0.0110    12.8300   104.9060     2.5010     7.4060     7.2700     7.5140   947.5810   -12.3070     0.3110  1319.3510
 1182.5000     0.0130    12.8300   109.7800     2.5040     7.4060     7.1360     7.5450   947.5810   -12.1940     0.3060  1319.6040
 1183.0000     0.0130    12.8310   114.6780     2.5000     7.2970     7.0420     7.3940   947.5810   -12.1850     0.3090  1319.8571
 1183.5000     0.0140    12.8310   117.4680     2.5000     7.1100     6.8810     7.1370   947.5810   -12.2650     0.3190  1320.1100
 1184.0000     0.0150    12.8320   113.1930     2.5010     6.9230     6.7200     6.8800   947.5810   -12.3420     0.3300  1320.3630
 1184.5000     0.0110    12.8320   109.6130     2.4970     6.7360     6.5590     6.6230   947.5810   -12.4010     0.3380  1320.6160
 1185.0000     0.0060    12.8330   106.3090     2.4890     6.5490     6.3980     6.3660   947.5810   -12.4880     0.3360  1320.8680
 1185.5000     0.0040    12.8330   105.5470     2.4860     6.3630     6.2370     6.1090   947.5810   -12.5820     0.3320  1321.1210
 1186.0000     0.0060    12.8330   107.3570     2.4880     6.1510     6.0760     5.8180   947.5810   -13.0730     0.3290  1321.3740
 1186.5000     0.0080    12.8340   109.1650     2.4920     6.1510     5.9270     5.7110   947.5810   -13.6040     0.3250  1321.6270
 1187.0000     0.0090    12.8350   110.9270     2.4980     6.1510     5.9270     5.7590   947.5810   -13.5350     0.3210  1321.8800
 1187.5000     0.0080    12.8350   109.2500     2.5060     6.1510     5.9270     5.9310   947.5810   -13.1250     0.3170  1322.1331
 1188.0000     0.0070    12.8360   107.3210     2.5140     6.5000     6.0790     6.1030   947.5810   -12.7650     0.3120  1322.3860
 1188.5000     0.0050    12.8370   105.3970     2.5110     6.8170     6.2180     6.2750   947.5810   -12.3670     0.2970  1322.6390
 1189.0000     0.0040    12.8370   103.4770     2.5020     7.1350     6.3570     6.4460   947.5810   -12.2180     0.2940  1322.8920
 1189.5000     0.0020    12.8380   102.5540     2.4970     7.4060     6.4950     6.6180   947.5810   -12.5240     0.2890  1323.1450
 1190.0000     0.0020    12.8390   101.8630     2.4930     7.3210     6.6340     6.7900   947.5810   -12.7960     0.2890  1323.3979
 1190.5000     0.0020    12.8390   101.7690     2.4900     7.2080     6.7490     6.9610   947.5810   -13.0630     0.2940  1323.6500
 1191.0000     0.0020    12.8400   102.0050     2.4900     7.0960     6.6940     7.1360   947.5810   -13.3070     0.2970  1323.9030
 1191.5000     0.0050    12.8410   102.1200     2.4950     7.0050     6.6470     7.1360   947.5810   -12.9700     0.2980  1324.1560
 1192.0000     0.0070    12.8410   100.0850     2.5000     7.0050     6.6000     7.1360   947.5810   -12.6180     0.2980  1324.4091
 1192.5000     0.0100    12.8420    98.0500     2.5040     7.0050     6.5530     7.1360   947.5810   -12.0920     0.2960  1324.6620
 1193.0000     0.0120    12.8420    95.9810     2.5030     6.8970     6.5060     7.1360   947.5810   -11.8660     0.2960  1324.9150
 1193.5000     0.0130    12.8430    94.6180     2.5020     6.7660     6.4590     7.0550   947.5810   -12.2880     0.2990  1325.1680
 1194.0000     0.0130    12.8440    94.5370     2.5020     6.6350     6.4120     6.9280   947.5810   -12.6480     0.3010  1325.4210
 1194.5000     0.0140    12.8440    95.0310     2.5030     6.5040     6.3650     6.8010   947.5810   -13.0020     0.3030  1325.6740
