~VERSION INFORMATION
 VERS.                2.0:   CWLS LOG ASCII STANDARD - VERSION 2.0
 WRAP.                 NO:   ONE LINE PER DEPTH STEP
~WELL INFORMATION
#MNEM.UNIT      DATA TYPE    INFORMATION
#----------   ------------   ------------------------------
 STRT.F          670.0000:   START DEPTH
 STOP.F         3440.0000:   STOP DEPTH
 STEP.F            0.5000:   STEP LENGTH
 NULL.          -999.2500:   NO VALUE
 COMP.    FENIX & SCISSON:   COMPANY
 WELL.   FENIX "A" #57-33:   WELL
 FLD .             NPR #3:   FIELD
 LOC .      S33 T39N R78W:   LOCATION
 CNTY.            NATRONA:   COUNTY
 STAT.            WYOMING:   STATE
 CTRY. UNITED STATES OF AMERICA:   COUNTRY
 SRVC.       SCHLUMBERGER:   SERVICE COMPANY
 DATE.        27-APR-1977:   LOGDATE
 API .     49025103600000:   API NUMBER
~CURVE INFORMATION
#MNEM.UNIT       API CODE    CURVE DESCRIPTION
#----------   ------------   ------------------------------
 DEPT.F                  :   
 SPR .MV     11 010 01 00:   SPONTANEOUS POTENTIAL FROM RES.
 MSFL.OHMM   11 270 04 00:   MICRO SPHERICALLY FOCUSED
 LLD .OHMM   11 220 10 00:   LATEROLOG LOG DEEP
 LLS .OHMM   11 220 09 00:   LATEROLOG LOG SHALLOW
 CALD.IN     45 280 60 00:   CALIPER FROM DENSITY LOG
 DRHO.G/C3   45 356 01 00:   DENSITY CORRECTION
 NPHI.DEC    42 890 03 00:   NEUTRON POROSITY SANDSTONE
 RHOB.G/C3   45 350 01 00:   BULK DENSITY
 GRD .GAPI   45 310 01 00:   GAMMA RAY FROM RESISTIVITY
~PARAMETER INFORMATION
#MNEM.UNIT          VALUE    DESCRIPTION
#----------   ------------   ------------------------------
 EKB .F         5183.0000:   Kelly bushing
 EGL .F         5172.0000:   Ground level
 EDF .F            0.0000:   Drilling floor
 TD  .F         3424.0000:   Total depth
 DATE.        27-APR-1977:   Date logged
 CLNT.            A2DTECH:   Client Code
 SL  . 990' FSL & 2310' FEL:   Surface Location
 PD  .                 GL:   Permanent Datum
 EPD .F              5172:   Elevation Permanent Datum
 LMF .                 KB:   Log Measured From
 DMF .                 KB:   Drilling Measured From
 DAPD.F                11:   Feet Above Permanent Datum
 DD  .F              3421:   Depth driller
 DL  .F              3424:   Depth logger
 BLI .F              3423:   Bottom log interval
 TLI .F               764:   Top log interval
 CS1 .IN            8.625:   Casing size
 CBD1.      8.625" @ 711':   Casing driller 1
 BS1 .IN            7.875:   Bit size
 BSD1.F              3421:   Depth drilled with bit1
 DFT .            KCL MUD:   Type fluid in hole
 DFD .                9.5:   Density
 DFV .                 41:   Viscosity
 DFPH.                  8:   pH
 DFL .               10.8:   Fluid loss
 MSS .            MUD PIT:   Source of sample
 RMS .OHMM           0.26:   Rm
 MST .F                74:   Rm Meas. temp.
 RMF .OHMM           0.21:   Rmf
 MFST.F                74:   Rmf Meas. temp.
 RMC .OHMM            .09:   Rmc
 MCST.F                74:   Rmc Meas. temp.
 MFSS.               MEAS:   Source Rmf.
 MCSS.               CALC:   Source Rmc.
 RMB .OHMM           0.15:   Rm. at BHT
 BHT .F               126:   BHT.
 TCS .HRS            0900:   Time Circ. stopped
 TLAB.HRS            1430:   Time logger at bottom
 MRT .F               126:   Maximum recorded temp.
 LUN .               7711:   Logging unit number
 LUL .               CSPR:   Logging unit location
 ENGI.             SAYLER:   Recorded By
 WITN.         PETTINGILL:   Witnessed by
 ORIG.           5" PRINT:   Origin of data
 UWI .     49025103600000:   Unique Well ID
 DICO. A2D TECHNOLOGIES, INC.:   Digitizing Company
~OTHER INFORMATION
~A   DEPT      SPR       MSFL        LLD        LLS         CALD      DRHO        NPHI       RHOB      GRD   
# ...
 1947.5000   -48.4000     5.1370     5.8540     6.9070     9.3870     0.0210     0.3550     2.5970   147.0470
 1948.0000   -48.4190     4.4850     5.8980     6.5970     9.3930     0.0130     0.3560     2.5800   142.3700
 1948.5000   -48.4380     7.1630     6.0360     7.1260     9.4060     0.0270     0.3570     2.5690   139.4030
 1949.0000   -48.4570     9.1970     6.1750     7.8260     9.4380     0.0700     0.3560     2.6040   137.4070
 1949.5000   -48.4760     9.8560     6.7160     8.5260     9.4690     0.0830     0.3550     2.5990   136.2100
 1950.0000   -48.4950     9.9810     7.6520     9.0160     9.5000     0.0960     0.3550     2.5920   137.6220
 1950.5000   -48.4800    10.1590     7.9270     8.9090     9.5160     0.1080  -999.2500     2.5990   139.4350
 1951.0000   -48.2130    10.4290     7.6590     8.7910     9.5160     0.0900  -999.2500     2.5580   140.2660
 1951.5000   -47.9440    10.6770     7.5020     8.6900     9.5160    -0.0030  -999.2500     2.5220   139.3570
 1952.0000   -47.6750    10.8230     7.6090     8.8550     9.5160     0.0010  -999.2500     2.5490   139.1490
 1952.5000   -47.4060    10.6980     7.6770     8.9660     9.5160     0.0020  -999.2500     2.5740   138.2680
 1953.0000   -47.1370    10.5990     7.7440     9.0990     9.5160     0.0040  -999.2500     2.5770   138.6600
 1953.5000   -46.8690    10.4990     7.7830     9.0160     9.5160     0.0060  -999.2500     2.5800   139.8550
 1954.0000   -46.5990     9.8250     7.6340     8.2220     9.5200     0.0080  -999.2500     2.5830   135.9320
 1954.5000   -46.3290     7.2470     7.3980     6.9680     9.5290     0.0060  -999.2500     2.5830   137.6340
 1955.0000   -46.1260     4.8710     7.1320     5.7140     9.5380     0.0040  -999.2500     2.5770   139.8400
 1955.5000   -45.9120     3.6300     6.7820     4.8270     9.5470     0.0100  -999.2500     2.5700   139.8550
 1956.0000   -45.9300     3.6480     6.4330     5.2080     9.5560     0.0300  -999.2500     2.5650   137.2060
 1956.5000   -45.9340     5.2520     6.1290     6.0000     9.5650     0.0590  -999.2500     2.5610   136.8190
 1957.0000   -45.9430     9.0160     6.3000     6.7920     9.5740     0.1000     0.3650     2.5560   138.9950
 1957.5000   -45.9820     8.9330     6.9120     7.5840     9.5830     0.0880     0.3870     2.5310   139.2120
 1958.0000   -46.0190     8.0840     7.5710     8.0740     9.5930     0.0580     0.3870     2.4930   139.2750
 1958.5000   -46.0570     6.3000     7.3670     8.1490     9.5730     0.0360     0.3670     2.5070   142.8070
 1959.0000   -46.0940     7.2860     7.1650     8.3590     9.5380     0.0130  -999.2500     2.5280   142.5980
 1959.5000   -46.1240     9.6510     7.4460     8.6270     9.5030     0.0150  -999.2500     2.5790   142.2950
 1960.0000   -46.3000    11.8770     7.7050     8.8950     9.4740     0.0160  -999.2500     2.6020   144.9350
 1960.5000   -46.5050    12.0970     7.9650     9.1630     9.4800     0.0140  -999.2500     2.5970   143.9870
 1961.0000   -46.7130    11.4380     8.1490     9.3530     9.6190     0.0110  -999.2500     2.5860   142.2180
 1961.5000   -46.9210    10.9280     7.8510     9.1500     9.9670     0.0070  -999.2500     2.5750   140.6160
 1962.0000   -47.1290    10.4180     7.6370     8.9240     9.4420     0.0070  -999.2500     2.5900   139.9030
 1962.5000   -47.3360     9.8830     7.4230     8.6980     9.3590     0.0090  -999.2500     2.6000   140.0980
 1963.0000   -47.5190     9.7930     7.2100     8.4730     9.3580     0.0160  -999.2500     2.6050   141.5700
 1963.5000   -47.5180     9.7930     7.0350     8.3000     9.3610     0.0250  -999.2500     2.6150   144.3380
 1964.0000   -47.5020     9.8600     7.0480     8.3220     9.3640     0.0240  -999.2500     2.6210   148.2280
 1964.5000   -47.4870     9.9450     7.1160     8.3770     9.3670     0.0180  -999.2500     2.6090   150.5240
 1965.0000   -47.4710    10.0300     7.1840     8.4320     9.3690     0.0140  -999.2500     2.6020   152.4080
 1965.5000   -47.4560    10.1150     7.2510     8.4870     9.3720     0.0130  -999.2500     2.5960   150.0600
 1966.0000   -47.4400    10.1990     7.3190     8.5430     9.3740     0.0130  -999.2500     2.5950   148.5340
 1966.5000   -47.4250    10.2840     7.3870     8.5980     9.3770     0.0120  -999.2500     2.5940   145.5970
 1967.0000   -47.4090    10.3690     7.4580     8.6530     9.3790     0.0080  -999.2500     2.5820   146.1470
 1967.5000   -47.3940    10.4430     7.6840     8.7520     9.3820     0.0050  -999.2500     2.5700   145.9670
 1968.0000   -47.3780    10.9240     7.9100     8.9430     9.3850     0.0100  -999.2500     2.5800   142.6540
 1968.5000   -47.3630    11.4400     8.1360     9.1330     9.3870     0.0140  -999.2500     2.5790   142.9430
 1969.0000   -47.3470    11.6610     8.4540     9.3240     9.3900     0.0110  -999.2500     2.5800   144.3770
 1969.5000   -47.3330    11.5540     8.3170     9.4390     9.3920     0.0130  -999.2500     2.5940   145.8140
 1970.0000   -47.3550    10.9230     8.0170     9.0550     9.3950     0.0170  -999.2500     2.6060   147.2370
 1970.5000   -47.4710    10.2710     7.7170     8.7570     9.3970     0.0220  -999.2500     2.6100   147.3600
 1971.0000   -47.5830     9.6190     7.4170     8.4590     9.4000     0.0250  -999.2500     2.6100   144.6900
 1971.5000   -47.6950     9.5270     7.1170     8.2240     9.4020     0.0210  -999.2500     2.5960   147.2560
 1972.0000   -47.8080     9.4770     6.8440     8.1490     9.4050     0.0170  -999.2500     2.5780   150.2860
 1972.5000   -47.9190     9.4030     7.0230     8.1490     9.4070     0.0150  -999.2500     2.5830   149.9650
 1973.0000   -47.7790     9.3300     7.2230     8.1490     9.4100     0.0110  -999.2500     2.5860   147.0170
 1973.5000   -47.6120     9.0320     7.4340     8.2240     9.4130     0.0080  -999.2500     2.5830   141.4690
 1974.0000   -47.5120     7.0310     7.4340     8.2240     9.4150     0.0050  -999.2500     2.5760   138.8180
 1974.5000   -47.4730     4.7410     5.0820     6.8910     9.4180     0.0050  -999.2500     2.5680   143.4220
 1975.0000   -47.4350     2.4510     3.2510     4.9490     9.4220     0.0050  -999.2500     2.5500   140.8770
 1975.5000   -47.3980     0.6510     2.8370     4.2050     9.4260     0.0060  -999.2500     2.5240   138.2400
 1976.0000   -47.3610     2.7620     2.6810     4.3630     9.4300     0.0130  -999.2500     2.4860   135.6650
 1976.5000   -47.3220     6.0920     4.7390     5.6640     9.4330     0.0280  -999.2500     2.4190   135.7250
 1977.0000   -47.2700     8.5320     6.7280     6.9200     9.4640     0.0860     0.4010     2.3730   137.7700
 1977.5000   -47.2150     8.2240     7.1000     7.5710     9.5280     0.1440     0.4250     2.3370   137.0830
 1978.0000   -47.1610     7.8550     6.9050     7.7120    10.2800     0.0130     0.4280     2.2880   135.8310
 1978.5000   -47.1060     8.2240     6.7250     7.8550     9.8650     0.0270  -999.2500     2.3940   134.5580
 1979.0000   -47.0530     7.9600     6.5360     7.9200     9.6180     0.0500  -999.2500     2.5210   135.1550
 1979.5000   -46.9950     6.9040     6.6780     8.0100     9.6250     0.1140  -999.2500     2.5830   139.1830
 1980.0000   -46.9210     4.8320     6.8260     8.0990     9.7710     0.1000  -999.2500     2.6010   139.8020
 1980.5000   -47.2050     3.1630     6.9740     8.1890    10.1020     0.0410  -999.2500     2.5560   141.2090
 1981.0000   -47.3730     5.7900     7.1210     8.3000     9.7380     0.0330  -999.2500     2.5740   141.4300
 1981.5000   -47.5490     8.4220     7.2690     8.3770     9.6460     0.0320  -999.2500     2.5870   142.6190
 1982.0000   -47.7230     9.7030     7.4170     8.4860     9.5990     0.0280  -999.2500     2.5730   146.4770
 1982.5000   -47.8950    10.0220     7.5640     8.6160     9.9860     0.0230  -999.2500     2.5990   150.0770
 1983.0000   -48.0670    10.2910     7.6410     8.7460    10.2820     0.0170  -999.2500     2.5900   150.2470
 1983.5000   -48.2420    10.5590     7.7720     8.8760     9.7140     0.0110  -999.2500     2.5840   148.5010
