~VERSION INFORMATION
 VERS.                2.0:   CWLS LOG ASCII STANDARD - VERSION 2.0
 WRAP.                 NO:   ONE LINE PER DEPTH STEP
~WELL INFORMATION
#MNEM.UNIT      DATA TYPE    INFORMATION
#----------   ------------   ------------------------------
 STRT.F          484.0000:   START DEPTH
 STOP.F         4096.0000:   STOP DEPTH
 STEP.F            0.5000:   STEP LENGTH
 NULL.          -999.2500:   NO VALUE
 COMP.    FENIX & SCISSON:   COMPANY
 WELL. FENIX NPR "JX" #58-28:   WELL
 FLD .                NPR:   FIELD
 LOC .      S28 T39N R78W:   LOCATION
 CNTY.            NATRONA:   COUNTY
 STAT.            WYOMING:   STATE
 CTRY. UNITED STATES OF AMERICA:   COUNTRY
 SRVC.              WELEX:   SERVICE COMPANY
 DATE.        02-MAY-1978:   LOGDATE
 API .     49025107810000:   API NUMBER
~CURVE INFORMATION
#MNEM.UNIT       API CODE    CURVE DESCRIPTION
#----------   ------------   ------------------------------
 DEPT.F                  :   
 NPHI.DEC    42 890 03 00:   NEUTRON POROSITY SANDSTONE
 RHOB.G/C3   45 350 01 00:   BULK DENSITY
 CORR.G/C3   45 356 01 00:   DENSITY CORRECTION
 CALD.IN     45 280 60 00:   CALIPER FROM DENSITY LOG
 GRD .GAPI   45 310 01 00:   GAMMA RAY FROM DENSITY LOG
 SPR .MV     07 010 01 00:   SPONTANEOUS POTENTIAL
 ILD .OHMM   07 120 46 00:   DEEP INDUCTION RESISTIVITY
 SGRD.OHMM   07 220 05 00:   SHALLOW SHORT GUARD RESISTIVITY
 ILM .OHMM   07 120 44 00:   INDUCTION LOG MEDIUM RESISTIVITY
~PARAMETER INFORMATION
#MNEM.UNIT          VALUE    DESCRIPTION
#----------   ------------   ------------------------------
 EKB .F         5115.0000:   Kelly bushing
 EGL .F         5101.0000:   Ground level
 EDF .F            0.0000:   Drilling floor
 EPD .F         5101.0000:   Permanent datum
 TD  .F         4100.0000:   Total depth
 DATE.        02-MAY-1978:   Date logged
 CLNT.            A2DTECH:   Client Code
 SL  . 525' FSL & 2406' FEL:   Surface Location
 PD  .                 GL:   Permanent Datum
 DAPD.F                14:   Feet Above Permanent Datum
 DD  .F              4100:   Depth driller
 DL  .F              4098:   Depth logger
 BLI .F              4096:   Bottom log interval
 CS1 .IN            8.625:   Casing size
 CBD1.      8.625" @ 501':   Casing driller 1
 CBL1.F               500:   Casing logger 1
 BS1 .IN            7.875:   Bit size
 BSD1.F              4100:   Depth drilled with bit1
 DFT .            CHM GEL:   Type fluid in hole
 DFD .                9.4:   Density
 DFV .                 48:   Viscosity
 DFPH.                9.3:   pH
 DFL .                8.5:   Fluid loss
 MSS .           FLOWLINE:   Source of sample
 RMS .OHMM           1.24:   Rm
 MST .F                70:   Rm Meas. temp.
 RMF .OHMM            .57:   Rmf
 MFST.F                70:   Rmf Meas. temp.
 RMC .OHMM           1.48:   Rmc
 MCST.F                70:   Rmc Meas. temp.
 MFSS.               MEAS:   Source Rmf.
 MCSS.               MEAS:   Source Rmc.
 RMB .OHMM            .87:   Rm. at BHT
 BHT .F               123:   BHT.
 TCS .HRS               4:   Time Circ. stopped
 MRT .F               123:   Maximum recorded temp.
 LUN .               1892:   Logging unit number
 LUL .             CASPER:   Logging unit location
 ENGI.               REIN:   Recorded By
 WITN.           DINSMORE:   Witnessed by
 ORIG.         2.5" PRINT:   Origin of data
 UWI .     49025107810000:   Unique Well ID
 DICO. A2D TECHNOLOGIES, INC.:   Digitizing Company
 TLI .                500:   Top log interval
~OTHER INFORMATION
~A   DEPT       NPHI     RHOB       CORR       CALD         GRD       SPR        ILD       SGRD        ILM   
# ...
 3112.0000     0.2230     2.6020     0.0920     8.6330    85.3040    -9.5630     4.1950     7.0650     5.5460
 3112.5000     0.2240     2.6030     0.0910     8.5800    89.7400    -9.5290     4.2790     5.7390     5.3850
 3113.0000     0.2210     2.6040     0.0910     8.5850    93.9800    -9.5090     4.3640     5.6710     5.1370
 3113.5000     0.2180     2.6060     0.0910     8.6490    93.2860    -9.5140     4.4480     5.6340     5.1500
 3114.0000     0.2160     2.6090     0.0900     8.7050    92.1130    -9.5190     4.5330     5.9170     5.1800
 3114.5000     0.2170     2.6120     0.0900     8.7590    90.5120    -9.4900     4.6170     7.0740     5.2100
 3115.0000     0.2170     2.6060     0.0900     8.7620    91.3590    -9.7470     4.7010     6.8800     5.2400
 3115.5000     0.2180     2.6050     0.0890     8.7630    93.7240   -10.1950     4.7700     6.4910     5.2700
 3116.0000     0.2200     2.6020     0.0890     8.7620    94.9630   -10.6040     4.7540     6.3520     5.3000
 3116.5000     0.2190     2.6010     0.0890     8.7600    95.7260   -11.0200     4.7400     6.2950     5.3300
 3117.0000     0.2180     2.5930     0.0870     8.7580    96.5320   -11.0500     4.7260     6.0990     5.3590
 3117.5000     0.2160     2.5810     0.0800     8.7560    97.2890   -10.9110     4.7120     5.6840     5.3890
 3118.0000     0.2180     2.5740     0.0730     8.7530    98.1270   -10.7790     4.6980     5.3300     5.4190
 3118.5000     0.2170     2.5740     0.0660     8.7510    97.8010   -10.6510     4.6840     7.1660     5.4490
 3119.0000     0.2150     2.5810     0.0650     8.7490    97.0860   -10.5190     4.6700     6.9820     5.4790
 3119.5000     0.2170     2.5920     0.0670     8.7470   101.4990   -10.3930     4.6560     6.6760     5.5240
 3120.0000     0.2170     2.5970     0.0680     8.7440   102.8110   -10.2000     4.6420     6.3690     5.5160
 3120.5000     0.2170     2.5950     0.0700     8.7420   103.5050    -9.9320     4.6280     6.0630     5.4610
 3121.0000     0.2170     2.5890     0.0710     8.7400   102.5770    -9.6550     4.6140     5.7390     5.4060
 3121.5000     0.2160     2.5890     0.0730     8.7380   100.1760    -9.5000     4.5970     5.8680     5.3510
 3122.0000     0.2110     2.5940     0.0760     8.7360    97.9910    -9.5160     4.6230     6.0050     5.2960
 3122.5000     0.2080     2.5990     0.0790     8.7330    95.4130    -9.5140     4.6880     6.1410     5.2320
 3123.0000     0.2080     2.6010     0.0810     8.7310    92.0480    -9.5120     4.7530     6.2780     5.2930
 3123.5000     0.2090     2.5980     0.0840     8.7290    95.2420    -9.5140     4.8180     6.4140     5.4270
 3124.0000     0.2120     2.6140     0.0900     8.7270    98.2340    -9.5130     4.8830     6.5330     5.5600
 3124.5000     0.2160     2.6310     0.0960     8.7240    96.9540    -9.5140     4.9500     7.1410     5.6930
 3125.0000     0.2190     2.6350     0.1040     8.7220    95.6580    -9.5140     4.9500     7.5740     5.8260
 3125.5000     0.2260     2.6380     0.1030     8.7200    94.3990    -9.5140     4.9500     7.5110     5.9560
 3126.0000     0.2300     2.6330     0.1010     8.7180    94.5990    -9.5140     4.9500     7.4320     5.7930
 3126.5000     0.2310     2.6230     0.0990     8.7160    96.8070    -9.5140     4.9500     7.3530     5.6360
 3127.0000     0.2320     2.6060     0.0970     8.7130    98.8530    -9.5140     4.9110     7.1140     5.4790
 3127.5000     0.2320     2.5900     0.0950     8.7110   100.8560    -9.5140     4.7880     6.5320     5.3210
 3128.0000     0.2320     2.5740     0.0920     8.7090   102.9410    -9.5150     4.6650     5.9500     5.1640
 3128.5000     0.2320     2.5610     0.0930     8.7070   105.0370    -9.5140     4.5420     5.3670     5.0070
 3129.0000     0.2330     2.5610     0.0940     8.7040   106.2830    -9.5150     4.4190     5.0420     4.8490
 3129.5000     0.2370     2.5610     0.0950     8.7020   105.2790    -9.5150     4.2960     5.0420     4.6920
 3130.0000     0.2390     2.5650     0.0960     8.7000   103.2690    -9.5140     4.1730     5.0420     4.5340
 3130.5000     0.2410     2.5640     0.0930     8.6980   101.0830    -9.5150     4.0500     4.9440     4.3770
 3131.0000     0.2430     2.5500     0.0860     8.6950   100.3270    -9.4200     3.9260     4.8550     4.2200
 3131.5000     0.2450     2.5400     0.0840     8.6930   102.2900    -9.2820     3.8030     4.7670     4.0620
 3132.0000     0.2430     2.5490     0.0850     8.6910   103.9750    -9.1450     3.6800     4.6790     3.9050
 3132.5000     0.2410     2.5510     0.0860     8.6890   105.9990    -9.0100     3.6150     4.5970     3.8210
 3133.0000     0.2400     2.5440     0.0860     8.6870   109.3050    -8.8740     3.5860     4.4920     3.7900
 3133.5000     0.2380     2.5370     0.0870     8.6840   109.3570    -8.7380     3.5440     4.4220     3.7470
 3134.0000     0.2360     2.5380     0.0870     8.6820   107.6730    -8.6000     3.5030     4.3520     3.7030
 3134.5000     0.2330     2.5440     0.0880     8.6750   105.5680    -8.4690     3.4610     4.2690     3.6590
 3135.0000     0.2330     2.5490     0.0880     8.6650   104.4240    -8.3320     3.4200     4.7840     3.6150
 3135.5000     0.2320     2.5480     0.0880     8.6560    99.9590    -8.4270     3.3570     5.7390     3.5480
 3136.0000     0.2290     2.5510     0.0880     8.6470    98.3580    -8.6040     3.4170     5.2760     3.6120
 3136.5000     0.2260     2.5570     0.0880     8.6370    97.8000    -8.7800     3.5410     4.2690     3.7430
 3137.0000     0.2200     2.5570     0.0830     8.6280    99.1740    -8.9520     3.6650     4.2690     3.8740
 3137.5000     0.2180     2.5560     0.0780     8.6180    98.5070    -9.1270     3.7890     4.7510     4.0050
 3138.0000     0.2190     2.5520     0.0730     8.6090    95.1350    -9.2980     3.9130     5.4260     4.1360
 3138.5000     0.2220     2.5450     0.0680     8.5990    92.2280    -9.4720     4.0370     6.2900     4.2670
 3139.0000     0.2270     2.5440     0.0640     8.5900    89.2140    -9.5170     4.1610     7.5740     4.3980
 3139.5000     0.2330     2.5500     0.0680     8.5800    90.8820    -9.5150     4.2690     6.8340     4.5130
 3140.0000     0.2360     2.5540     0.0710     8.5710    92.6710    -9.5140     4.2980     5.3300     4.5430
 3140.5000     0.2380     2.5590     0.0750     8.5620    94.7680    -9.5150     4.3240     5.3300     4.5700
 3141.0000     0.2410     2.5580     0.0790     8.5850    95.3830    -9.5150     4.3490     5.3300     4.5970
 3141.5000     0.2430     2.5520     0.0820     8.6130    94.4600    -9.5150     4.3150     5.2820     4.5740
 3142.0000     0.2480     2.5460     0.0860     8.6420    93.5780    -9.5150     4.1770     5.0880     4.4840
 3142.5000     0.2520     2.5410     0.0900     8.6700    94.0280    -9.5140     4.0400     4.8940     4.3930
 3143.0000     0.2560     2.5410     0.0920     8.6980    96.7770    -9.5190     3.9020     4.7000     4.3020
 3143.5000     0.2570     2.5390     0.0920     8.7260   101.5020    -9.4580     3.7640     4.5060     4.2110
 3144.0000     0.2560     2.5370     0.0920     8.7550   104.0840    -9.3110     3.6270     4.3120     4.1210
 3144.5000     0.2520     2.5340     0.0920     8.7830   106.5740    -9.1710     3.4890     4.1180     4.0300
 3145.0000     0.2490     2.5360     0.0950     8.8110   106.0710    -9.0280     3.3520     3.9240     3.9390
 3145.5000     0.2420     2.5410     0.0970     8.8400   105.6410    -8.8860     3.2140     3.6820     3.8480
 3146.0000     0.2410     2.5380     0.0990     8.8680   106.3460    -8.7450     3.1170     3.7360     3.7570
 3146.5000     0.2400     2.5310     0.1010     8.8960   106.9520    -8.5980     3.1170     3.8960     3.6820
 3147.0000     0.2360     2.5310     0.1040     8.9230   107.6730    -8.4650     3.1640     4.0570     3.7920
 3147.5000     0.2300     2.5420     0.1030     8.9120   106.9210    -8.3130     3.2820     4.2180     3.8860
 3148.0000     0.2280     2.5510     0.1000     8.8690   105.2160    -8.4440     3.4000     4.3790     3.9790
