~VERSION INFORMATION
 VERS.                2.0:   CWLS LOG ASCII STANDARD - VERSION 2.0
 WRAP.                 NO:   ONE LINE PER DEPTH STEP
~WELL INFORMATION
#MNEM.UNIT      DATA TYPE    INFORMATION
#----------   ------------   ------------------------------
 STRT.F          196.0000:   START DEPTH
 STOP.F         3430.0000:   STOP DEPTH
 STEP.F            0.5000:   STEP LENGTH
 NULL.          -999.2500:   NO VALUE
 COMP.    FENIX $ SCISSON:   COMPANY
 WELL.   FENIX "A" #23-10:   WELL
 FLD .              N P R:   FIELD
 LOC .      S10 T38N R78W:   LOCATION
 CNTY.            NATRONA:   COUNTY
 STAT.            WYOMING:   STATE
 CTRY. UNITED STATES OF AMERICA:   COUNTRY
 SRVC.              WELEX:   SERVICE COMPANY
 DATE.        23-JUL-1977:   LOGDATE
 API .     49025103990000:   API NUMBER
~CURVE INFORMATION
#MNEM.UNIT       API CODE    CURVE DESCRIPTION
#----------   ------------   ------------------------------
 DEPT.F                  :   
 SPR .MV     07 010 01 00:   SPONTANEOUS POTENTIAL
 GURD.OHMM   07 220 05 00:   GUARD LOG RESISTIVITY
 FORX.OHMM   07 220 00 00:   FORMATION FACTOR
 NPHI.DEC    42 890 03 00:   NEUTRON POROSITY SANDSTONE
 CALD.IN     45 280 60 00:   CALIPER FROM DENSITY LOG
 CORR.G/C3   45 356 01 00:   DENSITY CORRECTION
 GRD .GAPI   45 310 01 00:   GAMMA RAY FROM DENSITY LOG
 RHOB.G/C3   45 350 01 00:   BULK DENSITY
~PARAMETER INFORMATION
#MNEM.UNIT          VALUE    DESCRIPTION
#----------   ------------   ------------------------------
 EKB .F         5251.0000:   Kelly bushing
 EGL .F         5241.0000:   Ground level
 EDF .F            0.0000:   Drilling floor
 EPD .F         5241.0000:   Permanent datum
 TD  .F         3430.0000:   Total depth
 DATE.        23-JUL-1977:   Date logged
 CLNT.            A2DTECH:   Client Code
 SL  . 1650' FNL & 990' FWL:   Surface Location
 PD  .                 GL:   Permanent Datum
 DD  .F              3430:   Depth driller
 DL  .F              3430:   Depth logger
 BLI .F              3428:   Bottom log interval
 CS1 .IN            8.625:   Casing size
 CBD1.      8.625" @ 220':   Casing driller 1
 BS1 .IN            7.875:   Bit size
 DFT .            KCL MUD:   Type fluid in hole
 DFD .                8.9:   Density
 DFV .                 33:   Viscosity
 DFPH.                  8:   pH
 DFL .                  8:   Fluid loss
 MSS .           FLOWLINE:   Source of sample
 RMS .OHMM            .49:   Rm
 MST .F                94:   Rm Meas. temp.
 RMF .OHMM            .46:   Rmf
 MFST.F                90:   Rmf Meas. temp.
 RMC .OHMM            .40:   Rmc
 MCST.F                90:   Rmc Meas. temp.
 MFSS.               FANN:   Source Rmf.
 RMB .OHMM            .15:   Rm. at BHT
 BHT .F               122:   BHT.
 TCS .HRS               6:   Time Circ. stopped
 MRT .F               122:   Maximum recorded temp.
 LUN .               8611:   Logging unit number
 LUL .             CASPER:   Logging unit location
 ENGI.            C. DOAK:   Recorded By
 WITN.      B. HARRINGTON:   Witnessed by
 ORIG.           5" PRINT:   Origin of data
 UWI .     49025103990000:   Unique Well ID
 DICO. A2D TECHNOLOGIES, INC.:   Digitizing Company
 DAPD.                 10:   Feet Above Permanent Datum
 BSD1.               3430:   Depth drilled with bit1
 MCSS.                KIT:   Source Rmc.
 TLI .                200:   Top log interval
~OTHER INFORMATION
~A   DEPT      SPR         GURD     FORX       NPHI       CALD       CORR        GRD       RHOB   
# ...
  844.0000   -82.0590    10.6200    14.0390     0.2870     9.3630     0.0430   100.1160     2.4600
  844.5000   -82.0590    10.7820    13.6570     0.2830     9.3510     0.0460   100.8460     2.4560
  845.0000   -82.0590    10.9440    14.0390     0.2790     9.3400     0.0480   101.9380     2.4540
  845.5000   -82.0590    11.0550    13.8980     0.2740     9.3380     0.0510   101.6980     2.4560
  846.0000   -82.0590    11.0550    13.6940     0.2710     9.3410     0.0530   101.6940     2.4650
  846.5000   -82.0590    11.1110    14.1690     0.2680     9.3430     0.0560   101.8910     2.4750
  847.0000   -82.0590    11.1910    13.9420     0.2660     9.3460     0.0580   101.8250     2.4810
  847.5000   -82.0590    11.2700    13.5320     0.2670     9.3480     0.0590   100.8930     2.4760
  848.0000   -82.0590    11.3500    13.9000     0.2690     9.3510     0.0570   100.1030     2.4650
  848.5000   -82.0530    11.4290    14.8350     0.2700     9.3530     0.0540    99.4360     2.4540
  849.0000   -82.0300    11.4690    14.2660     0.2700     9.3560     0.0510   100.6890     2.4430
  849.5000   -82.0090    11.4260    13.4600     0.2690     9.3580     0.0490   100.6130     2.4320
  850.0000   -81.9870    11.0120    12.5730     0.2670     9.3610     0.0460   101.4720     2.4290
  850.5000   -81.9650    10.5580    14.1370     0.2650     9.3640     0.0430   103.3820     2.4460
  851.0000   -81.9430    10.7660    14.3000     0.2640     9.3660     0.0420   105.2210     2.4580
  851.5000   -81.9210    10.9970    13.6570     0.2640     9.3690     0.0430   107.0440     2.4670
  852.0000   -81.9000    11.2600    14.0390     0.2650     9.3710     0.0440   107.2670     2.4670
  852.5000   -81.8780    11.0310    13.2860     0.2680     9.3740     0.0450   107.5650     2.4760
  853.0000   -81.8630    10.7780    14.2620     0.2710     9.3760     0.0460   108.7640     2.4830
  853.5000   -81.9150    10.6560    14.7970     0.2730     9.3790     0.0480   109.9400     2.4790
  854.0000   -81.9730    11.5750    14.4620     0.2730     9.3810     0.0490   111.0850     2.4790
  854.5000   -82.0310    11.4390    14.3000     0.2700     9.3840     0.0490   110.0850     2.4820
  855.0000   -82.0520    11.2600    14.7280     0.2660     9.3860     0.0460   108.7820     2.4890
  855.5000   -82.0010    11.4350    14.8350     0.2620     9.3890     0.0430   107.4500     2.4860
  856.0000   -81.9490    11.5670    14.3560     0.2630     9.3910     0.0400   106.2420     2.4690
  856.5000   -81.8980    11.7000    14.6990     0.2670     9.3940     0.0370   105.4440     2.4580
  857.0000   -81.8460    11.7890    14.0390     0.2730     9.3960     0.0340   104.7990     2.4490
  857.5000   -81.7940    11.7140    14.8350     0.2760     9.4030     0.0310   104.3570     2.4400
  858.0000   -81.7420    11.6580    14.5650     0.2780     9.4100     0.0310   104.9060     2.4440
  858.5000   -81.6910    11.6010    14.4320     0.2800     9.4160     0.0350   105.5770     2.4520
  859.0000   -81.6390    11.5750    14.8190     0.2820     9.4230     0.0380   106.8230     2.4580
  859.5000   -81.5870    11.7560    15.2500     0.2830     9.4290     0.0410   108.0540     2.4600
  860.0000   -81.5350    11.8920    14.6350     0.2830     9.4360     0.0440   109.2560     2.4670
  860.5000   -81.4840    12.0080    13.8030     0.2830     9.4420     0.0480   109.3300     2.4770
  861.0000   -81.4990    11.8000    12.9240     0.2850     9.4490     0.0510   107.0480     2.4870
  861.5000   -81.5940    11.5800    13.6570     0.2870     9.4550     0.0500   104.8240     2.4890
  862.0000   -81.6870    11.3590    13.2680     0.2880     9.4620     0.0480   102.5950     2.4850
  862.5000   -81.7780    11.2600    13.1640     0.2880     9.4680     0.0470   100.5460     2.4740
  863.0000   -81.8710    11.2600    13.2860     0.2870     9.4750     0.0450   102.0280     2.4650
  863.5000   -81.9640    11.2600    13.0440     0.2870     9.4810     0.0430   103.8250     2.4640
  864.0000   -82.0560    11.2600    13.1300     0.2890     9.4880     0.0410   105.6360     2.4630
  864.5000   -82.1040    11.0810    13.2860     0.2920     9.4940     0.0400   107.4420     2.4560
  865.0000   -82.1820    10.8450    12.6850     0.2960     9.5010     0.0380   109.2540     2.4550
  865.5000   -82.2600    10.6100    12.4580     0.2990     9.5070     0.0360   111.0660     2.4550
  866.0000   -82.3380    10.3740    12.6890     0.3000     9.5140     0.0350   112.3640     2.4550
  866.5000   -82.4170    10.1770    12.1060     0.3010     9.5200     0.0330   110.3880     2.4500
  867.0000   -82.4960    10.0040    11.7890     0.3010     9.5270     0.0310   113.5820     2.4460
  867.5000   -82.5740     9.8640    12.2310     0.3020     9.5340     0.0290   112.6080     2.4440
  868.0000   -82.6530     9.7200    11.4690     0.3010     9.5230     0.0300   111.7210     2.4430
  868.5000   -82.7310     9.6310    12.3440     0.2990     9.5100     0.0300   110.8020     2.4380
  869.0000   -82.8100     9.7190    12.2230     0.2990     9.4960     0.0300   111.0080     2.4380
  869.5000   -82.8430     9.7950    12.0080     0.2960     9.4820     0.0310   112.8080     2.4390
  870.0000   -82.8430     9.8700    12.2530     0.2940     9.4680     0.0310   114.5800     2.4400
  870.5000   -82.8430     9.9450    12.4580     0.2940     9.4550     0.0310   116.3400     2.4410
  871.0000   -82.8430     9.9920    12.1620     0.2950     9.4410     0.0320   117.3720     2.4360
  871.5000   -82.8430     9.9920    11.7790     0.2980     9.4360     0.0320   116.8540     2.4310
  872.0000   -82.8430     9.6590    11.1850     0.3000     9.4360     0.0320   116.3280     2.4260
  872.5000   -82.8430     9.3340    10.5910     0.3020     9.4360     0.0330   115.8170     2.4220
  873.0000   -82.8430     9.0080     9.9920     0.3040     9.4360     0.0330   116.0050     2.4210
  873.5000   -82.8440     8.6830     9.8790     0.3060     9.4360     0.0350   116.3350     2.4280
  874.0000   -82.8410     8.3580     9.8520     0.3080     9.4360     0.0370   116.6760     2.4340
  874.5000   -82.8230     8.1620     9.8260     0.3100     9.4360     0.0400   116.1940     2.4400
  875.0000   -83.0620     8.1620     9.7910     0.3100     9.4360     0.0420   115.2080     2.4440
  875.5000   -83.1170     8.1620     9.6980     0.3090     9.4360     0.0440   114.2170     2.4440
  876.0000   -83.1780     8.1620     9.6040     0.3090     9.4360     0.0440   113.2220     2.4360
  876.5000   -83.2340     8.1620     9.5110     0.3090     9.4360     0.0430   112.2370     2.4270
  877.0000   -83.2090     8.1620     9.1890     0.3110     9.4360     0.0410   111.3930     2.4180
  877.5000   -83.1660     8.0880     8.7350     0.3140     9.4360     0.0400   111.7900     2.4140
  878.0000   -83.1220     7.8600     8.3140     0.3170     9.4360     0.0380   112.2400     2.4130
  878.5000   -83.0790     7.4870     7.4290     0.3150     9.4360     0.0360   112.6900     2.4160
  879.0000   -83.0360     7.1140     5.4970     0.3110     9.4360     0.0350   113.1410     2.4230
  879.5000   -82.9920     7.0460     6.6430     0.3060     9.4360     0.0330   113.4140     2.4280
  880.0000   -82.9490     7.0120     8.7850     0.3010     9.4380     0.0320   113.0570     2.4210
  880.5000   -82.9060     6.9180     8.7050     0.3000     9.4400     0.0300   112.8130     2.4160
  881.0000   -82.8620     7.1250     9.0110     0.3000     9.4430     0.0280   113.0570     2.4190
  881.5000   -82.8190     7.3780     9.2830     0.3010     9.4460     0.0280   113.3600     2.4230
  882.0000   -82.7760     7.6300     9.2350     0.3070     9.4480     0.0290   113.4030     2.4260
  882.5000   -82.7320     7.7240     9.1140     0.3130     9.4510     0.0300   112.7620     2.4330
  883.0000   -82.6890     7.7000     9.1140     0.3190     9.4540     0.0310   112.0780     2.4400
  883.5000   -82.6480     7.6760     9.1140     0.3230     9.4560     0.0320   111.4120     2.4520
  884.0000   -82.6680     7.6540     9.1480     0.3210     9.4590     0.0330   110.9850     2.4520
