~VERSION INFORMATION
 VERS.                2.0:   CWLS LOG ASCII STANDARD - VERSION 2.0
 WRAP.                 NO:   ONE LINE PER DEPTH STEP
~WELL INFORMATION
#MNEM.UNIT      DATA TYPE    INFORMATION
#----------   ------------   ------------------------------
 STRT.F          195.5000:   START DEPTH
 STOP.F         3197.0000:   STOP DEPTH
 STEP.F            0.5000:   STEP LENGTH
 NULL.          -999.2500:   NO VALUE
 COMP.    FENIX & SCISSON:   COMPANY
 WELL.  FENIX "AX" #17-11:   WELL
 FLD .              NPR-3:   FIELD
 LOC .      S11 T38N R78W:   LOCATION
 CNTY.            NATRONA:   COUNTY
 STAT.            WYOMING:   STATE
 CTRY. UNITED STATES OF AMERICA:   COUNTRY
 SRVC.              WELEX:   SERVICE COMPANY
 DATE.        16-SEP-1977:   LOGDATE
 API .     49025104170000:   API NUMBER
~CURVE INFORMATION
#MNEM.UNIT       API CODE    CURVE DESCRIPTION
#----------   ------------   ------------------------------
 DEPT.F                  :   
 GRD .GAPI   45 310 01 00:   GAMMA RAY FROM DENSITY LOG
 CALD.IN     45 280 60 00:   CALIPER FROM DENSITY LOG
 CORR.G/C3   45 356 01 00:   DENSITY CORRECTION
 TEND.LBS    45 635 01 00:   TENSION FORM DENSITY LOG
 RHOB.G/C3   45 350 01 00:   BULK DENSITY
 SPR .MV     07 010 01 00:   SPONTANEOUS POTENTIAL
 TENR.LBS    07 635 01 00:   TENSION FROM RESISTIVITY
 ILD .OHMM   07 120 46 00:   DEEP INDUCTION RESISTIVITY
 ILM .OHMM   07 120 44 00:   INDUCTION LOG MEDIUM RESISTIVITY
 SGRD.OHMM   07 220 05 00:   SHALLOW SHORT GUARD RESISTIVITY
~PARAMETER INFORMATION
#MNEM.UNIT          VALUE    DESCRIPTION
#----------   ------------   ------------------------------
 EKB .F         5212.0000:   Kelly bushing
 EGL .F         5202.0000:   Ground level
 TD  .F         3195.0000:   Total depth
 CLNT.            A2DTECH:   Client Code
 SL  . 1090' FSL & 330' FWL:   Surface Location
 PD  .                 GL:   Permanent Datum
 EPD .F              5202:   Elevation Permanent Datum
 LMF .                 KB:   Log Measured From
 DMF .                 KB:   Drilling Measured From
 DAPD.F                10:   Feet Above Permanent Datum
 DATE.        16-SEP-1977:   Date Logged [DD-MMM-YYYY]
 DD  .F              3195:   Depth driller
 DL  .F              3195:   Depth logger
 BLI .F              3193:   Bottom log interval
 TLI .F               217:   Top log interval
 CS1 .IN            8.625:   Casing size
 CBD1.      8.625" @ 216':   Casing driller 1
 CBL1.F               217:   Casing logger 1
 BS1 .IN            7.875:   Bit size
 BSD1.F              3195:   Depth drilled with bit1
 DFT .            KCL MUD:   Type fluid in hole
 DFD .                9.2:   Density
 DFV .                 36:   Viscosity
 DFPH.                 11:   pH
 DFL .                8.8:   Fluid loss
 MSS .           FLOWLINE:   Source of sample
 RMS .OHMM           2.76:   Rm
 MST .F                99:   Rm Meas. temp.
 RMF .OHMM           1.54:   Rmf
 MFST.F                99:   Rmf Meas. temp.
 MFSS.               MEAS:   Source Rmf.
 RMC .OHMM           3.01:   Rmc
 MCST.F                99:   Rmc Meas. temp.
 MCSS.               MEAS:   Source Rmc.
 RMB .OHMM           2.40:   Rm. at BHT
 BHT .F               112:   BHT.
 TCS .HRS               6:   Time Circ. stopped
 MRT .F               112:   Maximum recorded temp.
 LUN .               8611:   Logging unit number
 LUL .             CASPER:   Logging unit location
 ENGI.          D. LAWSON:   Recorded By
 WITN.         HARRINGTON:   Witnessed by
 ORIG.           5" PRINT:   Origin of data
 UWI .     49025104170000:   Unique Well ID
 DICO. A2D TECHNOLOGIES, INC.:   Digitizing Company
~OTHER INFORMATION
~A   DEPT       GRD      CALD       CORR       TEND       RHOB        SPR       TENR        ILD        ILM       SGRD   
# ...
 2406.5000   121.4394     8.4088    -0.0109  1878.0687     2.4812   -75.2509  1746.2577     2.5963     2.9916     7.7770
 2407.0000   124.0696     8.4223    -0.0080  1878.5928     2.4820   -75.2576  1747.0735     2.5960     2.9908     7.0589
 2407.5000   124.9637     8.4207    -0.0064  1879.1168     2.4849   -75.2655  1747.7545     2.6136     3.0530     6.9139
 2408.0000   121.6272     8.4343    -0.0052  1879.7164     2.4901   -75.2728  1748.5199     2.6681     3.0949     8.1630
 2408.5000   121.3146     8.4480    -0.0038  1885.2479     2.4961   -75.2803  1749.2515     2.7424     3.1592     8.8086
 2409.0000   125.5196     8.4521    -0.0054  1891.7141     2.4998   -75.2879  1750.0000     2.7995     3.2473     7.8838
 2409.5000   128.8233     8.4601    -0.0055  1909.8021     2.4953   -75.2954  1750.8702     2.8187     3.2932     7.0879
 2410.0000   127.5214     8.4583    -0.0070  1910.2378     2.4855   -75.3039  1751.4971     2.8182     3.3370     8.1067
 2410.5000   123.0589     8.4570    -0.0072  1910.6733     2.4874   -75.1591  1752.3168     2.7791     3.2220    10.1161
 2411.0000   121.5361     8.4706    -0.0072  1911.1091     2.4990   -75.1046  1752.9940     2.7596     3.1112    10.4722
 2411.5000   121.8231     8.4691    -0.0073  1911.5447     2.5012   -75.0227  1753.7426     2.7402     2.9834     9.9082
 2412.0000   124.2218     8.4676    -0.0059  1911.9805     2.4936   -75.0303  1754.5465     2.6835     2.8609     7.5125
 2412.5000   121.1906     8.4660    -0.0040  1897.4459     2.4891   -75.0393  1755.2396     2.6463     2.7055     7.0589
 2413.0000   117.8578     8.4646    -0.0001  1912.9607     2.4846   -74.7435  1756.1133     2.5209     2.6490     6.4415
 2413.5000   118.1667     8.4480     0.0048  1913.3234     2.4847   -74.7508  1756.8367     2.4518     2.8984     5.6568
 2414.0000   127.4817     8.4314     0.0132  1913.8320     2.4995   -74.4533  1757.4850     2.4178     2.8576     7.2070
 2414.5000   120.5253     8.4297     0.0206  1914.2676     2.5123   -74.3091  1758.2828     2.3843     2.7024     7.8310
 2415.0000   117.7958     8.4131     0.0250  1909.4297     2.5213   -74.1667  1758.9822     2.3513     2.6277     8.0508
 2415.5000   116.8763     8.4268     0.0264  1900.0601     2.5287   -74.1742  1759.7305     2.3509     2.5550     7.9401
 2416.0000   116.5637     8.4253     0.0233  1900.6046     2.5310   -74.1832  1760.4790     2.3669     2.6630     5.9375
 2416.5000   125.8969     8.4237     0.0203  1912.5431     2.5287   -74.1905  1761.3566     2.3830     2.9367     5.4267
 2417.0000   133.1221     8.4226     0.0162  1901.4760     2.5287   -74.1978  1731.9587     2.4495     2.9129     7.3852
 2417.5000   126.2942     8.4335     0.0141  1901.9462     2.5309   -74.2051  1732.7844     2.4832     2.9529     7.7770
 2418.0000   119.8163     8.4344     0.0140  1902.4562     2.5338   -74.2124  1733.5859     2.5703     3.0564     6.6788
 2418.5000   121.0083     8.4329     0.0154  1887.9219     2.5376   -74.2197  1719.3391     2.6974     3.1417     7.5647
 2419.0000   121.6007     8.4312     0.0198  1888.3232     2.5398   -74.2273  1705.0898     2.8321     3.2745     8.1630
 2419.5000   115.6977     8.4299     0.0212  1888.7932     2.5405   -74.2362  1705.8384     3.0120     3.5091     7.7770
 2420.0000   110.5255     8.4328     0.0196  1889.2288     2.5382   -74.2435  1691.7493     3.1610     3.8166     7.9401
 2420.5000   107.1955     8.4422     0.0165  1889.6707     2.5321   -73.9478  1692.4727     3.2717     4.2011     9.1187
 2421.0000   104.4688     8.4402     0.0143  1890.2090     2.5277   -73.9551  1708.1658     3.3630     4.2295    10.7204
 2421.5000   100.2338     8.4541     0.0103  1905.5389     2.5257   -73.8106  1753.7991     3.4332     4.1409    11.6983
 2422.0000    96.9038     8.4524     0.0073  1906.0504     2.5238   -73.6667  1769.4926     3.4804     4.0263    11.0683
 2422.5000    95.0820     8.4358     0.0055  1906.4371     2.5200   -73.6742  1785.1857     3.5041     3.9150    10.3283
 2423.0000    95.9752     8.3935     0.0037  1906.8861     2.5170   -73.5298  1785.9281     3.5279     3.8599     9.1187
 2423.5000   104.4099     8.4081     0.0024  1907.3353     2.5147   -73.3856  1786.8129     3.6014     4.0875     7.2570
 2424.0000   112.8446     8.4071     0.0009  1907.7845     2.5123   -73.0899  1772.5660     3.6763     4.4325     7.3582
 2424.5000   118.2627     8.4065     0.0008  1908.2336     2.5102   -73.0991  1773.2891     3.7269     4.6199     9.5314
 2425.0000   110.1068     8.4057     0.0007  1908.6827     2.5094   -72.8033  1774.0125     3.8047     4.6186    11.8348
 2425.5000   101.9465     8.4049    -0.0008  1909.2091     2.5184   -72.8106  1774.7356     3.9107     4.5537    12.7994
 2426.0000    95.5999     8.4041    -0.0014  1909.5808     2.5229   -72.8182  1775.4586     3.9102     4.4586    12.2789
 2426.5000    92.2699     8.4201    -0.0024  1910.0803     2.5229   -72.8271  1776.1978     3.9097     4.6149    10.5449
 2427.0000    91.0515     8.4329    -0.0025  1910.5524     2.5214   -72.8344  1777.0859     3.8553     4.6137     9.8399
 2427.5000    94.3579     8.4473    -0.0025  1910.9281     2.5221   -72.8417  1777.8093     3.8019     4.5485    10.2571
 2428.0000   100.9827     8.4614    -0.0026  1911.3875     2.5243   -72.8485  1763.4730     3.7233     4.4227    10.8409
 2428.5000   107.6074     8.4608    -0.0012  1911.8263     2.5273   -72.8564  1749.1345     3.6717     4.2706    10.4722
 2429.0000   110.3105     8.4752     0.0003  1912.2754     2.5296   -72.8637  1750.0000     3.6459     4.1237    10.7661
 2429.5000   112.4320     8.4744     0.0013  1912.7246     2.5328   -72.8712  1750.7618     3.6203     4.0096     9.9770
 2430.0000   115.1940     8.4736     0.0032  1913.2390     2.5370   -72.8801  1751.4969     3.6449     3.9533     7.6701
 2430.5000   118.4170     8.4728     0.0046  1913.6746     2.5385   -72.8874  1737.2383     3.6731     4.0962     6.9619
 2431.0000   113.8804     8.4569     0.0060  1918.9111     2.5415   -72.8948  1722.9913     3.7460     4.3544     7.4093
 2431.5000   118.6951     8.4412     0.0081  1929.4910     2.5468   -72.7487  1723.8951     3.8240     4.6663     9.9082
 2432.0000   115.3651     8.4404     0.0089  1929.9518     2.5513   -72.6061  1724.6185     3.9580     4.9316    11.9437
 2432.5000   110.5268     8.4397     0.0103  1930.3893     2.5550   -72.5391  1725.3417     4.0685     5.0345    12.3742
 2433.0000   110.2163     8.4389     0.0088  1926.9009     2.5572   -72.3180  1726.0647     4.2403     5.0328    12.3642
 2433.5000   113.5198     8.4381     0.0087  1916.3173     2.5573   -72.3271  1726.7965     4.3586     5.0314    11.3789
 2434.0000   112.3014     8.4339     0.0087  1916.7666     2.5557   -72.3344  1727.6920     4.4514     5.0651    10.1863
 2434.5000   107.7629     8.4215     0.0086  1917.2156     2.5541   -72.3417  1728.4150     4.5419     5.1346    10.9162
 2435.0000   104.3741     8.4208     0.0085  1910.9930     2.5512   -72.0460  1729.1384     4.6047     5.2775    12.6235
 2435.5000   100.4984     8.4201     0.0085  1903.1437     2.5496   -72.0533  1729.8616     4.7330     5.5390    13.1587
 2436.0000    98.0733     8.4344     0.0084  1897.3821     2.5481   -72.0606  1730.5846     4.7984     5.7332    10.8370
 2436.5000    96.2516     8.4337     0.0084  1889.0719     2.5466   -72.0682  1731.3080     4.8646     5.8122    10.6181
 2437.0000    94.4299     8.4480     0.0083  1889.5071     2.5458   -72.0771  1732.0359     4.8683     5.8103    11.7795
 2437.5000    94.1194     8.4471     0.0082  1874.9728     2.5466   -72.0844  1732.7844     4.8631     5.8492    12.1101
 2438.0000   103.4561     8.4617     0.0082  1875.4492     2.5488   -71.7869  1733.6583     4.8625     5.8068    11.9437
 2438.5000   111.5891     8.4607     0.0081  1875.8983     2.5548   -71.1899  1734.3815     4.8282     5.8052    12.0266
 2439.0000   108.8624     8.4751     0.0081  1876.3887     2.5593   -70.5909  1735.1045     4.8275     5.8036    12.2789
 2439.5000   105.5323     8.4743     0.0080  1876.8243     2.5570   -70.5985  1735.8280     4.8269     5.6431    12.4500
