~VERSION INFORMATION
 VERS.                2.0:   CWLS LOG ASCII STANDARD - VERSION 2.0
 WRAP.                 NO:   ONE LINE PER DEPTH STEP
~WELL INFORMATION
#MNEM.UNIT      DATA TYPE    INFORMATION
#----------   ------------   ------------------------------
 STRT.F            0.0000:   START DEPTH
 STOP.F         4030.0000:   STOP DEPTH
 STEP.F            0.5000:   STEP LENGTH
 NULL.          -999.2500:   NO VALUE
 COMP.  FENIX AND SCISSON:   COMPANY
 WELL.  FENIX "LX" #33-10:   WELL
 FLD . TEAPOT DOME (NPR #3):   FIELD
 LOC .      S10 T38N R78W:   LOCATION
 CNTY.            NATRONA:   COUNTY
 STAT.            WYOMING:   STATE
 CTRY. UNITED STATES OF AMERICA:   COUNTRY
 SRVC.       SCHLUMBERGER:   SERVICE COMPANY
 DATE.        03-APR-1978:   LOGDATE
 API .     49025105980000:   API NUMBER
~CURVE INFORMATION
#MNEM.UNIT       API CODE    CURVE DESCRIPTION
#----------   ------------   ------------------------------
 DEPT.F                  :   
 SPR .MV     07 010 01 00:   SPONTANEOUS POTENTIAL
 ILD .OHMM   07 120 46 00:   DEEP INDUCTION RESISTIVITY
 SFL .OHMM   07 220 01 00:   SHALLOW FOCUSED LOG RESISTIVITY
 ILM .OHMM   07 120 44 00:   INDUCTION LOG MEDIUM RESISTIVITY
 NPHI.DEC    42 890 03 00:   NEUTRON POROSITY SANDSTONE
 GRD .GAPI   45 310 01 00:   GAMMA RAY FROM DENSITY LOG
 CALD.IN     45 280 60 00:   CALIPER FROM DENSITY LOG
 RHOB.G/C3   45 350 01 00:   BULK DENSITY
 CORR.G/C3   45 356 01 00:   DENSITY CORRECTION
~PARAMETER INFORMATION
#MNEM.UNIT          VALUE    DESCRIPTION
#----------   ------------   ------------------------------
 EKB .F         5232.0000:   Kelly bushing
 EGL .F         5222.0000:   Ground level
 EDF .F            0.0000:   Drilling floor
 EPD .F         5222.0000:   Permanent datum
 TD  .F         4040.0000:   Total depth
 DATE.        03-APR-1978:   Date logged
 CLNT.            A2DTECH:   Client Code
 SL  . 1700' FNL & 1700' FWL:   Surface Location
 PD  .                 GL:   Permanent Datum
 DD  .F              4040:   Depth driller
 DL  .F              4031:   Depth logger
 BLI .F              4025:   Bottom log interval
 CS1 .IN            8.625:   Casing size
 CBD1.      8.625" @ 503':   Casing driller 1
 CBL1.F               504:   Casing logger 1
 BS1 .IN            7.875:   Bit size
 DFT .           CHEM GEL:   Type fluid in hole
 DFD .                9.5:   Density
 DFV .                 43:   Viscosity
 DFPH.               11.5:   pH
 DFL .                4.4:   Fluid loss
 MSS .            MUD PIT:   Source of sample
 RMS .OHMM           1.16:   Rm
 MST .F                80:   Rm Meas. temp.
 RMF .OHMM           0.93:   Rmf
 MFST.F                80:   Rmf Meas. temp.
 RMC .OHMM           1.74:   Rmc
 MCST.F                80:   Rmc Meas. temp.
 MFSS.               MEAS:   Source Rmf.
 RMB .OHMM          0.742:   Rm. at BHT
 BHT .F               125:   BHT.
 TCS .HRS            0800:   Time Circ. stopped
 MRT .F               125:   Maximum recorded temp.
 LUN .               7660:   Logging unit number
 LUL .                GLT:   Logging unit location
 ENGI.            TOEPPER:   Recorded By
 WITN.           MCGINLEY:   Witnessed by
 ORIG.         2.5" PRINT:   Origin of data
 UWI .     49025105980000:   Unique Well ID
 DICO. A2D TECHNOLOGIES, INC.:   Digitizing Company
 DAPD.                 10:   Feet Above Permanent Datum
 BSD1.               4040:   Depth drilled with bit1
 MCSS.               CALC:   Source Rmc.
 LMF .                 KB:   Log Measured From
 DMF .                 KB:   Drilling Measured From
 TLI .                504:   Top log interval
 TLAB.               1000:   Time logger at bottom
~OTHER INFORMATION
~A    DEPT     SPR        ILD        SFL        ILM       NPHI         GRD      CALD       RHOB       CORR   
# ...
 2117.0000   -52.3030     8.8590    10.6980     9.1560     0.3320   108.3300     9.0880     2.5250     0.1070
 2117.5000   -52.3820     8.6460    10.4200     8.9010     0.3250   110.0640     9.8330     2.5470     0.1320
 2118.0000   -52.3030     8.4330    10.1850     8.6450     0.3400   111.5790    11.2930     2.5270     0.1430
 2118.5000   -52.2320     8.2200     9.9340     8.3900     0.3330   113.1810    12.7140     2.4800     0.1150
 2119.0000   -52.1510     8.1250     9.3890     8.2760     0.3260   114.6750    14.1620     2.4600     0.0860
 2119.5000   -52.0790     8.3170     8.5850     8.4860     0.3190   116.0750    14.7390     2.4390     0.0570
 2120.0000   -51.9980     8.4840     9.0630     8.6700     0.3020   114.0550    14.1770     2.4140     0.0360
 2120.5000   -51.9930     8.6510     9.9690     8.8540     0.2840   111.9760    13.5750     2.4190     0.0290
 2121.0000   -51.9910     8.8190    10.8760     9.0380     0.2860   109.8210    12.9060     2.4350     0.0660
 2121.5000   -51.9930     8.9860    11.5220     9.2220     0.2940   107.4440    12.1790     2.4330     0.1230
 2122.0000   -51.9910     9.1530    11.2250     9.4060     0.3070   108.0800    11.4580     2.4560     0.1770
 2122.5000   -51.9940     9.4120    10.8880     9.5900     0.3220   111.0810    10.7440     2.4750     0.2340
 2123.0000   -51.9910     9.3720    10.7050     9.7650     0.3280   113.5800    10.1510     2.4450     0.2110
 2123.5000   -51.9770     9.2830    10.8980     9.6270     0.3350   115.9440    10.0320     2.4140     0.1650
 2124.0000   -51.7650     9.1930    11.3120     9.4950     0.3420   113.2360     9.9540     2.3790     0.1190
 2124.5000   -51.5530     9.1040    10.9350     9.3640     0.3330   110.4030    10.1720     2.3530     0.0660
 2125.0000   -51.3090     9.0150    10.3260     9.2320     0.3230   107.2730     9.8190     2.3920     0.0710
 2125.5000   -51.2360     8.9260     9.5870     9.1010     0.3170   104.3590     9.0280     2.4720     0.0800
 2126.0000   -51.3970     8.9070     9.7030     9.0720     0.3230   102.1910     8.9870     2.4960     0.0850
 2126.5000   -51.5320     8.9070    10.0100     9.1060     0.3280   104.0800     8.9620     2.4810     0.0480
 2127.0000   -51.6730     8.9070    10.3170     9.1410     0.3310   105.6120     8.9550     2.4490     0.0660
 2127.5000   -51.8170     8.9070    10.6240     9.1750     0.3330   107.3980     8.9380     2.4670     0.1270
 2128.0000   -51.9550     8.9070    10.7050     9.2100     0.3390   109.0150     8.9230     2.5300     0.1960
 2128.5000   -52.1020     8.8770    10.5400     9.2410     0.3530   110.6100     8.9170     2.4810     0.0910
 2129.0000   -52.2350     8.8200    10.3630     9.1110     0.3710   110.7440     8.9110     2.3720     0.0960
 2129.5000   -52.3740     8.7630    10.1860     8.9960     0.3650   110.1740     8.9760     2.3980     0.1680
 2130.0000   -52.2130     8.5590     9.9460     8.8800     0.3550   108.6050     9.1210     2.3610     0.2060
 2130.5000   -52.0280     8.4660     9.6960     8.7650     0.3430   107.1390     9.2590     2.2860     0.2130
 2131.0000   -51.8330     8.3730     9.5510     8.6490     0.3450   105.6940     9.3960     2.2100     0.2210
 2131.5000   -51.6450     8.2800     9.4120     8.5330     0.3490   104.1010     9.5390     2.1300     0.1920
 2132.0000   -51.4540     8.1870     9.1110     8.4180     0.3530   103.5330     9.7080     2.1850     0.1670
 2132.5000   -51.2650     8.0940     8.9090     8.3020     0.3530   103.7990     9.8840     2.2410     0.1410
 2133.0000   -51.0720     8.0000     8.7070     8.1860     0.3490   106.7430    10.0770     2.2990     0.1150
 2133.5000   -50.8840     7.9070     8.5850     8.0710     0.3450   109.6240     9.7380     2.3570     0.1700
 2134.0000   -50.6970     7.8310     8.6920     7.9770     0.3410   108.7210     9.3280     2.4440     0.1940
 2134.5000   -50.4870     7.8780     8.8720     8.0360     0.3370   107.6660     9.1420     2.4080     0.1860
 2135.0000   -50.4700     7.9390     9.0510     8.1110     0.3390   107.8090     9.1780     2.3070     0.1740
 2135.5000   -50.6870     7.9990     9.2410     8.1860     0.3400   108.1070     9.1830     2.2120     0.1910
 2136.0000   -50.8810     8.0590     9.1650     8.2610     0.3360   108.3990     9.1870     2.2640     0.2160
 2136.5000   -51.0770     8.1190     9.0720     8.3360     0.3330   108.6600     9.1250     2.3440     0.1830
 2137.0000   -51.2790     8.1790     9.3570     8.4110     0.3270   109.0180     9.0760     2.4100     0.1380
 2137.5000   -51.4720     8.2390     9.6650     8.4870     0.3300   108.5840     9.0250     2.4370     0.1180
 2138.0000   -51.6720     8.2990     9.9460     8.5620     0.3350   107.0160     8.9750     2.4660     0.1480
 2138.5000   -51.8810     8.3590     9.8440     8.6370     0.3320   105.5500     8.9530     2.4060     0.1110
 2139.0000   -51.9960     8.4190     9.7650     8.7120     0.3270   104.1140     8.9880     2.3250     0.1240
 2139.5000   -51.8510     8.4790     9.8140     8.7870     0.3210   102.4750     9.0770     2.2420     0.1730
 2140.0000   -51.7150     8.5390    10.0100     8.8620     0.3160   102.2470     9.1620     2.1870     0.2230
 2140.5000   -51.5730     8.5850    10.2050     8.9370     0.3320   102.9520     9.3450     2.1180     0.2470
 2141.0000   -51.4310     8.5460    10.3180     9.0130     0.3380   106.0660     9.5250     2.1330     0.2440
 2141.5000   -51.2900     8.4980    10.2590     9.0670     0.3320   109.4930     9.7070     2.1840     0.2320
 2142.0000   -51.1480     8.4500    10.1610     9.0390     0.3300   110.0970     9.8880     2.2350     0.2380
 2142.5000   -51.0080     8.4020    10.0630     9.0120     0.3330   108.4550     9.9850     2.2860     0.2300
 2143.0000   -50.8650     8.3550     9.9650     8.9850     0.3380   107.0760    10.0440     2.3360     0.1890
 2143.5000   -50.7240     8.3070     9.8680     8.9580     0.3310   105.8330    10.1130     2.3870     0.1490
 2144.0000   -50.5870     8.2760     9.7650     8.9310     0.3230   103.7990    10.2780     2.4380     0.1090
 2144.5000   -50.4330     8.4450     9.7650     8.9070     0.2980   101.2650    10.4930     2.4700     0.0680
 2145.0000   -50.4810     8.6240     9.8540     9.1210     0.2970    98.8590    10.7030     2.4580     0.0270
 2145.5000   -50.6380     8.8030    10.1300     9.3090     0.3040    96.4190    11.3450     2.4220     0.0070
 2146.0000   -50.7770     8.9830    10.4060     9.4980     0.3040    94.0030    11.9300     2.4000     0.0180
 2146.5000   -50.9170     9.1620    10.6820     9.6860     0.3010    91.6070    12.5330     2.4200     0.0370
 2147.0000   -51.0630     9.3420    11.1060     9.8750     0.2890    88.9740    13.1300     2.4330     0.0330
 2147.5000   -51.1850     9.5210    11.0280    10.0630     0.2910    87.9240    13.3300     2.4510     0.0260
 2148.0000   -51.1920     9.7000    10.9030    10.2520     0.2950    89.0580    13.3650     2.4640     0.0190
 2148.5000   -51.2260     9.9460    10.9030    10.5100     0.2990    89.9150    13.3440     2.4790     0.0110
 2149.0000   -51.4260     9.7260    10.9030    10.2610     0.3040    90.9000    13.1940     2.4560     0.0040
 2149.5000   -51.9230     9.3780    10.6980     9.8670     0.3090    91.8030    12.4940     2.4770     0.0110
 2150.0000   -51.9920     9.0300    10.2070     9.4740     0.3140    92.6630    11.6450     2.4650     0.0230
 2150.5000   -52.0090     8.6810     9.7150     9.0800     0.3190    94.0150    10.8090     2.4840     0.0350
 2151.0000   -51.9620     8.3330     9.2230     8.6870     0.3250    90.9410    10.5170     2.5130     0.0440
 2151.5000   -52.0460     7.9770     8.7310     8.1250     0.3320    86.7060    10.1410     2.5540     0.0610
 2152.0000   -51.6700     7.9770     8.1250     8.1440     0.3290    85.4110     9.6230     2.5450     0.0230
 2152.5000   -51.5180     7.9770     8.2700     8.1780     0.3250    83.8620     9.3270     2.5500     0.0310
 2153.0000   -51.1430     7.9770     8.6690     8.2120     0.3200    83.6430     9.3590     2.5600     0.0430
