~VERSION INFORMATION
 VERS.                2.0:   CWLS LOG ASCII STANDARD - VERSION 2.0
 WRAP.                 NO:   ONE LINE PER DEPTH STEP
~WELL INFORMATION
#MNEM.UNIT      DATA TYPE    INFORMATION
#----------   ------------   ------------------------------
 STRT.F          482.0000:   START DEPTH
 STOP.F         4000.0000:   STOP DEPTH
 STEP.F            0.5000:   STEP LENGTH
 NULL.          -999.2500:   NO VALUE
 COMP.    FENIX & SCISSON:   COMPANY
 WELL. FENIX  NPR 3 "LX" #56-10:   WELL
 FLD .              N P R:   FIELD
 LOC .      S10 T38N R78W:   LOCATION
 CNTY.            NATRONA:   COUNTY
 STAT.            WYOMING:   STATE
 CTRY. UNITED STATES OF AMERICA:   COUNTRY
 SRVC.       SCHLUMBERGER:   SERVICE COMPANY
 DATE.        11-JUL-1978:   LOGDATE
 API .     49025107100000:   API NUMBER
~CURVE INFORMATION
#MNEM.UNIT       API CODE    CURVE DESCRIPTION
#----------   ------------   ------------------------------
 DEPT.F                  :   
 GRD .GAPI   45 310 01 00:   GAMMA RAY FROM DENSITY LOG
 CALD.IN     45 280 60 00:   CALIPER FROM DENSITY LOG
 RHOB.G/C3   45 350 01 00:   BULK DENSITY
 NPHI.DEC    42 890 03 00:   NEUTRON POROSITY SANDSTONE
 DRHO.G/C3   45 356 01 00:   DENSITY CORRECTION
 TEND.LBS    45 635 01 00:   TENSION FROM DENSITY LOG
 SPR .MV     07 010 01 00:   SPONTANEOUS POTENTIAL
 TENR.LBS    07 635 01 00:   TENSION FROM RESISTIVITY
 ILD .OHMM   07 120 46 00:   DEEP INDUCTION RESISTIVITY
 ILM .OHMM   07 120 44 00:   INDUCTION LOG MEDIUM RESISTIVITY
 SFLU.OHMM   07 220 01 00:   SPHERICALLY FOCUSED LOG UNAVERAGED RESISTIVITY
~PARAMETER INFORMATION
#MNEM.UNIT          VALUE    DESCRIPTION
#----------   ------------   ------------------------------
 EKB .F         5212.0000:   Kelly bushing
 EGL .F         5202.0000:   Ground level
 EDF .F            0.0000:   Drilling floor
 TD  .F         4000.0000:   Total depth
 DATE.        11-JUL-1978:   Date logged
 CLNT.            A2DTECH:   Client Code
 SL  . 1144' FSL & 2183' FEL:   Surface Location
 PD  .                 GL:   Permanent Datum
 EPD .F              5202:   Elevation Permanent Datum
 LMF .                 KB:   Log Measured From
 DMF .                 KB:   Drilling Measured From
 DD  .F              4000:   Depth driller
 DL  .F              3990:   Depth logger
 BLI .F              3985:   Bottom log interval
 TLI .F               501:   Top log interval
 CS1 .IN            9.625:   Casing size
 CBD1.      9.625" @ 500':   Casing driller 1
 CBL1.F               501:   Casing logger 1
 BS1 .IN            7.875:   Bit size
 DFT .                FGM:   Type fluid in hole
 DFD .                9.1:   Density
 DFV .                 50:   Viscosity
 DFPH.                 12:   pH
 DFL .                4.4:   Fluid loss
 MSS .           MUD/TANK:   Source of sample
 RMS .OHMM           .714:   Rm
 MST .F                83:   Rm Meas. temp.
 RMF .OHMM           .585:   Rmf
 MFST.F                83:   Rmf Meas. temp.
 MFSS.               MEAS:   Source Rmf.
 RMB .OHMM            .42:   Rm. at BHT
 BHT .F               140:   BHT.
 TCS .HRS            1000:   Time Circ. stopped
 MRT .F               140:   Maximum recorded temp.
 LUN .               8035:   Logging unit number
 LUL .       ROCK SPRINGS:   Logging unit location
 ENGI.             MARTIN:   Recorded By
 WITN.           MCCINLEY:   Witnessed by
 ORIG.           5" PRINT:   Origin of data
 UWI .     49025107100000:   Unique Well ID
 DICO. A2D TECHNOLOGIES, INC.:   Digitizing Company
 DAPD.F                10:   Feet Above Permanent Datum
 BSD1.F              4000:   Depth drilled with bit1
 TLAB.HRS            1300:   Time logger at bottom
~OTHER INFORMATION
~A   DEPT       GRD      CALD       RHOB         NPHI     DRHO       TEND        SPR       TENR        ILD        ILM       SFLU   
# ...
  939.5000    93.2680    10.5610     2.5510     0.3160     0.0600   727.3380   -55.5600   511.8700     7.7540     7.4400     8.3510
  940.0000    91.4900    10.5600     2.5440     0.3210     0.0460   727.4310   -55.3560   512.6670     7.7200     7.4160     8.3040
  940.5000    90.2920    10.4980     2.5370     0.3260     0.0320   727.5240   -55.1540   513.4640     7.6880     7.3910     8.2560
  941.0000    91.8000    10.4460     2.5410     0.3310     0.0330   727.6170   -54.9470   514.2610     7.6530     7.3670     8.2090
  941.5000    94.2460    10.3880     2.5500     0.3370     0.0350   727.7110   -54.7470   515.0580     7.6200     7.3430     8.1620
  942.0000    95.8820    10.3660     2.5560     0.3420     0.0370   727.8040   -54.5440   515.8540     7.5870     7.3190     8.1150
  942.5000    94.5620    10.3680     2.5590     0.3370     0.0380   727.8970   -54.3190   516.6510     7.5540     7.2940     8.0680
  943.0000    93.7780    10.3680     2.5620     0.3320     0.0430   727.9900   -54.2400   517.4480     7.5210     7.2590     8.0210
  943.5000    95.4320    10.3670     2.5640     0.3270     0.0500   728.0840   -54.4330   518.2450     7.4880     7.1940     7.9740
  944.0000    97.6430    10.3680     2.5590     0.3280     0.0570   728.1770   -54.6010   519.0420     7.4550     7.1290     7.9270
  944.5000    99.9620    10.3680     2.5500     0.3280     0.0630   728.2700   -54.7750   519.8390     7.4220     7.0640     7.8800
  945.0000   100.8960    10.3680     2.5410     0.3250     0.0540   728.3630   -54.9510   520.6360     7.3890     6.9980     7.8330
  945.5000   100.9070    10.3680     2.5330     0.3220     0.0450   728.4570   -55.1230   521.4320     7.3560     6.9330     7.7870
  946.0000   100.9940    10.3680     2.5270     0.3190     0.0360   728.5500   -55.2980   522.2290     7.3230     6.8680     7.7400
  946.5000   101.0820    10.3680     2.5350     0.3180     0.0270   728.6430   -55.4720   523.0260     7.2900     6.8030     7.6930
  947.0000   101.1540    10.3670     2.5420     0.3200     0.0250   728.7360   -55.6460   523.8230     7.2570     6.7380     7.6460
  947.5000   101.2340    10.3690     2.5460     0.3290     0.0300   728.8300   -55.8200   524.6200     7.2250     6.6720     7.5990
  948.0000   101.3170    10.3730     2.5380     0.3410     0.0320   728.9230   -55.9940   525.4170     7.1920     6.6070     7.5520
  948.5000   101.3930    10.3770     2.5260     0.3460     0.0270   729.0160   -56.1680   526.2140     7.1590     6.5420     7.5050
  949.0000   101.4600    10.3820     2.5150     0.3480     0.0220   729.1090   -56.3440   527.0110     7.1260     6.5160     7.4580
  949.5000   101.5870    10.3860     2.5050     0.3500     0.0150   729.2030   -56.5150   527.8070     7.0930     6.5160     7.4110
  950.0000   101.2090    10.3900     2.5050     0.3450     0.0140   729.2960   -56.6920   528.6040     7.0600     6.5160     7.4110
  950.5000   100.4570    10.3940     2.5050     0.3360     0.0150   729.3890   -56.8700   529.4010     7.0270     6.5160     7.4110
  951.0000    99.7650    10.3980     2.5110     0.3270     0.0150   729.4830   -56.9230   530.1980     7.0140     6.5530     7.4110
  951.5000    99.0830    10.4020     2.5170     0.3180     0.0150   729.5760   -56.5880   530.9950     7.2570     6.6150     7.5490
  952.0000    98.3540    10.4070     2.5210     0.3150     0.0160   729.6690   -56.2590   531.7920     7.5580     6.6760     7.5880
  952.5000    97.6970    10.4040     2.5290     0.3230     0.0210   729.7620   -55.9210   532.5890     7.8590     6.7370     7.7700
  953.0000    96.9300    10.3950     2.5380     0.3320     0.0250   729.8560   -55.5840   533.3850     8.1600     6.9280     7.9530
  953.5000    97.1250    10.3850     2.5390     0.3400     0.0280   729.9490   -55.2430   534.1820     8.4600     7.1970     8.1350
  954.0000    97.5660    10.3770     2.5280     0.3410     0.0210   730.0420   -54.9900   534.9790     8.7610     7.4670     8.3650
  954.5000    96.4560    10.3680     2.5180     0.3250     0.0080   730.1350   -54.9490   535.7760     9.0620     7.7360     8.7530
  955.0000    94.9480    10.3680     2.5130     0.3140     0.0030   730.2290   -54.9030   536.5730     9.3630     8.0050     9.1410
  955.5000    93.5730    10.3670     2.5190     0.3040     0.0080   730.3220   -54.8620   537.3700     9.6640     8.2750     9.5290
  956.0000    91.5730    10.3680     2.5250     0.3010     0.0150   730.4150   -54.8200   538.1670     9.9650     8.5440    10.1300
  956.5000    89.3330    10.3680     2.5280     0.3040     0.0210   730.5080   -54.7780   538.9220    10.1300     8.8140     9.9460
  957.0000    86.7900    10.3680     2.5290     0.3070     0.0180   730.6020   -54.7370   538.9220    10.1300     8.9300    10.1300
  957.5000    87.2590    10.3680     2.5240     0.3100     0.0100   730.6950   -54.6930   538.9220     9.9460     8.9650    10.1670
  958.0000    88.1300    10.3680     2.5150     0.3080     0.0120   730.7880   -54.6550   538.9220     9.9510     9.0000    10.2100
  958.5000    89.0480    10.3680     2.5070     0.3040     0.0140   730.8810   -54.6110   538.9220     9.9700     9.0340    10.2530
  959.0000    89.4710    10.3680     2.5010     0.3040     0.0170   730.9750   -54.7310   538.9220     9.9890     9.0690    10.2960
  959.5000    87.3540    10.3680     2.5060     0.3070     0.0180   731.0680   -54.9180   538.9220    10.0090     9.1040    10.3180
  960.0000    85.1900    10.3680     2.5170     0.3080     0.0190   731.1610   -55.1020   538.9220    10.0280     9.1390    10.3180
  960.5000    84.9870    10.3680     2.5290     0.3080     0.0210   731.2550   -55.2850   538.9220    10.0470     9.1740    10.3180
  961.0000    85.0750    10.3670     2.5310     0.3080     0.0230   731.3480   -55.4690   538.9220    10.0670     9.2370    10.3400
  961.5000    87.3830    10.3680     2.5200     0.2950     0.0210   731.4410   -55.6500   538.9220    10.0860     9.2240    10.4140
  962.0000    90.9760    10.3600     2.5100     0.2970     0.0180   731.5340   -55.8400   538.9220    10.1050     9.4290    10.4890
  962.5000    89.9250    10.3440     2.5000     0.3000     0.0150   731.6280   -56.0150   538.9220    10.1240     9.4020    10.5640
  963.0000    88.3220    10.3290     2.4890     0.3100     0.0120   731.7210   -56.1820   538.9220    10.1090     9.4160    10.6390
  963.5000    86.6140    10.3140     2.4870     0.3160     0.0100   731.8140   -56.0280   538.9220    10.0780     9.4150    10.7050
  964.0000    86.5940    10.2990     2.4930     0.3070     0.0160   731.9070   -55.8680   538.9220    10.0470     9.4120    10.8050
  964.5000    86.5440    10.2850     2.5040     0.2980     0.0230   732.0010   -55.6930   538.9220    10.0160     9.4040    10.8940
  965.0000    86.5520    10.2700     2.5150     0.2920     0.0290   732.0940   -55.5270   538.9220     9.9850     9.3970    10.9890
  965.5000    86.6000    10.2550     2.5160     0.2880     0.0280   732.1870   -55.3600   538.9220     9.9540     9.3880    11.0800
  966.0000    86.5810    10.2490     2.5090     0.2900     0.0230   732.2800   -55.1880   538.9220     9.9900     9.3800    10.8050
  966.5000    89.0730    10.2490     2.5000     0.2920     0.0190   732.3740   -55.0230   538.9220    10.0520     9.3720    10.5050
  967.0000    92.0830    10.2490     2.4940     0.2920     0.0150   732.4670   -54.8590   538.9220    10.1130     9.3640    10.2040
  967.5000    94.9860    10.2490     2.4960     0.2910     0.0100   732.5600   -54.6630   538.9220    10.1750     9.3560     9.9460
  968.0000    92.6660    10.2490     2.5020     0.2890     0.0180   732.6530   -54.7470   538.9220    10.2370     9.3480     9.9460
  968.5000    90.4700    10.2470     2.5110     0.2940     0.0290   732.7470   -55.1020   538.9220    10.2980     9.3400     9.9460
  969.0000    87.5650    10.2530     2.5190     0.2960     0.0400   732.8400   -55.3800   538.9220    10.3600     9.3320     9.9460
  969.5000    88.2190    10.2170     2.5260     0.2960     0.0440   732.9330   -55.2590   538.9220    10.4220     9.3230     9.9460
