~VERSION INFORMATION
 VERS.                2.0:   CWLS LOG ASCII STANDARD - VERSION 2.0
 WRAP.                 NO:   ONE LINE PER DEPTH STEP
~WELL INFORMATION
#MNEM.UNIT      DATA TYPE    INFORMATION
#----------   ------------   ------------------------------
 STRT.F            0.5000:   START DEPTH
 STOP.F         1380.0000:   STOP DEPTH
 STEP.F            0.5000:   STEP LENGTH
 NULL.          -999.2500:   NO VALUE
 COMP.       FLUOR DANIEL:   COMPANY
 WELL. FLUOR 84 "X" #1-14:   WELL
 FLD .          N.P.R. #3:   FIELD
 LOC .      S14 T38N R78W:   LOCATION
 CNTY.            NATRONA:   COUNTY
 STAT.            WYOMING:   STATE
 CTRY. UNITED STATES OF AMERICA:   COUNTRY
 SRVC.     ATLAS WIRELINE:   SERVICE COMPANY
 DATE.        24-AUG-1994:   LOGDATE
 API .     49025226370000:   API NUMBER
~CURVE INFORMATION
#MNEM.UNIT       API CODE    CURVE DESCRIPTION
#----------   ------------   ------------------------------
 DEPT.F                  :   
 GRR .GAPI   07 310 01 00:   GAMMA RAY FROM RESISTIVITY
 RILD.OHMM   07 120 46 00:   INDUCTION LOG DEEP RESISTIVITY
 RILM.OHMM   07 120 44 00:   INDUCTION LOG MEDIUM RESISTIVITY
 TENR.LBS    07 635 01 00:   TENSION FROM RESISTIVITY
~PARAMETER INFORMATION
#MNEM.UNIT          VALUE    DESCRIPTION
#----------   ------------   ------------------------------
 EKB .F         5326.0000:   Kelly bushing
 EGL .F         5316.0000:   Ground level
 EDF .F         5325.0000:   Drilling floor
 TD  .F         1368.0000:   Total depth
 CLNT.            A2DTECH:   Client Code
 PD  .                 GL:   Permanent Datum
 EPD .F              5316:   Elevation Permanent Datum
 LMF .                 KB:   Log Measured From
 DMF .                 KB:   Drilling Measured From
 DAPD.F                10:   Feet Above Permanent Datum
 DATE.        24-AUG-1994:   Date Logged [DD-MMM-YYYY]
 DD  .F              1368:   Depth driller
 DL  .F              1364:   Depth logger
 BLI .F              1356:   Bottom log interval
 TLI .F                 0:   Top log interval
 CS1 .IN            9.625:   Casing size
 CBD1.       9.625" @ 56':   Casing driller 1
 CBL1.F                56:   Casing logger 1
 BS1 .IN             8.75:   Bit size
 BSD1.F              1368:   Depth drilled with bit1
 DFT .                AIR:   Type fluid in hole
 LUN .            HL 6530:   Logging unit number
 LUL .             CASPER:   Logging unit location
 WITN.        GARY STRONG:   Witnessed by
 ORIG.         2.5" PRINT:   Origin of data
 UWI .     49025226370000:   Unique Well ID
 DICO. A2D TECHNOLOGIES, INC.:   Digitizing Company
 SL  . 2551' FNL & 575' FEL:   Surface Location
~OTHER INFORMATION
~A    DEPT      GRR      RILD       RILM       TENR   
# ...
  949.5000   146.1029     6.9659     6.8829   -27.7448
  950.0000   141.9172     6.9654     6.8810   -27.4969
  950.5000   141.3233     7.1620     6.9747   -27.4957
  951.0000   140.7314     7.3641     6.9935   -27.4944
  951.5000   140.1385     7.5719     7.1655   -27.4932
  952.0000   138.9468     7.7756     7.3905   -27.4920
  952.5000   135.3599     7.8957     7.5973   -27.4907
  953.0000   130.5754     7.9919     7.8099   -27.4895
  953.5000   126.9885     7.9913     7.9911   -27.4883
  954.0000   128.7909     7.9907     8.0291   -27.4870
  954.5000   130.5932     8.1012     8.1410   -27.4858
  955.0000   132.9943     8.2131     8.2070   -27.4846
  955.5000   134.7966     8.2417     8.2047   -27.4833
  956.0000   136.0002     8.4416     8.3700   -27.4821
  956.5000   134.8085     8.5941     8.4866   -27.4809
  957.0000   133.6168     8.6764     8.6621   -27.4796
  957.5000   133.0239     8.8389     8.9014   -27.4784
  958.0000   132.8143     9.0884     9.2193   -27.4772
  958.5000   124.4627     9.3448     9.4773   -27.4760
  959.0000   119.0624     9.6085     9.7934   -27.4747
  959.5000   118.0775     9.8797     9.9269   -27.4735
  960.0000   122.5150    10.1585     9.9237   -27.4723
  960.5000   125.9681    10.2325    10.0590   -27.4710
  961.0000   126.4785    10.2318    10.1707   -27.4698
  961.5000   125.2868    10.1559    10.0973   -27.4686
  962.0000   125.8922     9.9521     9.9980   -27.4673
  962.5000   125.5989     9.7368     9.9103   -27.4661
  963.0000   122.3106     9.4167     9.7721   -27.4649
  963.5000   122.3174     9.2871     9.6359   -27.4636
  964.0000   122.3234     9.2451     9.3716   -27.4624
  964.5000   121.5250     9.1587     9.3691   -27.4612
  965.0000   119.1217     9.1581     9.2384   -27.4599
  965.5000   119.5808     9.0321     9.1097   -27.4587
  966.0000   121.3972     9.0314     8.9827   -27.4575
  966.5000   123.7365     9.0308     8.8574   -27.4562
  967.0000   127.1019     9.0302     8.8530   -27.4550
  967.5000   128.9521     9.1549     8.7315   -27.4538
  968.0000   126.2515     9.1543     8.7291   -27.4525
  968.5000   124.4551     9.1537     8.7267   -27.4513
  969.0000   124.5110     9.1531     8.7243   -27.4501
  969.5000   124.7844     9.1525     8.7219   -27.4488
  970.0000   122.3964     9.1518     8.7195   -27.4481
  970.5000   117.0131     9.1512     8.8382   -42.2849
  971.0000   116.5947     9.1506     8.8355   -86.7953
  971.5000   120.0189     9.0247     8.8331   -57.1217
  972.0000   123.6177     9.0207     8.8307   -27.4481
  972.5000   122.4260     8.8999     8.8282   -27.4481
  973.0000   118.8391     8.8993     8.8258   -12.6113
  973.5000   117.6467     8.8869     8.7027   -12.6113
  974.0000   117.6533     8.7618     8.5814   -13.9980
  974.5000   118.8568     8.6554     8.4164   -27.4481
  975.0000   118.8628     8.5168     8.2962   -27.4481
  975.5000   115.2759     8.4188     8.1149   -30.4627
  976.0000   115.8806     8.1893     7.9506   -42.2849
  976.5000   117.6829     8.1887     7.8901   -42.2849
  977.0000   122.4793     8.1881     7.7801   -37.6368
  977.5000   124.8804     8.1876     7.7780   -27.4481
  978.0000   125.4851     8.1870     7.7758   -21.7096
  978.5000   124.2934     8.1495     7.7737   -12.6113
  979.0000   122.4910     8.0347     7.6649   -12.6113
  979.5000   121.3112     7.8131     7.4547   -19.9799
  980.0000   122.5150     7.6395     7.4527   -27.4481
  980.5000   122.5210     7.6390     7.3488   -35.9046
  981.0000   122.5269     7.6858     7.2463   -57.1217
  981.5000   123.2135     7.7440     7.2443   -57.1217
  982.0000   123.7365     7.7434     7.2424   -57.1217
  982.5000   123.6328     7.7429     7.2404   -42.2849
  983.0000   123.0259     7.5799     7.3388   -27.4481
  983.5000   121.4072     7.4732     7.4385   -12.6113
  984.0000   115.9753     7.4276     7.4365   -12.6113
  984.5000   117.7784     7.5301     7.4344   -27.4481
  985.0000   117.2454     7.5296     7.4324   -57.1217
  985.5000   115.3942     7.5291     7.1298   -42.2849
  986.0000   119.0178     7.5286     6.9342   -27.4481
  986.5000   122.6586     7.2230     6.7441   -12.6113
  987.0000   125.4652     6.9299     6.5576   -13.3011
  987.5000   128.7425     6.7409     6.2920   -28.6872
  988.0000   131.7844     6.6482     6.1986   -42.2849
  988.5000   133.3952     6.5567     6.1101   -42.2849
  989.0000   134.0000     6.4665     6.0324   -39.4186
  989.5000   133.3952     6.4660     6.0308   -27.4481
  990.0000   130.0599     6.3771     6.0291   -12.6113
  990.5000   126.1656     6.3766     6.0274    -8.1108
  991.0000   124.6947     6.3762     6.0079     2.2255
  991.5000   125.6479     6.3758     5.9420   -27.4481
  992.0000   126.8514     6.3753     6.1514   -48.4180
  992.5000   128.6537     6.4634     6.3001   -63.7986
  993.0000   131.0549     6.5527     6.3602   -71.9585
  993.5000   130.4620     6.5522     6.2712   -57.1217
  994.0000   129.2703     6.5518     6.2695   -33.9758
  994.5000   129.8750     6.5513     6.2678   -27.4481
  995.0000   134.0726     6.5509     6.2661   -12.6113
  995.5000   138.8689     6.5504     6.3416   -27.4481
  996.0000   136.4796     6.6544     6.5689   -42.2849
  996.5000   132.2939     6.7485     6.7528   -57.1217
  997.0000   129.3058     6.9205     6.8468   -57.1217
  997.5000   127.5153     6.9199     6.9422   -27.4481
  998.0000   127.5212     6.9195     6.9841   -12.6113
  998.5000   127.5272     6.9190     6.9822   -12.6113
  999.0000   129.9283     6.9185     6.9799   -27.4481
  999.5000   129.9342     6.9180     6.9780   -27.4481
 1000.0000   129.9401     6.9056     6.9761   -27.4481
 1000.5000   133.5758     6.8324     6.8361   -27.4481
 1001.0000   135.3692     6.7591     6.7841   -27.4481
 1001.5000   135.9880     6.7252     6.6471   -27.4481
 1002.0000   136.5152     6.7238     6.5971   -27.4481
 1002.5000   135.9132     6.7224     6.5958   -27.4481
 1003.0000   134.5749     6.7210     6.5942   -27.4481
 1003.5000   132.7524     6.7197     6.5928   -27.4481
 1004.0000   130.1476     6.7183     6.5915   -27.4481
 1004.5000   126.6919     6.7169     6.5902   -32.3433
 1005.0000   126.3179     6.7155     6.5888   -42.2849
 1005.5000   128.6159     6.7141     6.5875   -42.3412
 1006.0000   129.3054     6.7127     6.5862   -42.4229
 1006.5000   129.0040     6.7113     6.5848   -42.5046
 1007.0000   128.7006     6.7099     6.5835   -42.5863
 1007.5000   129.0419     6.7086     6.5822   -42.6680
 1008.0000   130.4904     6.7069     6.5808   -42.7497
 1008.5000   134.6791     6.7055     6.5795   -42.8314
 1009.0000   135.0479     6.7042     6.5781   -42.9131
 1009.5000   129.8828     6.6110     6.5767   -42.9948
 1010.0000   128.6823     6.5192     6.5754   -43.0765
 1010.5000   129.2782     6.5179     6.5740   -43.1583
 1011.0000   130.4728     6.5165     6.5727   -43.2400
 1011.5000   133.4639     6.4260     6.5713   -43.3217
 1012.0000   138.8502     6.3367     6.5700   -43.4034
 1012.5000   139.4711     6.2487     6.5274   -43.4851
 1013.0000   135.8503     6.1619     6.3889   -43.5668
 1013.5000   132.2545     5.9930     6.2530   -43.6485
 1014.0000   133.4931     5.9038     6.1276   -43.7302
 1014.5000   134.0451     5.8187     6.0426   -43.8119
 1015.0000   128.9820     5.6563     5.8773   -43.8936
 1015.5000   126.0290     5.4984     5.5613   -43.9753
 1016.0000   125.0542     5.3616     5.4091   -44.0570
 1016.5000   130.3174     5.2679     5.2612   -44.1388
 1017.0000   134.9383     5.2136     5.1882   -44.2205
 1017.5000   140.0299     5.2125     5.1871   -29.2542
 1018.0000   141.2101     5.2114     5.2580   -43.7273
 1018.5000   135.1636     5.2827     5.4037   -58.2344
 1019.0000   130.7505     5.3549     5.7153   -57.8368
 1019.5000   131.6136     5.3906     5.8738   -42.6364
 1020.0000   133.1337     5.5024     5.9577   -27.4360
 1020.5000   132.1266     5.5449     6.0280   -27.0723
 1021.0000   129.8138     5.6539     6.0266   -26.7062
 1021.5000   128.6133     5.8106     6.0254   -26.3353
 1022.0000   128.6103     5.8900     6.0241   -40.8182
