~VERSION INFORMATION
 VERS.                2.0:   CWLS LOG ASCII STANDARD - VERSION 2.0
 WRAP.                 NO:   ONE LINE PER DEPTH STEP
~WELL INFORMATION
#MNEM.UNIT      DATA TYPE    INFORMATION
#----------   ------------   ------------------------------
 STRT.F            0.5000:   START DEPTH
 STOP.F         3195.0000:   STOP DEPTH
 STEP.F            0.5000:   STEP LENGTH
 NULL.          -999.2500:   NO VALUE
 COMP.   TESORO PETROLEUM:   COMPANY
 WELL. TESORO NPR 3 "A" #15-10:   WELL
 FLD .        TEAPOT DOME:   FIELD
 LOC .      S10 T38N R78W:   LOCATION
 CNTY.            NATRONA:   COUNTY
 STAT.            WYOMING:   STATE
 CTRY. UNITED STATES OF AMERICA:   COUNTRY
 SRVC.       SCHLUMBERGER:   SERVICE COMPANY
 DATE.        03-JUL-1969:   LOGDATE
 API .     49025600130000:   API NUMBER
~CURVE INFORMATION
#MNEM.UNIT       API CODE    CURVE DESCRIPTION
#----------   ------------   ------------------------------
 DEPT.F                  :   
 SPR .MV     05 010 01 00:   SPONTANEOUS POTENTIAL FROM RES.
 ASN .OHMM   05 041 16 00:   AMPLIFIED SHORT NORMAL 16"
 ILD .OHMM   05 120 46 00:   INDUCTION LOG DEEP
 CALD.IN     45 280 60 00:   CALIPER FROM DENSITY LOG
 GRD .GAPI   45 310 01 00:   GAMMA RAY FROM DENSITY LOG
 RHOB.G/C3   45 350 01 00:   BULK DENSITY
~PARAMETER INFORMATION
#MNEM.UNIT          VALUE    DESCRIPTION
#----------   ------------   ------------------------------
 EKB .F         5250.0000:   Kelly bushing
 EGL .F         5237.0000:   Ground level
 EDF .F            0.0000:   Drilling floor
 TD  .F         3200.0000:   Total depth
 CLNT.            A2DTECH:   Client Code
 SL  . 990' FWL & 1980' FSL:   Surface Location
 PD  .                 GL:   Permanent Datum
 EPD .F              5237:   Elevation Permanent Datum
 LMF .                 KB:   Log Measured From
 DMF .                 KB:   Drilling Measured From
 DAPD.F                13:   Feet Above Permanent Datum
 DATE.        03-JUL-1969:   Date Logged [DD-MMM-YYYY]
 DD  .F              3200:   Depth driller
 DL  .F              3196:   Depth logger
 BLI .F              3195:   Bottom log interval
 TLI .F               676:   Top log interval
 CS1 .IN            10.75:   Casing size
 CBD1.      10.75" @ 675':   Casing driller 1
 CBL1.F               676:   Casing logger 1
 BS1 .IN            6.125:   Bit size
 BSD1.F              3200:   Depth drilled with bit1
 DFT .      FRESH GEL MUD:   Type fluid in hole
 DFD .                9.5:   Density
 DFV .                 46:   Viscosity
 DFPH.                9.5:   pH
 DFL .                6.4:   Fluid loss
 MSS .           FLOWLINE:   Source of sample
 RMS .OHMM           2.05:   Rm
 MST .F                76:   Rm Meas. temp.
 RMF .OHMM           1.49:   Rmf
 MFST.F                78:   Rmf Meas. temp.
 MFSS.               MEAS:   Source Rmf.
 RMB .OHMM           1.34:   Rm. at BHT
 BHT .F               116:   BHT.
 TCS .HRS               2:   Time Circ. stopped
 MRT .F               116:   Maximum recorded temp.
 LUN .               4507:   Logging unit number
 LUL .               CSPR:   Logging unit location
 ENGI.             KNOBEL:   Recorded By
 WITN.                MAY:   Witnessed by
 ORIG.        2" 5" PRINT:   Origin of data
 UWI .     49025600130000:   Unique Well ID
 DICO. A2D TECHNOLOGIES, INC.:   Digitizing Company
~OTHER INFORMATION
~A    DEPT     SPR          ASN      ILD       CALD        GRD       RHOB   
# ...
 1508.5000   -28.1610     9.4645     8.7977  -999.2500  -999.2500  -999.2500
 1509.0000   -28.2960     9.4649     8.9257  -999.2500  -999.2500  -999.2500
 1509.5000   -28.4313     9.4652     8.9951  -999.2500  -999.2500  -999.2500
 1510.0000   -28.5668     9.4655     8.9955  -999.2500  -999.2500  -999.2500
 1510.5000   -28.6954     9.4658     8.9958  -999.2500  -999.2500  -999.2500
 1511.0000   -28.6071     9.5131     8.9963  -999.2500  -999.2500  -999.2500
 1511.5000   -28.3853     9.5645     8.9966  -999.2500  -999.2500  -999.2500
 1512.0000   -28.3931     9.6168     8.9970  -999.2500  -999.2500  -999.2500
 1512.5000   -28.3785     9.6923     8.9974  -999.2500  -999.2500  -999.2500
 1513.0000   -28.2020     9.7676     8.9977  -999.2500  -999.2500  -999.2500
 1513.5000   -28.1726     9.7679     8.9981  -999.2500  -999.2500  -999.2500
 1514.0000   -27.8063     9.7682     8.9985  -999.2500  -999.2500  -999.2500
 1514.5000   -27.5862     9.7685     8.9989  -999.2500  -999.2500  -999.2500
 1515.0000   -27.6067     9.7688     8.9992  -999.2500  -999.2500  -999.2500
 1515.5000   -27.3906     9.7691     8.9996  -999.2500  -999.2500  -999.2500
 1516.0000   -27.6167     9.7694     9.0001  -999.2500  -999.2500  -999.2500
 1516.5000   -27.5960     9.7697     9.0004  -999.2500  -999.2500  -999.2500
 1517.0000   -27.8066     9.7700     9.0008  -999.2500  -999.2500  -999.2500
 1517.5000   -27.7970     9.6952     9.0012  -999.2500  -999.2500  -999.2500
 1518.0000   -27.6697     9.6845     9.0015  -999.2500  -999.2500  -999.2500
 1518.5000   -27.6019     9.6208     9.0019  -999.2500  -999.2500  -999.2500
 1519.0000   -27.6035     9.6210     9.0023  -999.2500  -999.2500  -999.2500
 1519.5000   -27.6022     9.5462     8.9591  -999.2500  -999.2500  -999.2500
 1520.0000   -27.4775     9.4715     8.9274  -999.2500  -999.2500  -999.2500
 1520.5000   -27.6402     9.4718     8.9279  -999.2500  -999.2500  -999.2500
 1521.0000   -27.8009     9.4720     8.8794  -999.2500  -999.2500  -999.2500
 1521.5000   -27.9631     9.3973     8.8530  -999.2500  -999.2500  -999.2500
 1522.0000   -28.1261     9.3536     8.8535  -999.2500  -999.2500  -999.2500
 1522.5000   -28.1810     9.3228     8.8539  -999.2500  -999.2500  -999.2500
 1523.0000   -28.0818     9.3231     8.9298  -999.2500  -999.2500  -999.2500
 1523.5000   -27.9939     9.2764     8.9301  -999.2500  -999.2500  -999.2500
 1524.0000   -27.9953     9.2486     8.9306  -999.2500  -999.2500  -999.2500
 1524.5000   -28.0032     9.1739     8.9309  -999.2500  -999.2500  -999.2500
 1525.0000   -27.7923     9.1742     8.9313  -999.2500  -999.2500  -999.2500
 1525.5000   -27.6964     9.1745     8.9317  -999.2500  -999.2500  -999.2500
 1526.0000   -27.6005     9.1748     8.9320  -999.2500  -999.2500  -999.2500
 1526.5000   -27.4690     9.1751     8.9324  -999.2500  -999.2500  -999.2500
 1527.0000   -27.3877     9.2505     8.9328  -999.2500  -999.2500  -999.2500
 1527.5000   -27.4561     9.2507     8.8866  -999.2500  -999.2500  -999.2500
 1528.0000   -27.5808     9.2511     8.7824  -999.2500  -999.2500  -999.2500
 1528.5000   -27.6009     9.3264     8.7829  -999.2500  -999.2500  -999.2500
 1529.0000   -27.4192     9.3267     8.7833  -999.2500  -999.2500  -999.2500
 1529.5000   -27.3887     9.3271     8.6326  -999.2500  -999.2500  -999.2500
 1530.0000   -27.2584     9.3273     8.4819  -999.2500  -999.2500  -999.2500
 1530.5000   -27.0236     9.3276     8.4823  -999.2500  -999.2500  -999.2500
 1531.0000   -26.9920     9.3280     8.4826  -999.2500  -999.2500  -999.2500
 1531.5000   -27.2219     9.3282     8.5036  -999.2500  -999.2500  -999.2500
 1532.0000   -27.4179     9.3285     8.6345  -999.2500  -999.2500  -999.2500
 1532.5000   -27.4935     9.3288     8.6348  -999.2500  -999.2500  -999.2500
 1533.0000   -27.6966     9.3291     8.7107  -999.2500  -999.2500  -999.2500
 1533.5000   -27.8011     9.3294     8.7111  -999.2500  -999.2500  -999.2500
 1534.0000   -27.7999     9.3297     8.7336  -999.2500  -999.2500  -999.2500
 1534.5000   -27.7415     9.3300     8.7874  -999.2500  -999.2500  -999.2500
 1535.0000   -27.6025     9.3304     8.7878  -999.2500  -999.2500  -999.2500
 1535.5000   -27.5978     9.3306     8.7881  -999.2500  -999.2500  -999.2500
 1536.0000   -27.4236     9.3780     8.7885  -999.2500  -999.2500  -999.2500
 1536.5000   -27.4146     9.4063     8.7889  -999.2500  -999.2500  -999.2500
 1537.0000   -27.2200     9.4066     8.7893  -999.2500  -999.2500  -999.2500
 1537.5000   -27.2070     9.4820     8.7897  -999.2500  -999.2500  -999.2500
 1538.0000   -27.2102     9.5202     8.7900  -999.2500  -999.2500  -999.2500
 1538.5000   -27.2102     9.7043     8.7905  -999.2500  -999.2500  -999.2500
 1539.0000   -27.2102     9.8884     8.7173  -999.2500  -999.2500  -999.2500
 1539.5000   -27.2102     9.9613     8.6401  -999.2500  -999.2500  -999.2500
 1540.0000   -27.2102     9.8799     8.5650  -999.2500  -999.2500  -999.2500
 1540.5000   -27.2103     9.8117     8.4898  -999.2500  -999.2500  -999.2500
 1541.0000   -27.2096     9.7244     8.4715  -999.2500  -999.2500  -999.2500
 1541.5000   -27.2171     9.6597     8.4150  -999.2500  -999.2500  -999.2500
 1542.0000   -27.0068     9.5844     8.3399  -999.2500  -999.2500  -999.2500
 1542.5000   -27.0095     9.5151     8.3403  -999.2500  -999.2500  -999.2500
 1543.0000   -27.0606     9.5081     8.3406  -999.2500  -999.2500  -999.2500
 1543.5000   -27.2060     9.5006     8.2656  -999.2500  -999.2500  -999.2500
 1544.0000   -27.2119     9.5159     8.1903  -999.2500  -999.2500  -999.2500
 1544.5000   -27.2104     9.5162     8.1907  -999.2500  -999.2500  -999.2500
 1545.0000   -27.2102     9.5165     8.1911  -999.2500  -999.2500  -999.2500
 1545.5000   -27.2102     9.5168     8.0404  -999.2500  -999.2500  -999.2500
 1546.0000   -27.2102     9.4937     7.8897  -999.2500  -999.2500  -999.2500
 1546.5000   -27.2102     9.4837     7.8901  -999.2500  -999.2500  -999.2500
 1547.0000   -27.2106     9.4577     7.7752  -999.2500  -999.2500  -999.2500
 1547.5000   -27.2105     9.4339     7.7398  -999.2500  -999.2500  -999.2500
 1548.0000   -27.1850     9.4090     7.7402  -999.2500  -999.2500  -999.2500
 1548.5000   -27.0097     9.3685     7.6200  -999.2500  -999.2500  -999.2500
 1549.0000   -26.9794     9.3099     7.5898  -999.2500  -999.2500  -999.2500
 1549.5000   -26.8008     9.1853     7.5903  -999.2500  -999.2500  -999.2500
 1550.0000   -26.7350     9.1141     7.4397  -999.2500  -999.2500  -999.2500
 1550.5000   -26.6676     9.2196     7.4400  -999.2500  -999.2500  -999.2500
 1551.0000   -26.6329     9.2703     7.5194  -999.2500  -999.2500  -999.2500
 1551.5000   -26.4215     9.3108     7.5918  -999.2500  -999.2500  -999.2500
 1552.0000   -26.4124     9.3406     7.6566  -999.2500  -999.2500  -999.2500
 1552.5000   -26.6205     9.3979     7.7436  -999.2500  -999.2500  -999.2500
 1553.0000   -26.6253     9.4636     7.8951  -999.2500  -999.2500  -999.2500
 1553.5000   -26.8021     9.5517     7.8954  -999.2500  -999.2500  -999.2500
 1554.0000   -26.8208     9.6168     8.0469  -999.2500  -999.2500  -999.2500
 1554.5000   -26.8172     9.7096     8.1983  -999.2500  -999.2500  -999.2500
 1555.0000   -26.8133     9.8078     8.1986  -999.2500  -999.2500  -999.2500
 1555.5000   -26.8398     9.9433     8.1235  -999.2500  -999.2500  -999.2500
 1556.0000   -27.0087     9.0896     7.9557  -999.2500  -999.2500  -999.2500
 1556.5000   -27.1675     9.1192     7.7465  -999.2500  -999.2500  -999.2500
 1557.0000   -27.0168     9.1654     7.7470  -999.2500  -999.2500  -999.2500
 1557.5000   -27.0129     9.2410     8.2006  -999.2500  -999.2500  -999.2500
 1558.0000   -27.0137     9.3886     8.4084  -999.2500  -999.2500  -999.2500
 1558.5000   -27.0145     9.4936     8.6593  -999.2500  -999.2500  -999.2500
 1559.0000   -27.0120     9.6928     8.8059  -999.2500  -999.2500  -999.2500
 1559.5000   -26.8870     9.7683     8.8733  -999.2500  -999.2500  -999.2500
 1560.0000   -26.8163     9.8639     8.9577  -999.2500  -999.2500  -999.2500
