~VERSION INFORMATION
 VERS.                2.0:   CWLS LOG ASCII STANDARD - VERSION 2.0
 WRAP.                 NO:   ONE LINE PER DEPTH STEP
~WELL INFORMATION
#MNEM.UNIT      DATA TYPE    INFORMATION
#----------   ------------   ------------------------------
 STRT.F         2290.0000:   START DEPTH
 STOP.F         2806.5000:   STOP DEPTH
 STEP.F            0.5000:   STEP LENGTH
 NULL.          -999.2500:   NO VALUE
 COMP.  FENIX AND SCISSON:   COMPANY
 WELL. FENIX & SCISSON INC "A" #405-20:   WELL
 FLD .                NPR:   FIELD
 LOC .      S20 T39N R78W:   LOCATION
 CNTY.            NATRONA:   COUNTY
 STAT.            WYOMING:   STATE
 CTRY. UNITED STATES OF AMERICA:   COUNTRY
 SRVC.         McCULLOUGH:   SERVICE COMPANY
 DATE.        23-NOV-1977:   LOGDATE
 API .     49025104440000:   API NUMBER
~CURVE INFORMATION
#MNEM.UNIT       API CODE    CURVE DESCRIPTION
#----------   ------------   ------------------------------
 DEPT.F                  :   
 GRN .GAPI   35 310 01 00:   GAMMA RAY
 NEUT.NAPI   35 330 01 00:   NEUTRON
~PARAMETER INFORMATION
#MNEM.UNIT          VALUE    DESCRIPTION
#----------   ------------   ------------------------------
 EDF .F         4974.0000:   Drilling floor
 TD  .F         2807.0000:   Total depth
 DATE.        23-NOV-1977:   Date logged
 CLNT.            A2DTECH:   Client Code
 CTRY.                USA:   Country
 PD  .                 DF:   Permanent Datum
 EPD .F              4974:   Elevation Permanent Datum
 LMF .                 GL:   Log Measured From
 DMF .                 GL:   Drilling Measured From
 DD  .F              2800:   Depth driller
 DL  .F              2807:   Depth logger
 BLI .F              2806:   Bottom log interval
 TLI .F              2300:   Top log interval
 CS1 .IN                7:   Casing size
 CBD1.         7" @ 2624':   Casing driller 1
 CBL1.F              2624:   Casing logger 1
 BSD1.F              2800:   Depth drilled with bit1
 DFT .        WATER & OIL:   Type fluid in hole
 ENGI.             CONLEY:   Recorded By
 WITN.          WOLVERTON:   Witnessed by
 ORIG.           5" PRINT:   Origin of data
 UWI .     49025104440000:   Unique Well ID
 DICO. A2D TECHNOLOGIES, INC.:   Digitizing Company
~OTHER INFORMATION
~A  DEPT        GRN      NEUT   
# ...
 2654.5000   119.1820   845.2870
 2655.0000   118.6080   848.0060
 2655.5000   122.0370   838.5940
 2656.0000   123.8570   832.0250
 2656.5000   125.0010   833.6880
 2657.0000   123.6460   832.5910
 2657.5000   122.1360   799.2200
 2658.0000   122.2400   763.8190
 2658.5000   121.6670   708.7670
 2659.0000   118.6240   667.2890
 2659.5000   120.0160   657.8680
 2660.0000   121.4970   664.4930
 2660.5000   121.4890   688.2950
 2661.0000   119.0470   718.2980
 2661.5000   114.5060   751.5250
 2662.0000   110.4340   785.0830
 2662.5000   110.4820   818.1240
 2663.0000   111.1630   836.7410
 2663.5000   109.9680   852.2010
 2664.0000   106.3220   866.3710
 2664.5000   106.0050   879.2780
 2665.0000   108.2930   884.1140
 2665.5000   113.5510   887.4550
 2666.0000   114.6810   869.0490
 2666.5000   111.6740   788.7360
 2667.0000   110.9480   709.5750
 2667.5000   110.1400   635.2930
 2668.0000   108.8510   592.2580
 2668.5000   108.0440   552.0830
 2669.0000   108.6220   517.8410
 2669.5000   109.0480   496.1050
 2670.0000   111.8170   492.1220
 2670.5000   110.0620   556.3990
 2671.0000   110.3350   696.3760
 2671.5000   114.3250   835.7560
 2672.0000   109.8260   975.5320
 2672.5000   104.4240  1101.8860
 2673.0000   108.4270  1111.8459
 2673.5000   110.3530  1121.3810
 2674.0000   112.4150  1130.5699
 2674.5000   114.2970  1139.9440
 2675.0000   113.2980  1145.8690
 2675.5000   112.3730  1122.3950
 2676.0000   110.8180  1055.8320
 2676.5000   112.2120   933.1730
 2677.0000   114.9930   849.2700
 2677.5000   115.7770   798.9640
 2678.0000   115.1570   772.2260
 2678.5000   112.4580   768.9570
 2679.0000   113.3090   770.8340
 2679.5000   115.4670   772.8320
 2680.0000   117.5090   771.4250
 2680.5000   116.2440   757.2130
 2681.0000   114.2340   722.3840
 2681.5000   110.5520   685.3150
 2682.0000   109.4830   616.2100
 2682.5000   112.7370   549.6440
 2683.0000   118.3880   498.4810
 2683.5000   124.1220   488.5940
 2684.0000   121.4810   528.0320
 2684.5000   121.0120   609.7890
 2685.0000   120.0800   757.2790
 2685.5000   119.7940   872.7190
 2686.0000   120.3890   949.6360
 2686.5000   121.4840   980.3600
 2687.0000   119.7110   990.1210
 2687.5000   117.4450  1000.6020
 2688.0000   113.7430  1042.4700
 2688.5000   115.2770  1103.7469
 2689.0000   116.0330  1137.5129
 2689.5000   113.6630  1173.1730
 2690.0000   113.6840  1208.6190
 2690.5000   119.0750  1243.8070
 2691.0000   117.4230  1279.2330
 2691.5000   116.7050  1300.7230
 2692.0000   118.4120  1309.1230
 2692.5000   117.8210  1316.8060
 2693.0000   117.2950  1317.8680
 2693.5000   116.3100  1319.0620
 2694.0000   113.4090  1321.6591
 2694.5000   111.9980  1326.1880
 2695.0000   112.0860  1330.6890
 2695.5000   112.7900  1332.8680
 2696.0000   114.0370  1330.8630
 2696.5000   114.7930  1313.1300
 2697.0000   114.5850  1271.2300
 2697.5000   116.9240  1214.8580
 2698.0000   121.6280  1146.4460
 2698.5000   121.7470  1059.1360
 2699.0000   118.7800   973.1480
 2699.5000   113.4720   886.5820
 2700.0000   113.1550   785.6260
 2700.5000   115.2930   723.2500
 2701.0000   109.5840   698.9890
 2701.5000   103.1400   644.5770
 2702.0000   101.4230   621.7890
 2702.5000   104.4210   559.8910
 2703.0000   108.1590   516.4480
 2703.5000   111.5690   589.7940
 2704.0000   108.6210   765.1450
 2704.5000   105.8800  1060.2960
 2705.0000   103.7560  1355.4480
 2705.5000   104.1930  1628.5210
 2706.0000   110.2440  1653.4210
 2706.5000   110.2300  1629.9150
 2707.0000   108.9550  1592.9050
 2707.5000   103.6930  1485.2150
 2708.0000   106.1110  1419.2810
 2708.5000   112.0590  1353.0790
 2709.0000   110.5420  1287.0580
 2709.5000   109.0660  1221.2190
 2710.0000   112.9680  1132.1281
 2710.5000   117.3050  1010.0380
 2711.0000   115.6630   936.0110
 2711.5000   113.1320   871.8800
 2712.0000   112.9720   801.5780
 2712.5000   107.6830   724.3850
 2713.0000   104.6140   640.8090
 2713.5000   102.2160   559.5840
 2714.0000   104.6620   481.9520
 2714.5000   113.0120   452.4980
 2715.0000   118.6640   469.3330
 2715.5000   115.5900   529.9650
 2716.0000   109.2920   695.6030
 2716.5000   108.4890   880.4780
 2717.0000   110.4120  1036.3450
 2717.5000   111.4820  1087.8110
 2718.0000   112.8930  1091.0740
 2718.5000   115.0730  1080.7271
 2719.0000   117.1120  1070.0160
 2719.5000   113.8220  1059.1250
 2720.0000   114.4800  1043.2510
 2720.5000   115.7460  1011.7270
 2721.0000   117.6220   981.3950
 2721.5000   115.5250   953.8610
 2722.0000   115.2730   945.2370
 2722.5000   114.9480   941.7580
 2723.0000   115.2510   946.8000
 2723.5000   116.7130   951.6450
 2724.0000   118.5640   950.7660
 2724.5000   122.0500   934.8780
 2725.0000   122.7330   918.9190
 2725.5000   122.6180   921.6530
 2726.0000   121.9640   925.7510
 2726.5000   122.1600   929.6610
 2727.0000   122.3310   950.9070
 2727.5000   121.6570   985.6820
 2728.0000   122.1950   997.0720
 2728.5000   121.1830  1002.8580
 2729.0000   124.1680  1004.0630
 2729.5000   121.5590   986.2440
 2730.0000   123.8810   968.4990
 2730.5000   121.2460   945.9660
 2731.0000   124.4530   902.7030
 2731.5000   122.9490   821.6400
 2732.0000   121.9020   775.6890
 2732.5000   120.7980   763.0460
 2733.0000   120.5990   782.9590
 2733.5000   119.6630   790.0090
 2734.0000   115.6950   806.8260
 2734.5000   119.2700   841.9970
 2735.0000   121.2650   876.9630
 2735.5000   122.5630   955.0840
 2736.0000   122.1020  1068.3940
 2736.5000   119.0850  1177.7140
 2737.0000   115.2990  1278.7629
 2737.5000   117.1640  1335.0870
 2738.0000   118.5550  1340.0060
 2738.5000   117.7710  1312.9840
 2739.0000   115.2930  1260.5840
 2739.5000   112.6640  1221.5900
 2740.0000   108.7560  1185.9520
 2740.5000    99.3120  1150.1310
 2741.0000    94.3560  1083.4890
 2741.5000    88.6390   975.3620
 2742.0000    87.6400   705.2590
 2742.5000    86.7870   582.4090
 2743.0000    82.1530   491.4070
 2743.5000    77.9540   438.2870
 2744.0000    76.3140   425.0980
 2744.5000    74.3640   410.3400
 2745.0000    75.6480   372.6790
 2745.5000    76.3540   349.0050
 2746.0000    78.0620   349.2400
 2746.5000    80.3910   377.1840
 2747.0000    82.5670   409.9650
 2747.5000    82.4040   457.4970
 2748.0000    81.3490   561.5350
 2748.5000    76.5200   703.0720
 2749.0000    69.9320   831.7110
 2749.5000    67.4930  1192.9720
 2750.0000    61.7750  1561.1853
 2750.5000    55.4430  1734.3851
 2751.0000    50.4090  1920.4486
 2751.5000    48.2220  1807.7142
 2752.0000    45.2750  1707.3683
 2752.5000    42.2720  1618.1719
 2753.0000    45.6060  1750.0575
 2753.5000    48.0370  1977.4353
 2754.0000    54.4420  2139.4114
 2754.5000    56.2150  2165.7388
 2755.0000    57.2670  2117.4241
 2755.5000    58.3640  1829.5089
 2756.0000    59.3800  1553.0330
 2756.5000    58.7410  1148.4700
 2757.0000    58.0760   893.9290
 2757.5000    58.4060   744.6540
 2758.0000    58.9040   677.3300
 2758.5000    59.6190   578.5220
 2759.0000    60.8090   521.3640
 2759.5000    57.2390   494.2690
 2760.0000    58.4230   493.2130
 2760.5000    60.8020   516.6480
 2761.0000    62.1970   560.2690
 2761.5000    61.6560   652.3590
 2762.0000    60.4300   742.2710
 2762.5000    59.0360   832.9100
 2763.0000    60.2240   902.9310
 2763.5000    59.6910   910.6830
 2764.0000    58.9190   902.0760
 2764.5000    60.6340   910.8470
 2765.0000    60.3470   931.4600
 2765.5000    60.5810   945.0610
 2766.0000    66.5890   949.8250
 2766.5000    68.5890   954.7190
 2767.0000    68.1620   959.5780
 2767.5000    67.6730   963.3840
 2768.0000    67.2860   966.8410
 2768.5000    69.3420   982.0800
 2769.0000    71.2890   997.4640
 2769.5000    69.4480  1013.2290
 2770.0000    66.3690  1042.5480
 2770.5000    65.8460  1113.4821
 2771.0000    65.7910  1156.2260
 2771.5000    65.7450  1192.3929
 2772.0000    64.1650  1206.6730
 2772.5000    62.3770  1217.6250
 2773.0000    61.4810  1230.1080
 2773.5000    60.5760  1245.1591
 2774.0000    60.1020  1354.8860
 2774.5000    61.2340  1492.3831
 2775.0000    63.7560  1660.8910
 2775.5000    63.2480  1779.0140
