~VERSION INFORMATION
 VERS.                2.0:   CWLS LOG ASCII STANDARD - VERSION 2.0
 WRAP.                 NO:   ONE LINE PER DEPTH STEP
~WELL INFORMATION
#MNEM.UNIT      DATA TYPE    INFORMATION
#----------   ------------   ------------------------------
 STRT.F           10.5000:   START DEPTH
 STOP.F         5650.0000:   STOP DEPTH
 STEP.F            0.5000:   STEP LENGTH
 NULL.          -999.2500:   NO VALUE
 COMP.    FENIX & SCISSON:   COMPANY
 WELL. FENIX NPR 3 "LX" #56-3:   WELL
 FLD .              N P R:   FIELD
 LOC .       S3 T38N R78W:   LOCATION
 CNTY.            NATRONA:   COUNTY
 STAT.            WYOMING:   STATE
 CTRY. UNITED STATES OF AMERICA:   COUNTRY
 SRVC.              WELEX:   SERVICE COMPANY
 DATE.        13-JUN-1978:   LOGDATE
 API .     49025109250000:   API NUMBER
~CURVE INFORMATION
#MNEM.UNIT       API CODE    CURVE DESCRIPTION
#----------   ------------   ------------------------------
 DEPT.F                  :   
 NPHI.DEC    42 890 03 00:   NEUTRON POROSITY SANDSTONE
 SPR .MV     07 010 01 00:   SPONTANEOUS POTENTIAL
 ILD .OHMM   07 120 46 00:   DEEP INDUCTION RESISTIVITY
 ILM .OHMM   07 120 44 00:   INDUCTION LOG MEDIUM RESISTIVITY
 SFL .OHMM   07 220 01 00:   SHALLOW FOCUSED LOG RESISTIVITY
 GRD .GAPI   45 310 01 00:   GAMMA RAY FROM DENSITY LOG
 CALD.IN     45 280 60 00:   CALIPER FROM DENSITY LOG
 RHOB.G/C3   45 350 01 00:   BULK DENSITY
 CORR.G/C3   45 356 01 00:   DENSITY CORRECTION
~PARAMETER INFORMATION
#MNEM.UNIT          VALUE    DESCRIPTION
#----------   ------------   ------------------------------
 EKB .F         5181.0000:   Kelly bushing
 EGL .F         5171.0000:   Ground level
 EDF .F         5180.0000:   Drilling floor
 TD  .F         5644.0000:   Total depth
 DATE.        13-JUN-1978:   Date logged
 CLNT.            A2DTECH:   Client Code
 SL  . 1980' FSL & 2080' FEL:   Surface Location
 PD  .                 GL:   Permanent Datum
 EPD .F              5171:   Elevation Permanent Datum
 LMF .                 KB:   Log Measured From
 DMF .                 KB:   Drilling Measured From
 DD  .F              5640:   Depth driller
 DL  .F              5644:   Depth logger
 BLI .F              5638:   Bottom log interval
 TLI .F              3093:   Top log interval
 CS1 .IN            8.625:   Casing size
 CBD1.      8.625" @ 545':   Casing driller 1
 BS1 .IN            7.875:   Bit size
 DFT .                FGM:   Type fluid in hole
 DFD .                9.2:   Density
 DFV .                 52:   Viscosity
 DFPH.                 11:   pH
 DFL .                5.2:   Fluid loss
 MSS .           MUD/TANK:   Source of sample
 RMS .OHMM           0.59:   Rm
 MST .F                80:   Rm Meas. temp.
 RMF .OHMM           0.48:   Rmf
 MFST.F                80:   Rmf Meas. temp.
 MFSS.               MEAS:   Source Rmf.
 RMB .OHMM           0.29:   Rm. at BHT
 BHT .F               162:   BHT.
 TCS .HRS            1200:   Time Circ. stopped
 MRT .F               162:   Maximum recorded temp.
 LUN .               7675:   Logging unit number
 LUL .               CODY:   Logging unit location
 ENGI.               BOND:   Recorded By
 ORIG.           5" PRINT:   Origin of data
 UWI .     49025109250000:   Unique Well ID
 DICO. A2D TECHNOLOGIES, INC.:   Digitizing Company
 DAPD.F                10:   Feet Above Permanent Datum
 BSD1.F              5640:   Depth drilled with bit1
 TLAB.HRS            1630:   Time logger at bottom
~OTHER INFORMATION
~A  DEPTH     NPHI        SPR        ILD        ILM        SFL        GRD       CALD       RHOB       CORR
# ...
 2894.0000     0.2670   -57.5570     7.1330     6.7740     9.1980   140.2290    10.1680     2.5420     0.0110
 2894.5000     0.2640   -57.5130     6.9900     6.6350     9.1980   140.8420    10.1610     2.5470     0.0110
 2895.0000     0.2630   -57.2590     6.8470     6.4960     8.8110   141.4550    10.1540     2.5490     0.0110
 2895.5000     0.2620   -57.0070     6.7040     6.3560     8.3220   142.0330    10.1480     2.5550     0.0140
 2896.0000     0.2630   -56.7540     6.5620     6.2170     7.8630   142.5300    10.1410     2.5550     0.0180
 2896.5000     0.2670   -56.5000     6.4190     6.0780     7.3910   142.1410    10.1340     2.5550     0.0210
 2897.0000     0.2700   -56.2500     6.3100     5.9170     7.4430   141.7890    10.1270     2.5520     0.0240
 2897.5000     0.2730   -56.2690     6.5010     5.8810     7.5460   141.3930    10.1210     2.5540     0.0280
 2898.0000     0.2760   -56.5170     6.6550     5.8470     7.6490   141.0100    10.1140     2.5560     0.0310
 2898.5000     0.2770   -56.7600     6.8090     5.8130     7.7520   140.6490    10.1070     2.5510     0.0360
 2899.0000     0.2780   -57.0030     6.9630     6.0220     7.8550   140.2190    10.1000     2.5470     0.0270
 2899.5000     0.2790   -57.2460     7.3470     6.3580     8.4250   139.2760    10.0940     2.5380     0.0160
 2900.0000     0.2790   -57.4060     7.7630     6.6940     9.0570   136.3940    10.0860     2.5430     0.0190
 2900.5000     0.2670   -57.0990     8.1780     7.0290     9.6890   133.4550    10.0850     2.5490     0.0210
 2901.0000     0.2600   -56.8060     8.5930     7.3650    10.3210   130.4800    10.0850     2.5570     0.0220
 2901.5000     0.2550   -56.5150     9.0080     7.6540    10.9530   127.4510    10.0850     2.5560     0.0180
 2902.0000     0.2500   -56.2250     9.3020     7.8750    11.3640   126.4600    10.0850     2.5480     0.0140
 2902.5000     0.2450   -55.9340     9.5540     8.1090    11.3640   126.4810    10.0850     2.5480     0.0110
 2903.0000     0.2400   -55.8430     9.8100     8.4650    11.4690   128.8930    10.0850     2.5480     0.0070
 2903.5000     0.2350   -55.8920     9.8470     8.6480    11.7380   131.4370    10.0850     2.5480     0.0070
 2904.0000     0.2320   -55.9420     9.8950     8.6860    12.0080   133.0290    10.0860     2.5520     0.0080
 2904.5000     0.2330   -55.9930     9.7720     8.7250    12.0080   134.6270    10.0850     2.5600     0.0110
 2905.0000     0.2340   -56.0440     9.5640     8.7850    11.5850   136.3950    10.0860     2.5610     0.0150
 2905.5000     0.2350   -56.0950     9.3560     8.7120    11.1720   136.5470    10.0850     2.5530     0.0190
 2906.0000     0.2360   -56.1470     9.1480     8.5490    10.7590   135.6180    10.0830     2.5380     0.0220
 2906.5000     0.2410   -56.1960     8.9400     8.3860    10.3460   134.8230    10.0390     2.5360     0.0100
 2907.0000     0.2460   -56.1110     8.7320     8.2230     9.9330   133.9770     9.9950     2.5360    -0.0010
 2907.5000     0.2510   -55.7180     8.5240     8.0600     9.7200   133.9400     9.9500     2.5410     0.0020
 2908.0000     0.2550   -55.3470     8.3160     7.8970     9.9580   134.3700     9.9060     2.5430     0.0040
 2908.5000     0.2570   -55.1730     8.1080     7.7240    10.2710   134.7400     9.8610     2.5390     0.0070
 2909.0000     0.2590   -55.2800     8.0140     7.7510    10.1650   135.1070     9.8340     2.5350     0.0100
 2909.5000     0.2570   -55.3970     8.1650     7.8010     9.9700   135.4890     9.8230     2.5290     0.0120
 2910.0000     0.2520   -55.5140     8.3250     7.8510     9.8100   135.8410     9.8110     2.5310     0.0140
 2910.5000     0.2550   -55.6140     8.4840     7.9010    10.0050   136.2720     9.7990     2.5390     0.0160
 2911.0000     0.2560   -55.5700     8.6440     7.9400    10.1710   136.5700     9.7880     2.5460     0.0180
 2911.5000     0.2560   -55.5270     8.8030     7.9230    10.3660   136.8000     9.7760     2.5560     0.0200
 2912.0000     0.2520   -55.4850     8.9630     7.9010    10.3090   134.4550     9.7640     2.5660     0.0220
 2912.5000     0.2400   -55.4410     9.1140     7.8680    10.2410   132.0720     9.7520     2.5690     0.0240
 2913.0000     0.2410   -55.3250     9.6240     7.9400    10.1770   129.4730     9.7400     2.5640     0.0260
 2913.5000     0.2420   -54.9590    10.1770     8.2480    10.3900   126.7670     9.7290     2.5620     0.0280
 2914.0000     0.2440   -54.6000    11.5940     8.7090    10.6360   123.8260     9.7170     2.5530     0.0240
 2914.5000     0.2440   -54.2180    12.9100     9.6160    10.8820   120.8240     9.7060     2.5510     0.0200
 2915.0000     0.2410   -53.5160    14.2260    11.5550    12.9490   118.3440     9.6920     2.5520     0.0390
 2915.5000     0.2370   -52.7550    15.5420    13.4940    15.7590   112.7410     9.6770     2.5540     0.0550
 2916.0000     0.2300   -51.9880    16.8580    15.5330    18.5690   104.9350     9.5580     2.5520     0.0730
 2916.5000     0.2220   -51.2250    18.0180    15.5330    21.3790    97.6570     9.4090     2.5480     0.0900
 2917.0000     0.2110   -51.0580    19.1270    14.7420    24.1890    90.2730     9.2700     2.5470     0.1010
 2917.5000     0.1970   -50.9160    20.2350    14.0600    26.4720    87.8120     9.1600     2.5050     0.0860
 2918.0000     0.1830   -50.7000    20.8450    13.3770    24.7410    89.4950     9.0600     2.5120     0.0610
 2918.5000     0.1720   -50.1780    19.2640    12.5730    21.6070    91.2720     8.9430     2.5320     0.0510
 2919.0000     0.1790   -49.6570    17.4210    12.8630    18.4730    91.7620     8.9740     2.5330     0.0610
 2919.5000     0.1940   -49.1380    17.0540    13.2170    16.7180    91.5050     9.1380     2.5320     0.0700
 2920.0000     0.2080   -48.6180    16.5650    13.5710    16.9730    89.1150     9.1780     2.5290     0.0640
 2920.5000     0.2220   -48.0980    16.7180    13.9250    17.2730    85.0760     9.1350     2.5000     0.0580
 2921.0000     0.2340   -47.5790    18.3310    14.0390    17.6660    81.2550     9.0810     2.4750     0.0510
 2921.5000     0.2330   -47.0580    19.8340    14.0390    17.1980    77.4570     8.9620     2.4470     0.0390
 2922.0000     0.2290   -46.5230    21.3370    14.0390    16.5220    73.6490     8.8430     2.4200     0.0290
 2922.5000     0.2250   -46.3050    22.8400    14.0390    15.5330    69.7770     8.7220     2.4140     0.0300
 2923.0000     0.2210   -46.1330    24.3440    14.0390    15.7490    68.2070     8.6030     2.4120     0.0340
 2923.5000     0.2170   -46.0040    25.8470    14.0390    16.1510    67.6830     8.5020     2.4140     0.0390
 2924.0000     0.2150   -46.1280    27.3500    14.0390    16.5650    66.9830     8.4920     2.4160     0.0410
 2924.5000     0.2160   -46.2470    28.8530    15.0420    17.6660    66.2420     8.4830     2.4120     0.0420
 2925.0000     0.2180   -46.3650    30.3560    16.3360    17.3530    63.3830     8.4760     2.4070     0.0430
 2925.5000     0.2200   -46.4830    31.1000    17.6290    16.8240    61.8320     8.4680     2.4120     0.0510
 2926.0000     0.2180   -46.6010    31.3500    18.9230    16.3970    60.5290     8.4610     2.4210     0.0580
 2926.5000     0.2130   -46.7190    31.5990    19.9080    16.3240    59.3990     8.4530     2.4320     0.0560
 2927.0000     0.2070   -46.8370    31.8490    19.7330    16.2510    58.2710     8.4460     2.4050     0.0540
 2927.5000     0.2010   -46.9650    32.0980    19.5920    16.1780    58.3580     8.4380     2.4070     0.0510
 2928.0000     0.2030   -46.7500    32.3480    19.5460    16.1050    58.4380     8.4310     2.4060     0.0490
 2928.5000     0.2040   -46.3930    32.5970    19.9170    16.0320    58.5660     8.4230     2.3950     0.0470
 2929.0000     0.2040   -46.0370    32.8460    20.3360    15.9770    58.6620     8.4150     2.3860     0.0390
 2929.5000     0.2020   -45.8180    33.0960    20.7550    16.5490    58.7740     8.4080     2.3770     0.0360
 2930.0000     0.2000   -45.9390    33.6380    21.1750    17.0740    58.9090     8.4010     2.3810     0.0410
