~VERSION INFORMATION
 VERS.                2.0:   CWLS LOG ASCII STANDARD - VERSION 2.0
 WRAP.                 NO:   ONE LINE PER DEPTH STEP
~WELL INFORMATION
#MNEM.UNIT      DATA TYPE    INFORMATION
#----------   ------------   ------------------------------
 STRT.F          204.0000:   START DEPTH
 STOP.F         3040.0000:   STOP DEPTH
 STEP.F            0.5000:   STEP LENGTH
 NULL.          -999.2500:   NO VALUE
 COMP.    FENIX & SCISSON:   COMPANY
 WELL.   FENIX "A" #47-21:   WELL
 FLD .            N P R 3:   FIELD
 LOC .      S21 T39N R78W:   LOCATION
 CNTY.            NATRONA:   COUNTY
 STAT.            WYOMING:   STATE
 CTRY. UNITED STATES OF AMERICA:   COUNTRY
 SRVC.              WELEX:   SERVICE COMPANY
 DATE.        20-JUN-1977:   LOGDATE
 API .     49025103820000:   API NUMBER
~CURVE INFORMATION
#MNEM.UNIT       API CODE    CURVE DESCRIPTION
#----------   ------------   ------------------------------
 DEPT.F                  :   
 SPR .MV     07 010 01 00:   SPONTANEOUS POTENTIAL
 ILM .OHMM   07 120 44 00:   INDUCTION LOG MEDIUM RESISTIVITY
 ILD .OHMM   07 120 46 00:   DEEP INDUCTION RESISTIVITY
 SGRD.OHMM   07 220 05 00:   SHALLOW GUARD LOG RESISTIVITY
 GRD .GAPI   45 310 01 00:   GAMMA RAY FROM DENSITY LOG
 CALD.IN     45 280 60 00:   CALIPER FROM DENSITY LOG
 RHOB.G/C3   45 350 01 00:   BULK DENSITY
 CORR.G/C3   45 356 01 00:   DENSITY CORRECTION
~PARAMETER INFORMATION
#MNEM.UNIT          VALUE    DESCRIPTION
#----------   ------------   ------------------------------
 EKB .F         5010.0000:   Kelly bushing
 EGL .F         5000.0000:   Ground level
 EDF .F            0.0000:   Drilling floor
 TD  .F         3050.0000:   Total depth
 DATE.        20-JUN-1977:   Date logged
 CLNT.            A2DTECH:   Client Code
 SL  . 990' FSL & 2310' FWL:   Surface Location
 PD  .                 GL:   Permanent Datum
 DD  .F              3050:   Depth driller
 DL  .F              3039:   Depth logger
 BLI .F              3037:   Bottom log interval
 CS1 .IN            8.625:   Casing size
 CBD1.      8.625" @ 210':   Casing driller 1
 CBL1.F               215:   Casing logger 1
 BS1 .IN            7.875:   Bit size
 DFT .                KCL:   Type fluid in hole
 DFD .                9.3:   Density
 DFV .                 35:   Viscosity
 DFPH.                7.5:   pH
 DFL .                7.2:   Fluid loss
 MSS .             MUDPIT:   Source of sample
 RMS .OHMM            .22:   Rm
 MST .F                80:   Rm Meas. temp.
 RMF .OHMM            .19:   Rmf
 MFST.F                80:   Rmf Meas. temp.
 RMC .OHMM            .35:   Rmc
 MCST.F                80:   Rmc Meas. temp.
 MFSS.               MEAS:   Source Rmf.
 RMB .OHMM            .15:   Rm. at BHT
 BHT .F               111:   BHT.
 TCS .HRS               4:   Time Circ. stopped
 MRT .F               111:   Maximum recorded temp.
 LUN .               8766:   Logging unit number
 LUL .             CAPSER:   Logging unit location
 ENGI.          T. JOYNER:   Recorded By
 WITN.         PETTINGILL:   Witnessed by
 ORIG.           5" PRINT:   Origin of data
 UWI .     49025103820000:   Unique Well ID
 DICO. A2D TECHNOLOGIES, INC.:   Digitizing Company
 DAPD.                 10:   Feet Above Permanent Datum
 BSD1.               3050:   Depth drilled with bit1
 MCSS.               MEAS:   Source Rmc.
 EPD .               5000:   Elevation Permanent Datum
 LMF .                 KB:   Log Measured From
 DMF .                 KB:   Drilling Measured From
 TLI .                215:   Top log interval
~OTHER INFORMATION
~A   DEPT      SPR        ILM        ILD       SGRD         GRD        CALD       RHOB      CORR  
# ...
 1702.5000   -32.9560     5.9480     6.9470     9.0940   107.4960    10.6450     2.4770     0.0110
 1703.0000   -33.2820     5.9720     6.9570     9.1020   107.3100    10.6430     2.4770     0.0120
 1703.5000   -33.6470     5.9970     6.9670     9.1090   106.9620    10.6400     2.4770     0.0120
 1704.0000   -34.2360     6.0210     6.9780     9.1180   106.6330    10.6380     2.4770     0.0120
 1704.5000   -34.9530     6.0460     6.9880     9.1260   106.3190    10.6350     2.4770     0.0120
 1705.0000   -35.5700     6.0700     6.9980     9.2330   105.9900    10.6320     2.4770     0.0120
 1705.5000   -35.9960     6.0950     7.0080     9.3960   106.1650    10.6300     2.4770     0.0120
 1706.0000   -36.1500     6.1190     7.0180     9.5580   106.5340    10.6270     2.4770     0.0120
 1706.5000   -35.5970     6.1510     7.0280     9.7210   106.8900    10.6250     2.4770     0.0120
 1707.0000   -34.9510     6.1410     7.0390     9.9140   107.2440    10.6220     2.4770     0.0120
 1707.5000   -34.3090     6.1230     7.0490     9.7680   107.8730    10.6190     2.4750     0.0130
 1708.0000   -33.3560     6.1050     7.0610     9.5900   108.9790    10.6170     2.4710     0.0130
 1708.5000   -32.2540     6.0860     6.9770     9.4110   110.1320    10.6140     2.4670     0.0130
 1709.0000   -30.7930     6.0680     6.8720     9.2320   110.6840    10.6110     2.4670     0.0130
 1709.5000   -29.9840     6.0490     6.7680     9.0540   110.6130    10.6090     2.4660     0.0130
 1710.0000   -28.6210     6.0310     6.6630     8.7990   110.5570    10.6060     2.4660     0.0130
 1710.5000   -27.0240     6.0120     6.5590     8.8380   109.6380    10.6040     2.4640     0.0130
 1711.0000   -26.4090     5.9940     6.4540     8.9060   108.8080    10.6010     2.4620     0.0130
 1711.5000   -26.3910     5.9540     6.3500     8.9620   107.8570    10.5980     2.4610     0.0130
 1712.0000   -26.4290     5.8670     6.3130     8.7570   107.5980    10.5960     2.4590     0.0140
 1712.5000   -26.6560     5.7800     6.2980     8.5810   107.9870    10.5930     2.4580     0.0140
 1713.0000   -26.8820     5.6930     6.2830     8.4040   108.2950    10.5910     2.4560     0.0140
 1713.5000   -27.1070     5.6060     6.2680     8.2630   108.6300    10.5880     2.4550     0.0140
 1714.0000   -27.3330     5.5200     6.2530     8.3390   108.9440    10.5880     2.4530     0.0140
 1714.5000   -27.5590     5.4290     6.2380     8.4000   109.0290    10.5910     2.4520     0.0140
 1715.0000   -27.7850     5.3290     6.2230     8.3570   108.2000    10.5930     2.4500     0.0140
 1715.5000   -28.0100     5.2300     6.2030     8.2690   107.1720    10.5960     2.4500     0.0140
 1716.0000   -28.2360     5.1210     6.1470     7.9650   106.6060    10.5990     2.4500     0.0140
 1716.5000   -28.4610     5.1120     6.0910     7.5490   106.5690    10.6010     2.4500     0.0140
 1717.0000   -28.6870     5.1010     6.0350     7.2580   106.4610    10.6040     2.4510     0.0140
 1717.5000   -28.9220     5.0910     5.9790     8.5610   106.3650    10.6060     2.4510     0.0140
 1718.0000   -28.9460     5.0750     5.9230     8.2320   106.2810    10.6090     2.4510     0.0140
 1718.5000   -28.8960     5.1450     5.8670     7.4520   106.1730    10.6120     2.4510     0.0130
 1719.0000   -28.8440     5.2920     5.8110     6.5170   106.0980    10.6140     2.4500     0.0130
 1719.5000   -28.7920     5.4390     5.7700     6.9830   105.9960    10.6170     2.4490     0.0130
 1720.0000   -28.7130     5.5860     5.8600     8.9620   105.8140    10.6200     2.4470     0.0130
 1720.5000   -28.6310     5.7110     5.9310     8.8870   104.6850    10.6220     2.4460     0.0130
 1721.0000   -28.5080     5.8110     6.0020     8.7740   103.6660    10.6270     2.4450     0.0130
 1721.5000   -28.3360     5.9110     6.0720     8.6600   104.6030    10.6090     2.4430     0.0120
 1722.0000   -28.1640     6.0120     6.1430     8.5460   105.6920    10.5750     2.4440     0.0120
 1722.5000   -27.9910     6.1120     6.2140     8.4320   107.3700    10.5440     2.4460     0.0120
 1723.0000   -27.8120     6.2100     6.2850     8.2520   107.7810    10.5140     2.4470     0.0120
 1723.5000   -27.9720     6.1330     6.3560     8.3930   108.2060    10.4830     2.4480     0.0120
 1724.0000   -28.1900     6.0580     6.3990     8.7280   108.5890    10.4510     2.4490     0.0120
 1724.5000   -28.4090     5.9820     6.4240     9.0630   109.0460    10.4210     2.4510     0.0110
 1725.0000   -28.6290     5.8770     6.4500     9.1700   110.3280    10.3920     2.4520     0.0110
 1725.5000   -28.8230     5.9140     6.4760     9.2120   112.1100    10.4010     2.4530     0.0110
 1726.0000   -29.0210     5.9770     6.5020     8.5570   113.0040    10.4110     2.4530     0.0110
 1726.5000   -29.2190     6.0390     6.5280     7.7350   112.6790    10.4230     2.4520     0.0110
 1727.0000   -29.4180     6.1010     6.5530     8.3270   112.5110    10.4300     2.4500     0.0110
 1727.5000   -29.6160     6.1530     6.5790    10.0670   112.3090    10.4290     2.4480     0.0100
 1728.0000   -29.8120     6.1410     6.6050    11.0140   112.0960    10.4240     2.4460     0.0100
 1728.5000   -29.9750     6.1320     6.6210     9.3220   111.9010    10.4200     2.4440     0.0100
 1729.0000   -29.9010     6.1220     6.5890     8.8760   111.6960    10.4150     2.4420     0.0100
 1729.5000   -29.8320     6.1120     6.5600     8.7610   111.4920    10.4110     2.4410     0.0110
 1730.0000   -29.7640     6.1020     6.5320     8.6390   111.2890    10.4060     2.4400     0.0110
 1730.5000   -29.6960     6.0930     6.5030     8.7990   111.0910    10.4020     2.4380     0.0110
 1731.0000   -29.6280     6.0830     6.4750     8.6710   110.8750    10.3970     2.4370     0.0110
 1731.5000   -29.5600     6.0730     6.4470     8.5330   110.6770    10.3920     2.4350     0.0110
 1732.0000   -29.4910     6.0630     6.4180     8.3950   109.9100    10.3900     2.4340     0.0120
 1732.5000   -29.4230     6.0540     6.3900     8.3280   108.9100    10.3900     2.4320     0.0120
 1733.0000   -29.3550     6.0440     6.3620     8.5770   107.9560    10.3920     2.4320     0.0120
 1733.5000   -29.2880     6.0340     6.3330     8.7660   106.9230    10.3930     2.4330     0.0120
 1734.0000   -29.2200     6.0240     6.3220     8.9550   106.0000    10.3950     2.4350     0.0130
 1734.5000   -29.3140     6.0140     6.3170     9.1280   105.2770    10.3970     2.4360     0.0130
 1735.0000   -29.5780     6.0050     6.3130     9.0720   107.0360    10.3980     2.4350     0.0130
 1735.5000   -29.8410     5.9950     6.3090     9.0210   108.7840    10.4000     2.4350     0.0130
 1736.0000   -30.1040     5.9850     6.3050     8.9690   109.9360    10.4010     2.4340     0.0130
 1736.5000   -30.3690     5.9640     6.3010     8.7560   109.7020    10.4030     2.4330     0.0140
 1737.0000   -30.6330     5.9430     6.2960     8.4940   109.6630    10.4050     2.4330     0.0140
 1737.5000   -31.0290     5.9220     6.2920     8.5780   109.5900    10.4060     2.4320     0.0140
 1738.0000   -31.5900     5.9010     6.2880     8.6900   109.4970    10.4080     2.4320     0.0140
 1738.5000   -32.1500     5.8800     6.2840     8.8020   109.4300    10.4100     2.4310     0.0140
 1739.0000   -32.7090     5.7590     6.2790     8.9140   109.3450    10.4110     2.4300     0.0150
 1739.5000   -33.2580     5.6180     6.2750     9.0450   109.2710    10.4130     2.4300     0.0150
 1740.0000   -33.7770     5.4780     6.2680     8.9210   109.1910    10.4150     2.4290     0.0150
 1740.5000   -34.2690     5.3370     6.2720     8.7210   109.0980    10.4160     2.4290     0.0150
 1741.0000   -34.7650     5.1960     6.0720     8.5220   109.2370    10.4180     2.4280     0.0160
 1741.5000   -35.2620     4.9330     5.8800     8.3230   109.8930    10.4190     2.4270     0.0160
 1742.0000   -35.7470     4.6400     5.6880     8.1240   110.5370    10.4210     2.4270     0.0160
 1742.5000   -35.9430     4.3480     5.4960     7.8820   111.1990    10.4230     2.4260     0.0160
