~VERSION INFORMATION
 VERS.                2.0:   CWLS LOG ASCII STANDARD - VERSION 2.0
 WRAP.                 NO:   ONE LINE PER DEPTH STEP
~WELL INFORMATION
#MNEM.UNIT      DATA TYPE    INFORMATION
#----------   ------------   ------------------------------
 STRT.F          198.0000:   START DEPTH
 STOP.F         3140.0000:   STOP DEPTH
 STEP.F            0.5000:   STEP LENGTH
 NULL.          -999.2500:   NO VALUE
 COMP.    FENIX & SCISSON:   COMPANY
 WELL. FENIX NPR 3 "AX" #43-34:   WELL
 FLD .                NPR:   FIELD
 LOC .      S34 T39N R78W:   LOCATION
 CNTY.            NATRONA:   COUNTY
 STAT.            WYOMING:   STATE
 CTRY. UNITED STATES OF AMERICA:   COUNTRY
 SRVC.              WELEX:   SERVICE COMPANY
 DATE.        02-JUL-1977:   LOGDATE
 API .     49025103890000:   API NUMBER
~CURVE INFORMATION
#MNEM.UNIT       API CODE    CURVE DESCRIPTION
#----------   ------------   ------------------------------
 DEPT.F                  :   
 CALD.IN     45 280 60 00:   CALIPER FROM DENSITY LOG
 GRD .GAPI   45 310 01 00:   GAMMA RAY FROM DENSITY LOG
 RHOB.G/C3   45 350 01 00:   BULK DENSITY
 CORR.G/C3   45 356 01 00:   DENSITY CORRECTION
 SPR .MV     07 010 01 00:   SPONTANEOUS POTENTIAL
 SFLU.OHMM   07 220 01 00:   SPHERICALLY FOCUSED LOG UNAVERAGED RESISTIVITY
 ILD .OHMM   07 120 46 00:   DEEP INDUCTION RESISTIVITY
 ILM .OHMM   07 120 44 00:   INDUCTION LOG MEDIUM RESISTIVITY
~PARAMETER INFORMATION
#MNEM.UNIT          VALUE    DESCRIPTION
#----------   ------------   ------------------------------
 EKB .F         5118.0000:   Kelly bushing
 EGL .F         5108.0000:   Ground level
 TD  .F         3145.0000:   Total depth
 DATE.        02-JUL-1977:   Date logged
 CLNT.            A2DTECH:   Client Code
 SL  . 1650' FNL & 2310' FWL:   Surface Location
 PD  .                 GL:   Permanent Datum
 EPD .F              5108:   Elevation Permanent Datum
 LMF .                 KB:   Log Measured From
 DMF .                 KB:   Drilling Measured From
 DAPD.F                10:   Feet Above Permanent Datum
 DD  .F              3145:   Depth driller
 DL  .F              3143:   Depth logger
 BLI .F              3141:   Bottom log interval
 TLI .F               200:   Top log interval
 CS1 .IN            8.625:   Casing size
 CBD1.      8.625" @ 203':   Casing driller 1
 CBL1.F               224:   Casing logger 1
 BS1 .IN            7.875:   Bit size
 BSD1.F              3145:   Depth drilled with bit1
 DFT .            KCL/MUD:   Type fluid in hole
 DFD .                  9:   Density
 DFV .                 34:   Viscosity
 DFPH.                7.5:   pH
 DFL .                9.2:   Fluid loss
 MSS .           FLOWLINE:   Source of sample
 RMS .OHMM            .18:   Rm
 MST .F                75:   Rm Meas. temp.
 RMF .OHMM            .16:   Rmf
 MFST.F                75:   Rmf Meas. temp.
 RMC .OHMM            .30:   Rmc
 MCST.F                75:   Rmc Meas. temp.
 MFSS.               FANN:   Source Rmf.
 MCSS.                KIT:   Source Rmc.
 RMB .OHMM            .11:   Rm. at BHT
 BHT .F               118:   BHT.
 TCS .HRS            3.75:   Time Circ. stopped
 MRT .F               118:   Maximum recorded temp.
 LUN .               8766:   Logging unit number
 LUL .             CASPER:   Logging unit location
 ENGI.          T. JOYNER:   Recorded By
 WITN.     W. PETTNG/GILL:   Witnessed by
 ORIG.           5" PRINT:   Origin of data
 UWI .     49025103890000:   Unique Well ID
 DICO. A2D TECHNOLOGIES, INC.:   Digitizing Company
~OTHER INFORMATION
~A   DEPT     CALD         GRD        RHOB     CORR        SPR       SFLU        ILD        ILM   
# ...
 2709.0000     8.2692    94.1931     2.4330     0.0679   -12.2851     9.8591     9.2239     7.1350
 2709.5000     8.2696    93.4058     2.4360     0.0719   -12.6892     9.8576     8.7633     7.1339
 2710.0000     8.2700    95.3995     2.4291     0.0719   -13.0962    10.6043     8.4129    10.6237
 2710.5000     8.2704    98.5823     2.4331     0.0720   -13.5002    10.9981     8.4117     7.9612
 2711.0000     8.2708   100.5744     2.4391     0.0760   -14.3052    11.4058     8.5656     8.1068
 2711.5000     8.2712   101.3761     2.4451     0.0760   -14.7092    11.1972     8.7229     8.2557
 2712.0000     8.2716   101.3840     2.4551     0.0760   -15.5141    11.4016     9.0469     9.2145
 2712.5000     8.2918   102.5825     2.4611     0.0880   -15.9179    12.9587     9.3837     9.5575
 2713.0000     8.2921   102.9873     2.4691     0.0881   -16.7227    13.4390     9.7323    10.0960
 2713.5000     8.3124   102.9952     2.4691     0.0841   -17.1265    14.4569     9.9110    10.4719
 2714.0000     8.3326   103.7968     2.4691     0.0801   -18.3291    14.1926    10.2792    10.8617
 2714.5000     8.3331   103.8032     2.4661     0.0802   -19.1308    12.2571    10.2777    11.0604
 2715.0000     8.3333   106.1922     2.4582     0.0762   -19.9353    10.3929    10.2754    11.0587
 2715.5000     8.3339   106.9938     2.4532     0.0683   -20.3389    10.7789    10.4642    11.0571
 2716.0000     8.3739   108.9860     2.4472     0.0604   -22.3370    11.5953    10.8529    11.0539
 2716.5000     8.3743   108.9939     2.4373     0.0604   -22.3427    12.2464    11.0522    11.0522
 2717.0000     8.3747   109.3987     2.4343     0.0604   -23.5447    14.7057    11.6751    10.8497
 2717.5000     8.3751   112.1846     2.4363     0.0485   -24.3460    14.7036    11.4611    10.8473
 2718.0000     8.3755   114.1768     2.4493     0.0485   -25.9458    13.9147    11.8869    10.8449
 2718.5000     8.3759   113.3910     2.4553     0.0525   -26.7469    13.4125    12.1052    11.2486
 2719.0000     8.3763   113.3989     2.4593     0.0486   -27.9486    13.9096    12.5549    11.8834
 2719.5000     8.3767   110.2336     2.4593     0.0446   -28.3519    14.6928    12.7855    12.3248
 2720.0000     8.3771   111.4337     2.4573     0.0407   -29.1556    16.0977    13.0194    12.5503
 2720.5000     8.3775   113.4227     2.4573     0.0407   -29.9566    16.6956    13.2585    12.5494
 2721.0000     8.3779   113.4307     2.4604     0.0407   -30.7601    17.9602    13.2556    12.5475
 2721.5000     8.3783   114.2323     2.4713     0.0408   -31.5610    17.3119    13.2536    12.5438
 2722.0000     8.3787   113.4465     2.4823     0.0408   -32.3644    16.6858    13.2507    12.5420
 2722.5000     8.3791   112.6607     2.4794     0.0448   -32.7675    17.3056    13.0079    12.0883
 2723.0000     8.3795   112.6687     2.4734     0.0369   -32.7754    17.9470    12.7686    11.2297
 2723.5000     8.3799   112.2797     2.4694     0.0329   -33.5761    17.9444    12.7677    11.0247
 2724.0000     8.3803   110.3034     2.4674     0.0330   -34.3793    16.3711    12.5337    10.6251
 2724.5000     8.3807   111.8988     2.4635     0.0290   -34.3846    15.7802    12.5310    10.6236
 2725.0000     8.3811   111.9067     2.4585     0.0290   -34.3924    15.2095    11.8564    10.6212
 2725.5000     8.4608   111.9146     2.4515     0.0251   -34.7953    15.2073    11.6400    10.6197
 2726.0000     8.4612   114.3036     2.4536     0.0251   -35.2008    15.2040    11.2181    10.6166
 2726.5000     8.4616   113.1210     2.4536     0.0251   -35.2060    15.2017    11.2157    10.6150
 2727.0000     8.4620   111.1447     2.4526     0.0252   -36.0090    14.9227    11.0101    10.6134
 2727.5000     8.4624   111.5495     2.4476     0.0252   -36.4117    14.6498    11.0085    10.6119
 2728.0000     8.4628   112.3511     2.4457     0.0252   -37.2145    14.6466    11.0053    10.6088
 2728.5000     8.4632   112.3590     2.4487     0.0253   -37.6172    14.9150    11.0037    10.6072
 2729.0000     8.4636   113.9544     2.4547     0.0253   -38.4199    14.9118    11.0021    10.6049
 2729.5000     8.4640   115.5497     2.4607     0.0293   -39.2200    15.1850    11.0004    10.6033
 2730.0000     8.4644   114.3671     2.4716     0.0373   -39.6251    15.4622    11.4091    10.6018
 2730.5000     8.4648   112.7876     2.4816     0.0414   -39.6302    15.4600    11.4066    10.7965
 2731.0000     8.4652   113.1924     2.4976     0.0564   -40.0353    16.0330    11.4041    10.7933
 2731.5000     8.4456   114.3909     2.5056     0.0574   -40.0404    16.3268    11.6135    10.7917
 2732.0000     8.4462   117.1767     2.5176     0.0654   -40.4454    18.2185    11.6118    10.5932
 2732.5000     8.4466   118.3752     2.5216     0.0654   -40.4504    18.8952    11.6093    10.2100
 2733.0000     8.4468   117.9863     2.5196     0.0614   -40.4580    18.2118    11.6076    10.0222
 2733.5000     8.4472   118.7879     2.5116     0.0575   -40.4631    16.3149    11.6059     9.4841
 2734.0000     8.4475   120.3833     2.5037     0.0495   -40.8680    14.3493    11.1844     9.3096
 2734.5000     8.4478   120.3912     2.4997     0.0536   -41.6677    13.5805    10.7799     9.1390
 2735.0000     8.4684   121.5897     2.4997     0.0576   -41.6752    13.3312    10.3892     9.1377
 2735.5000     8.4687   122.7913     2.5017     0.0616   -41.6803    13.3292    10.1988     9.1357
 2736.0000     8.4890   122.7961     2.5087     0.0616   -42.0851    13.4259    10.0112     9.1343
 2736.5000     8.4893   122.8040     2.5068     0.0537   -42.0901    13.4240     9.8277     9.1323
 2737.0000     8.5095   124.3978     2.5048     0.0537   -42.4948    13.4220     9.2994     9.1301
 2737.5000     8.5297   125.1962     2.5008     0.0498   -42.4998    13.4200     9.4702     9.1296
 2738.0000     8.5501   125.2058     2.4909     0.0498   -42.9045    13.1732     9.1270    10.3307
 2738.5000     8.5704   122.8357     2.4899     0.0419   -42.5123    12.9318     8.7968     9.9655
 2739.0000     8.5904   124.0342     2.5009     0.0459   -42.5198    12.4631     8.4780     8.4774
 2739.5000     8.5908   128.0107     2.5089     0.0579   -42.5248    11.7939     8.0228     8.1714
 2740.0000     8.5913   128.4154     2.5119     0.0579   -42.5323    11.0806     7.8764     8.1702
 2740.5000     8.6116   128.0265     2.5059     0.0579   -42.1402    10.8780     7.4524     7.8740
 2741.0000     8.6119   128.4313     2.5039     0.0580   -41.7506    10.2944     6.9235     7.3153
 2741.5000     8.6323   129.2329     2.5039     0.0580   -41.7556     9.5660     6.6838     7.3142
 2742.0000     8.6525   128.8440     2.5119     0.0580   -40.5719     8.1111     6.4312     6.9210
 2742.5000     8.6529   127.2645     2.5219     0.0580   -40.5770     7.6770     6.3138     6.7941
 2743.0000     8.6732   127.6693     2.5249     0.0740   -40.1875     7.3988     5.9744     6.6691
 2743.5000     8.6934   126.8835     2.5249     0.0741   -39.7956     7.5344     5.9731     6.7916
 2744.0000     8.6938   124.9072     2.5250     0.0741   -39.4062     7.8149     5.6523     6.7901
 2744.5000     8.6941   123.3277     2.5200     0.0741   -39.4113     8.5615     5.4471     7.0429
 2745.0000     8.6945   123.7325     2.5130     0.0782   -38.6249     8.8795     5.4467     7.1723
 2745.5000     8.7346   123.3483     2.5071     0.0782   -38.6300     9.7285     5.8606     7.3040
 2746.0000     8.7549   123.3499     2.4842     0.0623   -38.6377    10.8557     6.1909     7.5748
 2746.5000     8.7949   123.7547     2.4722     0.0663   -38.6428    11.0547     6.5397     8.0022
 2747.0000     8.8350   124.9532     2.4663     0.0663   -39.0474    10.8517     7.0362     8.7691
 2747.5000     8.8355   127.7407     2.4623     0.0704   -39.4495    10.8501     7.1654     9.0955
 2748.0000     8.8357   130.5234     2.4673     0.0704   -39.8540    10.6510     7.7094     9.2619
 2748.5000     8.8361   130.5313     2.4673     0.0704   -40.2559    10.6494     7.8510     8.9172
 2749.0000     8.8366   130.1424     2.4643     0.0665   -40.2635    10.4539     7.9946     9.0766
