~VERSION INFORMATION
 VERS.                2.0:   CWLS LOG ASCII STANDARD - VERSION 2.0
 WRAP.                 NO:   ONE LINE PER DEPTH STEP
~WELL INFORMATION
#MNEM.UNIT      DATA TYPE    INFORMATION
#----------   ------------   ------------------------------
 STRT.F            0.0000:   START DEPTH
 STOP.F         3040.0000:   STOP DEPTH
 STEP.F            0.5000:   STEP LENGTH
 NULL.          -999.2500:   NO VALUE
 COMP. LAWRENCE ALLISON & ASSOCIATES:   COMPANY
 WELL. LAWRENCE NPR 3 "AX" #77-28:   WELL
 FLD .      NPR - WILDCAT:   FIELD
 LOC .      S28 T39N R78W:   LOCATION
 CNTY.            NATRONA:   COUNTY
 STAT.            WYOMING:   STATE
 CTRY. UNITED STATES OF AMERICA:   COUNTRY
 SRVC.      DRESSER ATLAS:   SERVICE COMPANY
 DATE.        19-OCT-1986:   LOGDATE
 API .     49025111150000:   API NUMBER
~CURVE INFORMATION
#MNEM.UNIT       API CODE    CURVE DESCRIPTION
#----------   ------------   ------------------------------
 DEPT.F                  :   
 TENR.LBS    07 635 01 00:   TENSION FROM RESISTIVITY
 RILD.OHMM   07 120 46 00:   DEEP INDUCTION RESISTIVITY
 RILM.OHMM   07 120 44 00:   INDUCTION LOG MEDIUM RESISTIVITY
 RFOC.OHMM   07 220 04 00:   RESISTIVITY FOCUSED LOG RES.
 SPR .MV     07 010 01 00:   SPONTANEOUS POTENTIAL
 GRR .GAPI   07 310 01 00:   GAMMA RAY FROM RESISTIVITY
 CNC .DEC    42 890 03 00:   NEUTRON POROSITY SANDSTONE
 RHOB.G/C3   45 350 01 00:   BULK DENSITY
 TEND.LBS    45 635 01 00:   TENSION FROM DENSITY LOG
 CORR.G/C3   45 356 01 00:   DENSITY CORRECTION
 CALD.IN     45 280 60 00:   CALIPER FROM DENSITY LOG
~PARAMETER INFORMATION
#MNEM.UNIT          VALUE    DESCRIPTION
#----------   ------------   ------------------------------
 EKB .F         5086.0000:   Kelly bushing
 EGL .F         5074.0000:   Ground level
 EDF .F            0.0000:   Drilling floor
 TD  .F         3025.0000:   Total depth
 DATE.        19-OCT-1986:   Date logged
 CLNT.            A2DTECH:   Client Code
 SL  . 967' FSL @ 763' FEL:   Surface Location
 PD  .                 GL:   Permanent Datum
 EPD .F              5074:   Elevation Permanent Datum
 LMF .                 KB:   Log Measured From
 DMF .                 KB:   Drilling Measured From
 DAPD.F                12:   Feet Above Permanent Datum
 DD  .F              3021:   Depth driller
 DL  .F              3025:   Depth logger
 BLI .F              3023:   Bottom log interval
 CS1 .IN            8.625:   Casing size
 CBD1.      8.625" @ 620':   Casing driller 1
 CBL1.F               615:   Casing logger 1
 BS1 .IN            7.875:   Bit size
 BSD1.F              3021:   Depth drilled with bit1
 DFT .        KCL/POLTMER:   Type fluid in hole
 DFD .                8.9:   Density
 DFV .                 38:   Viscosity
 DFPH.                9.5:   pH
 DFL .                 11:   Fluid loss
 MSS .           FLOWLINE:   Source of sample
 RMS .OHMM            .25:   Rm
 MST .F                65:   Rm Meas. temp.
 RMF .OHMM           .203:   Rmf
 MFST.F                65:   Rmf Meas. temp.
 RMC .OHMM            .31:   Rmc
 MCST.F                65:   Rmc Meas. temp.
 MFSS.               MEAS:   Source Rmf.
 MCSS.               CALC:   Source Rmc.
 RMB .OHMM           .136:   Rm. at BHT
 BHT .F               119:   BHT.
 TCS .HRS               5:   Time Circ. stopped
 MRT .F               119:   Maximum recorded temp.
 LUN .               6274:   Logging unit number
 LUL .               GLTE:   Logging unit location
 ENGI.             RAUTIO:   Recorded By
 WITN.             STRONG:   Witnessed by
 ORIG.         2.5" PRINT:   Origin of data
 UWI .     49025111150000:   Unique Well ID
 DICO. A2D TECHNOLOGIES, INC.:   Digitizing Company
~OTHER INFORMATION
~A    DEPT    TENR       RILD       RILM       RFOC        SPR         GRR       CNC       RHOB       TEND       CORR       CALD   
# ...
 1738.5000   -57.6680     5.2560     5.0630     6.7480   -83.4310   135.9380  -999.2500  -999.2500  -999.2500  -999.2500  -999.2500
 1739.0000   -57.3210     5.3150     5.1330     6.2740   -83.3600   138.9020  -999.2500  -999.2500  -999.2500  -999.2500  -999.2500
 1739.5000   -56.9730     5.3750     5.2090     6.3550   -83.2830   141.0450  -999.2500  -999.2500  -999.2500  -999.2500  -999.2500
 1740.0000   -56.6260     5.4340     5.2090     6.5180   -83.2080   142.8120  -999.2500  -999.2500  -999.2500  -999.2500  -999.2500
 1740.5000   -56.2780     5.4990     5.2090     6.6800   -83.1340   144.5820  -999.2500  -999.2500  -999.2500  -999.2500  -999.2500
 1741.0000   -55.9310     5.4540     5.2090     6.8420   -83.0760   146.4770  -999.2500  -999.2500  -999.2500  -999.2500  -999.2500
 1741.5000   -55.5840     5.4050     5.2090     7.0050   -83.1360   146.3350  -999.2500  -999.2500  -999.2500  -999.2500  -999.2500
 1742.0000   -55.2360     5.3570     5.2090     7.0800   -83.2130   140.8820  -999.2500  -999.2500  -999.2500  -999.2500  -999.2500
 1742.5000   -54.8890     5.3080     5.2090     6.8280   -83.2930   135.0110  -999.2500  -999.2500  -999.2500  -999.2500  -999.2500
 1743.0000   -54.5420     5.2600     5.2090     6.6060   -83.3690   131.7040  -999.2500  -999.2500  -999.2500  -999.2500  -999.2500
 1743.5000   -54.1940     5.2090     4.8940     6.3840   -83.4470   130.8390  -999.2500  -999.2500  -999.2500  -999.2500  -999.2500
 1744.0000   -53.8470     4.9490     4.6190     6.1620   -83.5280   129.0560  -999.2500  -999.2500  -999.2500  -999.2500  -999.2500
 1744.5000   -53.4990     4.6760     4.3440     6.0060   -83.5960   126.7820  -999.2500  -999.2500  -999.2500  -999.2500  -999.2500
 1745.0000   -53.1520     4.4020     4.0690     5.9720   -83.6920   123.8500  -999.2500  -999.2500  -999.2500  -999.2500  -999.2500
 1745.5000   -52.8050     4.1190     3.7940     5.9390   -83.7550   121.6420  -999.2500  -999.2500  -999.2500  -999.2500  -999.2500
 1746.0000   -52.4570     4.0600     3.5650     5.9100   -83.7770   124.6010  -999.2500  -999.2500  -999.2500  -999.2500  -999.2500
 1746.5000   -52.1100     3.9990     3.5650     4.8200   -83.3420   129.6760  -999.2500  -999.2500  -999.2500  -999.2500  -999.2500
 1747.0000   -51.7630     3.9730     3.6280     3.7630   -83.1730   134.9240  -999.2500  -999.2500  -999.2500  -999.2500  -999.2500
 1747.5000   -51.4150     4.0450     3.7390     3.8140   -82.9450   132.5220  -999.2500  -999.2500  -999.2500  -999.2500  -999.2500
 1748.0000   -51.0680     4.1170     3.8490     4.5680   -82.7030   128.4750  -999.2500  -999.2500  -999.2500  -999.2500  -999.2500
 1748.5000   -50.7200     4.1910     3.9600     5.8340   -82.6330   124.1680  -999.2500  -999.2500  -999.2500  -999.2500  -999.2500
 1749.0000   -50.3730     4.2650     4.0710     6.3530   -82.5540   121.3120  -999.2500  -999.2500  -999.2500  -999.2500  -999.2500
 1749.5000   -50.0260     4.3390     4.1820     5.9870   -82.4900   121.9870  -999.2500  -999.2500  -999.2500  -999.2500  -999.2500
 1750.0000   -49.6780     4.4270     4.2700     5.6810   -82.4170   124.4160  -999.2500  -999.2500  -999.2500  -999.2500  -999.2500
 1750.5000   -49.3310     4.3200     4.1400     5.4990   -82.3480   122.2490  -999.2500  -999.2500  -999.2500  -999.2500  -999.2500
 1751.0000   -48.9840     4.1870     3.9780     5.7690   -82.2780   120.9560  -999.2500  -999.2500  -999.2500  -999.2500  -999.2500
 1751.5000   -48.6360     4.0540     3.8160     6.1710   -82.2070   121.0330  -999.2500  -999.2500  -999.2500  -999.2500  -999.2500
 1752.0000   -48.2890     3.9010     3.6530     5.9840   -82.1370   120.3270  -999.2500  -999.2500  -999.2500  -999.2500  -999.2500
 1752.5000   -47.9410     3.9410     3.5010     4.9390   -82.0660   118.9490  -999.2500  -999.2500  -999.2500  -999.2500  -999.2500
 1753.0000   -47.5940     3.9870     3.5870     3.7630   -81.9980   117.6630  -999.2500  -999.2500  -999.2500  -999.2500  -999.2500
 1753.5000   -47.2470     4.0330     3.7170     3.7630   -81.9260   117.5550  -999.2500  -999.2500  -999.2500  -999.2500  -999.2500
 1754.0000   -46.8990     4.0790     3.8460     4.8220   -81.9650   119.9500  -999.2500  -999.2500  -999.2500  -999.2500  -999.2500
 1754.5000   -46.5520     4.1260     3.9760     6.4690   -82.0540   123.1180  -999.2500  -999.2500  -999.2500  -999.2500  -999.2500
 1755.0000   -46.2050     4.1720     4.1060     6.3830   -82.1400   126.8820  -999.2500  -999.2500  -999.2500  -999.2500  -999.2500
 1755.5000   -45.8570     4.1940     4.2360     6.1130   -82.2260   130.7820  -999.2500  -999.2500  -999.2500  -999.2500  -999.2500
 1756.0000   -45.5100     4.4360     4.4010     5.8430   -82.3120   127.8950  -999.2500  -999.2500  -999.2500  -999.2500  -999.2500
 1756.5000   -45.1630     4.6500     4.5790     5.5720   -82.3990   125.5110  -999.2500  -999.2500  -999.2500  -999.2500  -999.2500
 1757.0000   -44.8150     4.8640     4.7580     5.4000   -82.4850   122.7030  -999.2500  -999.2500  -999.2500  -999.2500  -999.2500
 1757.5000   -44.4680     5.0770     4.9360     5.4000   -82.5660   121.7790  -999.2500  -999.2500  -999.2500  -999.2500  -999.2500
 1758.0000   -44.1180     5.2270     5.1150     5.8050   -82.6670   123.6800  -999.2500  -999.2500  -999.2500  -999.2500  -999.2500
 1758.5000   -45.8750     5.2750     5.3210     6.4450   -82.5840   125.8390  -999.2500  -999.2500  -999.2500  -999.2500  -999.2500
 1759.0000   -47.6470     5.4100     5.5290     7.0800   -82.3930   128.1670  -999.2500  -999.2500  -999.2500  -999.2500  -999.2500
 1759.5000   -49.4190     5.6680     5.7370     7.0990   -82.2190   128.4700  -999.2500  -999.2500  -999.2500  -999.2500  -999.2500
 1760.0000   -51.1900     5.9260     5.9440     7.1170   -82.0500   127.8470  -999.2500  -999.2500  -999.2500  -999.2500  -999.2500
 1760.5000   -52.9620     6.0180     6.0180     7.1350   -81.8670   127.3240  -999.2500  -999.2500  -999.2500  -999.2500  -999.2500
 1761.0000   -54.7340     6.0180     6.0180     7.1530   -81.7020   128.4830  -999.2500  -999.2500  -999.2500  -999.2500  -999.2500
 1761.5000   -56.5060     5.8370     5.8160     7.1710   -81.5370   129.7890  -999.2500  -999.2500  -999.2500  -999.2500  -999.2500
 1762.0000   -58.2770     5.6660     5.6250     7.1890   -81.6940   131.0920  -999.2500  -999.2500  -999.2500  -999.2500  -999.2500
 1762.5000   -60.0490     5.4950     5.4350     7.2090   -81.8680   132.4180  -999.2500  -999.2500  -999.2500  -999.2500  -999.2500
 1763.0000   -61.8210     5.3250     5.2450     6.6200   -82.0530   134.4520  -999.2500  -999.2500  -999.2500  -999.2500  -999.2500
 1763.5000   -63.5920     5.1150     5.0240     5.9660   -82.2290   138.7170  -999.2500  -999.2500  -999.2500  -999.2500  -999.2500
 1764.0000   -65.3640     5.1150     5.0240     5.4000   -82.4150   143.0270  -999.2500  -999.2500  -999.2500  -999.2500  -999.2500
 1764.5000   -67.1360     5.1150     5.0240     5.7230   -82.5830   144.5090  -999.2500  -999.2500  -999.2500  -999.2500  -999.2500
 1765.0000   -68.9080     5.1150     5.0240     6.1600   -82.7740   139.0930  -999.2500  -999.2500  -999.2500  -999.2500  -999.2500
 1765.5000   -70.6790     5.0530     5.0240     6.5960   -82.9680   135.0750  -999.2500  -999.2500  -999.2500  -999.2500  -999.2500
 1766.0000   -72.4510     4.8820     4.8810     6.9540   -83.0080   133.6190  -999.2500  -999.2500  -999.2500  -999.2500  -999.2500
 1766.5000   -74.2230     4.7110     4.6330     6.5830   -82.6190   132.3010  -999.2500  -999.2500  -999.2500  -999.2500  -999.2500
 1767.0000   -75.9940     4.5080     4.3860     5.9560   -82.3780   133.0860  -999.2500  -999.2500  -999.2500  -999.2500  -999.2500
 1767.5000   -77.7660     4.5660     4.0450     5.3280   -82.0860   137.3950  -999.2500  -999.2500  -999.2500  -999.2500  -999.2500
 1768.0000   -79.5380     4.6370     4.1000     4.3480   -81.7970   143.8550  -999.2500  -999.2500  -999.2500  -999.2500  -999.2500
 1768.5000   -81.3100     4.7080     4.3420     4.7670   -81.5260   150.1250  -999.2500  -999.2500  -999.2500  -999.2500  -999.2500
