~VERSION INFORMATION
 VERS.                2.0:   CWLS LOG ASCII STANDARD - VERSION 2.0
 WRAP.                 NO:   ONE LINE PER DEPTH STEP
~WELL INFORMATION
#MNEM.UNIT      DATA TYPE    INFORMATION
#----------   ------------   ------------------------------
 STRT.F            0.0000:   START DEPTH
 STOP.F         3440.0000:   STOP DEPTH
 STEP.F            0.5000:   STEP LENGTH
 NULL.          -999.2500:   NO VALUE
 COMP. FLOOR DANIEL (NPSOR):   COMPANY
 WELL. FLOOR DANIEL "SHX" #48-34:   WELL
 FLD .                NPR:   FIELD
 LOC .      S34 T39N R78W:   LOCATION
 CNTY.            NATRONA:   COUNTY
 STAT.            WYOMING:   STATE
 CTRY. UNITED STATES OF AMERICA:   COUNTRY
 SRVC.      WESTERN ATLAS:   SERVICE COMPANY
 DATE.        06-APR-1995:   LOGDATE
 API .     49025109220000:   API NUMBER
~CURVE INFORMATION
#MNEM.UNIT       API CODE    CURVE DESCRIPTION
#----------   ------------   ------------------------------
 DEPT.F                  :   
 TEND.LBS    45 635 01 00:   TENSION FROM DENSITY LOG
 ZCOR.G/C3   45 356 01 00:   DENSITY CORRECTION
 ZDEN.G/C3   45 350 01 00:   BULK DENSITY
 CALD.IN     45 280 60 00:   CALIPER FROM DENSITY LOG
 CNC .DEC    42 890 03 00:   NEUTRON POROSITY SANDSTONE
 GRR .GAPI   07 310 01 00:   GAMMA RAY FROM RESISTIVITY
 TENR.LBS    07 635 01 00:   TENSION FROM RESISTIVITY
 RFOC.OHMM   07 220 04 00:   RESISTIVITY FOCUSED LOG RES.
 RILD.OHMM   07 120 46 00:   DEEP INDUCTION RESISTIVITY
 RILM.OHMM   07 120 44 00:   INDUCTION LOG MEDIUM RESISTIVITY
~PARAMETER INFORMATION
#MNEM.UNIT          VALUE    DESCRIPTION
#----------   ------------   ------------------------------
 EKB .F         5182.0000:   Kelly bushing
 EGL .F         5172.0000:   Ground level
 EDF .F            0.0000:   Drilling floor
 EPD .F            0.0000:   Permanent datum
 TD  .F         3442.0000:   Total depth
 DATE.        06-APR-1995:   Date logged
 CLNT.            A2DTECH:   Client Code
 SL  . 97' FSL & 2256 FWL:   Surface Location
 PD  .                 GL:   Permanent Datum
 DD  .F              3442:   Depth driller
 DL  .F              3422:   Depth logger
 BLI .F              3420:   Bottom log interval
 CS1 .IN            8.625:   Casing size
 CBD1.      8.625" @ 667':   Casing driller 1
 BS1 .IN            7.875:   Bit size
 BSD1.F               AIR:   Depth drilled with bit1
 ENGI.      PAT RASMUSSEN:   Recorded By
 WITN.        GARY STRONG:   Witnessed by
 ORIG.           5" PRINT:   Origin of data
 UWI .     49025109220000:   Unique Well ID
 DICO. A2D TECHNOLOGIES, INC.:   Digitizing Company
 MRT .F               142:   Maximum recorded temp.
~OTHER INFORMATION
~A    DEPT    TEND       ZCOR       ZDEN       CALD        CNC         GRR      TENR       RFOC       RILD       RILM   
# ...
 1943.0000   -23.1760     0.0080     2.4080     9.0500     0.2990   160.5870   -35.8090  -999.2500     4.0810     4.1050
 1943.5000   -23.1760     0.0300     2.4180     9.0470     0.2880   159.3260   -34.4800  -999.2500     4.2950     4.3700
 1944.0000   -23.1760     0.0580     2.4230     9.0480     0.2820   159.6280   -33.1520  -999.2500     4.5090     4.6350
 1944.5000   -23.1760     0.0470     2.4610     9.0480     0.2830   162.3890   -31.8230  -999.2500     4.7220     4.8630
 1945.0000   -23.1760     0.0170     2.5030     9.0480     0.2830   164.9640   -30.4940  -999.2500     4.9360     5.0560
 1945.5000   -23.1760     0.0270     2.5180     9.0480     0.2830   166.1250   -29.1650  -999.2500     5.0280     5.2140
 1946.0000   -23.1760     0.0430     2.5100     9.0480     0.2820   166.0970   -27.8370  -999.2500     5.1410     5.4070
 1946.5000   -27.0710     0.0590     2.5020     9.0480     0.2830   169.0510   -26.5080  -999.2500     5.2140     5.3310
 1947.0000   -33.3830     0.0480     2.5080     9.0480     0.2850   169.9850   -25.1790  -999.2500     5.1300     5.2140
 1947.5000   -39.6940     0.0300     2.5140     9.0480     0.2890   171.0650   -23.8500  -999.2500     5.0290     5.1720
 1948.0000   -42.8990     0.0120     2.5180     9.0480     0.2930   173.5330   -25.0160  -999.2500     4.9380     5.1320
 1948.5000   -42.8990     0.0010     2.5060     9.0480     0.3000   180.0570   -28.7570  -999.2500     4.8140     5.0540
 1949.0000   -42.8990     0.0000     2.4760     9.0480     0.2970   186.5050   -32.4970  -999.2500     4.6740     4.9600
 1949.5000   -42.8990     0.0350     2.4300     9.0480     0.2930   190.1540   -36.2370  -999.2500     4.5120     4.7830
 1950.0000   -41.1630     0.0800     2.4120     9.0480     0.2940   186.6390   -39.9770  -999.2500     4.3500     4.5780
 1950.5000   -39.3860     0.0680     2.4520     9.0480     0.3140   182.3540   -43.7180  -999.2500     4.1890     4.3740
 1951.0000   -37.6080     0.0340     2.4410     9.0480     0.3110   177.1450   -47.4580  -999.2500     4.0270     4.1690
 1951.5000   -35.8310     0.0010     2.4010     9.0480     0.3090   178.8490   -51.1980  -999.2500     3.8650     3.9650
 1952.0000   -34.0530    -0.0070     2.2620     9.0480     0.3060   182.5860   -54.9380  -999.2500     3.7030     3.8040
 1952.5000   -32.2750     0.0410     2.1500     9.0470     0.3140   200.0190   -58.6790  -999.2500     3.5410     3.5610
 1953.0000   -30.4980     0.0610     2.1070     9.0560     0.3260   206.6730   -62.6230  -999.2500     3.4340     3.5890
 1953.5000   -28.7200     0.0370     2.1150     9.0870     0.3380   236.9860   -59.4410  -999.2500     3.4790     3.6260
 1954.0000   -26.9420     0.0090     2.0840     9.1280     0.3030   250.8920   -56.0750  -999.2500     3.5610     3.8340
 1954.5000   -25.1650     0.1230     2.0540     9.1910     0.2900   262.0190   -52.7090  -999.2500     3.9000     4.2700
 1955.0000   -23.1760     0.3350     2.0290     9.2700     0.2980   259.7780   -49.3430  -999.2500     4.2410     4.3480
 1955.5000   -31.9330     0.3240     2.1520     9.1070     0.3280   259.7170   -45.9760  -999.2500     4.5830     5.0450
 1956.0000   -41.8740     0.2150     2.2800     8.8680     0.3250   259.6910   -42.8990  -999.2500     5.0800     5.7160
 1956.5000   -51.8150     0.0420     2.3780     8.8070     0.3090   257.6850   -42.8990  -999.2500     5.7470     6.3870
 1957.0000   -62.6230    -0.0160     2.4250     8.7520     0.3050   255.6540   -42.8990  -999.2500     6.4150     7.0580
 1957.5000   -58.0870    -0.0140     2.4260     8.7280     0.3020   255.2330   -42.8990  -999.2500     7.0350     7.5380
 1958.0000   -53.1160    -0.0110     2.4140     8.7270     0.3000   252.4720   -42.8990  -999.2500     7.5690     7.9520
 1958.5000   -48.1460    -0.0100     2.4000     8.7250     0.2930   242.7370   -42.8990  -999.2500     8.1030     8.3620
 1959.0000   -42.8990    -0.0070     2.3860     8.7220     0.2900   235.0290   -42.8990  -999.2500     8.5160     8.5640
 1959.5000   -46.2520    -0.0120     2.3860     8.7200     0.2920   231.3450   -42.8990  -999.2500     8.5160     8.8310
 1960.0000   -49.8030    -0.0160     2.3960     8.7170     0.2960   239.7330   -42.8990  -999.2500     8.5160     8.8010
 1960.5000   -53.3530    -0.0220     2.4040     8.7150     0.2990   252.7750   -42.8990  -999.2500     8.4520     8.7560
 1961.0000   -56.9030    -0.0190     2.4130     8.7130     0.3030   266.1920   -42.8990  -999.2500     8.3220     8.7100
 1961.5000   -60.4540    -0.0160     2.4150     8.7100     0.3040   279.8030   -42.8990  -999.2500     8.2120     8.6720
 1962.0000   -62.6230    -0.0140     2.4150     8.7080     0.3040   291.6620   -42.8990  -999.2500     8.3530     8.5160
 1962.5000   -62.6230    -0.0110     2.4090     8.7060     0.3020   289.0060   -42.8990  -999.2500     8.5390     8.6720
 1963.0000   -62.6230    -0.0090     2.4020     8.7030     0.3000   282.3730   -42.8990  -999.2500     8.7250     8.9200
 1963.5000   -62.6230    -0.0060     2.3950     8.7010     0.3000   277.3260   -42.8990  -999.2500     8.9110     9.1270
 1964.0000   -60.5920    -0.0040     2.3910     8.6990     0.3010   273.9950   -42.8990  -999.2500     9.0970     9.3350
 1964.5000   -58.1070    -0.0020     2.3930     8.6960     0.3000   271.4520   -42.8990  -999.2500     9.2830     9.5430
 1965.0000   -55.6210    -0.0010     2.3930     8.6940     0.2930   259.5280   -41.4750  -999.2500     9.4690     9.7500
 1965.5000   -53.1360     0.0000     2.3920     8.6920     0.2830   241.1310   -38.6700  -999.2500     9.6550     9.9580
 1966.0000   -50.6510     0.0010     2.3850     8.6890     0.2750   226.5300   -35.8650  -999.2500     9.8410    10.1650
 1966.5000   -48.1660     0.0020     2.3740     8.6890     0.2670   217.7020   -33.0590  -999.2500    10.0280    10.2120
 1967.0000   -45.6800     0.0040     2.3630     8.6890     0.2660   208.5110   -30.2540  -999.2500    10.0570    10.2120
 1967.5000   -42.8990     0.0020     2.3400     8.6890     0.2630   200.5030   -27.4490  -999.2500    10.0870    10.2510
 1968.0000   -42.8990     0.0260     2.3200     8.6890     0.2590   195.8500   -24.6440  -999.2500    10.1160    10.2990
 1968.5000   -42.8990     0.0710     2.2950     8.6890     0.2540   198.0700   -23.5980  -999.2500    10.1460    10.3470
 1969.0000   -42.8990     0.1060     2.3000     8.6890     0.2530   200.5010   -24.4840  -999.2500    10.1750    10.3990
 1969.5000   -42.8990     0.0670     2.3310     8.6890     0.2540   200.5000   -25.3690  -999.2500    10.5900    10.9820
 1970.0000   -42.8990     0.0260     2.3680     8.6890     0.2540   200.4070   -26.2550  -999.2500    10.5140    10.9150
 1970.5000   -42.8990    -0.0010     2.3830     8.6890     0.2510   200.1740   -27.1410  -999.2500    10.2980    10.7250
 1971.0000   -42.8990     0.0050     2.3960     8.6890     0.2490   200.1730   -28.0270  -999.2500    10.0830    10.5350
 1971.5000   -42.8990     0.0050     2.4090     8.6890     0.2470   197.1950   -28.9130  -999.2500     9.8670    10.3450
 1972.0000   -42.8990     0.0070     2.4240     8.6890     0.2470   187.1260   -29.7990  -999.2500     9.6510    10.1560
 1972.5000   -42.8990     0.0090     2.4340     8.6890     0.2480   169.4040   -30.6840  -999.2500     9.4360     9.9660
 1973.0000   -42.8990     0.0110     2.4330     8.6890     0.2500   161.7930   -31.5700  -999.2500     9.2200     9.7760
 1973.5000   -42.8990     0.0120     2.4320     8.6890     0.2510   157.9210   -32.4560  -999.2500     9.0680     9.5860
 1974.0000   -42.8990     0.0070     2.4470     8.6890     0.2390   153.0740   -33.3420  -999.2500     8.9410     9.3960
 1974.5000   -42.8990     0.0000     2.4770     8.6890     0.2310   146.2460   -34.2280  -999.2500     8.8150     9.2060
 1975.0000   -42.8990    -0.0060     2.4910     8.6890     0.2340   136.8780   -35.1140  -999.2500     8.6890     9.0160
 1975.5000   -42.8990    -0.0120     2.4820     8.6890     0.2390   139.4460   -36.0000  -999.2500     8.5620     8.8310
 1976.0000   -42.8990    -0.0200     2.4560     8.6890     0.2500   145.2130   -36.8850  -999.2500     8.4120     8.6690
