~VERSION INFORMATION
 VERS.                2.0:   CWLS LOG ASCII STANDARD - VERSION 2.0
 WRAP.                 NO:   ONE LINE PER DEPTH STEP
~WELL INFORMATION
#MNEM.UNIT      DATA TYPE    INFORMATION
#----------   ------------   ------------------------------
 STRT.F          150.0000:   START DEPTH
 STOP.F         2929.0000:   STOP DEPTH
 STEP.F            0.5000:   STEP LENGTH
 NULL.          -999.2500:   NO VALUE
 COMP.    FENIX & SCISSON:   COMPANY
 WELL.    FENIX AX #12-28:   WELL
 FLD .        TEAPOT DOME:   FIELD
 LOC .      S28 T39N R78W:   LOCATION
 CNTY.            NATRONA:   COUNTY
 STAT.            WYOMING:   STATE
 CTRY. UNITED STATES OF AMERICA:   COUNTRY
 SRVC.           BIRDWELL:   SERVICE COMPANY
 DATE.        06-JUN-1978:   LOGDATE
 API .     49025106420000:   API NUMBER
~CURVE INFORMATION
#MNEM.UNIT       API CODE    CURVE DESCRIPTION
#----------   ------------   ------------------------------
 DEPT.F                  :   
 SPR .MV     05 010 01 00:   SPONTANEOUS POTENTIAL
 SN  .OHMM   05 040 16 00:   SHORT NORMAL 16"
 ILD .OHMM   05 120 46 00:   INDUCTION LOG DEEP RESISTIVITY
 RHOB.G/C3   45 350 01 00:   BULK DENSITY
 CORR.G/C3   45 356 01 00:   DENSITY CORRECTION
 GRD .GAPI   45 310 01 00:   GAMMA RAY FROM DENSITY LOG
 CALD.IN     45 280 60 00:   CALIPER FROM DENSITY LOG
~PARAMETER INFORMATION
#MNEM.UNIT          VALUE    DESCRIPTION
#----------   ------------   ------------------------------
 EKB .F         5000.0000:   Kelly bushing
 EGL .F         4990.0000:   Ground level
 EDF .F            0.0000:   Drilling floor
 EPD .F         5005.0000:   Permanent datum
 TD  .F         2911.0000:   Total depth
 DATE.        06-JUN-1978:   Date logged
 CLNT.            A2DTECH:   Client Code
 SL  . 1250' FNL & 225' FWL:   Surface Location
 PD  .                 GL:   Permanent Datum
 LMF .                 KB:   Log Measured From
 DMF .                 KB:   Drilling Measured From
 DAPD.F                10:   Feet Above Permanent Datum
 DD  .F              2911:   Depth driller
 DL  .F              2912:   Depth logger
 BLI .F              2906:   Bottom log interval
 TLI .F               200:   Top log interval
 CS1 .IN            8.625:   Casing size
 CBD1.      8.625" @ 225':   Casing driller 1
 CBL1.F               225:   Casing logger 1
 BS1 .IN            7.875:   Bit size
 BSD1.F              2911:   Depth drilled with bit1
 DFT .       OIL BASE MUD:   Type fluid in hole
 DFD .                9.2:   Density
 DFV .                 35:   Viscosity
 DFPH.               10.5:   pH
 DFL .                  2:   Fluid loss
 TCS .HRS             3.5:   Time Circ. stopped
 LUN .               2958:   Logging unit number
 LUL .               CASP:   Logging unit location
 ENGI.            POINTER:   Recorded By
 WITN.           MCGINLEY:   Witnessed by
 ORIG.           5" PRINT:   Origin of data
 UWI .     49025106420000:   Unique Well ID
 DICO. A2D TECHNOLOGIES, INC.:   Digitizing Company
~OTHER INFORMATION
~A   DEPT      SPR         SN        ILD       RHOB       CORR         GRD      CALD   
# ...
 2516.0000   -26.2500     8.3410     6.2250     2.5040     0.0090    84.4690     9.5010
 2516.5000   -25.8740     8.2490     6.2250     2.5060     0.0090    83.1340     9.4980
 2517.0000   -26.1220     8.1290     6.2250     2.5040     0.0090    81.8770     9.4950
 2517.5000   -26.4340     8.1740     6.2320     2.5020     0.0110    81.4290     9.4920
 2518.0000   -25.9570     8.2370     6.2560     2.4990     0.0140    81.2050     9.4890
 2518.5000   -25.2910     8.2990     6.2790     2.5050     0.0160    83.5060     9.4860
 2519.0000   -25.6900     8.3620     6.3020     2.5130     0.0190    85.8390     9.4830
 2519.5000   -26.0780     8.4250     6.3260     2.5200     0.0220    86.2470     9.4800
 2520.0000   -26.4690     8.4870     6.3490     2.5170     0.0240    84.3140     9.4770
 2520.5000   -26.1450     8.5500     6.3720     2.5130     0.0270    83.0680     9.4740
 2521.0000   -25.7570     8.6120     6.3950     2.5150     0.0300    82.7490     9.4710
 2521.5000   -25.3690     8.6700     6.4190     2.5200     0.0330    84.6330     9.4680
 2522.0000   -24.9620     8.7310     6.4420     2.5250     0.0310    86.0850     9.4650
 2522.5000   -25.3810     8.8000     6.4580     2.5250     0.0240    87.5170     9.4670
 2523.0000   -25.9880     8.8690     6.4580     2.5180     0.0170    88.6220     9.4720
 2523.5000   -26.0210     8.9380     6.4580     2.5130     0.0150    86.8210     9.4780
 2524.0000   -25.9390     8.9960     6.4580     2.5160     0.0140    85.0270     9.4840
 2524.5000   -25.8520     8.8650     6.4580     2.5110     0.0130    83.2120     9.4890
 2525.0000   -25.7660     8.7530     6.4220     2.5040     0.0130    82.5310     9.4950
 2525.5000   -25.8000     8.6410     6.3280     2.5040     0.0120    82.1100     9.5010
 2526.0000   -26.6790     8.5290     6.2350     2.5050     0.0110    81.8890     9.5070
 2526.5000   -26.9300     8.4170     6.1420     2.5080     0.0120    82.8510     9.5120
 2527.0000   -27.0040     8.2950     6.0490     2.5100     0.0130    85.0060     9.5180
 2527.5000   -27.1150     8.0620     5.9550     2.5100     0.0140    87.1620     9.5240
 2528.0000   -25.9350     7.8290     5.8560     2.5090     0.0160    88.1120     9.5770
 2528.5000   -25.3660     7.5960     5.7440     2.5100     0.0170    88.0030     9.6360
 2529.0000   -25.9600     7.3630     5.6250     2.5140     0.0160    88.6010     9.6960
 2529.5000   -26.5550     7.1650     5.4630     2.5180     0.0140    89.3920     9.7190
 2530.0000   -27.0380     7.0300     5.3140     2.5150     0.0130    90.1900     9.7190
 2530.5000   -26.0770     6.8950     5.1660     2.5130     0.0110    90.9870     9.7180
 2531.0000   -25.1330     6.7620     5.0180     2.5100     0.0100    91.7830     9.7170
 2531.5000   -25.0940     6.4400     4.8750     2.5080     0.0080    92.5780     9.7160
 2532.0000   -25.3690     6.1230     4.7110     2.5050     0.0070    93.3760     9.7150
 2532.5000   -26.1160     5.8840     4.5460     2.5020     0.0060    94.3970     9.7140
 2533.0000   -26.8490     5.8610     4.4230     2.4980     0.0040    95.7650     9.7130
 2533.5000   -27.0600     5.8380     4.4070     2.4940     0.0030    96.0170     9.7120
 2534.0000   -26.5500     5.8160     4.3900     2.4980     0.0010    96.2570     9.7110
 2534.5000   -26.1140     5.7930     4.3730     2.5020     0.0050    95.6600     9.7100
 2535.0000   -26.5100     5.7700     4.3560     2.5050     0.0090    95.0220     9.7090
 2535.5000   -26.9080     5.7470     4.3400     2.5090     0.0100    94.3830     9.7080
 2536.0000   -27.3020     5.7240     4.3230     2.5130     0.0100    94.5980     9.7070
 2536.5000   -27.3980     5.7010     4.3060     2.5130     0.0100    94.9340     9.7060
 2537.0000   -27.2550     5.6780     4.2890     2.5090     0.0110    95.2760     9.7050
 2537.5000   -27.1080     5.6550     4.2730     2.5050     0.0130    95.6100     9.7040
 2538.0000   -27.1800     5.6330     4.2560     2.5100     0.0180    95.7280     9.7030
 2538.5000   -27.2960     5.6100     4.2390     2.5170     0.0240    94.6210     9.7020
 2539.0000   -27.4130     5.5870     4.2220     2.5240     0.0250    93.5210     9.7010
 2539.5000   -27.2420     5.5640     4.2060     2.5230     0.0240    92.1360     9.6970
 2540.0000   -26.7380     5.5410     4.1890     2.5220     0.0240    92.7190     9.6910
 2540.5000   -26.6010     5.5180     4.1720     2.5160     0.0240    93.6480     9.6850
 2541.0000   -26.8110     5.4950     4.1520     2.5110     0.0230    94.5490     9.6800
 2541.5000   -27.0230     5.4720     4.2070     2.5050     0.0250    95.5180     9.6740
 2542.0000   -27.2490     5.6130     4.2770     2.5050     0.0270    93.5720     9.6680
 2542.5000   -26.9630     5.7550     4.3480     2.5100     0.0290    93.2790     9.6620
 2543.0000   -26.5600     5.8960     4.4180     2.5150     0.0310    93.9540     9.6560
 2543.5000   -26.1460     6.0380     4.4890     2.5190     0.0340    94.6040     9.6510
 2544.0000   -26.2930     6.1680     4.5590     2.5240     0.0350    94.4290     9.6450
 2544.5000   -26.5270     6.3960     4.6370     2.5280     0.0340    94.0930     9.6390
 2545.0000   -26.7660     6.6080     4.8380     2.5280     0.0340    93.7590     9.6330
 2545.5000   -26.7960     6.8190     5.0600     2.5250     0.0330    93.6230     9.6270
 2546.0000   -26.6300     7.0300     5.2830     2.5220     0.0330    94.0800     9.6220
 2546.5000   -26.4830     7.6180     5.5060     2.5150     0.0320    94.4660     9.6160
 2547.0000   -26.4880     8.3240     5.7300     2.5080     0.0320    92.5080     9.6100
 2547.5000   -26.4880     9.0310     6.0950     2.4920     0.0310    88.7610     9.6050
 2548.0000   -26.4940     9.4610     6.4640     2.4740     0.0360    81.5620     9.5630
 2548.5000   -26.0770     9.9540     6.8880     2.4640     0.0420    75.4150     9.4990
 2549.0000   -25.4260     9.9050     6.8370     2.4670     0.0540    75.3060     9.4500
 2549.5000   -24.7820     9.8290     6.7760     2.4700     0.0670    77.5850     9.4860
 2550.0000   -24.9820     9.7530     6.7150     2.4800     0.0730    80.1780     9.5260
 2550.5000   -25.3010     9.6770     6.6550     2.4890     0.0760    82.3150     9.5680
 2551.0000   -25.6210     9.6010     6.5780     2.4980     0.0690    78.9210     9.6170
 2551.5000   -25.8510     9.5250     6.6240     2.5070     0.0620    74.2620     9.5670
 2552.0000   -25.5560     9.3710     6.6870     2.5130     0.0540    69.6850     9.5060
 2552.5000   -25.2560     9.1910     6.7620     2.5010     0.0510    66.7060     9.4300
 2553.0000   -24.9370     9.0100     6.6150     2.4910     0.0500    69.8390     9.8150
 2553.5000   -25.4890     8.8300     6.4280     2.4970     0.0490    77.5880     9.6160
 2554.0000   -26.2250     8.6500     6.2250     2.5020     0.0430    85.2540     9.4310
 2554.5000   -26.3770     8.4700     6.1020     2.5050     0.0330    91.7960     9.4500
 2555.0000   -26.2140     8.2900     5.9540     2.4940     0.0230    92.7450     9.4680
 2555.5000   -26.0460     8.1090     5.7300     2.4820     0.0150    91.4900     9.4860
 2556.0000   -25.8730     7.9080     5.7830     2.4770     0.0150    90.2930     9.5030
 2556.5000   -25.7070     7.6540     5.6080     2.4780     0.0150    89.1930     9.5060
 2557.0000   -26.2250     7.4000     5.4720     2.4790     0.0140    89.1080     9.5080
 2557.5000   -26.8160     7.1460     5.3360     2.4800     0.0140    89.0630     9.5100
 2558.0000   -27.0220     6.8660     5.2710     2.4810     0.0140    88.9450     9.5120
 2558.5000   -26.9190     6.5760     5.2640     2.4810     0.0140    91.7610     9.5150
 2559.0000   -26.8140     6.3400     5.2570     2.4800     0.0130    95.6410     9.5170
 2559.5000   -26.7060     6.4300     5.2500     2.4800     0.0130    99.7120     9.5190
 2560.0000   -26.7180     6.5180     5.2430     2.4810     0.0130   100.6290     9.5210
 2560.5000   -26.7670     6.4890     5.2360     2.4810     0.0150    98.6180     9.5140
 2561.0000   -26.8180     6.4430     5.2290     2.4910     0.0180    94.8970     9.5890
