~VERSION INFORMATION
 VERS.                2.0:   CWLS LOG ASCII STANDARD - VERSION 2.0
 WRAP.                 NO:   ONE LINE PER DEPTH STEP
~WELL INFORMATION
#MNEM.UNIT      DATA TYPE    INFORMATION
#----------   ------------   ------------------------------
 STRT.F          200.5000:   START DEPTH
 STOP.F         3118.5000:   STOP DEPTH
 STEP.F            0.5000:   STEP LENGTH
 NULL.          -999.2500:   NO VALUE
 COMP.    FENIX & SCISSON:   COMPANY
 WELL. FENIX SCISSON "A" #16-27:   WELL
 FLD .                NPR:   FIELD
 LOC .      S27 T39N R78W:   LOCATION
 CNTY.            NATRONA:   COUNTY
 STAT.            WYOMING:   STATE
 CTRY. UNITED STATES OF AMERICA:   COUNTRY
 SRVC.       SCHLUMBERGER:   SERVICE COMPANY
 DATE.        31-AUG-1977:   LOGDATE
 API .     49025104180000:   API NUMBER
~CURVE INFORMATION
#MNEM.UNIT       API CODE    CURVE DESCRIPTION
#----------   ------------   ------------------------------
 DEPT.F                  :   
 CALD.IN     45 280 60 00:   CALIPER FROM DENSITY LOG
 GRD .GAPI   45 310 01 00:   GAMMA RAY FROM DENSITY LOG
 DPHI.DEC    42 890 03 00:   DENSITY POROSITY SANDSTONE
 RHOB.G/C3   45 350 01 00:   BULK DENSITY
 CORR.G/C3   45 356 01 00:   DENSITY CORRECTION
 SPR .MV     07 010 01 00:   SPONTANEOUS POTENTIAL
 GURD.OHMM   07 220 05 00:   GUARD LOG RESISTIVITY
 ILD .OHMM   07 120 46 00:   DEEP INDUCTION RESISTIVITY
 ILM .OHMM   07 120 44 00:   INDUCTION LOG MEDIUM RESISTIVITY
~PARAMETER INFORMATION
#MNEM.UNIT          VALUE    DESCRIPTION
#----------   ------------   ------------------------------
 EKB .F         5095.0000:   Kelly bushing
 EGL .F         5085.0000:   Ground level
 EDF .F            0.0000:   Drilling floor
 TD  .F         3121.0000:   Total depth
 DATE.        31-AUG-1977:   Date logged
 CLNT.            A2DTECH:   Client Code
 SL  . 1430' FSL & 330' FNL:   Surface Location
 PD  .                 GL:   Permanent Datum
 EPD .F              5085:   Elevation Permanent Datum
 LMF .                 KB:   Log Measured From
 DMF .                 KB:   Drilling Measured From
 DAPD.F                10:   Feet Above Permanent Datum
 DD  .F              3120:   Depth driller
 DL  .F              3121:   Depth logger
 BLI .F              3119:   Bottom log interval
 TLI .F               200:   Top log interval
 CS1 .IN            8.625:   Casing size
 CBD1.      8.625" @ 206':   Casing driller 1
 CBL1.F               215:   Casing logger 1
 BS1 .IN            7.875:   Bit size
 BSD1.F              3120:   Depth drilled with bit1
 DFT .            KCL/MUD:   Type fluid in hole
 DFD .                  9:   Density
 DFV .                 36:   Viscosity
 DFPH.                 11:   pH
 DFL .                8.4:   Fluid loss
 MSS .           FLOWLINE:   Source of sample
 RMS .OHMM            2.5:   Rm
 MST .F                89:   Rm Meas. temp.
 RMF .OHMM           2.45:   Rmf
 MFST.F                89:   Rmf Meas. temp.
 RMC .OHMM           3.30:   Rmc
 MCST.F                89:   Rmc Meas. temp.
 MFSS.               FANN:   Source Rmf.
 MCSS.                KIT:   Source Rmc.
 RMB .OHMM           1.91:   Rm. at BHT
 BHT .F               116:   BHT.
 TCS .HRS              12:   Time Circ. stopped
 MRT .F               116:   Maximum recorded temp.
 LUN .               9585:   Logging unit number
 LUL .             CASPEN:   Logging unit location
 ENGI.         G. BENTSEN:   Recorded By
 WITN.      W. PETTINGILL:   Witnessed by
 ORIG.           5" PRINT:   Origin of data
 UWI .     49025104180000:   Unique Well ID
 DICO. A2D TECHNOLOGIES, INC.:   Digitizing Company
~OTHER INFORMATION
~A   DEPT     CALD         GRD      DPHI       RHOB        CORR       SPR       GURD        ILD        ILM   
# ...
  784.5000     8.4842    58.0435     0.1245     2.4485     0.0108   -64.5776     9.4772     5.7823     6.9482
  785.0000     8.4844    58.0455     0.1201     2.4534     0.0168   -64.3752     9.4791     5.7839     6.9493
  785.5000     8.5241    58.0474     0.1181     2.4583     0.0188   -64.3710     9.4810     5.8385     7.0151
  786.0000     8.5046    58.0494     0.1117     2.4637     0.0229   -64.3667     9.4829     5.8397     7.0806
  786.5000     8.5048    57.4573     0.1022     2.4647     0.0249   -64.1643     9.5721     5.8404     7.0824
  787.0000     8.5050    57.4585     0.1018     2.4740     0.0289   -64.1600     9.4867     5.8959     7.0838
  787.5000     8.5052    56.4743     0.0976     2.4833     0.0329   -63.7594     9.8428     6.0064     7.2168
  788.0000     8.5251    56.0814     0.0935     2.4966     0.0370   -63.7552    10.2122     6.2325     7.5572
  788.5000     8.5056    55.8858     0.0910     2.4976     0.0350   -63.7509    10.9911     6.4075     7.8413
  789.0000     8.5255    55.2948     0.0918     2.4976     0.0350   -63.5485    11.7209     6.5278     8.1355
  789.5000     8.5455    54.9016     0.0926     2.4957     0.0351   -63.5442    11.9400     6.6496     7.9175
  790.0000     8.5654    54.5083     0.0938     2.4937     0.0351   -63.5399    11.8334     6.9635     7.9181
  790.5000     8.5656    54.1150     0.0950     2.4917     0.0371   -63.7339    11.9447     7.0291     7.9200
  791.0000     8.5856    54.3130     0.0957     2.4917     0.0352   -63.7297    12.0570     7.0953     7.9207
  791.5000     8.5858    54.7091     0.0961     2.4887     0.0352   -63.9236    12.1703     7.1625     7.9232
  792.0000     8.5860    55.5016     0.0965     2.4868     0.0333   -63.9194    12.1727     7.2297     7.9248
  792.5000     8.5862    55.7036     0.0973     2.4868     0.0333   -63.9151    12.1751     7.2978     7.9264
  793.0000     8.5666    56.1009     0.0977     2.4868     0.0333   -63.9109    12.0665     7.2993     7.9280
  793.5000     8.5866    56.3005     0.0965     2.4908     0.0374   -63.9066    12.2920     7.3002     7.9296
  794.0000     8.5868    55.9072     0.0965     2.4928     0.0374   -63.9024    12.6370     7.3026     7.9309
  794.5000     8.5870    55.9092     0.0977     2.4928     0.0355   -63.8981    12.7557     7.3041     7.9325
  795.0000     8.5872    55.3183     0.0989     2.4899     0.0355   -63.4974    12.7582     7.3729     7.9338
  795.5000     8.5874    54.7273     0.0985     2.4859     0.0355   -63.6914    12.8782     7.4424     7.9360
  796.0000     8.5876    55.1246     0.0973     2.4859     0.0356   -63.6872    12.8807     7.5122     7.9373
  796.5000     8.5878    55.1266     0.0965     2.4899     0.0376   -63.4847    12.8832     7.5826     7.9389
  797.0000     8.5880    55.1286     0.0949     2.4929     0.0376   -63.4804    13.0043     7.6550     7.9408
  797.5000     8.5882    55.1306     0.0941     2.4940     0.0357   -63.4762    12.8882     7.6559     7.8653
  798.0000     8.5884    54.9349     0.0933     2.4940     0.0337   -63.6702    12.7732     7.6575     7.8669
  798.5000     8.6083    54.5416     0.0940     2.5000     0.0338   -63.2694    12.6592     7.6584     7.8679
  799.0000     8.5887    54.3460     0.0964     2.4980     0.0298   -63.2652    12.8958     7.6606     7.8701
  799.5000     8.6087    54.3452     0.0976     2.4920     0.0219   -63.2609    13.0170     7.6622     7.8717
  800.0000     8.6089    54.3476     0.0992     2.4861     0.0259   -63.2567    13.1393     7.8059     8.0186
  800.5000     8.6091    54.3498     0.0995     2.4832     0.0259   -63.2519    13.4817     7.8613     8.0751
  801.0000     8.6098    54.3535     0.1004     2.4831     0.0259   -62.8509    13.6355     7.8812     8.0954
  801.5000     8.6103    53.9631     0.1020     2.4831     0.0259   -63.0445    13.6385     7.9555     8.1713
  802.0000     8.6108    53.7692     0.1028     2.4771     0.0279   -63.0399    13.8936     7.9575     8.1734
  802.5000     8.6113    53.7735     0.1016     2.4761     0.0319   -63.0352    14.0245     7.9588     8.1748
  803.0000     8.6118    53.7753     0.0988     2.4801     0.0339   -63.0306    14.1567     7.9602     8.1761
  803.5000     8.6123    53.9759     0.0968     2.4841     0.0359   -63.2242    14.0306     7.8891     8.1036
  804.0000     8.6128    54.1765     0.0960     2.4871     0.0379   -63.2195    13.7789     7.7470     7.9584
  804.5000     8.6330    54.5746     0.0964     2.4881     0.0379   -63.4131    13.4083     7.6782     8.0390
  805.0000     8.6137    54.9726     0.0980     2.4841     0.0379   -63.6067    13.1678     7.5401     7.9669
  805.5000     8.6142    55.1731     0.0988     2.4821     0.0379   -63.6021    12.9315     7.5423     7.8958
  806.0000     8.6738    54.9786     0.1072     2.4801     0.0379   -63.5974    12.9360     7.5433     7.7502
  806.5000     8.6152    54.7842     0.1096     2.4721     0.0299   -63.5928    12.7022     7.6147     7.8232
  807.0000     8.5959    54.7872     0.1116     2.4691     0.0299   -63.3899    12.5891     7.6160     7.8246
  807.5000     8.6162    54.7902     0.1123     2.4661     0.0219   -63.3853    12.3638     7.6179     7.8265
  808.0000     8.6167    54.5957     0.1139     2.4622     0.0199   -63.3806    11.9215     7.2114     7.4111
  808.5000     8.6172    54.5987     0.1159     2.4552     0.0219   -63.5742    12.0338     7.0817     7.2785
  809.0000     8.6177    54.6018     0.1131     2.4771     0.0259   -63.5686    12.0364     7.0182     7.2136
  809.5000     8.6182    54.6048     0.1112     2.4871     0.0299   -63.5639    12.1498     7.0194     7.2148
  810.0000     8.6187    54.6078     0.1096     2.4910     0.0339   -63.5593    12.2642     7.0208     7.2163
  810.5000     8.6389    54.0187     0.1088     2.4940     0.0359   -63.7529    12.2669     7.0229     7.2184
  811.0000     8.6196    53.4297     0.1092     2.4900     0.0359   -63.7482    12.2695     7.0243     7.2199
  811.5000     8.6004    53.6301     0.1108     2.4861     0.0319   -63.7436    12.2722     7.0252     7.2208
  812.0000     8.5812    53.8305     0.1120     2.4771     0.0259   -63.7389    12.3878     7.0918     7.2888
  812.5000     8.6012    54.2282     0.1127     2.4641     0.0239   -63.7343    12.5045     7.0930     7.2900
  813.0000     8.6019    54.6259     0.1135     2.4622     0.0179   -63.7296    12.3931     7.2265     7.4265
  813.5000     8.6022    55.2202     0.1143     2.4572     0.0159   -63.5268    12.3958     7.2277     7.4277
  814.0000     8.6424    55.6177     0.1159     2.4522     0.0140   -63.5221    12.2854     7.2292     7.4293
  814.5000     8.5834    56.0151     0.1171     2.4502     0.0140   -63.1211    12.4012     7.1640     7.3627
  815.0000     8.5644    56.4126     0.1183     2.4472     0.0159   -62.9182    12.5180     7.1007     7.2979
  815.5000     8.5846    57.2028     0.1191     2.4462     0.0199   -63.1118    12.4065     7.1027     7.3007
  816.0000     8.5851    57.5989     0.1191     2.4462     0.0199   -63.5035    12.2960     7.1042     7.3025
  816.5000     8.6052    58.1934     0.1183     2.4472     0.0179   -63.6971    12.5261     7.1054     7.3038
  817.0000     8.6254    58.7877     0.1171     2.4502     0.0179   -63.8906    12.7606     7.1069     7.3056
  817.5000     8.6259    59.5791     0.1167     2.4542     0.0199   -63.8859    12.6469     7.1742     7.3065
  818.0000     8.6264    60.3705     0.1159     2.4562     0.0239   -63.8813    12.4199     7.1754     7.3081
  818.5000     8.6072    60.9646     0.1147     2.4592     0.0239   -64.0748    12.4226     7.1772     7.3096
  819.0000     8.5879    61.3614     0.1127     2.4592     0.0239   -64.0702    12.4253     7.1781     7.3771
  819.5000     8.5884    61.5611     0.1108     2.4612     0.0239   -63.8673    12.3146     7.1799     7.3789
  820.0000     8.6283    61.5636     0.1084     2.4641     0.0239   -63.8624    12.3172     7.1814     7.3805
  820.5000     8.5894    61.3720     0.1072     2.4671     0.0239   -63.8580    12.3199     7.1826     7.3817
