~VERSION INFORMATION
 VERS.                2.0:   CWLS LOG ASCII STANDARD - VERSION 2.0
 WRAP.                 NO:   ONE LINE PER DEPTH STEP
~WELL INFORMATION
#MNEM.UNIT      DATA TYPE    INFORMATION
#----------   ------------   ------------------------------
 STRT.F         2299.0000:   START DEPTH
 STOP.F         3387.5000:   STOP DEPTH
 STEP.F            0.5000:   STEP LENGTH
 NULL.          -999.2500:   NO VALUE
 COMP. LAWRENCE ALLISON AND ASSOCIATES:   COMPANY
 WELL. 		  62-AX-3:   WELL
 FLD .                NPR:   FIELD
 LOC .       S3 T38N R78W:   LOCATION
 CNTY.            NATRONA:   COUNTY
 STAT.            WYOMING:   STATE
 CTRY. UNITED STATES OF AMERICA:   COUNTRY
 SRVC.      DRESSER ATLAS:   SERVICE COMPANY
 DATE.        14-JUN-1985:   LOGDATE
 API .     49025110330000:   API NUMBER
~CURVE INFORMATION
#MNEM.UNIT       API CODE    CURVE DESCRIPTION
#----------   ------------   ------------------------------
 DEPT.F                  :   
 NPHI.DEC    42 890 01 00:   NEUTRON POROSITY
 TEND.LBS    45 635 01 00:   TENSION
 RHOB.G/C3   45 350 01 00:   BULK DENSITY
 CORR.DEC    45 356 01 00:   CORRECTION
~PARAMETER INFORMATION
#MNEM.UNIT          VALUE    DESCRIPTION
#----------   ------------   ------------------------------
 EKB .F         5160.0000:   Kelly bushing
 EGL .F         5148.0000:   Ground level
 EDF .F            0.0000:   Drilling floor
 EPD .F         5148.0000:   Permanent datum
 TD  .F         3380.0000:   Total depth
 DATE.        14-JUN-1985:   Date logged
 CLNT.            A2DTECH:   Client Code
 PD  .                 GL:   Permanent Datum
 LMF .                 KB:   Log Measured From
 DMF .                 KB:   Drilling Measured From
 DL  .F              3380:   Depth logger
 BLI .F              3378:   Bottom log interval
 CS1 .IN            8.625:   Casing size
 CBD1.      8.625" @ 603':   Casing driller 1
 DFT .        KCL POLYMER:   Type fluid in hole
 ENGI.               MACK:   Recorded By
 WITN.             STRONG:   Witnessed by
 ORIG.       2.5"5" PRINT:   Origin of data
 UWI .     49025110330000:   Unique Well ID
 DICO. A2D TECHNOLOGIES, INC.:   Digitizing Company
 DAPD.F                12:   Feet Above Permanent Datum
 BS1 .IN            7.875:   Bit size
 DFD .                8.9:   Density
 DFV .                 46:   Viscosity
 DFPH.                8.5:   pH
 DFL .                9.6:   Fluid loss
 MSS .           FLOWLINE:   Source of sample
 RMS .OHMM           0.38:   Rm
 MST .F                74:   Rm Meas. temp.
 RMF .OHMM           0.29:   Rmf
 MFST.F                74:   Rmf Meas. temp.
 MFSS.               MEAS:   Source Rmf.
 RMC .OHMM           0.23:   Rmc
 MCST.F               120:   Rmc Meas. temp.
 MCSS.               MEAS:   Source Rmc.
 RMB .OHMM           0.23:   Rm. at BHT
 BHT .F               120:   BHT.
 TCS .                  8:   Time Circ. stopped
 MRT .                122:   Maximum recorded temp.
 LUN .            HL-6274:   Logging unit number
 LUL .               GLTE:   Logging unit location
~OTHER INFORMATION
~A     DEPTH         CORR         NPHI         RHOB         TEND
# ...
   3043.0000       0.0150       0.2453       2.2690       0.1794
   3043.5000       0.0210       0.2530       2.2730       0.1796
   3044.0000       0.0240       0.2560       2.2720       0.1797
   3044.5000       0.0150       0.2508       2.2690       0.1799
   3045.0000       0.0060       0.2325       2.2710       0.1800
   3045.5000       0.0030       0.2141       2.2840       0.1802
   3046.0000       0.0100       0.1883       2.3190       0.1803
   3046.5000       0.0320       0.1798       2.3760       0.1805
   3047.0000       0.0370       0.1903       2.4190       0.1806
   3047.5000       0.0180       0.2111       2.4010       0.1808
   3048.0000       0.0010       0.2374       2.3450       0.1810
   3048.5000      -0.0060       0.2752       2.2790       0.1811
   3049.0000       0.0000       0.2802       2.2500       0.1813
   3049.5000       0.0100       0.2777       2.2420       0.1814
   3050.0000       0.0160       0.2648       2.2530       0.1816
   3050.5000       0.0020       0.2644       2.2660       0.1817
   3051.0000      -0.0020       0.2653       2.2630       0.1819
   3051.5000       0.0110       0.2658       2.2590       0.1820
   3052.0000       0.0160       0.2612       2.2620       0.1822
   3052.5000      -0.0030       0.2503       2.2730       0.1823
   3053.0000      -0.0230       0.2485       2.2830       0.1825
   3053.5000      -0.0320       0.2508       2.2900       0.1826
   3054.0000      -0.0230       0.2519       2.2890       0.1828
   3054.5000      -0.0070       0.2500       2.2820       0.1830
   3055.0000       0.0030       0.2458       2.2730       0.1831
   3055.5000      -0.0020       0.2406       2.2600       0.1833
   3056.0000      -0.0070       0.2492       2.2490       0.1834
   3056.5000      -0.0080       0.2683       2.2420       0.1836
   3057.0000      -0.0090       0.2707       2.2400       0.1837
   3057.5000      -0.0080       0.2574       2.2400       0.1839
   3058.0000      -0.0080       0.2474       2.2450       0.1841
   3058.5000       0.0020       0.2452       2.2630       0.1843
   3059.0000       0.0110       0.2464       2.2790       0.1845
   3059.5000       0.0210       0.2493       2.2870       0.1846
   3060.0000       0.0150       0.2504       2.2880       0.1848
   3060.5000       0.0060       0.2485       2.2910       0.1850
   3061.0000       0.0000       0.2473       2.2920       0.1852
   3061.5000      -0.0050       0.2463       2.2890       0.1854
   3062.0000       0.0060       0.2474       2.2790       0.1856
   3062.5000       0.0150       0.2503       2.2720       0.1857
   3063.0000       0.0200       0.2536       2.2780       0.1859
   3063.5000       0.0230       0.2541       2.2920       0.1861
   3064.0000       0.0220       0.2510       2.2980       0.1863
   3064.5000       0.0100       0.2491       2.2900       0.1865
   3065.0000       0.0090       0.2539       2.2810       0.1867
   3065.5000       0.0090       0.2608       2.2730       0.1869
   3066.0000       0.0080       0.2651       2.2630       0.1870
   3066.5000       0.0050       0.2578       2.2540       0.1872
   3067.0000       0.0010       0.2535       2.2550       0.1874
   3067.5000      -0.0030       0.2517       2.2650       0.1876
   3068.0000      -0.0060       0.2504       2.2700       0.1878
   3068.5000      -0.0030       0.2506       2.2700       0.1880
   3069.0000       0.0010       0.2530       2.2630       0.1881
   3069.5000      -0.0030       0.2562       2.2550       0.1883
   3070.0000      -0.0060       0.2570       2.2510       0.1885
   3070.5000       0.0000       0.2566       2.2630       0.1887
   3071.0000       0.0060       0.2563       2.2710       0.1889
   3071.5000       0.0110       0.2553       2.2770       0.1891
   3072.0000       0.0110       0.2474       2.2810       0.1893
   3072.5000       0.0020       0.2419       2.2890       0.1894
   3073.0000      -0.0080       0.2452       2.3100       0.1896
   3073.5000      -0.0190       0.2479       2.3330       0.1898
   3074.0000      -0.0040       0.2489       2.3570       0.1900
   3074.5000       0.0120       0.2467       2.3690       0.1902
   3075.0000       0.0160       0.2458       2.3640       0.1904
   3075.5000       0.0190       0.2484       2.3470       0.1905
   3076.0000       0.0240       0.2561       2.3290       0.1907
   3076.5000       0.0280       0.2614       2.3240       0.1909
   3077.0000       0.0240       0.2604       2.3310       0.1911
   3077.5000       0.0220       0.2592       2.3430       0.1913
   3078.0000       0.0310       0.2579       2.3640       0.1915
   3078.5000       0.0400       0.2560       2.3750       0.1916
   3079.0000       0.0470       0.2550       2.3640       0.1918
   3079.5000       0.0510       0.2559       2.3470       0.1920
   3080.0000       0.0400       0.2576       2.3330       0.1922
   3080.5000       0.0300       0.2603       2.3300       0.1924
   3081.0000       0.0190       0.2636       2.3340       0.1926
   3081.5000       0.0160       0.2732       2.3360       0.1928
   3082.0000       0.0240       0.2825       2.3410       0.1929
   3082.5000       0.0280       0.2806       2.3680       0.1931
   3083.0000       0.0170       0.2742       2.4120       0.1933
   3083.5000       0.0110       0.2571       2.4380       0.1935
   3084.0000       0.0130       0.2402       2.4330       0.1937
   3084.5000       0.0080       0.2419       2.4260       0.1941
   3085.0000       0.0010       0.2461       2.4260       0.1944
   3085.5000      -0.0090       0.2481       2.4310       0.1948
   3086.0000      -0.0120       0.2444       2.4430       0.1951
   3086.5000       0.0100       0.2416       2.4470       0.1955
   3087.0000       0.0190       0.2383       2.4360       0.1958
   3087.5000       0.0060       0.2328       2.4190       0.1962
   3088.0000      -0.0040       0.2216       2.4090       0.1966
   3088.5000      -0.0140       0.2254       2.4130       0.1969
   3089.0000      -0.0180       0.2332       2.4240       0.1973
   3089.5000      -0.0170       0.2394       2.4350       0.1976
   3090.0000      -0.0100       0.2399       2.4340       0.1980
   3090.5000      -0.0050       0.2374       2.4290       0.1983
   3091.0000      -0.0100       0.2389       2.4290       0.1987
   3091.5000      -0.0150       0.2457       2.4340       0.1990
   3092.0000      -0.0120       0.2606       2.4440       0.1994
   3092.5000      -0.0030       0.2593       2.4530       0.1998
   3093.0000       0.0040       0.2461       2.4540       0.2001
   3093.5000       0.0080       0.2268       2.4580       0.2005
   3094.0000      -0.0030       0.2263       2.4620       0.2008
   3094.5000      -0.0150       0.2342       2.4640       0.2012
   3095.0000      -0.0250       0.2506       2.4630       0.2015
   3095.5000      -0.0140       0.2547       2.4600       0.2019
   3096.0000       0.0070       0.2480       2.4570       0.2022
   3096.5000       0.0190       0.2431       2.4660       0.2026
   3097.0000       0.0100       0.2374       2.4730       0.2030
   3097.5000      -0.0040       0.2325       2.4710       0.2033
   3098.0000      -0.0130       0.2324       2.4670       0.2034
   3098.5000      -0.0130       0.2339       2.4600       0.2026
   3099.0000      -0.0100       0.2410       2.4580       0.2018
   3099.5000       0.0010       0.2493       2.4580       0.2010
   3100.0000       0.0080       0.2498       2.4560       0.2002
   3100.5000       0.0000       0.2449       2.4520       0.1994
   3101.0000       0.0030       0.2347       2.4420       0.1986
   3101.5000      -0.0090       0.2310       2.4310       0.1978
   3102.0000      -0.0210       0.2297       2.4310       0.1970
   3102.5000      -0.0110       0.2302       2.4380       0.1962
   3103.0000       0.0040       0.2302       2.4450       0.1954
   3103.5000       0.0040       0.2319       2.4410       0.1946
   3104.0000      -0.0090       0.2369       2.4380       0.1938
   3104.5000      -0.0180       0.2413       2.4380       0.1938
