~VERSION INFORMATION
 VERS.                2.0:   CWLS LOG ASCII STANDARD - VERSION 2.0
 WRAP.                 NO:   ONE LINE PER DEPTH STEP
~WELL INFORMATION
#MNEM.UNIT      DATA TYPE    INFORMATION
#----------   ------------   ------------------------------
 STRT.F           50.0000:   START DEPTH
 STOP.F         2832.5000:   STOP DEPTH
 STEP.F            0.5000:   STEP LENGTH
 NULL.          -999.2500:   NO VALUE
 COMP.    FENIX & SCISSON:   COMPANY
 WELL. FENIX NPR 3 "AX" #87-20:   WELL
 FLD .              N P R:   FIELD
 LOC .      S20 T39N R78W:   LOCATION
 CNTY.            NATRONA:   COUNTY
 STAT.            WYOMING:   STATE
 CTRY. UNITED STATES OF AMERICA:   COUNTRY
 SRVC.           BIRDWELL:   SERVICE COMPANY
 DATE.        01-AUG-1978:   LOGDATE
 API .     49025106780000:   API NUMBER
~CURVE INFORMATION
#MNEM.UNIT       API CODE    CURVE DESCRIPTION
#----------   ------------   ------------------------------
 DEPT.F                  :   
 CALD.IN     45 280 60 00:   CALIPER FROM DENSITY LOG
 CORR.G/C3   45 356 01 00:   DENSITY CORRECTION
 GRD .GAPI   45 310 01 00:   GAMMA RAY FROM DENSITY LOG
 RHOB.G/C3   45 350 01 00:   BULK DENSITY
 SPR .MV     05 010 01 00:   SPONTANEOUS POTENTIAL
 ILD .OHMM   05 120 46 00:   DEEP INDUCTION RESISTIVITY
 SN  .OHMM   05 040 00 00:   SHORT NORMAL
~PARAMETER INFORMATION
#MNEM.UNIT          VALUE    DESCRIPTION
#----------   ------------   ------------------------------
 EKB .F         5007.0000:   Kelly bushing
 EGL .F         4997.0000:   Ground level
 EDF .F            0.0000:   Drilling floor
 EPD .F            0.0000:   Permanent datum
 TD  .F         2832.0000:   Total depth
 DATE.        01-AUG-1978:   Date logged
 CLNT.            A2DTECH:   Client Code
 SL  . 940' FSL & 200' FEL:   Surface Location
 PD  .                 GL:   Permanent Datum
 DD  .F              2825:   Depth driller
 DL  .F              2832:   Depth logger
 BLI .F              2826:   Bottom log interval
 CS1 .IN            8.625:   Casing size
 CBD1.      8.625" @ 140':   Casing driller 1
 CBL1.F               240:   Casing logger 1
 BS1 .IN            7.875:   Bit size
 DFT .            KCL/GEL:   Type fluid in hole
 DFD .                  9:   Density
 DFV .                 34:   Viscosity
 DFL .                  8:   Fluid loss
 MSS .           FLOWLINE:   Source of sample
 RMS .OHMM            1.5:   Rm
 MST .F                70:   Rm Meas. temp.
 RMF .OHMM            .70:   Rmf
 MFST.F                72:   Rmf Meas. temp.
 RMC .OHMM            2.2:   Rmc
 MCST.F                75:   Rmc Meas. temp.
 MFSS.               MEAS:   Source Rmf.
 TCS .HRS               6:   Time Circ. stopped
 LUN .               3007:   Logging unit number
 LUL .               CASP:   Logging unit location
 ENGI.            POINTER:   Recorded By
 WITN.              AMEND:   Witnessed by
 ORIG.           5" PRINT:   Origin of data
 UWI .     49025106780000:   Unique Well ID
 DICO. A2D TECHNOLOGIES, INC.:   Digitizing Company
 DAPD.                 10:   Feet Above Permanent Datum
 BSD1.F              2825:   Depth drilled with bit1
 LMF .                 KB:   Log Measured From
 DMF .                 KB:   Drilling Measured From
 TLI .F               140:   Top log interval
~OTHER INFORMATION
~A   DEPT     CALD       CORR         GRD      RHOB        SPR        ILD         SN   
# ...
 1551.5000     8.7780     0.1050   116.2750     2.5920   -23.2670     6.5180     6.7970
 1552.0000     8.7840     0.1080   117.0340     2.5920   -23.2570     6.5260     6.7870
 1552.5000     8.7900     0.1180   118.3140     2.5930   -23.6000     6.5340     6.7740
 1553.0000     8.7960     0.1300   116.5520     2.5970   -24.0310     6.5420     6.7610
 1553.5000     8.7910     0.1380   115.9350     2.6070   -24.4540     6.5520     6.7480
 1554.0000     8.7780     0.1420   118.6880     2.6150   -24.1780     6.5380     6.7350
 1554.5000     8.7640     0.1440   121.7790     2.6150   -24.0730     6.5150     6.5690
 1555.0000     8.7510     0.1500   119.4120     2.5990   -24.4060     6.4920     6.3700
 1555.5000     8.7370     0.1560   119.1300     2.5910   -24.7520     6.4690     6.1710
 1556.0000     8.7240     0.1560   115.7720     2.5850   -25.0800     6.4460     5.9710
 1556.5000     8.7170     0.1560   113.4300     2.5660   -25.4130     6.4340     5.8140
 1557.0000     8.7520     0.1540   108.8230     2.5580   -25.7230     6.4740     5.6240
 1557.5000     8.8210     0.1520   105.1050     2.5500   -25.9950     6.5110     5.3380
 1558.0000     8.8390     0.1620   106.4340     2.5110   -26.2650     6.5470     5.3780
 1558.5000     8.8440     0.1900   106.2250     2.4910   -26.4790     6.5830     5.5050
 1559.0000     8.8490     0.1940   103.0730     2.5120   -26.5890     6.6130     5.7520
 1559.5000     8.8530     0.1960   100.8360     2.5160   -26.7000     6.7080     6.5250
 1560.0000     8.8580     0.1970    91.7400     2.4930   -26.8210     6.8040     6.6740
 1560.5000     8.8620     0.2000    93.7520     2.4920   -26.2350     6.8590     6.5130
 1561.0000     8.8670     0.2130    94.7350     2.4940   -25.2910     6.7200     6.3550
 1561.5000     8.8710     0.2180    97.0860     2.5130   -24.3490     6.5840     6.1980
 1562.0000     8.8760     0.2190    95.9490     2.5490   -23.6270     6.4490     6.1460
 1562.5000     8.8710     0.2110   101.9760     2.5860   -23.5680     6.3750     6.1650
 1563.0000     8.8380     0.1940   106.2760     2.6120   -23.4940     6.3750     6.1790
 1563.5000     8.8010     0.1760   108.3580     2.6160   -23.4190     6.3750     6.1930
 1564.0000     8.7760     0.1520   106.7940     2.6190   -23.3440     6.6590     6.2030
 1564.5000     8.7800     0.1220   106.6120     2.5960   -23.2680     6.7350     5.9040
 1565.0000     8.7840     0.1200   108.2950     2.5820   -23.1700     6.3830     5.7650
 1565.5000     8.7880     0.1200   108.6340     2.5640   -23.0700     5.8030     5.2380
 1566.0000     8.7910     0.1210   104.9110     2.5590   -22.9690     5.1470     4.7000
 1566.5000     8.7950     0.1080   105.4880     2.5550   -22.8690     3.7780     4.1620
 1567.0000     8.7960     0.0920   105.4480     2.5280   -22.7680     3.1800     3.6250
 1567.5000     8.7940     0.0770   105.8790     2.4890   -22.6670     2.8740     3.1980
 1568.0000     8.8090     0.0650   108.0330     2.4350   -22.5660     2.8620     2.9840
 1568.5000     9.0970     0.0670   112.9040     2.3720   -22.4770     2.8510     2.9770
 1569.0000     9.3170     0.1160   120.5350     2.3050   -22.6130     2.8390     2.9680
 1569.5000    10.3070     0.1940   121.2960     2.2890   -22.7670     2.8250     2.9570
 1570.0000    11.2360     0.2900   120.1060     2.3280   -22.8730     3.2900     3.4940
 1570.5000     8.6870     0.2380   114.4650     2.5760   -22.8710     3.9290     4.2630
 1571.0000     8.7010     0.1600   114.6840     2.6870   -22.8720     4.5670     5.0130
 1571.5000     8.6820     0.0950   116.3050     2.6530   -22.8720     5.2130     5.8180
 1572.0000     8.6490     0.0930   117.3090     2.5650   -22.9390     6.4270     6.3020
 1572.5000     8.6180     0.1080   125.0420     2.5480   -23.0500     6.7970     6.6740
 1573.0000     8.5950     0.1290   129.8010     2.5480   -23.1620     6.7570     6.7880
 1573.5000     8.5800     0.1440   129.5150     2.5520   -23.2650     6.6740     6.9000
 1574.0000     8.5790     0.1560   131.2040     2.5720   -23.2460     6.4340     7.0120
 1574.5000     8.5790     0.1650   130.8950     2.5830   -23.2240     6.4620     7.1150
 1575.0000     8.5790     0.1690   130.5390     2.5850   -23.2030     6.5200     7.1150
 1575.5000     8.5790     0.1720   129.6170     2.5860   -23.1820     6.5780     7.0920
 1576.0000     8.5790     0.1740   130.2490     2.6070   -23.1610     6.6360     7.0740
 1576.5000     8.5790     0.1560   131.5910     2.6260   -23.1410     6.6740     7.0570
 1577.0000     8.5790     0.1370   134.3510     2.6170   -23.1200     6.6740     7.0390
 1577.5000     8.5790     0.1260   140.2580     2.5990   -23.0990     6.6740     7.0210
 1578.0000     8.5790     0.1260   134.0220     2.5760   -23.0780     6.6740     7.0030
 1578.5000     8.5790     0.1260   131.5060     2.5710   -23.0330     6.7070     6.9860
 1579.0000     8.5790     0.1240   137.9680     2.5760   -22.9740     6.7610     6.9980
 1579.5000     8.5790     0.1220   143.9670     2.5880   -22.9140     6.8160     7.0180
 1580.0000     8.5790     0.1130   141.6250     2.5990   -22.8750     6.8710     7.0380
 1580.5000     8.5790     0.0960   146.0180     2.6030   -23.0030     6.9250     7.0580
 1581.0000     8.5790     0.0810   147.2390     2.5880   -23.1310     6.9860     7.0780
 1581.5000     8.5790     0.0660   148.3040     2.5710   -23.2630     6.9370     7.0980
 1582.0000     8.5790     0.0590   144.6160     2.5550   -23.2310     6.8660     7.1120
 1582.5000     8.5790     0.0590   141.4870     2.5530   -23.1770     6.7950     7.0660
 1583.0000     8.5790     0.0590   143.2060     2.5590   -23.1230     6.7240     7.0220
 1583.5000     8.5790     0.0590   129.2680     2.5650   -23.0720     6.6530     6.9790
 1584.0000     8.5790     0.0560   126.8700     2.5670   -23.1040     6.5820     6.9350
 1584.5000     8.5900     0.0520   121.6550     2.5660   -23.1400     6.5530     6.8910
 1585.0000     8.5990     0.0480   126.9870     2.5570   -23.1760     6.5530     6.8480
 1585.5000     8.5890     0.0470   122.6480     2.5480   -23.2120     6.5530     6.8040
 1586.0000     8.5770     0.0450   119.3800     2.5390   -23.2480     6.5530     6.7840
 1586.5000     8.5660     0.0520   126.5860     2.5380   -23.2800     6.5530     6.7630
 1587.0000     8.5680     0.0630   131.0910     2.5390   -23.3340     6.5530     6.7420
 1587.5000     8.6060     0.0720   126.8010     2.5460   -23.3870     6.5530     6.7220
 1588.0000     8.6400     0.0720   120.3600     2.5510   -23.4400     6.5530     6.7010
 1588.5000     8.6220     0.0710   115.2880     2.5490   -23.4650     6.5150     6.6800
 1589.0000     8.6000     0.0700   114.2120     2.5460   -23.4650     6.4630     6.6600
 1589.5000     8.6110     0.0680   115.3750     2.5440   -23.4660     6.4110     6.6390
 1590.0000     8.6250     0.0670   116.0230     2.5440   -23.4690     6.3580     6.6180
 1590.5000     8.6380     0.0660   111.0790     2.5450   -23.3400     6.3060     6.5980
 1591.0000     8.6520     0.0650   119.2240     2.5420   -23.1820     6.2540     6.5770
 1591.5000     8.6650     0.0630   119.8910     2.5330   -23.0230     6.2030     6.5530
 1592.0000     8.6770     0.0660   112.8480     2.5170   -22.8720     6.3430     6.6110
 1592.5000     8.6800     0.0720   111.5230     2.5130   -22.8000     6.4800     6.7020
 1593.0000     8.8720     0.0770   107.3980     2.5310   -22.7330     6.5530     6.7940
 1593.5000     8.5670     0.0750   104.1050     2.5360   -22.6760     7.1380     7.1150
 1594.0000     8.6770     0.0660   104.4730     2.5400   -22.7780     7.6830     6.9810
 1594.5000     8.6790     0.0630   107.3320     2.5130   -23.1780     8.1610     6.7890
 1595.0000     8.6780     0.0830   109.5820     2.5030   -23.5730     8.2320     6.5970
 1595.5000     8.7430     0.1030   111.6250     2.5210   -23.6900     8.3090     6.4340
 1596.0000     8.6930     0.1020   117.6430     2.5510   -23.7290     8.3880     7.0670
 1596.5000     8.6390     0.0960   119.9710     2.5630   -23.7660     8.6300     7.7290
