~VERSION INFORMATION
 VERS.                2.0:   CWLS LOG ASCII STANDARD - VERSION 2.0
 WRAP.                 NO:   ONE LINE PER DEPTH STEP
~WELL INFORMATION
#MNEM.UNIT      DATA TYPE    INFORMATION
#----------   ------------   ------------------------------
 STRT.F          148.0000:   START DEPTH
 STOP.F         3394.0000:   STOP DEPTH
 STEP.F            0.5000:   STEP LENGTH
 NULL.          -999.2500:   NO VALUE
 COMP.    FENIX & SCISSON:   COMPANY
 WELL.  FENIX "AX" #28-10:   WELL
 FLD .        TEAPOT DOME:   FIELD
 LOC .      S10 T38N R78W:   LOCATION
 CNTY.            NATRONA:   COUNTY
 STAT.            WYOMING:   STATE
 CTRY. UNITED STATES OF AMERICA:   COUNTRY
 SRVC.       SCHLUMBERGER:   SERVICE COMPANY
 DATE.        03-MAR-1981:   LOGDATE
 API .     49025108680000:   API NUMBER
~CURVE INFORMATION
#MNEM.UNIT       API CODE    CURVE DESCRIPTION
#----------   ------------   ------------------------------
 DEPT.F                  :   
 SFL .OHMM   07 220 01 00:   SHALLOW FOCUSED LOG RESISTIVITY
 ILD .OHMM   07 120 46 00:   INDUCTION LOG DEEP RESISTIVITY
 ILM .OHMM   07 120 44 00:   INDUCTION LOG MEDIUM RESISTIVITY
 TENR.LBS    07 635 01 00:   TENSION
 SPR .MV     07 010 01 00:   SPONTANEOUS POTENTIAL
 CALD.IN     45 280 60 00:   CALIPER FROM DENSITY LOG
 GRD .GAPI   45 310 01 00:   GAMMA RAY FROM DENSITY LOG
 TEND.LBS    45 635 01 00:   TENSION FROM DENSITY LOG
 CORR.G/C3   45 356 01 00:   DENSITY CORRECTION
 RHOB.G/C3   45 350 01 00:   BULK DENSITY
~PARAMETER INFORMATION
#MNEM.UNIT          VALUE    DESCRIPTION
#----------   ------------   ------------------------------
 EKB .F         5241.0000:   Kelly bushing
 EGL .F         5231.0000:   Ground level
 EDF .F            0.0000:   Drilling floor
 TD  .F         3381.0000:   Total depth
 DATE.        03-MAR-1981:   Date logged
 CLNT.            A2DTECH:   Client Code
 SL  . 640' FSL & 720' FWL:   Surface Location
 PD  .                 GL:   Permanent Datum
 EPD .F              5231:   Elevation Permanent Datum
 LMF .                 KB:   Log Measured From
 DMF .                 KB:   Drilling Measured From
 DAPD.F                10:   Feet Above Permanent Datum
 DD  .F              3361:   Depth driller
 DL  .F              3381:   Depth logger
 BLI .F              3375:   Bottom log interval
 TLI .F               233:   Top log interval
 CS1 .IN            8.625:   Casing size
 CBD1.      8.625" @ 224':   Casing driller 1
 CBL1.F               233:   Casing logger 1
 BS1 .IN            7.875:   Bit size
 BSD1.F              3361:   Depth drilled with bit1
 DFT .           CHEM/GEL:   Type fluid in hole
 DFD .                  9:   Density
 DFV .                 40:   Viscosity
 DFPH.                8.5:   pH
 DFL .                 11:   Fluid loss
 MSS .           MUD/TANK:   Source of sample
 RMS .OHMM           2.52:   Rm
 MST .F                66:   Rm Meas. temp.
 RMF .OHMM            1.8:   Rmf
 MFST.F                67:   Rmf Meas. temp.
 MFSS.               MEAS:   Source Rmf.
 RMB .OHMM           1.47:   Rm. at BHT
 BHT .F               118:   BHT.
 TCS .HRS            0500:   Time Circ. stopped
 TLAB.HRS            0830:   Time logger at bottom
 MRT .F               118:   Maximum recorded temp.
 LUN .               8035:   Logging unit number
 LUL .               CSPR:   Logging unit location
 ENGI.            BEATTLE:   Recorded By
 WITN.              FIVAS:   Witnessed by
 ORIG.           5" PRINT:   Origin of data
 UWI .     49025108680000:   Unique Well ID
 DICO. A2D TECHNOLOGIES, INC.:   Digitizing Company
~OTHER INFORMATION
~A   DEPT      SFL        ILD        ILM       TENR        SPR         CALD       GRD      TEND       CORR       RHOB   
# ...
 1454.5000     9.5480     8.4950     8.7410   396.3410   -24.4920     8.6530   115.3170   464.4920     0.0150     2.5540
 1455.0000     9.6570     8.5650     8.8350   396.3410   -24.4930     8.6550   117.6850   464.8140     0.0140     2.5470
 1455.5000     9.8510     8.6340     8.9280   396.3410   -24.4950     8.6560   118.6300   465.1370     0.0100     2.5390
 1456.0000    10.0460     8.7040     9.0220   396.3410   -24.4930     8.6580   115.7560   465.4590     0.0030     2.5310
 1456.5000    10.2400     8.7740     9.1160   396.3410   -24.4940     8.6590   112.2290   465.7820     0.0010     2.5380
 1457.0000    10.4340     8.8430     9.2100   396.3410   -24.4940     8.6610   110.3140   466.1040     0.0100     2.5550
 1457.5000    10.4840     8.9130     9.3030   396.3410   -24.4940     8.6620   108.7790   466.4270     0.0270     2.5780
 1458.0000    10.4840     8.9830     9.3970   396.3410   -24.4940     8.6640   107.6830   466.7500     0.0360     2.5720
 1458.5000    10.4840     9.0520     9.4910   396.3410   -24.4940     8.6650   108.9900   467.0720     0.0290     2.5570
 1459.0000    10.4840     9.1220     9.5840   396.3410   -24.4950     8.6660   111.2380   467.3950     0.0240     2.5470
 1459.5000    10.4840     9.1970     9.6780   396.6770   -24.5320     8.6680   113.3000   467.7170     0.0180     2.5420
 1460.0000    10.4840     9.2390     9.7720   396.9750   -24.5810     8.6690   111.8200   468.0400     0.0140     2.5340
 1460.5000    10.4840     9.2850     9.8650   397.2730   -24.6290     8.6710   109.4190   468.3620     0.0090     2.5260
 1461.0000    10.4840     9.3300     9.9590   397.5710   -24.6770     8.6720   107.1000   468.6850     0.0070     2.5210
 1461.5000    10.2900     9.3760    10.0530   397.8680   -24.7260     8.6740   104.8280   469.0080     0.0020     2.5230
 1462.0000    10.4830     9.4210    10.0990   398.1660   -24.7720     8.6750   103.7020   469.3300     0.0030     2.5240
 1462.5000    10.8630     9.4670    10.0990   398.4640   -24.8230     8.6760   106.1580   469.6530     0.0060     2.5280
 1463.0000    11.4340     9.5130    10.0990   398.7610   -24.8710     8.6780   108.8620   469.9750     0.0090     2.5370
 1463.5000    11.3000     9.5580    10.0990   399.0590   -24.8910     8.6790   110.3630   470.2980     0.0160     2.5460
 1464.0000    11.2220     9.6040    10.1400   399.3570   -24.7180     8.6810   110.0170   470.6210     0.0240     2.5550
 1464.5000    11.0900     9.6500    10.1850   399.6540   -24.5440     8.6820   107.0030   470.9430     0.0240     2.5550
 1465.0000    11.2820     9.6950    10.2310   399.9520   -24.3610     8.6840   104.3560   471.2660     0.0200     2.5530
 1465.5000    11.7310     9.7410    10.2760   400.2500   -24.1860     8.6850   101.4830   471.5880     0.0170     2.5510
 1466.0000    11.6470     9.7870    10.3220   400.5480   -24.0030     8.6860   104.2450   471.9110     0.0250     2.5510
 1466.5000    11.4690     9.8330    10.3670   400.8450   -23.8260     8.6880   107.6010   472.2330     0.0250     2.5450
 1467.0000    11.2920     9.8790    10.4120   401.1430   -23.7000     8.6890   110.4390   472.5560     0.0210     2.5400
 1467.5000    10.8840     9.9120    10.4580   401.4410   -23.8520     8.6910   111.9490   472.8790     0.0190     2.5440
 1468.0000    11.0450     9.9110    10.5030   401.7380   -23.9770     8.6920   112.4480   473.2010     0.0170     2.5500
 1468.5000    11.3960     9.9270    10.5490   402.0360   -24.1180     8.6940   110.1480   473.5240     0.0150     2.5560
 1469.0000    11.7310     9.9520    10.5940   402.3340   -24.2510     8.6950   107.8850   473.8460     0.0150     2.5610
 1469.5000    11.7310     9.9760    10.6400   402.6320   -24.3860     8.6970   105.4340   474.1690     0.0190     2.5560
 1470.0000    11.7310    10.0010    10.6860   402.9290   -24.5210     8.6980   105.2150   474.4920     0.0230     2.5450
 1470.5000    11.7310    10.0260    10.7310   403.2270   -24.6560     8.6990   105.8080   474.8140     0.0270     2.5350
 1471.0000    11.7310    10.0510    10.7780   403.5250   -24.7910     8.7010   105.7710   475.1370     0.0230     2.5260
 1471.5000    11.7310    10.0750    10.8220   403.8220   -24.9250     8.7020   104.5540   475.4590     0.0200     2.5270
 1472.0000    11.7310    10.0990    10.8670   404.1200   -25.0610     8.7040   104.5100   475.7820     0.0250     2.5280
 1472.5000    11.7310    10.3480    10.8840   404.4180   -25.1970     8.7050   105.2230   476.1040     0.0330     2.5270
 1473.0000    11.7310    10.7470    11.2240   404.7150   -25.3010     8.7060   105.9910   476.4270     0.0310     2.5210
 1473.5000    11.9480    11.1460    11.6390   405.0130   -25.3020     8.7080   105.3380   476.7500     0.0250     2.5140
 1474.0000    12.9680    11.5450    12.0540   405.3110   -25.3050     8.7090   104.5330   477.0720     0.0200     2.5130
 1474.5000    13.9880    11.9440    12.4690   405.6090   -25.3030     8.7100   103.7280   477.3950     0.0140     2.5130
 1475.0000    15.0080    12.3430    12.8840   405.9060   -25.3040     8.7030   103.8510   477.7170     0.0130     2.5100
 1475.5000    15.8270    12.7430    13.2990   406.2040   -25.3040     8.6950   103.9500   478.0400     0.0130     2.5070
 1476.0000    16.1260    13.1420    13.7130   406.5020   -25.3040     8.6870   104.1710   478.3620     0.0070     2.5000
 1476.5000    15.9290    13.5410    13.8830   406.7990   -25.3040     8.6790   104.1890   478.6850     0.0020     2.4890
 1477.0000    15.7290    13.6260    13.8830   407.0970   -25.3040     8.6710   103.2530   479.0080     0.0000     2.4890
 1477.5000    15.5300    13.6260    13.9260   407.3950   -25.3040     8.6630   101.8850   479.3300    -0.0010     2.4920
 1478.0000    15.3300    13.5600    13.9980   407.6920   -25.3040     8.6560    97.8150   479.6530     0.0000     2.4950
 1478.5000    15.2460    13.3840    14.0710   407.9900   -25.3040     8.6470    95.3600   479.9750     0.0010     2.5010
 1479.0000    15.0660    13.2090    14.1460   408.2880   -25.3030     8.6400    96.6070   480.2980     0.0010     2.5100
 1479.5000    14.8340    13.0340    13.8600   408.5860   -25.3040     8.6310    97.6390   480.6210     0.0020     2.5260
 1480.0000    14.6850    12.8580    13.5650   408.8830   -25.3030     8.6370    96.9410   480.9430    -0.0040     2.5410
 1480.5000    14.9800    12.6830    13.2690   409.1810   -25.3020     8.6450    96.2010   481.2660     0.0020     2.5550
 1481.0000    15.5340    12.5080    12.9740   409.4790   -25.2680     8.6530    95.3780   481.5880     0.0090     2.5520
 1481.5000    14.9650    12.3320    12.6790   409.7760   -25.2340     8.6610    95.2300   481.9110     0.0170     2.5460
 1482.0000    14.3670    12.1570    12.3830   410.0740   -25.1990     8.6690    96.6050   482.2330     0.0250     2.5420
 1482.5000    13.7690    11.9810    12.0880   410.3720   -25.1640     8.6770   100.0020   482.5560     0.0300     2.5430
 1483.0000    13.3050    11.8060    11.7930   410.6700   -25.1290     8.6850   102.8900   482.8790     0.0270     2.5390
 1483.5000    13.1030    11.6310    11.4980   410.9670   -25.0940     8.6930   105.8450   483.2010     0.0180     2.5350
 1484.0000    12.9010    11.5130    11.3000   411.2650   -25.0590     8.7000   107.3250   483.5240     0.0180     2.5370
 1484.5000    12.6990    11.4160    11.0900   411.5630   -25.0250     8.7090   108.1120   483.8460     0.0240     2.5450
 1485.0000    12.6430    11.3120    10.8840   411.8600   -24.9890     8.7090   108.9310   484.1690     0.0290     2.5460
 1485.5000    12.6430    11.2080    11.0900   412.1580   -24.9540     8.7060   108.3340   484.4920     0.0240     2.5410
 1486.0000    12.6430    11.1030    11.3140   412.4560   -24.9230     8.7020   105.4480   484.8140     0.0200     2.5420
 1486.5000    12.6430    10.9990    11.5130   412.7530   -24.8270     8.6990   102.8570   485.1370     0.0180     2.5470
 1487.0000    12.6430    10.8840    11.5130   413.0510   -24.6400     8.6960    99.8020   485.4590     0.0200     2.5520
 1487.5000    12.5470    10.8630    11.4780   413.3490   -24.4580     8.6930    99.4000   485.7820     0.0220     2.5560
