~VERSION INFORMATION
 VERS.                2.0:   CWLS LOG ASCII STANDARD - VERSION 2.0
 WRAP.                 NO:   ONE LINE PER DEPTH STEP
~WELL INFORMATION
#MNEM.UNIT      DATA TYPE    INFORMATION
#----------   ------------   ------------------------------
 STRT.F          620.0000:   START DEPTH
 STOP.F         4350.5000:   STOP DEPTH
 STEP.F            0.5000:   STEP LENGTH
 NULL.          -999.2500:   NO VALUE
 COMP.    FENIX & SCISSON:   COMPANY
 WELL. FENIX NPR 3 "LX" #25-10:   WELL
 FLD .                NPR:   FIELD
 LOC .      S10 T38N R78W:   LOCATION
 CNTY.            NATRONA:   COUNTY
 STAT.            WYOMING:   STATE
 CTRY. UNITED STATES OF AMERICA:   COUNTRY
 SRVC.              WELEX:   SERVICE COMPANY
 DATE.        06-MAR-1980:   LOGDATE
 API .     49025108070000:   API NUMBER
~CURVE INFORMATION
#MNEM.UNIT       API CODE    CURVE DESCRIPTION
#----------   ------------   ------------------------------
 DEPT.F                  :   
 CALD.IN     45 280 60 00:   CALIPER FROM DENSITY LOG
 GRD .GAPI   45 310 01 00:   GAMMA RAY FROM DENSITY LOG
 RHOB.G/C3   45 350 01 00:   BULK DENSITY
 CORR.G/C3   45 356 01 00:   DENSITY CORRECTION
 NPHI.DEC    42 890 03 00:   NEUTRON POROSITY SANDSTONE
 SPR .MV     07 010 01 00:   SPONTANEOUS POTENTIAL
 ILD .OHMM   07 120 46 00:   DEEP INDUCTION RESISTIVITY
 ILM .OHMM   07 120 44 00:   INDUCTION LOG MEDIUM RESISTIVITY
 SGRD.OHMM   07 220 05 00:   SHALLOW SHORT GUARD RESISTIVITY
~PARAMETER INFORMATION
#MNEM.UNIT          VALUE    DESCRIPTION
#----------   ------------   ------------------------------
 EKB .F         5247.0000:   Kelly bushing
 EGL .F         5237.0000:   Ground level
 EDF .F            0.0000:   Drilling floor
 TD  .F         4352.0000:   Total depth
 DATE.        06-MAR-1980:   Date logged
 CLNT.            A2DTECH:   Client Code
 SL  . 1075' FWL & 2450' FSL:   Surface Location
 PD  .                 GL:   Permanent Datum
 EPD .F              5237:   Elevation Permanent Datum
 LMF .                 KB:   Log Measured From
 DMF .                 KB:   Drilling Measured From
 DAPD.F                10:   Feet Above Permanent Datum
 DD  .F              4350:   Depth driller
 DL  .F              4352:   Depth logger
 BLI .F              4350:   Bottom log interval
 TLI .F               630:   Top log interval
 CS1 .IN            8.625:   Casing size
 CBD1.      8.625" @ 600':   Casing driller 1
 CBL1.F               632:   Casing logger 1
 BS1 .IN            7.875:   Bit size
 BSD1.F              4350:   Depth drilled with bit1
 DFT .           CHEM/GEL:   Type fluid in hole
 DFD .                8.9:   Density
 DFV .                 47:   Viscosity
 DFPH.               10.3:   pH
 DFL .                 10:   Fluid loss
 MSS .           FLOWLINE:   Source of sample
 RMS .OHMM            .89:   Rm
 MST .F                90:   Rm Meas. temp.
 RMF .OHMM            .71:   Rmf
 MFST.F                90:   Rmf Meas. temp.
 RMC .OHMM           1.06:   Rmc
 MCST.F                90:   Rmc Meas. temp.
 MFSS.               MEAS:   Source Rmf.
 MCSS.               MEAS:   Source Rmc.
 RMB .OHMM            .60:   Rm. at BHT
 BHT .F               112:   BHT.
 TCS .HRS               1:   Time Circ. stopped
 MRT .F               132:   Maximum recorded temp.
 LUN .               1892:   Logging unit number
 LUL .             CASPER:   Logging unit location
 ENGI.               REIN:   Recorded By
 WITN.           DINSMORE:   Witnessed by
 ORIG.           5" PRINT:   Origin of data
 UWI .     49025108070000:   Unique Well ID
 DICO. A2D TECHNOLOGIES, INC.:   Digitizing Company
~OTHER INFORMATION
~A   DEPT     CALD        GRD       RHOB       CORR       NPHI         SPR       ILD        ILM         SGRD 
# ...
  875.5000    14.3260    76.8610     2.1920    -0.0150     0.2290   -18.2190     6.7140     7.0780     7.2260
  876.0000    14.3240    76.3190     2.1930    -0.0110     0.2310   -18.2990     6.5720     6.9870     7.1140
  876.5000    14.3230    75.9490     2.1930    -0.0060     0.2330   -18.3780     6.4290     6.8950     7.1370
  877.0000    14.3220    76.1820     2.1930    -0.0020     0.2350   -18.4610     6.3680     6.7310     7.1570
  877.5000    14.3210    76.3930     2.1940     0.0020     0.2370   -18.5390     6.3160     6.6700     7.1760
  878.0000    14.3200    76.6390     2.1940     0.0080     0.2390   -18.6170     6.2710     6.5900     7.1950
  878.5000    14.3180    76.8560     2.1870     0.0140     0.2380   -18.7120     6.2270     6.5100     7.2150
  879.0000    14.3170    77.0490     2.1770     0.0210     0.2360   -18.6620     6.1820     6.4300     7.2470
  879.5000    14.3160    76.7220     2.1630     0.0250     0.2330   -18.3870     6.1370     6.3510     7.1810
  880.0000    14.3150    76.3930     2.1470     0.0270     0.2310   -18.1320     6.0920     6.2710     6.9830
  880.5000    14.3140    76.0240     2.1280     0.0250     0.2290   -17.8680     6.0470     6.1910     6.7850
  881.0000    14.3120    75.7140     2.1140     0.0220     0.2280   -17.6060     5.9710     6.1110     6.5870
  881.5000    14.3110    75.3080     2.1050     0.0140     0.2300   -17.3500     5.8650     6.0310     6.3680
  882.0000    14.3100    75.5270     2.0920     0.0060     0.2310   -17.0700     5.7580     5.9510     6.3680
  882.5000    14.3090    76.2520     2.0720     0.0040     0.2320   -17.0150     5.6520     5.8710     6.3680
  883.0000    14.3080    75.8970     2.0530     0.0000     0.2320   -17.1580     5.5450     5.7920     6.3680
  883.5000    14.3060    74.2030     2.0330    -0.0030     0.2280   -17.2790     5.4390     5.7010     6.3680
  884.0000    14.3050    73.4450     2.0170    -0.0070     0.2250   -17.3990     5.3320     5.7010     6.3680
  884.5000    14.3040    73.5540     1.9830    -0.0060     0.2220   -17.5260     5.2860     5.7010     6.3680
  885.0000    14.3030    73.4450     1.9540    -0.0030     0.2240   -17.5610     5.2480     5.7010     6.3680
  885.5000    14.3020    74.1270     1.9260     0.0000     0.2260   -17.5600     5.2110     5.7010     6.5650
  886.0000    14.3000    75.2450     1.8980     0.0000     0.2250   -17.5590     5.1740     5.6480     7.0270
  886.5000    14.2990    76.2540     1.8650    -0.0010     0.2250   -17.5600     5.1360     5.5250     6.9620
  887.0000    14.2980    77.2690     1.8790    -0.0020     0.2270   -17.5600     5.0990     5.4010     6.2610
  887.5000    14.2970    78.2990     1.9130    -0.0040     0.2280   -17.5560     5.0610     5.2780     5.7010
  888.0000    14.2960    79.3220     2.1100     0.0080     0.2300   -17.6090     5.0240     5.1030     5.1980
  888.5000    14.2940    80.3440     2.1730     0.0160     0.2310   -17.7760     4.9870     5.1120     5.6600
  889.0000    14.2930    81.2380     2.1760     0.0230     0.2310   -17.9330     4.9490     5.1270     6.1380
  889.5000    14.2920    81.5230     2.1750     0.0210     0.2300   -18.1110     4.9180     5.1420     6.1600
  890.0000    14.2910    81.7720     2.1660     0.0180     0.2300   -18.0840     4.9290     5.1570     6.2000
  890.5000    14.2900    82.0490     2.1560     0.0170     0.2290   -17.9450     4.9440     5.1720     6.2390
  891.0000    14.2880    82.2310     2.1460     0.0190     0.2290   -17.8230     4.9580     5.1870     6.2780
  891.5000    14.2870    82.9190     2.1400     0.0210     0.2310   -17.7010     4.9730     5.2020     6.3180
  892.0000    14.2860    82.7250     2.1350     0.0240     0.2350   -17.5760     4.9870     5.2170     6.3570
  892.5000    14.2850    82.4150     2.1260     0.0260     0.2390   -17.4530     5.0020     5.2320     6.3970
  893.0000    14.2840    82.0140     2.1200     0.0280     0.2440   -17.3310     5.0160     5.2470     6.4360
  893.5000    14.2820    82.0460     2.1050     0.0310     0.2470   -17.2030     5.0310     5.2620     6.4870
  894.0000    14.2810    82.7080     2.0980     0.0300     0.2500   -17.0840     5.0450     5.2770     6.4460
  894.5000    14.2800    83.3860     2.0930     0.0250     0.2510   -16.9800     5.0600     5.2920     6.3880
  895.0000    14.2790    83.2940     2.0970     0.0210     0.2480   -17.1310     5.0740     5.3070     6.3300
  895.5000    14.2780    82.4630     2.1020     0.0170     0.2460   -17.2800     5.0880     5.3220     6.2520
  896.0000    14.2760    82.5820     2.1070     0.0130     0.2430   -17.4400     5.1030     5.3380     6.2640
  896.5000    14.2750    82.9610     2.1300     0.0090     0.2450   -17.5950     5.1170     5.3540     6.3080
  897.0000    14.2740    82.5820     2.1480     0.0040     0.2480   -17.7510     5.1320     5.3800     6.3520
  897.5000    14.2740    81.6100     2.1560     0.0000     0.2500   -17.9070     5.1460     5.3720     6.3960
  898.0000    14.2740    80.7340     2.1520    -0.0040     0.2480   -18.0680     5.1610     5.4810     6.4400
  898.5000    14.2740    79.8220     2.1490    -0.0080     0.2460   -18.2160     5.1750     5.5200     6.4840
  899.0000    14.2740    79.4200     2.1410    -0.0120     0.2440   -18.3420     5.1900     5.5820     6.5290
  899.5000    14.2740    79.4790     2.1350    -0.0110     0.2400   -18.4830     5.2000     5.6430     6.5730
  900.0000    14.2740    79.5240     2.1270    -0.0100     0.2360   -18.6110     5.2040     5.7040     6.6080
  900.5000    14.2740    80.2450     2.1200    -0.0090     0.2320   -18.7330     5.2080     5.7660     6.5860
  901.0000    14.2740    80.8800     2.1150    -0.0050     0.2310   -18.5770     5.2110     5.8270     6.5690
  901.5000    14.2740    81.5320     2.1140     0.0000     0.2310   -18.4100     5.2150     5.8880     6.5510
  902.0000    14.2740    82.1480     2.1180     0.0040     0.2300   -18.2310     5.2190     5.9150     6.5330
  902.5000    14.2740    82.8040     2.1250     0.0090     0.2290   -18.0620     5.2230     5.9160     6.5150
  903.0000    14.2740    83.0370     2.1320     0.0140     0.2270   -17.8860     5.2270     5.9150     6.4970
  903.5000    14.2740    83.0990     2.1380     0.0190     0.2260   -17.7140     5.2310     5.9150     6.4790
  904.0000    14.2740    82.4160     2.1360     0.0230     0.2240   -17.5660     5.2350     5.9150     6.4610
  904.5000    14.2740    81.3110     2.1340     0.0280     0.2230   -17.5610     5.2380     5.9150     6.4430
  905.0000    14.2740    80.1440     2.1290     0.0320     0.2250   -17.5580     5.2420     5.9150     6.4250
  905.5000    14.2740    79.6290     2.1210     0.0280     0.2260   -17.5600     5.2460     5.9150     6.4070
  906.0000    14.2740    79.8540     2.1140     0.0260     0.2260   -17.5600     5.2500     5.9150     6.3900
  906.5000    14.2740    80.5870     2.1130     0.0210     0.2280   -17.5590     5.2540     5.9150     6.3700
  907.0000    14.2740    79.7890     2.1340     0.0120     0.2290   -17.5590     5.2580     5.9150     6.3750
  907.5000    14.2740    79.0210     2.1530     0.0100     0.2310   -17.5620     5.2620     5.9160     6.3800
  908.0000    14.2740    78.1800     2.1460     0.0200     0.2320   -17.5500     5.2650     5.9130     6.3870
  908.5000    14.2740    77.4130     2.1350     0.0200     0.2340   -17.6530     5.2690     5.9170     6.3940
  909.0000    14.2740    76.5600     2.1220     0.0110     0.2350   -17.8390     5.2730     5.8300     6.4000
  909.5000    14.2740    76.7200     2.1090     0.0020     0.2360   -18.0100     5.2770     5.7620     6.4070
  910.0000    14.2740    76.9080     2.0960    -0.0070     0.2370   -18.1820     5.2810     5.6930     6.4130
  910.5000    14.2740    77.5710     2.0830    -0.0120     0.2380   -18.3570     5.2850     5.6240     6.4200
  911.0000    14.2740    78.6380     2.0810    -0.0110     0.2370   -18.5280     5.2890     5.5550     6.4260
  911.5000    14.2740    79.6640     2.0800    -0.0100     0.2370   -18.7010     5.2930     5.4940     6.4330
