~VERSION INFORMATION
 VERS.                2.0:   CWLS LOG ASCII STANDARD - VERSION 2.0
 WRAP.                 NO:   ONE LINE PER DEPTH STEP
~WELL INFORMATION
#MNEM.UNIT      DATA TYPE    INFORMATION
#----------   ------------   ------------------------------
 STRT.F          720.0000:   START DEPTH
 STOP.F         3416.0000:   STOP DEPTH
 STEP.F            0.5000:   STEP LENGTH
 NULL.          -999.2500:   NO VALUE
 COMP.    FENIX & SCISSON:   COMPANY
 WELL.  FENIX "AX" #31-14:   WELL
 FLD .                NPR:   FIELD
 LOC .      S14 T38N R78W:   LOCATION
 CNTY.            NATRONA:   COUNTY
 STAT.            WYOMING:   STATE
 CTRY. UNITED STATES OF AMERICA:   COUNTRY
 SRVC.       SCHLUMBERGER:   SERVICE COMPANY
 DATE.        04-JUN-1981:   LOGDATE
 API .     49025108730000:   API NUMBER
~CURVE INFORMATION
#MNEM.UNIT       API CODE    CURVE DESCRIPTION
#----------   ------------   ------------------------------
 DEPT.F                  :   
 TEND.LBS    45 635 01 00:   TENSION FROM DENSITY LOG
 CORR.G/C3   45 356 01 00:   DENSITY CORRECTION
 RHOB.G/C3   45 350 01 00:   BULK DENSITY
 CALD.IN     45 280 60 00:   CALIPER FROM DENSITY LOG
 GRD .GAPI   45 310 01 00:   GAMMA RAY FROM DENSITY LOG
 SPR .MV     07 010 01 00:   SPONTANEOUS POTENTIAL
 SFL .OHMM   07 220 01 00:   SHALLOW FOCUSED LOG RESISTIVITY
 ILD .OHMM   07 120 46 00:   INDUCTION LOG DEEP RESISTIVITY
 ILM .OHMM   07 120 44 00:   INDUCTION LOG MEDIUM RESISTIVITY
 TENR.LBS    07 635 01 00:   TENSION FROM RESISTIVITY
~PARAMETER INFORMATION
#MNEM.UNIT          VALUE    DESCRIPTION
#----------   ------------   ------------------------------
 EKB .F         5196.0000:   Kelly bushing
 EGL .F         5186.0000:   Ground level
 EDF .F            0.0000:   Drilling floor
 TD  .F         3402.0000:   Total depth
 DATE.        04-JUN-1981:   Date logged
 CLNT.            A2DTECH:   Client Code
 SL  . 377' FWL & 1733' FWL:   Surface Location
 PD  .                 GL:   Permanent Datum
 DD  .F              3400:   Depth driller
 DL  .F              3402:   Depth logger
 BLI .F              3395:   Bottom log interval
 TLI .F               720:   Top log interval
 CS1 .IN            8.625:   Casing size
 CBD1.      8.625" @ 707':   Casing driller 1
 CBL1.F               751:   Casing logger 1
 BS1 .IN            7.875:   Bit size
 BSD1.F              3400:   Depth drilled with bit1
 DFT .                FGM:   Type fluid in hole
 DFD .                8.8:   Density
 DFV .                 55:   Viscosity
 DFPH.                9.5:   pH
 DFL .                  9:   Fluid loss
 MSS .           MUD TANK:   Source of sample
 RMS .OHMM            1.7:   Rm
 MST .F                78:   Rm Meas. temp.
 RMF .OHMM           1.45:   Rmf
 MFST.F                78:   Rmf Meas. temp.
 MFSS.               MEAS:   Source Rmf.
 RMB .OHMM           1.12:   Rm. at BHT
 BHT .F               118:   BHT.
 TCS .HRS            1200:   Time Circ. stopped
 TLAB.HRS            1600:   Time logger at bottom
 MRT .F               118:   Maximum recorded temp.
 LUN .               8043:   Logging unit number
 LUL .             CASPER:   Logging unit location
 ENGI.             LARSON:   Recorded By
 WITN.              FIVAS:   Witnessed by
 ORIG.      2.5" 5" PRINT:   Origin of data
 UWI .     49025108730000:   Unique Well ID
 DICO. A2D TECHNOLOGIES, INC.:   Digitizing Company
 EPD .               5186:   Elevation Permanent Datum
 LMF .                 KB:   Log Measured From
 DMF .                 KB:   Drilling Measured From
 DAPD.                 10:   Feet Above Permanent Datum
~OTHER INFORMATION
~A   DEPT     TEND       CORR       RHOB       CALD         GRD       SPR        SFL        ILD        ILM       TENR   
# ...
  753.5000   833.6260     0.1510     2.2140    10.8360    74.8850   -34.3020     7.0160   810.8870   833.6030   916.1130
  754.0000   832.8050     0.1950     2.2610    10.8930    76.6330   -25.5970     7.5230   559.4370   710.6200   914.6150
  754.5000   831.9850     0.1710     2.2800    10.8060    83.9380   -19.3140     7.4660   597.2070     3.9830   913.8660
  755.0000   831.1640     0.1270     2.2840    11.0190    82.3740   -16.2780     7.9360  1075.9160     9.0270   912.3690
  755.5000   830.3440     0.0820     2.3060    11.5710    80.1500   -14.4380     8.0860  1609.6100     5.1740   910.8710
  756.0000   829.5230     0.0480     2.3390    12.1200    78.7130   -13.0240     8.1600  1944.1730     5.8100   909.3730
  756.5000   828.7030     0.0220     2.3710    12.2640    80.4200   -12.6570     9.4030   879.9800     9.6710   907.8750
  757.0000   827.8820     0.0130     2.4040    12.3350    81.8270   -12.2730    10.4290   237.4380     9.2460   906.3780
  757.5000   827.0620     0.0060     2.4370    12.4030    81.0600   -11.8150     9.5580     9.1380     8.3820   904.8800
  758.0000   826.2420     0.0090     2.4610    12.4370    79.4230   -11.7360     9.1380     8.9670     7.0870   903.3820
  758.5000   825.4210     0.0260     2.4220    12.4280    77.7960   -12.0260     9.1960     8.9670     7.4980   901.8840
  759.0000   824.6010     0.0440     2.3430    12.3410    76.7840   -12.2800     9.2820     8.9670     9.6710   900.3870
  759.5000   823.7800     0.0570     2.2630    12.0350    76.7380   -12.5390     9.5260     9.2750   294.4850   898.8890
  760.0000   822.9600     0.0370     2.1840    11.6250    77.6300   -12.8040    10.3810     9.6710   294.4850   897.3910
  760.5000   822.1390     0.0030     2.1240    11.2150    79.8770   -13.0630    11.0370     9.6390    10.2340   895.8930
  761.0000   821.3190    -0.0050     2.2520    10.8650    82.2900   -13.3240    10.5930     9.5900    10.1630   894.3950
  761.5000   820.4980    -0.0060     2.3730    10.8280    84.7140   -13.5850    10.0390     9.5410    10.0780   892.8980
  762.0000   819.8380    -0.0030     2.4530    10.8520    86.3010   -13.8480     9.4900     9.4920     9.9920   891.4000
  762.5000   820.4900     0.0010     2.4570    10.8780    85.7390   -14.1020     9.4900     9.4430     9.9070   889.9020
  763.0000   821.1400     0.0000     2.4520    10.9050    83.8310   -14.3800     9.8670     9.3940     9.8550   888.4040
  763.5000   821.7890    -0.0040     2.4480    10.9310    82.8190   -14.6160    10.1800     9.3450     9.8260   886.9070
  764.0000   822.4390    -0.0020     2.4560    10.9580    83.4460   -14.8530    10.4940     9.2960     9.7760   885.4090
  764.5000   823.0880     0.0010     2.4740    10.9730    85.0100   -14.2400    10.6280     9.2470     9.7270   883.9110
  765.0000   823.7380     0.0050     2.4800    10.9960    86.4400   -14.0810    10.5330     9.1980     9.6780   882.4130
  765.5000   824.3870     0.0030     2.4660    11.0190    86.3680   -14.0760    10.4290     9.1490     9.6280   880.9160
  766.0000   825.0370     0.0010     2.4550    11.0420    86.2530   -14.0850     9.8140     9.0990     9.5790   879.4180
  766.5000   825.6860     0.0020     2.4480    11.0660    86.5400   -14.0810     9.2800     9.0500     9.5300   877.9200
  767.0000   826.3360     0.0040     2.4550    11.0710    87.0490   -14.0860     9.1380     9.0010     9.4800   876.4220
  767.5000   826.9850     0.0070     2.4650    11.0710    86.9110   -14.1660     9.1380     8.9520     9.4310   874.9250
  768.0000   827.6350     0.0090     2.4680    11.0710    86.1180   -14.2550     9.4180     8.9030     9.3820   873.4270
  768.5000   828.2840     0.0080     2.4650    11.0850    85.4240   -14.3460     9.7550     8.8540     9.3320   871.9290
  769.0000   828.9340     0.0070     2.4620    11.1320    85.4460   -14.4350     9.8550     8.8000     9.2830   870.4310
  769.5000   829.5830     0.0060     2.4640    11.1780    85.5820   -14.5250     9.8550     8.7520     9.2330   868.9330
  770.0000   830.2330     0.0060     2.4670    11.2140    86.3310   -14.6150     9.7560     8.6560     9.1840   867.4360
  770.5000   830.8820     0.0070     2.4700    11.2250    87.0620   -14.7050     9.6660     8.5600     9.1380   865.9380
  771.0000   831.5320     0.0090     2.4740    11.2500    86.2280   -14.7950     9.5750     8.4640     9.0270   864.4400
  771.5000   832.1810     0.0110     2.4770    11.2750    84.6220   -14.8850     9.4900     8.3670     8.9220   862.9420
  772.0000   832.8310     0.0110     2.4790    11.3010    84.4790   -14.9750     9.3950     8.2710     8.8180   861.4450
  772.5000   833.4800     0.0090     2.4760    11.3260    88.0450   -15.0650     9.2500     8.1750     8.7140   859.9470
  773.0000   834.1300     0.0070     2.4730    11.3510    91.4990   -15.1550     9.1380     8.0790     8.6100   858.4490
  773.5000   834.7790     0.0050     2.4710    11.3760    92.1220   -15.2450     9.1380     7.9820     8.5060   856.9510
  774.0000   835.4290     0.0050     2.4680    11.4020    92.7390   -15.3350     9.1380     7.8860     8.4020   855.4540
  774.5000   836.0780     0.0070     2.4650    11.4270    92.9560   -15.4240     8.8420     7.7900     8.2980   853.9560
  775.0000   836.7280     0.0110     2.4640    11.4350    92.0240   -15.5160     8.4740     7.6940     8.1940   852.4580
  775.5000   837.3770     0.0140     2.4620    11.4350    90.9670   -15.6030     8.4740     7.5980     8.0890   850.9600
  776.0000   838.0270     0.0170     2.4640    11.4350    90.0760   -15.6920     8.4080     7.5010     7.9850   849.4620
  776.5000   838.6760     0.0140     2.4750    11.4350    90.2790   -15.6550     8.2950     7.4050     7.8810   847.9650
  777.0000   839.3260     0.0120     2.4840    11.4350    91.3990   -15.5750     8.1830     7.3090     7.7770   846.4670
  777.5000   839.9750     0.0110     2.4860    11.4370    91.7220   -15.4970     8.0700     7.4250     7.7050   844.9690
  778.0000   835.4140     0.0180     2.4920    11.4410    89.5490   -15.4200     7.9580     7.3220     7.6900   843.4710
  778.5000   829.8420     0.0260     2.4980    11.4440    87.0530   -15.3420     7.8450     7.2460     7.6730   841.8890
  779.0000   824.2700     0.0300     2.5040    11.4470    87.8950   -15.2640     7.7330     7.1540     7.6580   856.3040
  779.5000   819.8380     0.0340     2.5100    11.4500    89.7450   -15.1860     7.5670     7.1640     7.6420   871.5810
  780.0000   821.2140     0.0260     2.5030    11.4540    91.3840   -15.1080     7.6140     7.1830     7.6270   886.8580
  780.5000   822.5710     0.0090     2.4770    11.4570    90.3680   -15.0310     7.7050     7.2010     7.6100   902.1360
  781.0000   823.9280     0.0070     2.4530    11.4600    89.0920   -14.9530     7.7970     7.2200     7.5930   917.4130
  781.5000   825.2850     0.0060     2.4510    11.4630    87.8170   -14.8740     7.8880     7.2390     7.5770   932.6900
  782.0000   826.6430     0.0060     2.4490    11.4670    87.6870   -14.8010     8.0070     7.2580     7.5670   947.9670
  782.5000   828.0000     0.0060     2.4480    11.4700    89.2840   -14.7120     7.9850     7.2760     7.3820   965.0920
  783.0000   829.3570     0.0060     2.4470    11.4730    90.7420   -14.6480     7.9070     7.2860     7.3180   965.0920
  783.5000   830.7150     0.0080     2.4510    11.4760    90.7850   -14.5690     7.8290     7.1720     7.2550   958.4950
  784.0000   832.0720     0.0120     2.4610    11.4800    90.8780   -14.4060     7.7510     7.0660     7.1920   948.6390
  784.5000   833.4290     0.0100     2.4710    11.4830    91.3610   -14.1220     7.6730     6.9590     7.1280   938.7830
  785.0000   834.7870     0.0090     2.4750    11.4860    91.9610   -14.3300     7.5950     6.8530     7.0650   928.9260
  785.5000   836.1440     0.0100     2.4780    11.4890    93.4450   -14.4430     7.5070     6.7460     7.0160   919.0700
  786.0000   837.5010     0.0130     2.4950    11.4920    95.7500   -14.5850     7.4130     6.6400     7.0160   909.2140
  786.5000   838.8590     0.0150     2.5040    11.4960    98.0860   -14.7260     7.3190     6.5330     6.9440   899.3570
