~VERSION INFORMATION
 VERS.                2.0:   CWLS LOG ASCII STANDARD - VERSION 2.0
 WRAP.                 NO:   ONE LINE PER DEPTH STEP
~WELL INFORMATION
#MNEM.UNIT      DATA TYPE    INFORMATION
#----------   ------------   ------------------------------
 STRT.F          298.0000:   START DEPTH
 STOP.F         3084.0000:   STOP DEPTH
 STEP.F            0.5000:   STEP LENGTH
 NULL.          -999.2500:   NO VALUE
 COMP. LAWERNCE ALLISON AND ASSOCIATED:   COMPANY
 WELL. LAWERNCE "TX" #77-20:   WELL
 FLD .        TEAPOT DOME:   FIELD
 LOC .      S20 T39N R78W:   LOCATION
 CNTY.            NATRONA:   COUNTY
 STAT.            WYOMING:   STATE
 CTRY. UNITED STATES OF AMERICA:   COUNTRY
 SRVC.       SCHLUMBERGER:   SERVICE COMPANY
 DATE.        22-JAN-1982:   LOGDATE
 API .     49025108840000:   API NUMBER
~CURVE INFORMATION
#MNEM.UNIT       API CODE    CURVE DESCRIPTION
#----------   ------------   ------------------------------
 DEPT.F                  :   
 CALD.IN     45 280 60 00:   CALIPER FROM DENSITY LOG
 GRD .GAPI   45 310 01 00:   GAMMA RAY FROM DENSITY LOG
 TEND.LBS    45 635 01 00:   TENSION FROM DENSITY LOG
 RHOB.G/C3   45 350 01 00:   BULK DENSITY
 NPHI.DEC    42 890 03 00:   NEUTRON POROSITY SANDSTONE
 CORR.G/C3   45 356 01 00:   DENSITY CORRECTION
 SFLU.OHMM   07 220 01 00:   SPHERICALLY FOCUSED LOG UNAVERAGED RESISTIVITY
 ILD .OHMM   07 120 46 00:   INDUCTION LOG DEEP RESISTIVITY
 ILM .OHMM   07 120 44 00:   INDUCTION LOG MEDIUM RESISTIVITY
 TENR.LBS    07 635 01 00:   TENSION
 SPR .MV     07 010 01 00:   SPONTANEOUS POTENTIAL
~PARAMETER INFORMATION
#MNEM.UNIT          VALUE    DESCRIPTION
#----------   ------------   ------------------------------
 EKB .F         5022.0000:   Kelly bushing
 EGL .F         5012.0000:   Ground level
 EDF .F         5021.0000:   Drilling floor
 TD  .F         3079.0000:   Total depth
 DATE.        22-JAN-1982:   Date logged
 CLNT.            A2DTECH:   Client Code
 SL  . 986' FSL & 779' FEL:   Surface Location
 PD  .                 GL:   Permanent Datum
 EPD .F              5012:   Elevation Permanent Datum
 LMF .                 KB:   Log Measured From
 DMF .                 KB:   Drilling Measured From
 DAPD.F                10:   Feet Above Permanent Datum
 DD  .F              3079:   Depth driller
 DL  .F              3070:   Depth logger
 BLI .F              3064:   Bottom log interval
 TLI .F               328:   Top log interval
 CS1 .IN            9.625:   Casing size
 CBD1.      9.625" @ 300':   Casing driller 1
 CBL1.F               328:   Casing logger 1
 BS1 .IN            7.875:   Bit size
 BSD1.F              3079:   Depth drilled with bit1
 DFT .           CHEM/GEL:   Type fluid in hole
 DFD .                8.9:   Density
 DFV .                 50:   Viscosity
 DFPH.               10.5:   pH
 DFL .                  8:   Fluid loss
 MSS .           FLOWLINE:   Source of sample
 RMS .OHMM           2.53:   Rm
 MST .F                49:   Rm Meas. temp.
 RMF .OHMM           2.04:   Rmf
 MFST.F                49:   Rmf Meas. temp.
 RMC .OHMM           3.80:   Rmc
 MCST.F                49:   Rmc Meas. temp.
 MFSS.               MEAS:   Source Rmf.
 MCSS.               CALC:   Source Rmc.
 RMB .OHMM           1.04:   Rm. at BHT
 BHT .F               119:   BHT.
 TCS .HRS            0330:   Time Circ. stopped
 TLAB.HRS            0800:   Time logger at bottom
 MRT .F               119:   Maximum recorded temp.
 LUN .               8043:   Logging unit number
 LUL .               CSPR:   Logging unit location
 ENGI.            PERAKIS:   Recorded By
 WITN.              SCOTT:   Witnessed by
 ORIG.           5" PRINT:   Origin of data
 UWI .     49025108840000:   Unique Well ID
 DICO. A2D TECHNOLOGIES, INC.:   Digitizing Company
~OTHER INFORMATION
~A   DEPT       CALD       GRD      TEND         RHOB       NPHI     CORR       SFLU        ILD        ILM       TENR        SPR   
# ...
 2860.0000     9.3230   197.1360  1210.4650     2.4340     0.3490     0.1620     1.8760     2.1910     2.0760  1216.2070   -24.9420
 2860.5000     9.3430   187.4150  1213.0940     2.3500     0.4380     0.0890     2.7050     2.1550     2.3540  1221.7889   -25.5200
 2861.0000     9.2930   164.6670  1215.7230     2.3310     0.4550     0.0270     3.5340     2.2520     2.6160  1227.3710   -25.5990
 2861.5000     9.2380   147.0590  1218.3521     2.3680     0.3640     0.0340     4.2250     2.4560     2.8790  1232.9520   -25.6860
 2862.0000     9.2010   133.0220  1220.9810     2.4410     0.3100     0.0500     4.9650     3.0330     3.3400  1238.5341   -25.7760
 2862.5000     9.2030   117.4010  1223.6110     2.4930     0.2670     0.0610     5.6410     3.6590     3.8920  1244.1160   -25.8750
 2863.0000     9.2050   110.5410  1226.2400     2.5010     0.2570     0.0470     5.7990     4.3430     4.4440  1249.6980   -26.1090
 2863.5000     9.2060   105.0650  1228.4260     2.4900     0.2440     0.0410     5.9100     4.8060     5.0430  1255.2800   -26.2160
 2864.0000     9.2080   101.7370  1228.4260     2.4980     0.2310     0.0610     6.2450     5.1120     5.2940  1260.8621   -26.2850
 2864.5000     9.2090    99.5440  1242.7410     2.5340     0.2240     0.1320     6.7110     5.3370     5.5680  1266.4440   -26.3560
 2865.0000     9.2110    97.3360  1232.4871     2.5670     0.2180     0.1710     7.0860     5.5630     5.8420  1250.7610   -26.4280
 2865.5000     9.2120    95.1300  1222.2340     2.5550     0.2090     0.1400     7.3960     5.8010     6.0900  1216.6500   -26.4970
 2866.0000     9.2140    92.9290  1211.9800     2.5090     0.2040     0.0870     7.3960     5.8010     6.1690  1182.5380   -26.4730
 2866.5000     9.2150    92.2660  1208.1219     2.4650     0.2060     0.0340     7.3960     5.8010     6.2510  1172.1320   -26.1330
 2867.0000     9.2170    93.6750  1208.1219     2.4510     0.2110     0.0040     7.3080     5.7690     6.1310  1184.9240   -25.7990
 2867.5000     9.2180    96.0510  1219.2570     2.4540     0.2150     0.0000     7.1950     5.6810     5.9750  1197.7159   -25.4660
 2868.0000     9.2200    98.4140  1232.4871     2.4730     0.2160     0.0040     6.9260     5.5930     5.8180  1210.5081   -25.1240
 2868.5000     9.2210   100.7590  1245.7180     2.4930     0.2180     0.0130     6.4100     5.5050     5.6610  1223.2990   -24.7820
 2869.0000     9.2470   102.0930  1258.9490     2.5120     0.2190     0.0220     5.8930     5.3830     5.5360  1236.0909   -25.2040
 2869.5000     9.2830   103.3040  1272.1790     2.5060     0.2220     0.0200     5.5360     5.4340     5.5360  1248.8831   -25.8650
 2870.0000     9.2660   105.0980  1285.4100     2.4960     0.2270     0.0090     5.9530     5.4580     5.7590  1261.6750   -25.9440
 2870.5000     9.1930   108.7850  1289.3400     2.4870     0.2310    -0.0020     6.8300     5.4810     6.0360  1269.0360   -25.8600
 2871.0000     9.1170   112.3630  1266.3280     2.4860     0.2270    -0.0070     7.7060     5.5050     6.1930  1259.8140   -25.6920
 2871.5000     9.0830   114.5260  1243.5420     2.4850     0.2140    -0.0110     8.1960     5.5280     6.1420  1238.4940   -25.5240
 2872.0000     9.0840   110.0520  1220.7560     2.4880     0.2020    -0.0100     8.0530     5.5360     6.1010  1217.1740   -25.3550
 2872.5000     9.0920   105.1840  1197.9700     2.4940     0.1960    -0.0040     7.4790     5.5090     6.0220  1195.8540   -25.3690
 2873.0000     9.0990   104.4900  1208.1219     2.5000     0.2040     0.0020     6.9060     5.4850     5.8040  1174.5350   -25.4520
 2873.5000     9.1070   109.6890  1208.1219     2.5080     0.2140     0.0110     6.3330     5.3150     5.5980  1174.9320   -25.5490
 2874.0000     9.1140   112.1640  1222.3350     2.5180     0.2250     0.0200     5.7600     5.1570     5.3930  1185.9950   -25.0250
 2874.5000     9.1210   111.1020  1236.9830     2.5200     0.2370     0.0420     5.6410     4.9980     5.1870  1197.0590   -24.4830
 2875.0000     9.1290   110.0550  1251.6320     2.5050     0.2480     0.0320     5.6250     4.9340     5.0430  1208.1219   -23.9310
 2875.5000     9.1360   108.9370  1266.2800     2.4780     0.2530     0.0180     5.6030     4.9030     5.0740  1219.1851   -23.3790
 2876.0000     9.1430   106.1120  1280.9280     2.4610     0.2520     0.0080     5.5880     4.8720     5.1080  1230.2480   -22.8310
 2876.5000     9.1510   103.2660  1289.3400     2.4760     0.2540     0.0110     5.9740     4.8410     5.1420  1241.3120   -22.2850
 2877.0000     9.1590   101.1090  1269.0360     2.4980     0.2560     0.0170     6.3210     4.7880     5.1860  1248.7310   -21.9840
 2877.5000     9.1140   101.6820  1253.3459     2.5010     0.2520     0.0170     6.5500     4.7350     5.0870  1235.0720   -22.0480
 2878.0000     9.0400   101.2910  1234.7020     2.5020     0.2400     0.0170     6.2170     4.6790     4.9520  1216.4650   -22.1080
 2878.5000     9.0290   100.1480  1216.0590     2.5020     0.2280     0.0160     5.7680     4.5790     4.8170  1197.8590   -22.1680
 2879.0000     9.0500   101.7930  1197.4160     2.4980     0.2230     0.0160     5.3190     4.4730     4.6820  1179.2520   -22.2260
 2879.5000     9.0730   107.3960  1187.8170     2.4930     0.2320     0.0170     4.8580     4.3680     4.5480  1174.0610   -22.2820
 2880.0000     9.0790   112.9020  1187.8170     2.4890     0.2410     0.0180     4.8120     4.2620     4.4130  1212.4370   -22.3380
 2880.5000     9.0740   115.6550  1198.0820     2.4850     0.2480     0.0140     4.8120     4.1560     4.2960  1228.4260   -22.3900
 2881.0000     9.0690   114.1690  1209.4750     2.4800     0.2490     0.0070     4.8120     4.0500     4.1850  1228.4260   -22.5970
 2881.5000     9.0650   110.8220  1220.8690     2.4770     0.2510     0.0010     4.8120     3.9450     4.0300  1228.4260   -22.8070
 2882.0000     9.0600   107.5800  1232.2620     2.4800     0.2540     0.0020     4.7380     3.8810     4.0340  1228.4260   -23.0120
 2882.5000     9.0550   104.3220  1243.6550     2.4910     0.2600     0.0070     4.6160     3.8760     4.0430  1228.4260   -23.2250
 2883.0000     9.0510   102.6550  1255.0480     2.5020     0.2670     0.0120     4.4940     3.8710     4.0520  1228.4260   -23.1430
 2883.5000     9.0460   104.3390  1266.4410     2.5040     0.2730     0.0160     4.4240     3.8660     4.0620  1228.4260   -23.1580
 2884.0000     9.0410   106.1610  1259.9580     2.4970     0.2740     0.0130     4.4750     3.8610     4.0710  1228.4260   -23.1610
 2884.5000     9.0370   108.0130  1235.8320     2.4840     0.2680     0.0110     4.6850     3.8560     4.0800  1223.3280   -22.9980
 2885.0000     9.0320   106.5050  1211.7050     2.4810     0.2600     0.0110     4.8940     3.8520     4.0900  1211.9570   -22.7260
 2885.5000     9.0280   103.4730  1187.8170     2.4830     0.2550     0.0110     5.0900     3.8470     4.0990  1200.5870   -22.4530
 2886.0000     9.0230   100.3820  1208.1219     2.4870     0.2540     0.0170     5.0900     3.8210     4.1060  1189.2159   -22.1790
 2886.5000     9.0180    99.2090  1223.8070     2.4910     0.2520     0.0230     5.0430     3.7930     3.9780  1193.8560   -21.9710
 2887.0000     9.0020   102.1830  1239.1880     2.4950     0.2510     0.0270     4.7150     3.7640     3.8770  1202.7540   -22.2620
 2887.5000     8.9850   106.6310  1254.5690     2.4960     0.2540     0.0280     4.4120     3.7360     3.8460  1211.6530   -22.5490
 2888.0000     8.9690   111.1160  1269.0360     2.4790     0.2600     0.0230     4.2620     3.7070     3.9690  1220.5520   -22.7750
 2888.5000     8.9540   113.7650  1269.0360     2.4640     0.2690     0.0150     4.3410     3.6790     4.0590  1229.4500   -22.4530
 2889.0000     8.9420   112.6070  1269.0360     2.4620     0.2780     0.0160     4.5930     3.6500     3.9830  1238.3490   -21.9910
 2889.5000     8.9300   110.7490  1269.0360     2.4750     0.2810     0.0230     4.8120     3.6220     3.9070  1247.2480   -21.5770
 2890.0000     8.9180   109.1020  1269.0360     2.4900     0.2790     0.0290     4.8120     3.5930     3.8300  1256.1470   -21.7550
