~VERSION INFORMATION
 VERS.                2.0:   CWLS LOG ASCII STANDARD - VERSION 2.0
 WRAP.                 NO:   ONE LINE PER DEPTH STEP
~WELL INFORMATION
#MNEM.UNIT      DATA TYPE    INFORMATION
#----------   ------------   ------------------------------
 STRT.F           27.5000:   START DEPTH
 STOP.F         5889.0000:   STOP DEPTH
 STEP.F            0.5000:   STEP LENGTH
 NULL.          -999.2500:   NO VALUE
 COMP.   LAWRENCE ALLISON:   COMPANY
 WELL. LAWRENCE "X" #25-11:   WELL
 FLD .        N.P.R NO. 3:   FIELD
 LOC .      S11 T38N R78W:   LOCATION
 CNTY.            NATRONA:   COUNTY
 STAT.            WYOMING:   STATE
 CTRY. UNITED STATES OF AMERICA:   COUNTRY
 SRVC.      DRESSER ATLAS:   SERVICE COMPANY
 DATE.        09-FEB-1983:   LOGDATE
 API .     49025109170000:   API NUMBER
~CURVE INFORMATION
#MNEM.UNIT       API CODE    CURVE DESCRIPTION
#----------   ------------   ------------------------------
 DEPT.F                  :   
 CN  .DEC    42 890 03 00:   NEUTRON POROSITY
 GRD .GAPI   45 310 01 00:   GAMMA RAY FROM DENSITY LOG
 CORR.G/C3   45 356 01 00:   DENSITY CORRECTION
 DEN .G/C3   45 350 01 00:   BULK DENSITY
 CALD.IN     45 280 60 00:   CALIPER FROM DENSITY LOG
 TEND.LBS    45 635 01 00:   TENSION FORM DENSITY LOG
 GRS .GAPI   60 310 01 00:   GAMMA RAY FROM SONIC LOG
 TENS.LBS    60 635 01 00:   TENSION FROM SONIC
 DT  .US/F   60 520 00 00:   DELTA TIME
 SPR .MV     11 010 01 00:   SPONTANEOUS POTENTIAL FROM RES.
 RD  .OHMM   11 220 10 00:   RESISTIVITY DEEP
 RS  .OHMM   11 220 09 00:   RESISTIVITY SHALLOW
 RMLL.OHMM   11 270 04 00:   MICRO LATEROLOG
 TENR.LBS    11 635 01 00:   TENSION FROM RES.
~PARAMETER INFORMATION
#MNEM.UNIT          VALUE    DESCRIPTION
#----------   ------------   ------------------------------
 EKB .F         5196.0000:   Kelly bushing
 EGL .F         5186.0000:   Ground level
 TD  .F         5883.0000:   Total depth
 CLNT.            A2DTECH:   Client Code
 SL  . 1989' FSL & 1148' FWL:   Surface Location
 PD  .                 GL:   Permanent Datum
 EPD .F              5186:   Elevation Permanent Datum
 LMF .                 KB:   Log Measured From
 DMF .                 KB:   Drilling Measured From
 DAPD.F                10:   Feet Above Permanent Datum
 DATE.        09-FEB-1983:   Date Logged [DD-MMM-YYYY]
 DD  .F              5883:   Depth driller
 DL  .F              5882:   Depth logger
 BLI .F              5871:   Bottom log interval
 TLI .F               700:   Top log interval
 CS1 .IN            9.625:   Casing size
 CBD1.      9.625" @ 701':   Casing driller 1
 CBL1.F               700:   Casing logger 1
 BS1 .IN             8.75:   Bit size
 BSD1.F              5883:   Depth drilled with bit1
 DFT .    HEC/DRISPAC/KCL:   Type fluid in hole
 DFD .                  9:   Density
 DFV .                 35:   Viscosity
 DFPH.                  8:   pH
 DFL .                6.4:   Fluid loss
 MSS .           FLOWLINE:   Source of sample
 RMS .OHMM           0.23:   Rm
 MST .F                50:   Rm Meas. temp.
 RMF .OHMM           0.17:   Rmf
 MFST.F                54:   Rmf Meas. temp.
 MFSS.               MEAS:   Source Rmf.
 BHT .F               176:   BHT.
 TCS .HRS              10:   Time Circ. stopped
 MRT .F               176:   Maximum recorded temp.
 LUN .               6274:   Logging unit number
 LUL .               GLTE:   Logging unit location
 ENGI.          TOLLEFSON:   Recorded By
 WITN.           JENNINGS:   Witnessed by
 ORIG.           5" PRINT:   Origin of data
 UWI .     49025109170000:   Unique Well ID
 DICO. A2D TECHNOLOGIES, INC.:   Digitizing Company
 RMC .OHMM           0.41:   Rmc
 MCST.F                54:   Rmc Meas. temp.
 MCSS.               MEAS:   Source Rmc.
~OTHER INFORMATION
~A  DEPTH       CN        GRD       CORR        DEN       CALD       TEND        GRS       TENS         DT        SPR         RD         RS       RMLL       TENR
# ...
 1718.0000     0.2695   126.1896     0.0285     2.5308     9.6156   -15.5378  -999.2500  -999.2500  -999.2500   -66.1414     7.6523     7.1247     6.8339   -30.0731
 1718.5000     0.2493   126.2099     0.0062     2.5376     9.6297   -15.5378  -999.2500  -999.2500  -999.2500   -66.1499     7.6956     7.0690     7.0194   -31.0702
 1719.0000     0.2433   126.2301     0.0002     2.5421     9.6301   -15.5378  -999.2500  -999.2500  -999.2500   -66.1591     7.7946     7.1595     6.9165   -32.1053
 1719.5000     0.2409   126.5548     0.0002     2.5428     9.6300   -15.5378  -999.2500  -999.2500  -999.2500   -66.1690     7.8406     7.3031     6.5832   -33.3132
 1720.0000     0.2410   126.8798     0.0017     2.5382     9.6300   -12.3838  -999.2500  -999.2500  -999.2500   -66.3274     7.8304     7.3999     6.7138   -41.8291
 1720.5000     0.2434   126.5953     0.0182     2.5330     9.6300    -9.4898  -999.2500  -999.2500  -999.2500   -66.3359     7.8222     7.4945     6.8960   -42.8260
 1721.0000     0.2470   126.0117     0.0302     2.5292     9.6300    -6.5958  -999.2500  -999.2500  -999.2500   -66.4280     7.8120     7.5921     7.1820   -43.8346
 1721.5000     0.2510   124.5099     0.0407     2.5276     9.6306    -5.5777  -999.2500  -999.2500  -999.2500   -66.5049     7.7500     7.5311     7.2757   -45.0693
 1722.0000     0.2604   123.3125     0.0497     2.5336     9.6336    -5.5777  -999.2500  -999.2500  -999.2500   -66.6633     7.6885     7.2681     6.9715   -46.0661
 1722.5000     0.2619   122.4195     0.0543     2.5381     9.6364    -5.5777  -999.2500  -999.2500  -999.2500   -66.8217     7.5748     7.2615     6.6816   -47.0632
 1723.0000     0.2586   122.7492     0.0602     2.5411     9.6393    -4.5998  -999.2500  -999.2500  -999.2500   -67.4320     7.5127     7.3560     6.5837   -48.0600
 1723.5000     0.2553   124.2915     0.0677     2.5419     9.6422     0.1358  -999.2500  -999.2500  -999.2500   -68.0402     7.4318     7.2466     6.5323   -41.5383
 1724.0000     0.2539   126.4427     0.0797     2.5395     9.6451     4.3825  -999.2500  -999.2500  -999.2500   -68.3485     7.2419     7.1404     6.4798   -42.6315
 1724.5000     0.2554   128.2894     0.0902     2.5343     9.6480     4.3825  -999.2500  -999.2500  -999.2500   -68.6568     7.2114     7.0357     6.3408   -43.7814
 1725.0000     0.2578   129.8368     0.0947     2.5305     9.6500    -1.0503  -999.2500  -999.2500  -999.2500   -69.5670     7.1255     6.8357     6.0353   -44.7785
 1725.5000     0.2594   128.9438     0.0601     2.5305     9.6500   -10.5216  -999.2500  -999.2500  -999.2500   -70.6249     7.0689     6.6890     5.9468   -45.7894
 1726.0000     0.2593   128.6546     0.0406     2.5395     9.6500   -15.5378  -999.2500  -999.2500  -999.2500   -73.7818     7.0128     6.5455     5.8583   -46.8420
 1726.5000     0.2567   130.2019     0.0391     2.5402     9.6500   -15.5378  -999.2500  -999.2500  -999.2500   -81.5864     7.0055     6.5350     5.6148   -40.4998
 1727.0000     0.2558   131.7462     0.0604     2.5372     9.6500   -15.5378  -999.2500  -999.2500  -999.2500   -90.6261     7.0958     6.6770     5.2707   -41.4966
 1727.5000     0.2589   129.6387     0.0901     2.5311     9.6500   -15.5378  -999.2500  -999.2500  -999.2500  -999.2500     7.3872     6.9940     5.2050   -42.4937
 1728.0000     0.2559   124.7883     0.1082     2.5251     9.6500   -13.2418  -999.2500  -999.2500  -999.2500  -999.2500     7.9636     7.3857     6.4988   -43.7400
 1728.5000     0.2511   118.4158     0.1037     2.5350     9.6500   -10.5001  -999.2500  -999.2500  -999.2500  -999.2500     8.4669     8.0741     8.0175   -44.7368
 1729.0000     0.2481   114.4787     0.0811     2.5506     9.6554    -7.7584  -999.2500  -999.2500  -999.2500  -999.2500     8.7627     8.3509     8.5253   -45.7339
 1729.5000     0.2491   112.6555     0.0525     2.5544     9.6646    -5.2810  -999.2500  -999.2500  -999.2500  -999.2500     8.2162     7.9467     8.6965   -46.6918
 1730.0000     0.2500   116.0463     0.0555     2.5416     9.6642    -3.8817  -999.2500  -999.2500  -999.2500  -999.2500     7.4492     6.5854     7.4968   -55.2631
 1730.5000     0.2503   123.0681     0.0645     2.5212     9.6514    -2.4730  -999.2500  -999.2500  -999.2500  -999.2500     6.8957     6.1819     5.7278   -56.4928
 1731.0000     0.2480   126.7413     0.0647     2.5091     9.6584    -1.0660  -999.2500  -999.2500  -999.2500  -999.2500     6.4682     6.2191     4.9825   -57.4897
 1731.5000     0.2468   126.7924     0.0600     2.5144     9.6681     0.3419  -999.2500  -999.2500  -999.2500  -999.2500     6.2872     6.4756     4.9737   -58.4867
 1732.0000     0.2519   126.8149     0.0660     2.5249     9.6700     1.7498  -999.2500  -999.2500  -999.2500  -999.2500     6.4571     6.6514     5.3433   -59.4836
 1732.5000     0.2562   128.6336     0.0720     2.5302     9.6700     3.1576  -999.2500  -999.2500  -999.2500  -999.2500     6.8177     6.9272     5.8659   -60.7298
 1733.0000     0.2514   130.4803     0.0599     2.5309     9.6700     3.6695  -999.2500  -999.2500  -999.2500  -999.2500     7.1518     7.2175     6.3684   -61.7269
 1733.5000     0.2487   132.3271     0.0524     2.5248     9.6700    -1.8138  -999.2500  -999.2500  -999.2500   -91.9505     7.2914     7.3576     6.6325   -62.7237
 1734.0000     0.2511   132.3796     0.0584     2.5113     9.6700    -7.2971  -999.2500  -999.2500  -999.2500   -82.6202     7.2819     7.3001     6.8174   -63.7208
 1734.5000     0.2564   129.1814     0.0719     2.4999     9.6700   -12.7805  -999.2500  -999.2500  -999.2500   -90.2569     7.2742     7.2431     6.8537   -64.7369
 1735.0000     0.2569   126.3046     0.0869     2.4939     9.6700   -13.3798  -999.2500  -999.2500  -999.2500   -97.0613     7.2667     7.1865     6.7986   -65.9639
 1735.5000     0.2503   126.9336     0.0779     2.4930     9.6700    -9.0465  -999.2500  -999.2500  -999.2500  -999.2500     7.3603     7.2432     6.6068   -66.9610
 1736.0000     0.2477   127.2583     0.0563     2.5009     9.6700    -4.2697  -999.2500  -999.2500  -999.2500  -999.2500     7.5591     7.2726     6.3321   -60.4390
 1736.5000     0.2528   125.7565     0.0372     2.5149     9.6700     2.2607  -999.2500  -999.2500  -999.2500  -999.2500     7.7633     7.3671     7.0660   -61.4361
 1737.0000     0.2534   123.9553     0.0342     2.5209     9.6700     4.3984  -999.2500  -999.2500  -999.2500  -999.2500     7.8075     7.3079     7.1597   -69.9517
 1737.5000     0.2559   123.3617     0.0312     2.5224     9.6700     4.3666  -999.2500  -999.2500  -999.2500  -999.2500     7.8531     7.2508     7.0045   -63.4300
 1738.0000     0.2580   123.9958     0.0146     2.5156     9.6700     6.6086  -999.2500  -999.2500  -999.2500  -999.2500     7.8974     7.1942     6.8030   -72.1950
 1738.5000     0.2598   124.3205     0.0026     2.5118     9.6700    12.3617  -999.2500  -999.2500  -999.2500  -999.2500     7.9460     7.1875     6.7537   -65.6731
 1739.0000     0.2572   123.4133     0.0026     2.5178     9.6700    10.9163  -999.2500  -999.2500  -999.2500  -999.2500     8.0464     7.2310     6.8417   -66.6917
 1739.5000     0.2458   121.9307     0.0011     2.5253     9.6700     5.7072  -999.2500  -999.2500  -999.2500  -999.2500     8.1501     7.3251     6.8354   -67.9164
 1740.0000     0.2398   121.3371     0.0146     2.5351     9.6700     2.3380  -999.2500  -999.2500  -999.2500  -999.2500     8.3680     7.4704     6.8524   -61.1453
 1740.5000     0.2458   121.0529     0.0269     2.5381     9.6700    -0.4036  -999.2500  -999.2500  -999.2500  -999.2500     8.3016     7.7265     6.8666   -54.6236
 1741.0000     0.2486   121.3826     0.0386     2.5388     9.6700    -3.1453  -999.2500  -999.2500  -999.2500  -999.2500     8.2357     7.6644     6.8809   -55.8695
 1741.5000     0.2471   121.7374     0.0446     2.5388     9.6700    -5.6084  -999.2500  -999.2500  -999.2500  -999.2500     8.1682     7.6046     6.8951   -57.1158
 1742.0000     0.2483   124.1679     0.0506     2.5373     9.6700    -5.5704  -999.2500  -999.2500  -999.2500  -999.2500     8.1034     7.4414     6.8971   -58.1129
