~VERSION INFORMATION
 VERS.                2.0:   CWLS LOG ASCII STANDARD - VERSION 2.0
 WRAP.                 NO:   ONE LINE PER DEPTH STEP
~WELL INFORMATION
#MNEM.UNIT      DATA TYPE    INFORMATION
#----------   ------------   ------------------------------
 STRT.F          540.0000:   START DEPTH
 STOP.F         4100.0000:   STOP DEPTH
 STEP.F            0.5000:   STEP LENGTH
 NULL.          -999.2500:   NO VALUE
 COMP. LAWRENCE ALISON & ASSOC.,WEST:   COMPANY
 WELL. LAWRENCE "X" #15-11:   WELL
 FLD .              N P R:   FIELD
 LOC .      S11 T38N R78W:   LOCATION
 CNTY.            NATRONA:   COUNTY
 STAT.            WYOMING:   STATE
 CTRY. UNITED STATES OF AMERICA:   COUNTRY
 SRVC.      DRESSER ATLAS:   SERVICE COMPANY
 DATE.        18-MAY-1985:   LOGDATE
 API .     49025110220000:   API NUMBER
~CURVE INFORMATION
#MNEM.UNIT       API CODE    CURVE DESCRIPTION
#----------   ------------   ------------------------------
 DEPT.F                  :   
 NPHI.DEC    42 890 03 00:   NEUTRON POROSITY SANDSTONE
 RHOB.G/C3   45 350 01 00:   BULK DENSITY
 CORR.G/C3   45 356 01 00:   DENSITY CORRECTION
 TEND.LBS    45 635 01 00:   TENSION FROM DENSITY LOG
 GRD .GAPI   45 310 01 00:   GAMMA RAY FROM DENSITY LOG
 CALD.IN     45 280 60 00:   CALIPER FROM DENSITY LOG
 SPR .MV     07 010 01 00:   SPONTANEOUS POTENTIAL
 RILD.OHMM   07 120 46 00:   DEEP INDUCTION RESISTIVITY
 RILM.OHMM   07 120 44 00:   INDUCTION LOG MEDIUM RESISTIVITY
 RFOC.OHMM   07 220 04 00:   RESISTIVITY FOCUSED LOG RES.
 TENR.LBS    07 635 01 00:   TENSION FROM RESISTIVITY
~PARAMETER INFORMATION
#MNEM.UNIT          VALUE    DESCRIPTION
#----------   ------------   ------------------------------
 EKB .F         5201.0000:   Kelly bushing
 EGL .F         5189.0000:   Ground level
 EDF .F         5200.0000:   Drilling floor
 TD  .F         4095.0000:   Total depth
 DATE.        18-MAY-1985:   Date logged
 CLNT.            A2DTECH:   Client Code
 SL  . 2203' FSL & 377' FWL:   Surface Location
 PD  .                 GL:   Permanent Datum
 EPD .F              5189:   Elevation Permanent Datum
 LMF .                 KB:   Log Measured From
 DMF .                 KB:   Drilling Measured From
 DAPD.F                12:   Feet Above Permanent Datum
 DD  .F              4095:   Depth driller
 DL  .F              4093:   Depth logger
 BLI .F              4091:   Bottom log interval
 TLI .F                 0:   Top log interval
 CS1 .IN            8.625:   Casing size
 CBD1.      8.625" @ 565':   Casing driller 1
 CBL1.F               565:   Casing logger 1
 BS1 .IN            7.875:   Bit size
 BSD1.F              4095:   Depth drilled with bit1
 DFT .            GEL KCL:   Type fluid in hole
 DFD .                9.2:   Density
 DFV .                 40:   Viscosity
 DFPH.                8.0:   pH
 DFL .                9.0:   Fluid loss
 MSS .            MUDTANK:   Source of sample
 RMS .OHMM            .57:   Rm
 MST .F                69:   Rm Meas. temp.
 RMF .OHMM            .49:   Rmf
 MFST.F                69:   Rmf Meas. temp.
 RMC .OHMM            .71:   Rmc
 MCST.F                69:   Rmc Meas. temp.
 MFSS.               MEAS:   Source Rmf.
 MCSS.               CALC:   Source Rmc.
 RMB .OHMM            .30:   Rm. at BHT
 BHT .F               139:   BHT.
 TCS .HRS               4:   Time Circ. stopped
 MRT .F               139:   Maximum recorded temp.
 LUN .            HL 6302:   Logging unit number
 LUL .               CODY:   Logging unit location
 ENGI.              GETTY:   Recorded By
 WITN.              FIVAS:   Witnessed by
 ORIG.           5" PRINT:   Origin of data
 UWI .     49025110220000:   Unique Well ID
 DICO. A2D TECHNOLOGIES, INC.:   Digitizing Company
~OTHER INFORMATION
~A   DEPT     NPHI       RHOB       CORR        TEND        GRD      CALD        SPR       RILD       RILM       RFOC       TENR   
# ...
 1973.5000     0.3090     2.5160     0.0110   -41.3030   119.9600    10.2980    -7.1400     8.1680     7.9500     8.5650   -21.3380
 1974.0000     0.2980     2.5170     0.0380   -42.2260   120.2660    10.2840    -7.1050     7.9890     7.7750     8.6040   -22.3510
 1974.5000     0.2890     2.5150     0.0520   -43.1500   118.7600    10.2700    -7.0690     7.8110     7.6700     8.6360   -23.3640
 1975.0000     0.2920     2.5100     0.0580   -44.0730   118.1760    10.2560    -6.9920     7.8970     7.7300     8.2300   -24.3780
 1975.5000     0.2990     2.5000     0.0550   -44.9960   117.4260    10.2420    -6.8990     8.0050     7.8050     7.8190   -25.3910
 1976.0000     0.3000     2.4910     0.0410   -45.9200   115.4970    10.2340    -6.8050     8.1130     7.8800     7.3270   -26.4040
 1976.5000     0.2940     2.4810     0.0070   -48.0330   113.5680    10.2380    -6.7110     8.2220     7.9550     7.4440   -27.4180
 1977.0000     0.2960     2.4800    -0.0220   -50.9480   112.7740    10.2420    -6.6180     8.3300     8.0120     7.6360   -28.4310
 1977.5000     0.2960     2.4810    -0.0270   -53.8630   113.7950    10.2450    -6.5270     8.4770     8.0840     7.8290   -29.4440
 1978.0000     0.2890     2.4810    -0.0300   -55.5540   114.1990    10.2490    -6.5320     8.4650     8.1550     8.0210   -30.4580
 1978.5000     0.2830     2.4820    -0.0110   -54.0520   114.0610    10.2520    -6.7920     8.4410     8.2260     8.2140   -31.4710
 1979.0000     0.2860     2.4820     0.0080   -52.5510   114.9710    10.2560    -7.0410     8.4030     8.2980     8.4060   -32.4840
 1979.5000     0.2910     2.4880     0.0120   -51.0490   116.5500    10.2600    -7.2900     8.4410     8.3690     8.5990   -33.4980
 1980.0000     0.2950     2.4930     0.0110   -49.5480   117.8490    10.2630    -7.5400     8.5340     8.4410     8.7920   -34.5110
 1980.5000     0.2990     2.4980     0.0100   -48.0460   116.6000    10.2670    -7.7960     8.6270     8.5120     8.9860   -35.5240
 1981.0000     0.3030     2.4990    -0.0030   -46.5450   115.4070    10.2700    -7.8190     8.7190     8.5830     9.1790   -36.5370
 1981.5000     0.3070     2.5000    -0.0180   -28.6610   116.9310    10.2740    -7.7780     8.8120     8.6550     9.2900   -20.2140
 1982.0000     0.3110     2.4950    -0.0290    -1.9790   118.4350    10.2780    -7.7340     8.9040     8.7260     9.2900     6.5220
 1982.5000     0.3020     2.4880    -0.0390    23.6320   118.0060    10.2810    -7.6910     8.9570     8.7950     9.2900    32.4580
 1983.0000     0.2850     2.4800    -0.0320    14.5000   116.1750    10.2850    -7.6540     8.9570     8.7950     9.2900    11.4470
 1983.5000     0.2890     2.4730    -0.0130   -24.0410   116.3510    10.2890    -7.6640     8.9570     8.7950     9.2900   -25.7930
 1984.0000     0.2990     2.4780     0.0060   -51.3430   117.2900    10.2940    -7.6720     8.9570     8.7560     9.2900   -48.8860
 1984.5000     0.3080     2.4840     0.0240   -63.7310   118.2620    10.2750    -7.6810     8.8440     8.6650     9.2900   -53.6150
 1985.0000     0.3130     2.4890     0.0240   -75.8710   118.5670    10.2800    -7.6890     8.6680     8.5750     9.2900   -58.3440
 1985.5000     0.3000     2.4890     0.0130   -74.6860   118.6880    10.2830    -7.6980     8.4910     8.4850     9.1430   -63.0730
 1986.0000     0.2940     2.4870     0.0070   -73.5250   118.2240    10.2870    -7.7060     8.2540     8.3950     8.8090   -65.7650
 1986.5000     0.2930     2.4850     0.0080   -72.3630   116.6150    10.2910    -7.7150     8.2640     8.3260     8.5580   -62.1320
 1987.0000     0.2960     2.4860     0.0130   -71.2020   115.0400    10.2950    -7.7230     8.2850     8.6360     8.6940   -58.4990
 1987.5000     0.2990     2.4920     0.0190   -70.0400   113.9880    10.2990    -7.7320     8.3060     8.7610     8.8550   -54.8660
 1988.0000     0.3290     2.4990     0.0260   -68.8790   114.9090    10.3030    -7.7400     8.3260     8.8810     9.0390   -51.2330
 1988.5000     0.3230     2.5050     0.0330   -67.7180   116.4900    10.3070    -7.7480     8.4090     9.0000     8.8640   -47.6000
 1989.0000     0.3100     2.5120     0.0240   -66.5560   116.9560    10.3110    -7.7570     8.5050     9.1200     8.5960   -43.9660
 1989.5000     0.3040     2.5160     0.0050   -65.3950   114.7850    10.3150    -7.7650     8.6020     9.2390     8.5580   -40.3330
 1990.0000     0.3070     2.5190     0.0050   -64.2340   113.6490    10.3200    -7.7740     8.6980     9.3590     8.7950   -36.9180
 1990.5000     0.3090     2.5230     0.0080   -63.0720   114.6640    10.3230    -7.7820     8.7950     9.3750     8.9830   -37.7400
 1991.0000     0.3070     2.5120     0.0560   -61.9110   115.1420    10.3220    -7.7910     8.8910     9.2130     9.1720   -38.5160
 1991.5000     0.3000     2.4030     0.1490   -60.7490   115.4900    10.3340    -7.7990     8.9880     9.1240     9.3600   -39.2920
 1992.0000     0.2940     2.2910     0.0990   -59.5880   115.9300    10.3780    -7.8080     9.0390     9.0340     9.5490   -40.0680
 1992.5000     0.2920     2.1980     0.0320   -58.4270   116.9680     9.2740    -7.8160     8.9130     8.9440     9.7240   -40.8430
 1993.0000     0.2990     2.2200    -0.0090   -57.2650   117.6820    11.3500    -7.8250     8.8130     8.8550     9.4860   -41.6190
 1993.5000     0.2890     2.2540     0.0250   -56.1040   116.2000    12.0680    -7.8330     8.7140     8.7650     9.2630   -42.3950
 1994.0000     0.3070     2.2800     0.0400   -54.9420   114.6940    10.2090    -7.8420     8.6140     8.6760     9.0410   -43.1710
 1994.5000     0.2970     2.3380    -0.0670   -53.7810   112.4920    12.4990    -7.8490     8.5140     8.5860     8.8180   -43.9470
 1995.0000     0.2870     2.4010     0.0200   -52.6200   109.6180    12.4220    -7.9160     8.4030     8.5580     8.5950   -44.7220
 1995.5000     0.2870     2.3870     0.0540   -51.4580   109.5130    12.3170    -8.0100     8.4190     8.5860     8.4800   -45.4980
 1996.0000     0.3070     2.3450     0.0020   -50.2970   111.2970    11.0400    -8.1050     8.4540     8.6080     8.5340   -46.2740
 1996.5000     0.2940     2.3820    -0.0430   -49.1360   113.2620    12.8610    -8.2000     8.4880     8.6300     8.5770   -47.2220
 1997.0000     0.2820     2.4210    -0.0200   -47.9740   115.2730    12.2880    -8.2960     8.5220     8.6520     8.6200   -48.6010
 1997.5000     0.2690     2.4610     0.0080   -46.8130   116.0460    12.5490    -8.3920     8.5570     8.6740     8.6630   -49.9810
 1998.0000     0.2630     2.4960     0.0220   -47.3860   116.4100    12.8630    -8.4880     8.5910     8.6960     8.7050   -51.3600
 1998.5000     0.2710     2.4950     0.0260   -51.6940   116.0890    13.0420    -8.5840     8.6250     8.7180     8.7480   -52.7390
 1999.0000     0.2710     2.4950     0.0300   -56.0010   113.8150    13.0090    -8.6800     8.6620     8.7400     8.7910   -54.1180
 1999.5000     0.2690     2.4800     0.0340   -60.3080   111.6010    12.9820    -8.7760     8.7000     8.7620     8.6890   -55.4980
 2000.0000     0.2670     2.4630     0.0530   -64.6150   109.3160    12.9690    -8.8720     8.7380     8.7950     8.6520   -56.7390
 2000.5000     0.2700     2.4510     0.0680   -65.1820   109.1760    12.9950    -8.9680     8.7950     8.7880     8.6140   -53.2300
 2001.0000     0.2760     2.4620     0.0400   -63.6890   110.1350    13.0410    -9.0640     8.7790     8.7750     8.5770   -50.0390
 2001.5000     0.2780     2.4720     0.0120   -62.1970   111.4710    13.5220    -9.1600     8.7480     8.7620     8.5400   -46.8480
 2002.0000     0.2830     2.4830     0.0030   -60.7040   112.8040    12.2770    -9.2560     8.7160     8.7490     8.5020   -43.6580
 2002.5000     0.2780     2.4910     0.0020   -59.2120   114.1340    12.4190    -9.3520     8.6850     8.7360     8.4650   -40.4670
 2003.0000     0.2760     2.4790     0.0120   -57.7190   115.0650    12.7590    -9.4480     8.6530     8.7220     8.4270   -37.2760
 2003.5000     0.2880     2.4670     0.0340   -56.2260   115.5190    10.0210    -9.5430     8.6220     8.7090     8.3900   -42.5830
