~VERSION INFORMATION
 VERS.                2.0:   CWLS LOG ASCII STANDARD - VERSION 2.0
 WRAP.                 NO:   ONE LINE PER DEPTH STEP
~WELL INFORMATION
#MNEM.UNIT      DATA TYPE    INFORMATION
#----------   ------------   ------------------------------
 STRT.F         2200.0000:   START DEPTH
 STOP.F         3200.0000:   STOP DEPTH
 STEP.F            0.5000:   STEP LENGTH
 NULL.          -999.2500:   NO VALUE
 COMP.   LAWRENCE ALLISON:   COMPANY
 WELL. LAWRENCE "X" #18-34:   WELL
 FLD .          NPR NO. 3:   FIELD
 LOC .      S34 T39N R78W:   LOCATION
 CNTY.            NATRONA:   COUNTY
 STAT.            WYOMING:   STATE
 CTRY. UNITED STATES OF AMERICA:   COUNTRY
 SRVC.      DRESSER ATLAS:   SERVICE COMPANY
 DATE.        14-MAY-1986:   LOGDATE
 API .     49025110720000:   API NUMBER
~CURVE INFORMATION
#MNEM.UNIT       API CODE    CURVE DESCRIPTION
#----------   ------------   ------------------------------
 DEPT.F                  :   
 CALD.IN     45 280 60 00:   CALIPER FROM DENSITY LOG
 GRD .GAPI   45 310 01 00:   GAMMA RAY FROM DENSITY LOG
 TEND.LBS    45 635 01 00:   TENSION FORM DENSITY LOG
 CORR.G/C3   45 356 01 00:   DENSITY CORRECTION
 DEN .G/C3   45 350 01 00:   BULK DENSITY
 CNC .DEC    42 890 03 00:   NEUTRON POROSITY SANDSTONE
~PARAMETER INFORMATION
#MNEM.UNIT          VALUE    DESCRIPTION
#----------   ------------   ------------------------------
 EKB .F         5192.0000:   Kelly bushing
 EGL .F         5181.0000:   Ground level
 EDF .F         5189.0000:   Drilling floor
 TD  .F         3195.0000:   Total depth
 CLNT.            A2DTECH:   Client Code
 SL  . 722' FWL & 239' FSL:   Surface Location
 PD  .                 GL:   Permanent Datum
 EPD .F              5181:   Elevation Permanent Datum
 LMF .                 KB:   Log Measured From
 DMF .                 KB:   Drilling Measured From
 DAPD.F                11:   Feet Above Permanent Datum
 DATE.        14-MAY-1986:   Date Logged [DD-MMM-YYYY]
 DD  .F              3195:   Depth driller
 DL  .F              3194:   Depth logger
 BLI .F              3192:   Bottom log interval
 TLI .F                 0:   Top log interval
 CS1 .IN            8.625:   Casing size
 CBD1.      8.625" @ 601':   Casing driller 1
 CBL1.F               596:   Casing logger 1
 BS1 .IN            7.875:   Bit size
 BSD1.F              3195:   Depth drilled with bit1
 DFT .        POLYMER-KCL:   Type fluid in hole
 DFD .                  9:   Density
 DFV .                 35:   Viscosity
 DFPH.                9.5:   pH
 DFL .               16.2:   Fluid loss
 MSS .           FLOWLINE:   Source of sample
 RMS .OHMM          0.378:   Rm
 MST .F                65:   Rm Meas. temp.
 RMF .OHMM          0.306:   Rmf
 MFST.F                65:   Rmf Meas. temp.
 MFSS.               MEAS:   Source Rmf.
 RMC .OHMM          0.472:   Rmc
 MCST.F                65:   Rmc Meas. temp.
 MCSS.               CALC:   Source Rmc.
 RMB .OHMM          0.208:   Rm. at BHT
 BHT .F               118:   BHT.
 TCS .HRS               3:   Time Circ. stopped
 MRT .F               118:   Maximum recorded temp.
 LUN .            HL-6274:   Logging unit number
 LUL .           GILLETTE:   Logging unit location
 ENGI.             RAUTIO:   Recorded By
 WITN.             STRONG:   Witnessed by
 ORIG.           5" PRINT:   Origin of data
 UWI .     49025110720000:   Unique Well ID
 DICO. A2D TECHNOLOGIES, INC.:   Digitizing Company
~OTHER INFORMATION
~A  DEPT        CALD      GRD        TEND        CORR        DEN        CNC 
# ...
 2252.0000    10.2836   122.4336   -16.9173     0.0800     2.5044     0.3248
 2252.5000    10.2831   120.3321    -9.3985     0.0860     2.4984     0.3139
 2253.0000    10.2760   123.3413    -8.8913     0.0785     2.4999     0.3264
 2253.5000    10.2688   123.6386    -8.0475     0.0709     2.5036     0.3436
 2254.0000    10.2660   122.7263    -0.0533     0.0647     2.5157     0.3469
 2254.5000    10.2507   124.5305     7.6299     0.0558     2.5322     0.3267
 2255.0000    10.2504   126.3346     0.3760     0.0497     2.5360     0.3116
 2255.5000    10.2501   128.7420    -6.9173     0.0587     2.5272     0.3400
 2256.0000    10.2498   131.1980   -14.2141     0.0555     2.5012     0.3654
 2256.5000    10.2645   130.8405   -21.5138     0.0359     2.4824     0.3690
 2257.0000    10.2642   129.9297   -28.8134     0.0071     2.4718     0.3583
 2257.5000    10.2639   128.4155   -28.5395    -0.0110     2.4657     0.3397
 2258.0000    10.2636   126.9014   -28.3203    -0.0167     2.4702     0.3240
 2258.5000    10.2633   124.4823   -35.6747    -0.0066     2.4777     0.3352
 2259.0000    10.2604   122.3648   -35.4007     0.0040     2.4854     0.3464
 2259.5000    10.2627   120.2467   -35.1816     0.0160     2.5003     0.3527
 2260.0000    10.2624   118.3912   -34.9624     0.0236     2.5026     0.3334
 2260.5000    10.2621   117.2191   -34.7369     0.0296     2.4958     0.3225
 2261.0000    10.2618   119.6251   -19.4316     0.0293     2.4874     0.3260
 2261.5000    10.2615   123.2391   -19.2125     0.0114     2.4821     0.3462
 2262.0000    10.2612   125.9482   -26.5121    -0.0083     2.4783     0.3655
 2262.5000    10.2609   127.7523   -26.2930    -0.0174     2.4821     0.3685
 2263.0000    10.2606   129.5564   -33.5926     0.0294     2.4899     0.3803
 2263.5000    10.2603   132.2984   -33.3735     0.0505     2.5001     0.3888
 2264.0000    10.2600   130.7793   -40.6767     0.0535     2.5024     0.3948
 2264.5000    10.2597   128.3308   -40.0730     0.0263     2.4895     0.3458
 2265.0000    10.2594   126.5150   -16.4160     0.0006     2.4850     0.3116
 2265.5000    10.2591   125.9059   -24.9232     0.0096     2.4842     0.3077
 2266.0000    10.2588   126.8050   -32.2776     0.0428     2.4797     0.3096
 2266.5000    10.2585   128.0058   -32.0036     0.0473     2.4743     0.3159
 2267.0000    10.2582   129.2066   -24.2656     0.0322     2.4691     0.3226
 2267.5000    10.2579   130.1057   -31.5652     0.0035     2.4675     0.3271
 2268.0000    10.2727   130.7018   -38.8722     0.0155     2.4690     0.3199
 2268.5000    10.2875   128.2826   -46.1645     0.0306     2.4826     0.3183
 2269.0000    10.3023   125.2602   -45.9398     0.0291     2.4863     0.3168
 2269.5000    10.3171   122.2378   -45.6713     0.0230     2.4818     0.3109
 2270.0000    10.3167   123.7402   -37.9334     0.0079     2.4742     0.3208
 2270.5000    10.3013   124.0362   -30.1954    -0.0210     2.4734     0.3435
 2271.0000    10.2709   123.4086   -29.9763    -0.0103     2.4711     0.3474
 2271.5000    10.2555   121.8638   -22.2383     0.0062     2.4658     0.3371
 2272.0000    10.2552   119.7938   -22.0191     0.0108     2.4628     0.3381
 2272.5000    10.2710   120.0897   -29.3187     0.0122     2.4681     0.3468
 2273.0000    10.3300   122.1954   -36.6184     0.0152     2.4695     0.3574
 2273.5000    10.3750   124.3012   -51.4368     0.0333     2.4740     0.3456
 2274.0000    10.3898   125.2003   -51.1629     0.0326     2.4832     0.3227
 2274.5000    10.3291   125.4962   -50.9436     0.0214     2.4929     0.3190
 2275.0000    10.2835   125.1885   -50.7245     0.0121     2.4981     0.3257
 2275.5000    10.2531   124.5780   -50.5053     0.0030     2.4905     0.3272
 2276.0000    10.3131   123.9689   -50.2862    -0.0140     2.4800     0.3281
 2276.5000    10.3581   122.7564   -42.5482    -0.0107     2.4860     0.3333
 2277.0000    10.3578   121.2423   -34.8103     0.0074     2.4913     0.3369
 2277.5000    10.3574   120.0298   -27.0677    -0.0017     2.4837     0.3259
 2278.0000    10.3420   120.9289   -19.2795    -0.0077     2.4492     0.3109
 2278.5000    10.3267   120.3198   -11.5415     0.0768     2.4022     0.3297
 2279.0000    10.3566   118.2021   -11.3223     0.0889     2.3991     0.3342
 2279.5000    10.3714   117.8934   -11.1032     0.0435     2.4323     0.3255
 2280.0000    10.3861   123.6190   -25.9215     0.0042     2.4873     0.3182
 2280.5000    10.3858   126.6298   -25.7024     0.0208     2.5092     0.3215
 2281.0000    10.3855   127.8306   -25.4832     0.0268     2.5155     0.3237
 2281.5000    10.3701   126.0143   -25.1422     0.0162     2.5146     0.3249
 2282.0000    10.3698   123.2950   -17.5188    -0.0019     2.5129     0.3188
 2282.5000    10.3847   125.7010    -9.7334    -0.0080     2.5129     0.3058
 2283.0000    10.3843   126.9017    -9.5141    -0.0080     2.5106     0.3034
 2283.5000    10.3840   125.3876   -16.8686    -0.0005     2.5083     0.3312
 2284.0000    10.3686   123.4987   -16.5946     0.0179     2.5090     0.3485
 2284.5000    10.3683   125.0728   -23.9491     0.0538     2.5082     0.3511
 2285.0000    10.3680   124.4637   -23.6751     0.0674     2.5105     0.3473
 2285.5000    10.3677   122.6479   -23.4559     0.0492     2.5176     0.3427
 2286.0000    10.3523   119.6254   -30.7555     0.0159     2.5278     0.3403
 2286.5000    10.3520   116.9061   -30.4816     0.0008     2.5232     0.3397
 2287.0000    10.3366   118.7088   -30.2624    -0.0068     2.5209     0.3340
 2287.5000    10.3212   119.6079   -30.0433     0.0174     2.5232     0.3319
 2288.0000    10.3209   120.9131   -29.8240     0.0279     2.5239     0.3419
 2288.5000    10.3056   124.4213   -29.6049     0.0279     2.5209     0.3461
 2289.0000    10.3053   126.2254   -29.3857     0.0278     2.5163     0.3428
 2289.5000    10.3028   127.7279   -29.1665     0.0324     2.5103     0.3391
 2290.0000    10.2895   128.6285   -28.9474     0.0595     2.5035     0.3268
 2290.5000    10.2893   131.3361   -28.7218     0.0701     2.4853     0.3238
 2291.0000    10.3041   131.9446   -28.4542     0.0625     2.4808     0.3250
 2291.5000    10.3038   129.4571   -28.2350     0.0534     2.5042     0.3199
 2292.0000    10.3035   125.2839   -28.0159     0.0518     2.5328     0.3168
 2292.5000    10.3031   122.5646   -35.3703     0.0626     2.5501     0.3262
 2293.0000    10.2877   126.1772   -35.0964     0.0714     2.5516     0.3438
 2293.5000    10.2724   130.0930   -34.8771     0.0693     2.5395     0.3644
 2294.0000    10.2570   127.9755   -42.1805     0.0472     2.5322     0.3480
 2294.5000    10.2567   121.9365   -41.9548     0.0064     2.5244     0.3332
 2295.0000    10.2564   119.2157   -41.7293    -0.0148     2.5146     0.3268
 2295.5000    10.2561   119.2547   -18.9081     0.0350     2.5138     0.3223
 2296.0000    10.2558   119.2026   -18.6890     0.0700     2.5228     0.3202
 2296.5000    10.2555   118.8951   -25.9885     0.0773     2.5266     0.3272
 2297.0000    10.2552   118.8892   -40.8070     0.0530     2.5205     0.3336
 2297.5000    10.2549   118.5817   -40.5878     0.0409     2.5069     0.3232
 2298.0000    10.2546   118.2742   -47.8947     0.0349     2.5039     0.3233
 2298.5000    10.2543   116.7596   -40.1495     0.0348     2.5219     0.3196
 2299.0000    10.2691   111.6256   -39.9248     0.0416     2.5423     0.3124
 2299.5000    10.2839   107.0948   -32.1375     0.0453     2.5490     0.3027
 2300.0000    10.2986   111.6139   -31.9184     0.0529     2.5332     0.2900
 2300.5000    10.2983   118.2840   -46.7368     0.0619     2.5117     0.2852
 2301.0000    10.3135   118.8630   -54.0912     0.0558     2.4984     0.2882
 2301.5000    10.3203   119.1914   -53.8610     0.0543     2.5112     0.2891
 2302.0000    10.3270   118.8158   -53.7942     0.0543     2.5225     0.2867
 2302.5000    10.3338   117.6004   -53.7275     0.0557     2.5316     0.2919
 2303.0000    10.3403   116.0833   -38.5558     0.0542     2.5392     0.3098
 2303.5000    10.3396   114.2646   -23.3732     0.0496     2.5473     0.3433
