~VERSION INFORMATION
 VERS.                2.0:   CWLS LOG ASCII STANDARD - VERSION 2.0
 WRAP.                 NO:   ONE LINE PER DEPTH STEP
~WELL INFORMATION
#MNEM.UNIT      DATA TYPE    INFORMATION
#----------   ------------   ------------------------------
 STRT.F           48.0000:   START DEPTH
 STOP.F         3235.5000:   STOP DEPTH
 STEP.F            0.5000:   STEP LENGTH
 NULL.          -999.2500:   NO VALUE
 COMP.    TESORO PEROLEUM:   COMPANY
 WELL. TESORO P46 T 28 N.P.R. #3-28:   WELL
 FLD .        TEAPOT DOME:   FIELD
 LOC .      S28 T39N R78W:   LOCATION
 CNTY.            NATRONA:   COUNTY
 STAT.            WYOMING:   STATE
 CTRY. UNITED STATES OF AMERICA:   COUNTRY
 SRVC.      DRESSER ATLAS:   SERVICE COMPANY
 DATE.        17-SEP-1975:   LOGDATE
 API .     49025102530000:   API NUMBER
~CURVE INFORMATION
#MNEM.UNIT       API CODE    CURVE DESCRIPTION
#----------   ------------   ------------------------------
 DEPT.F                  :   
 CALD.IN     45 280 60 00:   CALIPER FROM DENSITY LOG
 RHOB.G/C3   45 350 01 00:   BULK DENSITY
 CORR.G/C3   45 356 01 00:   DENSITY CORRECTION
 TEND.LBS    45 635 01 00:   TENSION FORM DENSITY LOG
 NPHI.DEC    42 890 03 00:   NEUTRON POROSITY SANDSTONE
 SPR .MV     07 010 01 00:   SPONTANEOUS POTENTIAL
 ILD .OHMM   07 120 46 00:   DEEP INDUCTION RESISTIVITY
 ILM .OHMM   07 120 44 00:   INDUCTION LOG MEDIUM RESISTIVITY
 SFL .OHMM   07 220 01 00:   SHALLOW FOCUSED LOG RESISTIVITY
 GRD .GAPI   45 310 01 00:   GAMMA RAY FROM DENSITY LOG
~PARAMETER INFORMATION
#MNEM.UNIT          VALUE    DESCRIPTION
#----------   ------------   ------------------------------
 EKB .F         5088.0000:   Kelly bushing
 EGL .F         5075.0000:   Ground level
 TD  .F         3218.0000:   Total depth
 CLNT.            A2DTECH:   Client Code
 SL  . 2310' FWL & 1650' FSL:   Surface Location
 PD  .                 GL:   Permanent Datum
 EPD .F              5075:   Elevation Permanent Datum
 LMF .                 KB:   Log Measured From
 DMF .                 KB:   Drilling Measured From
 DAPD.F                13:   Feet Above Permanent Datum
 DATE.        17-SEP-1975:   Date Logged [DD-MMM-YYYY]
 DD  .F              3218:   Depth driller
 DL  .F              3217:   Depth logger
 BLI .F              3215:   Bottom log interval
 TLI .F               395:   Top log interval
 CS1 .IN            8.625:   Casing size
 CBD1.      8.625" @ 393':   Casing driller 1
 CBL1.F               395:   Casing logger 1
 BS1 .IN            7.875:   Bit size
 BSD1.F              3218:   Depth drilled with bit1
 DFT .           CHEM GEL:   Type fluid in hole
 DFD .                9.5:   Density
 DFV .                 60:   Viscosity
 DFPH.                9.5:   pH
 DFL .                 11:   Fluid loss
 MSS .           FLOWLINE:   Source of sample
 RMS .OHMM           0.55:   Rm
 MST .F                60:   Rm Meas. temp.
 RMF .OHMM           0.48:   Rmf
 MFST.F                62:   Rmf Meas. temp.
 MFSS.               MEAS:   Source Rmf.
 RMC .OHMM            1.6:   Rmc
 MCST.F                62:   Rmc Meas. temp.
 MCSS.               MEAS:   Source Rmc.
 RMB .OHMM            0.3:   Rm. at BHT
 BHT .F               112:   BHT.
 TCS .HRS               5:   Time Circ. stopped
 MRT .F               112:   Maximum recorded temp.
 LUN .               6008:   Logging unit number
 LUL .              GLTTE:   Logging unit location
 ENGI.            MILHOAN:   Recorded By
 WITN.               WOLF:   Witnessed by
 ORIG.           5" PRINT:   Origin of data
 UWI .     49025102530000:   Unique Well ID
 DICO. A2DTECHNOLOGIES,INC.:   Digitizing Company
~OTHER INFORMATION
~A   DEPT     CALD       RHOB       CORR       TEND       NPHI         SPR         ILD        ILM        SFL      GRD   
# ...
  182.0000  -999.2500  -999.2500  -999.2500  -999.2500  -999.2500   -15.1150     3.0698     4.0319     4.1634  -999.2500
  182.5000  -999.2500  -999.2500  -999.2500  -999.2500  -999.2500   -15.2600     3.2475     4.1481     4.2249  -999.2500
  183.0000  -999.2500  -999.2500  -999.2500  -999.2500  -999.2500   -15.4057     3.4363     4.2083     4.2574  -999.2500
  183.5000  -999.2500  -999.2500  -999.2500  -999.2500  -999.2500   -15.4022     3.5857     4.2694     4.2901  -999.2500
  184.0000  -999.2500  -999.2500  -999.2500  -999.2500  -999.2500   -15.5486     3.6895     4.3016     4.3231  -999.2500
  184.5000  -999.2500  -999.2500  -999.2500  -999.2500  -999.2500   -15.6936     3.7700     4.3336     4.3564  -999.2500
  185.0000  -999.2500  -999.2500  -999.2500  -999.2500  -999.2500   -15.6909     3.7987     4.3353     4.3593  -999.2500
  185.5000  -999.2500  -999.2500  -999.2500  -999.2500  -999.2500   -15.8366     3.6963     4.3371     4.3623  -999.2500
  186.0000  -999.2500  -999.2500  -999.2500  -999.2500  -999.2500   -15.8336     3.5720     4.2785     4.3047  -999.2500
  186.5000  -999.2500  -999.2500  -999.2500  -999.2500  -999.2500   -15.9786     3.4515     4.1612     4.2776  -999.2500
  187.0000  -999.2500  -999.2500  -999.2500  -999.2500  -999.2500   -15.9758     3.2658     3.8284     4.1924  -999.2500
  187.5000  -999.2500  -999.2500  -999.2500  -999.2500  -999.2500   -15.9729     3.1118     3.4722     3.9671  -999.2500
  188.0000  -999.2500  -999.2500  -999.2500  -999.2500  -999.2500   -15.9700     2.9858     3.2843     3.7019  -999.2500
  188.5000  -999.2500  -999.2500  -999.2500  -999.2500  -999.2500   -15.9672     2.9461     3.1504     3.4064  -999.2500
  189.0000  -999.2500  -999.2500  -999.2500  -999.2500  -999.2500   -15.9643     2.9274     3.1738     3.3380  -999.2500
  189.5000  -999.2500  -999.2500  -999.2500  -999.2500  -999.2500   -15.9614     2.9917     3.4294     3.7100  -999.2500
  190.0000  -999.2500  -999.2500  -999.2500  -999.2500  -999.2500   -15.8100     3.1000     3.7387     3.9260  -999.2500
  190.5000  -999.2500  -999.2500  -999.2500  -999.2500  -999.2500   -15.9557     3.2802     4.0325     4.0683  -999.2500
  191.0000  -999.2500  -999.2500  -999.2500  -999.2500  -999.2500   -15.9521     3.5198     4.2369     4.2752  -999.2500
  191.5000  -999.2500  -999.2500  -999.2500  -999.2500  -999.2500   -16.2472     3.7768     4.4205     4.4612  -999.2500
  192.0000  -999.2500  -999.2500  -999.2500  -999.2500  -999.2500   -16.5408     3.9409     4.5162     4.5588  -999.2500
  192.5000  -999.2500  -999.2500  -999.2500  -999.2500  -999.2500   -16.8351     4.1161     4.6140     4.5939    57.5748
  193.0000  -999.2500  -999.2500  -999.2500  -999.2500  -999.2500   -17.1294     4.2025     4.6841     4.6618    56.4837
  193.5000  -999.2500  -999.2500  -999.2500  -999.2500  -999.2500   -17.4230     4.2345     4.7494     4.7313    56.2968
  194.0000  -999.2500  -999.2500  -999.2500  -999.2500  -999.2500   -17.5687     4.2668     4.7513     4.7677    59.0545
  194.5000  -999.2500  -999.2500  -999.2500  -999.2500  -999.2500   -17.7628     4.2694     4.7866     4.8044    59.3145
  195.0000  -999.2500  -999.2500  -999.2500  -999.2500  -999.2500   -18.0095     4.2720     4.8222     4.8077    58.8571
  195.5000  -999.2500  -999.2500  -999.2500  -999.2500  -999.2500   -18.1545     4.2746     4.8242     4.8447    58.8833
  196.0000  -999.2500  -999.2500  -999.2500  -999.2500     0.3625   -18.1516     4.2773     4.8261     4.8142    57.9475
  196.5000  -999.2500  -999.2500  -999.2500  -999.2500     0.3591   -18.1481     4.2800     4.8625     4.8175    56.7674
  197.0000  -999.2500  -999.2500  -999.2500  -999.2500     0.3582   -18.1452     4.2827     4.8645     4.8215    57.0327
  197.5000  -999.2500  -999.2500  -999.2500  -999.2500     0.3615   -18.1423     4.2856     4.8664     4.8248    58.0050
  198.0000  -999.2500  -999.2500  -999.2500  -999.2500     0.3569   -18.1395     4.2882     4.8684     4.8280    56.8354
  198.5000  -999.2500  -999.2500  -999.2500  -999.2500     0.3473   -18.1366     4.2908     4.8704     4.8313    55.8996
  199.0000  -999.2500  -999.2500  -999.2500  -999.2500     0.3418   -18.1337     4.2637     4.8723     4.8346    55.2031
  199.5000  -999.2500  -999.2500  -999.2500  -999.2500     0.3391   -18.1302     4.2668     4.8748     4.8718    56.4250
  200.0000  -999.2500  -999.2500  -999.2500  -999.2500     0.3384   -18.1273     4.2693     4.8768     4.8751    56.2068
  200.5000  -999.2500  -999.2500  -999.2500  -999.2500     0.3442   -18.1244     4.2716     4.8787     4.8785    55.0319
  201.0000  -999.2500  -999.2500  -999.2500  -999.2500     0.3477   -18.1216     4.2745     4.8461     4.9167    54.5692
  201.5000  -999.2500  -999.2500  -999.2500  -999.2500     0.3519   -18.1189     4.2771     4.8143     4.9200    55.3129
  202.0000  -999.2500  -999.2500  -999.2500  -999.2500     0.3687   -18.1159     4.2797     4.7831     4.8542    56.5296
  202.5000  -999.2500  -999.2500  -999.2500  -999.2500     0.3627   -17.6402     4.2824     4.7851     4.7575    57.2680
  203.0000  -999.2500  -999.2500  -999.2500  -999.2500     0.3626   -17.4836     4.3156     4.7874     4.7268    57.0420
  203.5000  -999.2500  -999.2500  -999.2500  -999.2500     0.3674   -17.3271     4.3182     4.8569     4.7974    56.5572
  204.0000  -999.2500  -999.2500  -999.2500  -999.2500     0.3719   -17.3191     4.3209     4.9274     4.9368    56.3741
  204.5000  -999.2500  -999.2500  -999.2500  -999.2500     0.3728   -17.3112     4.3235     4.9294     5.0809    56.4002
  205.0000  -999.2500  -999.2500  -999.2500  -999.2500     0.3854   -17.3031     4.1485     4.8970     5.1559    55.4645
  205.5000  -999.2500  -999.2500  -999.2500  -999.2500     0.3804   -17.4438     3.8262     4.5504     5.2320    54.0504
  206.0000  -999.2500  -999.2500  -999.2500  -999.2500     0.3666   -17.4338     3.6971     4.2454     5.1982    53.5878
  206.5000  -999.2500  -999.2500  -999.2500  -999.2500     0.3702   -17.5765     3.6743     4.0735     4.9198    53.6139
  207.0000  -999.2500  -999.2500  -999.2500  -999.2500     0.3708   -17.7171     3.7039     3.9360     4.3940    54.1132
  207.5000  -999.2500  -999.2500  -999.2500  -999.2500     0.3605   -18.0043     3.7855     3.9105     3.9589    54.6129
  208.0000  -999.2500  -999.2500  -999.2500  -999.2500     0.3611   -18.1469     3.8975     4.4087     3.7979    54.6386
  208.5000  -999.2500  -999.2500  -999.2500  -999.2500     0.3821   -18.5827     4.0419     4.9728     4.7528    54.8986
  209.0000  -999.2500  -999.2500  -999.2500  -999.2500     0.3791   -19.0205     4.2744     5.2603     5.6237    55.1587
  209.5000  -999.2500  -999.2500  -999.2500  -999.2500     0.3742   -19.4583     4.4923     5.4515     6.1190    55.1796
  210.0000  -999.2500  -999.2500  -999.2500  -999.2500     0.3669   -20.0545     4.7214     5.6893     6.3430    55.2005
  210.5000  -999.2500  -999.2500  -999.2500  -999.2500     0.3700   -20.4825     4.9970     5.9375     6.5241    54.7431
  211.0000  -999.2500  -999.2500  -999.2500  -999.2500     0.3618   -20.9183     5.2886     6.1533     6.5734    53.8074
  211.5000  -999.2500  -999.2500  -999.2500  -999.2500     0.3527   -21.2075     5.5196     6.3324     6.6696    53.8284
  212.0000  -999.2500  -999.2500  -999.2500  -999.2500     0.3524   -21.3501     5.6808     6.3813     6.7671    54.5993
  212.5000  -999.2500  -999.2500  -999.2500  -999.2500     0.3454   -21.4888     5.8466     6.4382     6.8661    54.8320
  213.0000  -999.2500  -999.2500  -999.2500  -999.2500     0.3445   -21.4808     6.0594     6.8547     7.1141    54.3746
  213.5000  -999.2500  -999.2500  -999.2500  -999.2500     0.3496   -21.4728     6.4134     7.3570     7.5272    54.1511
  214.0000  -999.2500  -999.2500  -999.2500  -999.2500     0.3529   -21.4649     6.7491     7.7862     8.1995    53.9329
  214.5000  -999.2500  -999.2500  -999.2500  -999.2500     0.3265   -21.4569     7.1519     8.1259     9.8892    52.9972
  215.0000  -999.2500  -999.2500  -999.2500  -999.2500     0.3239   -21.3001     7.6577     8.3041    11.3883    53.0233
