~VERSION INFORMATION
 VERS.                2.0:   CWLS LOG ASCII STANDARD - VERSION 2.0
 WRAP.                 NO:   ONE LINE PER DEPTH STEP
~WELL INFORMATION
#MNEM.UNIT      DATA TYPE    INFORMATION
#----------   ------------   ------------------------------
 STRT.F           46.5000:   START DEPTH
 STOP.F         3160.0000:   STOP DEPTH
 STEP.F            0.5000:   STEP LENGTH
 NULL.          -999.2500:   NO VALUE
 COMP. LAWRENCE ALLISON & WEST:   COMPANY
 WELL. LAWRENCE NPR 3 "AX" #42-34:   WELL
 FLD .                NPR:   FIELD
 LOC .      S34 T39N R78W:   LOCATION
 CNTY.            NATRONA:   COUNTY
 STAT.            WYOMING:   STATE
 CTRY. UNITED STATES OF AMERICA:   COUNTRY
 SRVC.      WESTERN ATLAS:   SERVICE COMPANY
 DATE.        19-OCT-1987:   LOGDATE
 API .     49025111830000:   API NUMBER
~CURVE INFORMATION
#MNEM.UNIT       API CODE    CURVE DESCRIPTION
#----------   ------------   ------------------------------
 DEPT.F                  :   
 CALD.IN     45 280 60 00:   CALIPER FROM DENSITY LOG
 DEN .LBS    45 635 01 00:   BUCK DENSITY
 CORR.G/C3   45 356 01 00:   DENSITY CORRECTION
 NPOR.DEC    42 890 03 00:   ALPHA PROCESSED NEUTRON POROSITY
 SPR .MV     07 010 01 00:   SPONTANEOUS POTENTIAL
 GRR .GAPI   07 310 01 00:   GAMMA RAY FROM RESISTIVITY
 RFOC.OHMM   07 220 04 00:   RESISTIVITY FOCUSED LOG RES.
 RILD.OHMM   07 120 46 00:   DEEP INDUCTION RESISTIVITY
 RILM.OHMM   07 120 44 00:   INDUCTION LOG MEDIUM RESISTIVITY
 TENR.LBS    07 635 01 00:   TENSION FROM RESISTIVITY
~PARAMETER INFORMATION
#MNEM.UNIT          VALUE    DESCRIPTION
#----------   ------------   ------------------------------
 EKB .F         5088.0000:   Kelly bushing
 EGL .F         5077.0000:   Ground level
 EDF .F         5087.0000:   Drilling floor
 TD  .F         3151.0000:   Total depth
 DATE.        19-OCT-1987:   Date logged
 CLNT.            A2DTECH:   Client Code
 SL  . 1032' FNL & 2316' FWL:   Surface Location
 PD  .                 GL:   Permanent Datum
 EPD .F              5077:   Elevation Permanent Datum
 LMF .                 KB:   Log Measured From
 DMF .                 KB:   Drilling Measured From
 DAPD.F                11:   Feet Above Permanent Datum
 DD  .F              3151:   Depth driller
 DL  .F              3151:   Depth logger
 BLI .F              3149:   Bottom log interval
 TLI .F                50:   Top log interval
 CS1 .IN            8.625:   Casing size
 CBD1.      8.625" @ 693':   Casing driller 1
 CBL1.F               693:   Casing logger 1
 BS1 .IN            7.875:   Bit size
 BSD1.F              3151:   Depth drilled with bit1
 DFT .        KCL/POLYMER:   Type fluid in hole
 DFD .                9.2:   Density
 DFV .                 53:   Viscosity
 DFPH.                9.5:   pH
 DFL .               11.8:   Fluid loss
 MSS .            MUD/PIT:   Source of sample
 RMS .OHMM           .441:   Rm
 MST .F                66:   Rm Meas. temp.
 RMF .OHMM           .336:   Rmf
 MFST.F                66:   Rmf Meas. temp.
 RMC .OHMM           .711:   Rmc
 MCST.F                66:   Rmc Meas. temp.
 MFSS.               MEAS:   Source Rmf.
 MCSS.               MEAS:   Source Rmc.
 RMB .OHMM           .244:   Rm. at BHT
 BHT .F               119:   BHT.
 TCS .HRS               3:   Time Circ. stopped
 MRT .F               119:   Maximum recorded temp.
 LUN .            HL-6343:   Logging unit number
 LUL .               CODY:   Logging unit location
 ENGI.               JULL:   Recorded By
 WITN.             STRONG:   Witnessed by
 ORIG.           5" PRINT:   Origin of data
 UWI .     49025111830000:   Unique Well ID
 DICO. A2D TECHNOLOGIES, INC.:   Digitizing Company
~OTHER INFORMATION
~A   DEPT     CALD        DEN       CORR       NPOR        SPR         GRR      RFOC       RILD       RILM       TENR   
# ...
 2324.5000     8.3276     2.4543     0.0508     0.2881   -28.2056   129.0294    12.6565     7.7557     7.1989  -116.0918
 2325.0000     8.3065     2.4472     0.0084     0.2897   -27.8064   133.4648    11.1074     8.0482     7.7539  -105.7316
 2325.5000     8.3056     2.4482     0.0001     0.2909   -27.2075   137.4960     9.9328     7.9711     6.9970   -95.3714
 2326.0000     8.2644     2.4471     0.0021     0.3002   -26.8096   143.9540    10.0229     7.7402     6.7396  -105.2335
 2326.5000     8.2032     2.4441     0.0080     0.3088   -26.4117   146.3670     9.9278     7.5160     6.6141   -94.8236
 2327.0000     8.2427     2.4329     0.0362     0.3108   -25.4048   147.1681     8.8767     7.3255     6.4902  -104.6856
 2327.5000     8.2823     2.4147     0.0503     0.3084   -23.5924   149.5820     7.3684     7.0560     6.3100  -104.4366
 2328.0000     8.3009     2.3995     0.1148     0.2995   -23.0298   151.5914     7.1639     6.7965     6.0215   -94.0764
 2328.5000     8.2395     2.3762     0.0641     0.2878   -22.7950   152.7920     7.6442     6.3071     5.7462  -103.9385
 2329.0000     8.2190     2.3762    -0.0026     0.2907   -22.5992   153.5881     8.9511     5.5702     5.3823  -103.6895
 2329.5000     8.2778     2.3994    -0.0047     0.2923   -21.9988   153.9797     8.8009     4.9346     4.8124  -103.4404
 2330.0000     8.3171     2.4993     0.0335     0.2911   -21.6007   154.7714     6.2825     4.3310     4.3832  -103.1914
 2330.5000     8.3366     2.5103     0.0274     0.2875   -20.8004   151.5197     5.5148     3.9550     3.6370  -102.9423
 2331.0000     8.3198     2.5063     0.0072     0.2980   -19.9990   151.1023     5.0707     3.7953     3.6365   -92.5822
 2331.5000     8.3143     2.4820    -0.0030     0.3025   -19.8031   143.4030     4.7941     3.6697     3.4703  -102.4443
 2332.0000     8.2933     2.4809    -0.0092     0.3057   -19.8095   138.1307     4.4909     3.5019     3.4055  -112.3063
 2332.5000     8.2931     2.4869    -0.0153     0.2900   -20.0181   134.4765     4.0910     3.4047     3.3109   -91.8350
 2333.0000     8.3316     2.4980    -0.0013     0.2823   -20.2268   133.2495     4.4473     3.4041     3.1891  -101.6971
 2333.5000     8.3106     2.5030     0.0047     0.2815   -20.6390   131.6179     5.1120     3.4031     3.2183  -101.3983
 2334.0000     8.3498     2.5029     0.0167     0.2896   -21.0487   130.7954     5.5055     3.4023     3.2174  -101.1492
 2334.5000     8.2752     2.5019    -0.0016     0.2913   -20.8528   132.8050     5.0155     3.4251     3.3700  -100.9002
 2335.0000     8.2674     2.5019     0.0023     0.2893   -21.0615   133.2009     4.7865     3.5541     3.4647  -100.6511
 2335.5000     8.3470     2.5068     0.0003     0.2840   -21.4725   129.1342     4.6972     3.5863     3.6290  -100.4021
 2336.0000     8.2856     2.5068     0.0002     0.2792   -21.2754   124.2655     4.8741     3.7564     3.6621  -100.1531
 2336.5000     8.2244     2.5209     0.0000     0.2788   -22.9016   123.4427     5.1050     3.7208     3.6956   -99.9040
 2337.0000     8.1833     2.5249     0.0080     0.2780   -23.7185   123.4292     5.3468     3.8609     3.8349  -109.7661
 2337.5000     8.2300     2.5248     0.0140     0.2781   -24.9389   121.3925     5.3456     3.8961     3.8699   -99.4059
 2338.0000     8.3020     2.5137    -0.0063     0.2789   -25.3501   118.1418     5.1973     3.9682     3.9416   -99.1569
 2338.5000     8.3010     2.5025    -0.0124     0.2789   -25.5589   115.2956     5.2444     3.9673     3.9407   -98.9078
 2339.0000     8.2607     2.5035    -0.0206     0.2789   -25.7677   116.4959     5.1466     4.0035     3.9766   -98.6588
 2339.5000     8.1985     2.5045    -0.0086     0.2790   -25.9765   119.7197     5.1454     4.0025     3.9757   -98.4098
 2340.0000     8.2378     2.5054    -0.0147     0.2770   -26.3877   121.7295     5.1923     3.9279     3.9015   -77.8887
 2340.5000     8.2370     2.5003    -0.0024     0.2770   -26.3890   121.3113     5.2886     3.9637     3.9371   -87.7507
 2341.0000     8.2621     2.4892    -0.0049     0.2802   -27.2102   122.5119     5.1419     3.9261     3.8997   -97.6128
 2341.5000     8.2752     2.4760    -0.0090     0.2815   -27.4190   123.3078     4.9071     3.9619     3.9353   -97.3638
 2342.0000     8.1939     2.4679    -0.0556     0.2847   -27.0209   123.6963     4.9518     3.9980     3.9712   -97.1147
 2342.5000     8.1937     2.4719    -0.0536     0.2860   -26.6227   125.7064     5.0908     4.0721     4.0449   -96.8657
 2343.0000     8.3125     2.4820    -0.0456     0.2872   -25.6173   130.1450     5.3818     4.1092     4.0818  -106.7278
 2343.5000     8.3317     2.4940     0.0289     0.2868   -25.0167   135.7980     5.3805     4.1854     4.1576  -106.4787
 2344.0000     8.3505     2.4990     0.0248     0.2755   -24.8221   141.4486     5.3793     4.3431     4.3144   -86.0075
 2344.5000     8.3300     2.4980     0.0025     0.2763   -25.0271   137.7953     5.5819     4.4235     4.3943   -95.8695
 2345.0000     8.2686     2.4979    -0.0035     0.2808   -25.2399   134.1392     5.6326     4.4638     4.4344   -95.6205
 2345.5000     8.2675     2.4989    -0.0158     0.2824   -25.2463   130.8877     5.6313     4.5588     4.4749  -105.4826
 2346.0000     8.3469     2.5039    -0.0018     0.2841   -24.6457   127.6361     5.4750     4.5212     4.3506  -105.2335
 2346.5000     8.3058     2.5069     0.0147     0.2853   -24.0450   124.7892     5.4231     4.4314     4.2297   -94.8236
 2347.0000     8.3049     2.5028     0.0363     0.2890   -23.8477   122.3469     5.5237     4.2683     4.1123   -94.5745
 2347.5000     8.3047     2.4997     0.0423     0.2914   -23.0433   121.5238     5.4206     4.1498     3.9981   -94.3255
 2348.0000     8.2428     2.4926     0.0483     0.3023   -22.6475   122.3199     5.3692     4.0343     3.8153  -114.2987
 2348.5000     8.2621     2.4905     0.0219     0.3040   -22.4515   125.1374     4.4983     3.8958     3.7093  -103.9385
 2349.0000     8.3409     2.4996     0.0198     0.3024   -21.7543   132.4109     4.1361     3.7085     3.5729  -103.6895
 2349.5000     8.3605     2.5126     0.0298     0.3024   -21.4523   136.0412     4.0589     3.5389     3.4095  -103.4404
 2350.0000     8.3595     2.5287     0.0217     0.2968   -21.4574   138.4596     4.1728     3.3771     3.2235   -82.9691
 2350.5000     8.3186     2.5287    -0.0006     0.2964   -20.0481   137.6341     4.3300     3.2228     3.1929  -113.0535
 2351.0000     8.3173     2.5266     0.0134     0.2992   -19.8521   129.9285     4.3695     2.9906     3.0185  -102.6933
 2351.5000     8.3565     2.5246     0.0234     0.3005   -19.8598   126.6761     4.2481     2.8012     2.8806   -92.1837
 2352.0000     8.3759     2.5114     0.0314     0.3184   -19.8649   121.8041     3.9793     2.5754     2.6981   -92.0841
 2352.5000     8.3346     2.4942     0.0514     0.3300   -19.6701   121.3857     3.7276     2.4349     2.5273   -91.8350
 2353.0000     8.2533     2.4689     0.0352     0.3422   -19.6752   121.7744     3.0370     2.4116     2.4343  -101.6971
 2353.5000     8.2729     2.4639     0.0190     0.3286   -19.4804   122.5733     2.8186     2.3908     2.4565  -101.3983
 2354.0000     8.4121     2.4800     0.0028     0.2961   -20.7015   127.8237     2.5916     2.3883     2.5255  -111.2604
 2354.5000     8.3710     2.5243     0.0087     0.2921   -21.3153   135.9086     3.1793     2.3656     2.5724  -100.9002
 2355.0000     8.3100     2.5293     0.0308     0.2885   -21.7266   139.5397     3.7933     2.3651     2.6202  -100.6511
 2355.5000     8.3088     2.5282     0.0327     0.2913   -21.7331   130.2104     4.0476     2.3645     2.6196  -100.4021
 2356.0000     8.3281     2.5282     0.0124     0.2930   -21.3345   123.7125     4.0466     2.3861     2.6190  -110.2642
 2356.5000     8.3671     2.5292     0.0022     0.2950   -21.3409   127.3489     3.8618     2.6372     2.6429   -99.9040
 2357.0000     8.3866     2.5271     0.0062     0.2914   -21.1449   129.7653     3.5509     2.7366     2.6920   -99.6550
 2357.5000     8.3505     2.5412     0.0122     0.2862   -21.1462   131.7768     3.5499     2.8133     2.7418   -99.4059
