~VERSION INFORMATION
 VERS.                2.0:   CWLS LOG ASCII STANDARD - VERSION 2.0
 WRAP.                 NO:   ONE LINE PER DEPTH STEP
~WELL INFORMATION
#MNEM.UNIT      DATA TYPE    INFORMATION
#----------   ------------   ------------------------------
 STRT.F          216.0000:   START DEPTH
 STOP.F         3184.0000:   STOP DEPTH
 STEP.F            0.5000:   STEP LENGTH
 NULL.          -999.2500:   NO VALUE
 COMP.    FENIX & SCISSON:   COMPANY
 WELL. FENIX & SCISSON INCNRP "A" #311-14:   WELL
 FLD .                NPR:   FIELD
 LOC .      S14 T38N R78W:   LOCATION
 CNTY.            NATRONA:   COUNTY
 STAT.            WYOMING:   STATE
 CTRY. UNITED STATES OF AMERICA:   COUNTRY
 SRVC.              WELEX:   SERVICE COMPANY
 DATE.        22-JUN-1977:   LOGDATE
 API .     49025103810000:   API NUMBER
~CURVE INFORMATION
#MNEM.UNIT       API CODE    CURVE DESCRIPTION
#----------   ------------   ------------------------------
 DEPT.F                  :   
 CALD.IN     45 280 60 00:   CALIPER FROM DENSITY LOG
 GRD .GAPI   45 310 01 00:   GAMMA RAY FROM DENSITY LOG
 DPHI.DEC    45 890 12 00:   DENSITY POROSITY SANDSTONE
 RHOB.G/C3   45 350 01 00:   BULK DENSITY
 CORR.G/C3   45 356 01 00:   DENSITY CORRECTION
 SPR .MV     07 010 01 00:   SPONTANEOUS POTENTIAL
 SFLU.OHMM   07 220 01 00:   SPHERICALLY FOCUSED LOG UNAVERAGED RESISTIVITY
 ILD .OHMM   07 120 46 00:   DEEP INDUCTION RESISTIVITY
 ILM .OHMM   07 120 44 00:   INDUCTION LOG MEDIUM RESISTIVITY
~PARAMETER INFORMATION
#MNEM.UNIT          VALUE    DESCRIPTION
#----------   ------------   ------------------------------
 EKB .F         5225.0000:   Kelly bushing
 EGL .F         5215.0000:   Ground level
 TD  .F         3183.0000:   Total depth
 DATE.        22-JUN-1977:   Date logged
 CLNT.            A2DTECH:   Client Code
 CTRY.                USA:   Country
 SL  . 330' FNL & 330' FWL:   Surface Location
 PD  .                 GL:   Permanent Datum
 EPD .F              5215:   Elevation Permanent Datum
 LMF .                 KB:   Log Measured From
 DMF .                 KB:   Drilling Measured From
 DAPD.F                10:   Feet Above Permanent Datum
 DD  .F              3178:   Depth driller
 DL  .F              3183:   Depth logger
 BLI .F              3181:   Bottom log interval
 TLI .F                20:   Top log interval
 CS1 .IN            8.625:   Casing size
 CBD1.      8.625" @ 217':   Casing driller 1
 BS1 .IN            7.875:   Bit size
 BSD1.F              3178:   Depth drilled with bit1
 DFT .            KCL MUD:   Type fluid in hole
 DFD .                9.5:   Density
 DFV .                 40:   Viscosity
 DFPH.                7.5:   pH
 DFL .               13.6:   Fluid loss
 MSS .           FLOWLINE:   Source of sample
 RMS .OHMM            .36:   Rm
 MST .F                80:   Rm Meas. temp.
 RMF .OHMM            .30:   Rmf
 MFST.F                80:   Rmf Meas. temp.
 RMC .OHMM            .86:   Rmc
 MCST.F                80:   Rmc Meas. temp.
 MFSS.               FANN:   Source Rmf.
 MCSS.                KIT:   Source Rmc.
 RMB .OHMM            .25:   Rm. at BHT
 BHT .F               114:   BHT.
 TCS .HRS             2.5:   Time Circ. stopped
 MRT .F               114:   Maximum recorded temp.
 LUN .               8766:   Logging unit number
 LUL .             CASPER:   Logging unit location
 ENGI.          T. TOYNER:   Recorded By
 WITN.      B. HARRINGTON:   Witnessed by
 PWI .                  -:   Primary Well Identifier
 ORIG.           5" PRINT:   Origin of data
 UWI .     49025103810000:   Unique Well ID
 DICO. A2D TECHNOLOGIES, INC.:   Digitizing Company
~OTHER INFORMATION
~A   DEPT       CALD       GRD        DPHI       RHOB       CORR      SPR         SFLU      ILD        ILM   
# ...
 2734.5000     8.2802    69.3612     0.1488     2.4030     0.0272   -33.8882    13.3851     9.3512     9.0009
 2735.0000     8.3003    68.9676     0.1492     2.4030     0.0232   -34.2885    14.4047     9.3492     9.0828
 2735.5000     8.3204    68.9716     0.1512     2.4020     0.0232   -34.2907    14.1399     9.4340     9.1653
 2736.0000     8.3405    69.3732     0.1516     2.3990     0.0193   -34.6911    12.7775     9.4326     9.5076
 2736.5000     8.3804    69.3772     0.1508     2.4020     0.0193   -34.6933    12.4278     9.8749     9.6828
 2737.0000     8.4005    70.1764     0.1416     2.4130     0.0173   -35.0937    13.0105    10.1495    10.0444
 2737.5000     8.3808    70.1802     0.1388     2.4220     0.0193   -35.4930    13.8734    10.2416    10.7113
 2738.0000     8.4009    71.7748     0.1356     2.4270     0.0212   -36.2905    14.7935    10.3346    11.3181
 2738.5000     8.4210    73.3692     0.1344     2.4300     0.0212   -36.2928    14.9278    10.8192    11.8492
 2739.0000     8.4411    74.9638     0.1320     2.4320     0.0193   -37.0904    14.7888    10.9175    12.5200
 2739.5000     8.4214    75.3654     0.1304     2.4350     0.0212   -37.4898    14.7864    11.1184    13.1076
 2740.0000     8.4613    77.3574     0.1264     2.4340     0.0212   -39.0817    15.0585    11.1170    14.9076
 2740.5000     8.4615    78.1566     0.1244     2.4410     0.0212   -39.4812    16.6588    11.3215    15.3224
 2741.0000     8.4816    78.9558     0.1216     2.4460     0.0193   -40.2789    19.1203    11.4243    15.5360
 2741.5000     8.5015    78.5622     0.1216     2.4510     0.0212   -40.6784    19.1173    10.8090    14.9724
 2742.0000     8.5814    78.5662     0.1240     2.4370     0.0193   -41.0791    16.1978    10.8076    13.9067
 2742.5000     8.5816    78.9678     0.1312     2.4330     0.0173   -41.4786    13.8513    10.6087    13.4022
 2743.0000     8.6017    80.9598     0.1332     2.4320     0.0153   -42.6736    12.9853    10.4143    12.4475
 2743.5000     8.6019    82.1568     0.1320     2.4340     0.0153   -43.0744    12.9837    10.0820    12.2196
 2744.0000     8.6419    85.3418     0.1304     2.4360     0.0193   -43.0767    12.9816     9.7603    11.5608
 2744.5000     8.6818    85.3434     0.1316     2.4350     0.0232   -43.0802    12.5108     9.4071    11.3484
 2745.0000     8.7018    84.9520     0.1324     2.4330     0.0252   -43.0826    12.1685     9.4059    11.1386
 2745.5000     8.7220    86.5466     0.1328     2.4310     0.0252   -43.0861    11.8355     9.3183    10.8827
 2746.0000     8.7421    88.9354     0.1328     2.4320     0.0232   -42.6912    11.7253     8.8982    11.0835
 2746.5000     8.7421    89.3354     0.1348     2.4290     0.0212   -42.6936    12.1627     8.9790    11.7109
 2747.0000     8.7623    89.3394     0.1351     2.4280     0.0212   -42.2998    12.3865     8.8954    11.7091
 2747.5000     8.7824    88.5498     0.1344     2.4290     0.0232   -42.3021    12.6144     8.8940    11.8155
 2748.0000     8.7826    86.5664     0.1332     2.4290     0.0232   -41.5111    12.6124     8.8112    11.5981
 2748.5000     8.7828    86.1726     0.1356     2.4250     0.0232   -41.5134    12.6104     8.8098    11.2805
 2749.0000     8.8029    85.7790     0.1408     2.4190     0.0193   -41.5186    12.2653     8.6479    10.7711
 2749.5000     8.7832    85.3854     0.1420     2.4150     0.0193   -41.5203    11.1860     8.4113    10.3801
 2750.0000     8.7834    86.1846     0.1444     2.4110     0.0093   -41.5227    10.9804     8.4100    10.3788
 2750.5000     8.7654    86.5274     0.1410     2.4149     0.0170   -41.9229    10.6796     8.1050    10.0942
 2751.0000     8.7641    87.3856     0.1392     2.4220     0.0193   -42.7205    10.3874     8.0296     9.6387
 2751.5000     8.7644    90.1732     0.1356     2.4260     0.0214   -42.7229    10.3858     7.8820     8.9530
 2752.0000     8.7647    87.8926     0.1344     2.4300     0.0194   -43.1237    10.4804     7.5962     8.7883
 2752.5000     8.7650    87.4968     0.1328     2.4330     0.0194   -43.5246    10.8713     7.3884     8.7869
 2753.0000     8.7653    88.1988     0.1284     2.4351     0.0195   -43.5270    10.3809     6.9903     8.6252
 2753.5000     8.7655    89.3958     0.1260     2.4381     0.0215   -43.9279    10.2842     6.7997     8.2359
 2754.0000     8.7460    90.1954     0.1244     2.4411     0.0235   -43.5329    10.5702     6.5866     8.0851
 2754.5000     8.7463    90.9948     0.1228     2.4451     0.0236   -43.5364    10.8645     6.3802     7.7195
 2755.0000     8.7466    90.2042     0.1212     2.4481     0.0256   -42.7440    10.2800     6.1803     7.3037
 2755.5000     8.7468    89.0162     0.1200     2.4611     0.0276   -42.7463     9.1300     5.9743     6.9098
 2756.0000     8.7073    87.0336     0.1199     2.4561     0.0337   -40.7627     8.1658     5.9187     6.6589
 2756.5000     8.7077    86.2432     0.1203     2.4511     0.0337   -40.3676     7.7977     5.9724     6.7195
 2757.0000     8.6880    84.6582     0.1215     2.4462     0.0352   -39.1787     7.7251     6.0823     7.4345
 2757.5000     8.6685    82.6758     0.1243     2.4432     0.0378   -38.7835     8.8661     6.1942     8.4559
 2758.0000     8.6290    82.2832     0.1255     2.4412     0.0398   -36.4021    10.1760     6.4255     9.0173
 2758.5000     8.6293    80.3010     0.1271     2.4392     0.0418   -35.2120    12.6865     6.9787     9.8851
 2759.0000     8.5899    78.3192     0.1291     2.4382     0.0419   -34.4192    13.1597     7.5103    10.3490
 2759.5000     8.5703    77.1320     0.1315     2.4342     0.0399   -33.2300    13.1572     7.9350    10.7358
 2760.0000     8.5508    72.7666     0.1339     2.4313     0.0399   -31.6422    12.7976     8.3837    11.2395
 2760.5000     8.5312    70.7852     0.1343     2.4303     0.0400   -30.4529    12.5624     8.9396    11.5523
 2761.0000     8.5116    67.6120     0.1347     2.4293     0.0420   -29.4618    12.3316     9.2730    11.8738
 2761.5000     8.4921    64.8364     0.1351     2.4283     0.0401   -27.8743    12.5584     9.7078    11.8719
 2762.0000     8.4725    62.4584     0.1371     2.4263     0.0401   -26.6843    12.9076     9.7959    11.7613
 2762.5000     8.4331    61.6694     0.1375     2.4233     0.0381   -25.2944    13.0248     9.8848    11.5450
 2763.0000     8.4135    60.0860     0.1403     2.4194     0.0362   -24.5024    12.0992     9.8832    11.0241
 2763.5000     8.3940    58.9000     0.1442     2.4144     0.0342   -23.3117    11.1366     9.8817    10.5266
 2764.0000     8.3546    58.1114     0.1462     2.4104     0.0303   -21.3269    10.8319     9.6113     9.5993
 2764.5000     8.3151    58.1170     0.1470     2.4084     0.0283   -20.9313    10.7308     9.5222     9.3364
 2765.0000     8.2956    58.1228     0.1482     2.4064     0.0283   -20.5366    11.0295     9.3469     8.9975
 2765.5000     8.2562    56.1428     0.1482     2.4034     0.0283   -20.5386    11.4408     9.1752     8.6709
 2766.0000     8.2167    53.3686     0.1474     2.4065     0.0284   -20.5415    11.8675     9.0898     8.4334
 2766.5000     8.2171    52.9774     0.1470     2.4085     0.0284   -20.5434    11.8656     9.0052     7.8334
 2767.0000     8.1777    53.3804     0.1466     2.4085     0.0302   -20.5464    11.4354     8.9214     7.7612
 2767.5000     8.1582    52.9892     0.1466     2.4085     0.0325   -21.1453    10.8199     8.9200     7.6881
 2768.0000     8.1783    52.5980     0.1458     2.4095     0.0345   -21.7442    10.2367     8.8370     7.6165
 2768.5000     8.1588    51.8100     0.1436     2.4125     0.0366   -23.3388    10.4263     8.9172     7.6153
 2769.0000     8.0994    50.2278     0.1418     2.4155     0.0366   -24.5328    10.8396     8.9158     7.6141
 2769.5000     8.0800    49.0426     0.1414     2.4175     0.0386   -25.3301    11.2692     9.0798     7.6833
 2770.0000     8.0604    46.2698     0.1422     2.4156     0.0387   -26.1285    11.7436     9.2469     7.7532
 2770.5000     8.0211    46.2760     0.1430     2.4146     0.0387   -26.9270    11.7425     9.5039     7.9690
