~VERSION INFORMATION
 VERS.                2.0:   CWLS LOG ASCII STANDARD - VERSION 2.0
 WRAP.                 NO:   ONE LINE PER DEPTH STEP
~WELL INFORMATION
#MNEM.UNIT      DATA TYPE    INFORMATION
#----------   ------------   ------------------------------
 STRT.F           10.5000:   START DEPTH
 STOP.F         5650.0000:   STOP DEPTH
 STEP.F            0.5000:   STEP LENGTH
 NULL.          -999.2500:   NO VALUE
 COMP.    FENIX & SCISSON:   COMPANY
 WELL. FENIX NPR 3 "LX" #56-3:   WELL
 FLD .              N P R:   FIELD
 LOC .       S3 T38N R78W:   LOCATION
 CNTY.            NATRONA:   COUNTY
 STAT.            WYOMING:   STATE
 CTRY. UNITED STATES OF AMERICA:   COUNTRY
 SRVC.              WELEX:   SERVICE COMPANY
 DATE.        13-JUN-1978:   LOGDATE
 API .     49025109250000:   API NUMBER
~CURVE INFORMATION
#MNEM.UNIT       API CODE    CURVE DESCRIPTION
#----------   ------------   ------------------------------
 DEPT.F                  :   
 NPHI.DEC    42 890 03 00:   NEUTRON POROSITY SANDSTONE
 SPR .MV     07 010 01 00:   SPONTANEOUS POTENTIAL
 ILD .OHMM   07 120 46 00:   DEEP INDUCTION RESISTIVITY
 ILM .OHMM   07 120 44 00:   INDUCTION LOG MEDIUM RESISTIVITY
 SFL .OHMM   07 220 01 00:   SHALLOW FOCUSED LOG RESISTIVITY
 GRD .GAPI   45 310 01 00:   GAMMA RAY FROM DENSITY LOG
 CALD.IN     45 280 60 00:   CALIPER FROM DENSITY LOG
 RHOB.G/C3   45 350 01 00:   BULK DENSITY
 CORR.G/C3   45 356 01 00:   DENSITY CORRECTION
~PARAMETER INFORMATION
#MNEM.UNIT          VALUE    DESCRIPTION
#----------   ------------   ------------------------------
 EKB .F         5181.0000:   Kelly bushing
 EGL .F         5171.0000:   Ground level
 EDF .F         5180.0000:   Drilling floor
 TD  .F         5644.0000:   Total depth
 DATE.        13-JUN-1978:   Date logged
 CLNT.            A2DTECH:   Client Code
 SL  . 1980' FSL & 2080' FEL:   Surface Location
 PD  .                 GL:   Permanent Datum
 EPD .F              5171:   Elevation Permanent Datum
 LMF .                 KB:   Log Measured From
 DMF .                 KB:   Drilling Measured From
 DD  .F              5640:   Depth driller
 DL  .F              5644:   Depth logger
 BLI .F              5638:   Bottom log interval
 TLI .F              3093:   Top log interval
 CS1 .IN            8.625:   Casing size
 CBD1.      8.625" @ 545':   Casing driller 1
 BS1 .IN            7.875:   Bit size
 DFT .                FGM:   Type fluid in hole
 DFD .                9.2:   Density
 DFV .                 52:   Viscosity
 DFPH.                 11:   pH
 DFL .                5.2:   Fluid loss
 MSS .           MUD/TANK:   Source of sample
 RMS .OHMM           0.59:   Rm
 MST .F                80:   Rm Meas. temp.
 RMF .OHMM           0.48:   Rmf
 MFST.F                80:   Rmf Meas. temp.
 MFSS.               MEAS:   Source Rmf.
 RMB .OHMM           0.29:   Rm. at BHT
 BHT .F               162:   BHT.
 TCS .HRS            1200:   Time Circ. stopped
 MRT .F               162:   Maximum recorded temp.
 LUN .               7675:   Logging unit number
 LUL .               CODY:   Logging unit location
 ENGI.               BOND:   Recorded By
 ORIG.           5" PRINT:   Origin of data
 UWI .     49025109250000:   Unique Well ID
 DICO. A2D TECHNOLOGIES, INC.:   Digitizing Company
 DAPD.F                10:   Feet Above Permanent Datum
 BSD1.F              5640:   Depth drilled with bit1
 TLAB.HRS            1630:   Time logger at bottom
~OTHER INFORMATION
~A  DEPTH     NPHI        SPR        ILD        ILM        SFL        GRD       CALD       RHOB       CORR
# ...
 1215.0000     0.3200   -33.3110     9.9480     8.0340     9.5010    96.2780    11.2490     2.5290     0.0100
 1215.5000     0.3230   -33.1140     9.9730     8.0440     9.5270    97.0360    11.2600     2.5300     0.0130
 1216.0000     0.3250   -32.9180     9.9970     8.0540     9.5520    97.8250    11.2390     2.5380     0.0160
 1216.5000     0.3280   -32.7200    10.0220     8.0640     9.5780    98.6020    11.2210     2.5260     0.0170
 1217.0000     0.3310   -32.5250    10.0460     8.0750     9.6030    99.0940    11.2020     2.5370     0.0170
 1217.5000     0.3320   -32.3690    10.0710     8.0880     9.6310    98.6700    11.1840     2.5580     0.0170
 1218.0000     0.3320   -32.4300    10.0950     8.0880     9.7240    98.2600    11.1650     2.5540     0.0180
 1218.5000     0.3200   -32.4850    10.1200     8.1660     9.9000    97.8230    11.1470     2.5510     0.0180
 1219.0000     0.3220   -32.5400    10.1440     8.3110    10.0770    97.3920    11.1280     2.5480     0.0180
 1219.5000     0.3240   -32.5950    10.1690     8.4560    10.2540    96.9660    11.1090     2.5460     0.0190
 1220.0000     0.3260   -32.6500    10.1930     8.6010    10.4310    96.5380    11.0910     2.5470     0.0240
 1220.5000     0.3260   -32.7050    10.2180     8.7460    10.6070    96.0960    11.0710     2.5520     0.0280
 1221.0000     0.3210   -32.7590    10.2420     8.9480    10.8530    95.6920    11.0600     2.5560     0.0340
 1221.5000     0.3140   -32.8140    10.2710     8.8490    10.7630    95.2200    11.0610     2.5610     0.0280
 1222.0000     0.3060   -32.8690    10.2260     8.7670    10.5440    95.4270    11.0610     2.5660     0.0190
 1222.5000     0.3020   -32.9240    10.1720     8.6860    10.3250    95.7100    11.0610     2.5640     0.0190
 1223.0000     0.3070   -32.9790    10.1180     8.6040    10.1050    96.0170    11.0610     2.5620     0.0190
 1223.5000     0.3110   -33.0340    10.0640     8.5230     9.9000    96.3050    11.0610     2.5610     0.0190
 1224.0000     0.3160   -33.0880    10.0090     8.4410     9.8100    96.6010    11.0610     2.5590     0.0200
 1224.5000     0.3150   -33.1430     9.9550     8.3590     9.8100    96.8960    11.0610     2.5560     0.0200
 1225.0000     0.3130   -33.0640     9.9010     8.2380     9.8100    97.1860    11.0610     2.5510     0.0200
 1225.5000     0.3120   -32.8950     9.8460     8.2950     9.8110    97.4880    11.0610     2.5490     0.0240
 1226.0000     0.3150   -32.7240     9.8100     8.4070     9.8120    97.5990    11.0610     2.5460     0.0260
 1226.5000     0.3180   -32.5840    10.1420     8.5200     9.8060    97.5890    11.0610     2.5480     0.0250
 1227.0000     0.3150   -33.0290    10.3930     8.6320     9.9670    97.5890    11.0610     2.5500     0.0240
 1227.5000     0.3120   -33.3900    10.6450     8.7050    10.0430    97.5930    11.0610     2.5490     0.0230
 1228.0000     0.3120   -33.4430    10.8530     8.5000    10.1170    97.5850    11.0610     2.5460     0.0230
 1228.5000     0.3140   -33.5030    10.5950     8.3700    10.1770    97.5940    11.0610     2.5430     0.0270
 1229.0000     0.3160   -33.5670    10.3740     8.2390     9.9890    97.6100    11.0610     2.5390     0.0320
 1229.5000     0.3140   -33.4690    10.1530     8.1090     9.7990    98.0010    11.0610     2.5410     0.0380
 1230.0000     0.3120   -33.3320     9.9320     7.9790     9.6090    98.4040    11.0610     2.5530     0.0470
 1230.5000     0.3090   -33.1940     9.7100     7.8490     9.4180    98.8220    11.0620     2.5580     0.0410
 1231.0000     0.3080   -33.0570     9.5430     7.7240     9.2280    99.2310    11.0830     2.5540     0.0330
 1231.5000     0.3100   -32.9190     9.5430     7.7240     9.1960    99.6400    11.1090     2.5510     0.0230
 1232.0000     0.3120   -32.7830     9.5430     7.7720     9.1900   100.0620    11.1360     2.5470     0.0250
 1232.5000     0.3140   -32.6470     9.5430     7.8180     9.1840   100.4590    11.1620     2.5440     0.0320
 1233.0000     0.3230   -32.5750     9.5430     7.8630     9.1780   100.8760    11.1870     2.5480     0.0330
 1233.5000     0.3310   -32.5990     9.5430     7.9090     9.1720   101.3290    11.2150     2.5580     0.0330
 1234.0000     0.3390   -32.6220     9.5430     7.9400     9.1660   101.5140    11.2390     2.5690     0.0300
 1234.5000     0.3460   -32.6460     9.5430     7.8930     9.1600   102.2840    11.2560     2.5650     0.0240
 1235.0000     0.3410   -32.6700     9.5430     7.8560     9.1540   102.1510    11.2130     2.5600     0.0180
 1235.5000     0.3390   -32.6930     9.5430     7.8200     9.1480   101.6960    11.2070     2.5540     0.0110
 1236.0000     0.3390   -32.7170     9.5430     7.7840     9.1420   101.2210    11.1930     2.5490     0.0090
 1236.5000     0.3370   -32.7390     9.5430     7.7480     9.1360   100.8060    11.1830     2.5430     0.0070
 1237.0000     0.3330   -32.7680     9.5430     7.7110     9.1300   100.3540    11.1720     2.5400     0.0090
 1237.5000     0.3300   -33.0020     9.5310     7.6750     9.1240    99.9130    11.1600     2.5410     0.0150
 1238.0000     0.3270   -33.2580     9.4990     7.6540     9.1180    99.4750    11.1490     2.5430     0.0200
 1238.5000     0.3210   -33.5210     9.4680     7.6690     9.1140    99.0310    11.1380     2.5470     0.0260
 1239.0000     0.3150   -33.3990     9.4370     7.6880     9.0910    98.5880    11.1270     2.5550     0.0310
 1239.5000     0.3090   -33.1870     9.4050     7.7070     9.0630    98.1530    11.1160     2.5600     0.0330
 1240.0000     0.3040   -32.9700     9.3740     7.7240     9.0350    97.7090    11.1040     2.5590     0.0350
 1240.5000     0.3120   -32.7750     9.3430     7.7240     9.0070    97.5810    11.1060     2.5720     0.0370
 1241.0000     0.3190   -32.9320     9.3110     7.6330     8.9790    97.5810    11.1230     2.5830     0.0380
 1241.5000     0.3250   -33.0980     9.2830     7.6020     8.9510    97.5970    11.1380     2.5880     0.0350
 1242.0000     0.3320   -33.2630     9.2650     7.5720     8.9480    97.6010    11.1540     2.5940     0.0330
 1242.5000     0.3380   -33.4270     9.2440     7.5410     8.9590    98.1840    11.1700     2.5900     0.0300
 1243.0000     0.3400   -33.5930     9.2240     7.5180     8.9750    98.9290    11.1860     2.5800     0.0280
 1243.5000     0.3410   -33.7590     9.1980     7.5940     8.9900    99.6600    11.2020     2.5710     0.0250
 1244.0000     0.3420   -33.6090     9.3100     7.6650     9.0050   100.3920    11.2170     2.5620     0.0230
 1244.5000     0.3400   -33.4320     9.5130     7.7240     9.0200   101.1800    11.2330     2.5550     0.0240
 1245.0000     0.3370   -33.2560     9.7200     7.6870     9.0340   101.6390    11.2490     2.5700     0.0250
 1245.5000     0.3340   -33.0800     9.4810     7.6540     8.9270   101.3490    11.2650     2.5700     0.0260
 1246.0000     0.3310   -32.9060     9.2360     7.6220     8.9050   101.1080    11.2800     2.5540     0.0230
 1246.5000     0.3280   -32.7690     8.9480     7.5890     8.8830   100.8510    11.2970     2.5420     0.0200
 1247.0000     0.3240   -32.8170     9.0800     7.5840     8.8660   100.5920    11.3060     2.5450     0.0170
 1247.5000     0.3210   -32.8610     9.2920     7.7010     8.9400   100.3310    11.3050     2.5510     0.0160
 1248.0000     0.3170   -32.9040     9.5050     7.8150     9.1100   100.0840    11.3050     2.5590     0.0160
 1248.5000     0.3140   -32.9470     9.7170     7.9290     9.2800    99.8180    11.3050     2.5600     0.0150
 1249.0000     0.3090   -32.9910     9.9300     8.0430     9.4500    99.5370    11.3050     2.5510     0.0140
 1249.5000     0.3130   -33.0340    10.1420     8.1570     9.6200    99.3860    11.3050     2.5460     0.0080
 1250.0000     0.3240   -33.0770    10.3550     8.2380     9.7900    98.2840    11.3050     2.5580     0.0040
 1250.5000     0.3340   -33.1210    10.5680     8.1540     9.9600    96.4530    11.3050     2.5690    -0.0020
 1251.0000     0.3260   -33.1640    10.7540     8.0600    10.1770    95.1890    11.3050     2.5840     0.0020
