~VERSION INFORMATION
 VERS.                2.0:   CWLS LOG ASCII STANDARD - VERSION 2.0
 WRAP.                 NO:   ONE LINE PER DEPTH STEP
~WELL INFORMATION
#MNEM.UNIT      DATA TYPE    INFORMATION
#----------   ------------   ------------------------------
 STRT.F            0.0000:   START DEPTH
 STOP.F         3110.5000:   STOP DEPTH
 STEP.F            0.5000:   STEP LENGTH
 NULL.          -999.2500:   NO VALUE
 COMP. LAWRENCE  ALLISON AND ASSOCIATES:   COMPANY
 WELL. LAWRENCE NPR 3 "X" #72-15:   WELL
 FLD .                NPR:   FIELD
 LOC .      S15 T38N R78W:   LOCATION
 CNTY.            NATRONA:   COUNTY
 STAT.            WYOMING:   STATE
 CTRY. UNITED STATES OF AMERICA:   COUNTRY
 SRVC.           WIRELINE:   SERVICE COMPANY
 DATE.        16-JAN-1988:   LOGDATE
 API .     49025111930000:   API NUMBER
~CURVE INFORMATION
#MNEM.UNIT       API CODE    CURVE DESCRIPTION
#----------   ------------   ------------------------------
 DEPT.F                  :   
 TENR.LBS    07 635 01 00:   TENSION FROM RESISTIVITY
 GRR .GAPI   07 310 01 00:   GAMMA RAY FROM RESISTIVITY
 SPR .MV     07 010 01 00:   SPONTANEOUS POTENTIAL
 RFOC.OHMM   07 220 04 00:   RESISTIVITY FOCUSED LOG RES.
 RILD.OHMM   07 120 46 00:   DEEP INDUCTION RESISTIVITY
 RILM.OHMM   07 120 44 00:   INDUCTION LOG MEDIUM RESISTIVITY
 TEND.LBS    45 635 01 00:   TENSION FROM DENSITY LOG
 RHOB.G/C3   45 350 01 00:   BULK DENSITY
 CORR.G/C3   45 356 01 00:   DENSITY CORRECTION
 CNC .DEC    42 890 03 00:   NEUTRON PORISITY SANDSTONE
 CALR.IN     07 280 01 00:   CALIPER FROM RESISTIVITY
~PARAMETER INFORMATION
#MNEM.UNIT          VALUE    DESCRIPTION
#----------   ------------   ------------------------------
 EKB .F         5240.0000:   Kelly bushing
 EGL .F         5229.0000:   Ground level
 EDF .F            0.0000:   Drilling floor
 TD  .F         3090.0000:   Total depth
 DATE.        16-JAN-1988:   Date logged
 CLNT.            A2DTECH:   Client Code
 SL  . 814' FNL & 1208' FEL:   Surface Location
 PD  .                 GL:   Permanent Datum
 DD  .F              3085:   Depth driller
 DL  .F              3090:   Depth logger
 BLI .F              3089:   Bottom log interval
 CS1 .IN            8.625:   Casing size
 CBD1.      8.625" @ 610':   Casing driller 1
 CBL1.F               613:   Casing logger 1
 BS1 .IN            7.875:   Bit size
 DFT .            KCL/GEL:   Type fluid in hole
 DFD .                8.8:   Density
 DFV .                 40:   Viscosity
 DFPH.                8.5:   pH
 DFL .                 10:   Fluid loss
 MSS .           FLOWLINE:   Source of sample
 RMS .OHMM           .543:   Rm
 MST .F                65:   Rm Meas. temp.
 RMF .OHMM           .349:   Rmf
 MFST.F                65:   Rmf Meas. temp.
 RMC .OHMM           .557:   Rmc
 MCST.F                65:   Rmc Meas. temp.
 MFSS.               CALC:   Source Rmf.
 RMB .OHMM           .258:   Rm. at BHT
 BHT .F               114:   BHT.
 TCS .HRS               5:   Time Circ. stopped
 MRT .F               114:   Maximum recorded temp.
 LUN .            HL-6321:   Logging unit number
 LUL .           GILLETTE:   Logging unit location
 ENGI.               CAIN:   Recorded By
 WITN.             STRONG:   Witnessed by
 ORIG.           5" PRINT:   Origin of data
 UWI .     49025111930000:   Unique Well ID
 DICO. A2D TECHNOLOGIES, INC.:   Digitizing Company
 DAPD.F                11:   Feet Above Permanent Datum
 BSD1.F              3085:   Depth drilled with bit1
 MCSS.               CALC:   Source Rmc.
 EPD .F              5229:   Elevation Permanent Datum
 LMF .                 KB:   Log Measured From
 DMF .                 KB:   Drilling Measured From
~OTHER INFORMATION
~A    DEPT    TENR         GRR       SPR       RFOC       RILD       RILM       TEND       RHOB       CORR        CNC       CALR   
# ...
 1433.5000   -69.8810    90.9170   -65.3960    10.0240     9.8440     9.0510  -999.2500  -999.2500  -999.2500  -999.2500     8.8100
 1434.0000   -65.4940    90.6540   -65.2530     9.9430     9.8300     9.0510  -999.2500  -999.2500  -999.2500  -999.2500     8.8090
 1434.5000   -65.9670    90.3950   -65.5620     9.8340     9.8170     9.0510  -999.2500  -999.2500  -999.2500  -999.2500     8.8070
 1435.0000   -67.3310    90.9340   -65.8760     9.8760     9.8030     9.0510  -999.2500  -999.2500  -999.2500  -999.2500     8.8060
 1435.5000   -68.6940    94.2780   -66.2320     9.9690     9.7900     9.0510  -999.2500  -999.2500  -999.2500  -999.2500     8.8050
 1436.0000   -70.0580    98.5560   -66.4260    10.0610     9.7760     9.0600  -999.2500  -999.2500  -999.2500  -999.2500     8.8030
 1436.5000   -71.4210   103.0020   -66.4770    10.1100     9.7630     9.0700  -999.2500  -999.2500  -999.2500  -999.2500     8.8020
 1437.0000   -72.7850   103.5260   -66.5250    10.0410     9.7490     9.0800  -999.2500  -999.2500  -999.2500  -999.2500     8.8010
 1437.5000   -74.1480   101.7660   -66.5720     9.9100     9.7360     9.0910  -999.2500  -999.2500  -999.2500  -999.2500     8.8040
 1438.0000   -75.5120    97.0880   -66.6200     9.8790     9.7220     9.1010  -999.2500  -999.2500  -999.2500  -999.2500     8.8060
 1438.5000   -76.8760    92.5320   -66.6780     9.8340     9.7090     9.1110  -999.2500  -999.2500  -999.2500  -999.2500     8.8090
 1439.0000   -78.2390    88.7330   -66.7410     9.9850     9.6950     9.1210  -999.2500  -999.2500  -999.2500  -999.2500     8.8110
 1439.5000   -79.6030    89.0520   -66.8010    10.1730     9.6820     9.1340  -999.2500  -999.2500  -999.2500  -999.2500     8.8140
 1440.0000   -80.9660    90.1260   -66.7490    10.2980     9.6680     9.1230  -999.2500  -999.2500  -999.2500  -999.2500     8.8170
 1440.5000   -82.3300    90.0960   -66.4590    10.1430     9.6540     9.1070  -999.2500  -999.2500  -999.2500  -999.2500     8.8190
 1441.0000   -83.6930    90.4850   -66.1800     9.9250     9.6480     9.0910  -999.2500  -999.2500  -999.2500  -999.2500     8.8220
 1441.5000   -84.6710    93.6120   -65.8970     9.9060     9.6420     9.0750  -999.2500  -999.2500  -999.2500  -999.2500     8.8240
 1442.0000   -83.6620    97.3130   -65.8440     9.8800     9.6360     9.0590  -999.2500  -999.2500  -999.2500  -999.2500     8.8270
 1442.5000   -82.6530    95.0320   -65.6260     9.8550     9.6300     9.0440  -999.2500  -999.2500  -999.2500  -999.2500     8.8300
 1443.0000   -81.6440    92.8470   -65.3580     9.8340     9.6240     9.0280  -999.2500  -999.2500  -999.2500  -999.2500     8.8320
 1443.5000   -80.6350    90.6470   -65.0870     9.8340     9.6180     9.0120  -999.2500  -999.2500  -999.2500  -999.2500     8.8350
 1444.0000   -79.6260    90.7710   -64.8160     9.9190     9.6120     8.9960  -999.2500  -999.2500  -999.2500  -999.2500     8.8370
 1444.5000   -78.6170    93.1370   -64.5450    10.0260     9.6060     8.9800  -999.2500  -999.2500  -999.2500  -999.2500     8.8400
 1445.0000   -77.6080    96.5600   -64.0440    10.2030     9.6000     8.9530  -999.2500  -999.2500  -999.2500  -999.2500     8.8360
 1445.5000   -76.5990    98.2390   -64.4280    10.1420     9.5940     8.8840  -999.2500  -999.2500  -999.2500  -999.2500     8.8240
 1446.0000   -75.5900    96.0680   -64.8940    10.0440     9.5880     8.8160  -999.2500  -999.2500  -999.2500  -999.2500     8.8130
 1446.5000   -74.8250    92.0490   -65.3470     9.9460     9.5820     8.7470  -999.2500  -999.2500  -999.2500  -999.2500     8.8020
 1447.0000   -74.0990    88.2220   -65.6790     9.8480     9.5760     8.7230  -999.2500  -999.2500  -999.2500  -999.2500     8.8080
 1447.5000   -73.4030    89.0450   -65.7660     9.8340     9.5700     8.7230  -999.2500  -999.2500  -999.2500  -999.2500     8.8210
 1448.0000   -72.7070    90.8480   -65.8200     9.8340     9.5510     8.7230  -999.2500  -999.2500  -999.2500  -999.2500     8.8340
 1448.5000   -72.0120    91.4640   -65.7390     9.8340     9.4950     8.7230  -999.2500  -999.2500  -999.2500  -999.2500     8.8470
 1449.0000   -71.3160    90.7150   -65.6640     9.9250     9.4390     8.6160  -999.2500  -999.2500  -999.2500  -999.2500     8.8630
 1449.5000   -70.6200    90.6280   -65.4090    10.0620     9.3840     8.2340  -999.2500  -999.2500  -999.2500  -999.2500     8.9880
 1450.0000   -69.9240    89.6450   -65.0770    10.2030     9.3280     7.8530  -999.2500  -999.2500  -999.2500  -999.2500     9.3570
 1450.5000   -69.2290    87.6630   -64.7350     9.7410     9.2720     7.6670  -999.2500  -999.2500  -999.2500  -999.2500     9.7360
 1451.0000   -68.5330    85.6790   -64.5820     9.2130     9.2170     7.8610  -999.2500  -999.2500  -999.2500  -999.2500    10.1170
 1451.5000   -67.8370    83.7180   -64.4910     8.6850     9.1610     8.0110  -999.2500  -999.2500  -999.2500  -999.2500    10.4360
 1452.0000   -67.1410    83.3450   -64.4030     8.1570     9.1050     8.1610  -999.2500  -999.2500  -999.2500  -999.2500    10.2380
 1452.5000   -66.4460    84.5510   -64.3150     7.6670     9.0500     8.3100  -999.2500  -999.2500  -999.2500  -999.2500     9.9830
 1453.0000   -65.7500    85.6930   -64.2270     7.5960     8.9940     8.6500  -999.2500  -999.2500  -999.2500  -999.2500     9.7290
 1453.5000   -65.0540    84.0040   -64.1380     7.8040     8.9380     9.2190  -999.2500  -999.2500  -999.2500  -999.2500     9.4870
 1454.0000   -64.5040    81.9210   -64.0500     8.0450     8.8850     9.1360  -999.2500  -999.2500  -999.2500  -999.2500     9.3680
 1454.5000   -64.0300    80.9300   -63.9610     8.2860     8.8970     8.9520  -999.2500  -999.2500  -999.2500  -999.2500     9.4320
 1455.0000   -63.5560    85.9690   -63.8730     8.5270     8.9080     8.7690  -999.2500  -999.2500  -999.2500  -999.2500     9.5020
 1455.5000   -63.0830    92.1050   -63.7860     8.7680     8.9190     8.5860  -999.2500  -999.2500  -999.2500  -999.2500     9.4230
 1456.0000   -62.6090    92.3670   -63.6990     9.1350     8.9300     8.4070  -999.2500  -999.2500  -999.2500  -999.2500     9.2690
 1456.5000   -62.1350    92.7870   -63.8330     9.0910     8.9410     8.4070  -999.2500  -999.2500  -999.2500  -999.2500     9.1260
 1457.0000   -61.6610    93.2280   -64.2790     8.9880     8.9520     8.4070  -999.2500  -999.2500  -999.2500  -999.2500     9.1050
 1457.5000   -61.1870    93.6420   -64.7220     8.8860     8.9630     8.4070  -999.2500  -999.2500  -999.2500  -999.2500     9.0760
 1458.0000   -60.7140    95.1740   -65.1650     8.8040     8.9740     8.4070  -999.2500  -999.2500  -999.2500  -999.2500     9.0460
 1458.5000   -60.2400    97.4200   -65.6080     8.8270     8.9850     8.4070  -999.2500  -999.2500  -999.2500  -999.2500     9.0160
 1459.0000   -59.7660    96.8240   -66.0550     8.8460     8.9960     8.4070  -999.2500  -999.2500  -999.2500  -999.2500     9.0020
 1459.5000   -59.2920    95.6290   -66.2320     8.8650     9.0070     8.4070  -999.2500  -999.2500  -999.2500  -999.2500     9.0000
 1460.0000   -58.8180    94.2220   -66.1860     8.8840     9.0180     8.4070  -999.2500  -999.2500  -999.2500  -999.2500     8.9970
 1460.5000   -58.3450    92.1220   -66.1370     8.9020     9.0280     8.4330  -999.2500  -999.2500  -999.2500  -999.2500     8.9950
 1461.0000   -57.8710    90.0270   -66.0870     8.9210     9.0390     8.5010  -999.2500  -999.2500  -999.2500  -999.2500     8.9920
 1461.5000   -57.3970    88.1850   -66.0390     8.9400     9.0500     8.5690  -999.2500  -999.2500  -999.2500  -999.2500     8.9900
 1462.0000   -56.9230    88.2450   -66.0830     8.9670     9.0610     8.6380  -999.2500  -999.2500  -999.2500  -999.2500     8.9880
 1462.5000   -56.4490    88.1870   -66.1330     8.9620     9.0720     8.7230  -999.2500  -999.2500  -999.2500  -999.2500     8.9850
 1463.0000   -55.9750    87.7350   -66.1830     8.9520     9.0830     8.6750  -999.2500  -999.2500  -999.2500  -999.2500     8.9830
 1463.5000   -55.5020    87.1450   -66.2360     8.9410     9.0940     8.5880  -999.2500  -999.2500  -999.2500  -999.2500     8.9810
