~VERSION INFORMATION
 VERS.                2.0:   CWLS LOG ASCII STANDARD - VERSION 2.0
 WRAP.                 NO:   ONE LINE PER DEPTH STEP
~WELL INFORMATION
#MNEM.UNIT      DATA TYPE    INFORMATION
#----------   ------------   ------------------------------
 STRT.F          190.0000:   START DEPTH
 STOP.F         3050.0000:   STOP DEPTH
 STEP.F            0.5000:   STEP LENGTH
 NULL.          -999.2500:   NO VALUE
 COMP.    FENIX & SCISSON:   COMPANY
 WELL. FENIX NPR 3 "AX" #86-29:   WELL
 FLD .      NPR - WILDCAT:   FIELD
 LOC .      S29 T39N R78W:   LOCATION
 CNTY.            NATRONA:   COUNTY
 STAT.            WYOMING:   STATE
 CTRY. UNITED STATES OF AMERICA:   COUNTRY
 SRVC.              WELEX:   SERVICE COMPANY
 DATE.        24-JUN-1977:   LOGDATE
 API .     49025103830000:   API NUMBER
~CURVE INFORMATION
#MNEM.UNIT       API CODE    CURVE DESCRIPTION
#----------   ------------   ------------------------------
 DEPT.F                  :   
 SPR .MV     07 010 01 00:   SPONTANEOUS POTENTIAL
 ILD .OHMM   07 120 46 00:   DEEP INDUCTION RESISTIVITY
 ILM .OHMM   07 120 44 00:   INDUCTION LOG MEDIUM RESISTIVITY
 SGRD.OHMM   07 220 05 00:   SHALLOW SHORT GUARD RESISTIVITY
 GRD .GAPI   45 310 01 00:   GAMMA RAY FROM DENSITY LOG
 CALD.IN     45 280 60 00:   CALIPER FROM DENSITY LOG
 RHOB.G/C3   45 350 01 00:   BULK DENSITY
 CORR.G/C3   45 356 01 00:   DENSITY CORRECTION
~PARAMETER INFORMATION
#MNEM.UNIT          VALUE    DESCRIPTION
#----------   ------------   ------------------------------
 EKB .F         5056.0000:   Kelly bushing
 EGL .F         5046.0000:   Ground level
 EDF .F            0.0000:   Drilling floor
 TD  .F         3051.0000:   Total depth
 DATE.        24-JUN-1977:   Date logged
 CLNT.            A2DTECH:   Client Code
 SL  . 1746' FSL & 534' FEL:   Surface Location
 PD  .                 GL:   Permanent Datum
 EPD .F              5046:   Elevation Permanent Datum
 LMF .                 KB:   Log Measured From
 DMF .                 KB:   Drilling Measured From
 DAPD.F                10:   Feet Above Permanent Datum
 DD  .F              3038:   Depth driller
 DL  .F              3051:   Depth logger
 BLI .F              3049:   Bottom log interval
 TLI .F               200:   Top log interval
 CS1 .IN            8.625:   Casing size
 CBD1.      8.625" @ 217':   Casing driller 1
 CBL1.F               213:   Casing logger 1
 BS1 .IN            7.875:   Bit size
 BSD1.F              3038:   Depth drilled with bit1
 DFT .            KCL/MUD:   Type fluid in hole
 DFD .                8.7:   Density
 DFV .                134:   Viscosity
 DFPH.                7.5:   pH
 DFL .                7.2:   Fluid loss
 MSS .           FLOWLINE:   Source of sample
 RMS .OHMM            .62:   Rm
 MST .F                82:   Rm Meas. temp.
 RMF .OHMM            .28:   Rmf
 MFST.F                82:   Rmf Meas. temp.
 RMC .OHMM            .78:   Rmc
 MCST.F                82:   Rmc Meas. temp.
 MFSS.               MEAS:   Source Rmf.
 MCSS.               MEAS:   Source Rmc.
 RMB .OHMM            .45:   Rm. at BHT
 BHT .F               111:   BHT.
 TCS .HRS               2:   Time Circ. stopped
 MRT .F               111:   Maximum recorded temp.
 LUN .               8766:   Logging unit number
 LUL .             CASPER:   Logging unit location
 ENGI.          D. LAWSON:   Recorded By
 WITN.      B. HARRINGTON:   Witnessed by
 ORIG.           5" PRINT:   Origin of data
 UWI .     49025103830000:   Unique Well ID
 DICO. A2D TECHNOLOGIES, INC.:   Digitizing Company
~OTHER INFORMATION
~A   DEPT      SPR        ILD        ILM       SGRD        GRD       CALD         RHOB      CORR  
  190.0000  -999.2500  -999.2500  -999.2500  -999.2500  -999.2500  -999.2500     2.0170    -0.5600
  190.5000  -999.2500  -999.2500  -999.2500  -999.2500  -999.2500  -999.2500     2.0170    -0.5600
  191.0000  -999.2500  -999.2500  -999.2500  -999.2500  -999.2500  -999.2500     2.0170    -0.5600
  191.5000  -999.2500  -999.2500  -999.2500  -999.2500  -999.2500  -999.2500     2.0190    -0.5600
  192.0000  -999.2500  -999.2500     7.3650     0.2350    66.2400     8.7460     2.0170    -0.5600
  192.5000  -999.2500  -999.2500     7.3650     0.2350    66.2400     8.7460     2.0170    -0.5600
  193.0000  -999.2500  -999.2500     7.3650     0.2350    66.6470     8.8070     2.0160    -0.5630
  193.5000  -999.2500  -999.2500     7.3940     0.2350    67.2240     8.8640     2.0140    -0.5620
  194.0000  -999.2500  -999.2500     7.3650     0.2350    66.7830     8.8640     2.0170    -0.5630
  194.5000  -999.2500  -999.2500     7.5020     0.2390    65.9740     8.8470     2.0210    -0.5640
  195.0000  -999.2500  -999.2500     7.1300     0.2280    65.1740     8.8280     2.0250    -0.5660
  195.5000  -999.2500  -999.2500     6.8960     0.2340    64.9540     8.8260     2.0230    -0.5660
  196.0000  -999.2500  -999.2500     6.2160     0.2430    65.7490     8.8600     2.0200    -0.5660
  196.5000  -999.2500  -999.2500     5.1120     0.2370    66.5370     8.8970     2.0170    -0.5660
  197.0000  -999.2500  -999.2500     4.3580     0.2280    66.8260     8.9030     2.0140    -0.5660
  197.5000  -999.2500  -999.2500     3.7780     0.2320    66.8280     8.9030     2.0130    -0.5660
  198.0000  -999.2500  -999.2500     3.1990     0.2370    66.5860     8.9040     2.0140    -0.5660
  198.5000  -999.2500  -999.2500     2.9860     0.2390    66.0300     8.9230     2.0170    -0.5640
  199.0000  -999.2500  -999.2500     2.7730     0.2440    65.4740     8.9400     2.0250    -0.5610
  199.5000  -999.2500  -999.2500     2.5440     0.2380    64.9310     8.9360     2.0330    -0.5570
  200.0000  -999.2500  -999.2500     2.5010     0.2310    65.3590     8.9320     2.0410    -0.5540
  200.5000  -999.2500  -999.2500     2.4550     0.2310    65.9200     8.9270     2.0410    -0.5510
  201.0000  -999.2500  -999.2500     2.4090     0.2500    66.4810     8.9220     2.0400    -0.5480
  201.5000  -999.2500  -999.2500     2.3860     0.2370    67.0420     8.8940     2.0370    -0.5440
  202.0000  -999.2500  -999.2500     2.4680     0.2460    67.6050     8.8900     2.0350    -0.5400
  202.5000  -999.2500  -999.2500     2.5670     0.2410    67.7280     8.9200     2.0450    -0.5350
  203.0000  -999.2500  -999.2500     2.7250     0.2330    67.3010     8.9500     2.0580    -0.5220
  203.5000  -999.2500  -999.2500     2.9500     0.2410    66.8720     8.9620     2.0710    -0.5090
  204.0000  -999.2500  -999.2500     3.1760     0.2500    66.4640     8.9630     2.0840    -0.4870
  204.5000  -999.2500  -999.2500     3.4070     0.2370    67.0690     8.9630     2.0970    -0.4620
  205.0000  -999.2500  -999.2500     3.6450     0.2420    67.7490     8.9630     2.1070    -0.4380
  205.5000  -999.2500  -999.2500     3.8830     0.2500    68.5230     8.9630     2.1150    -0.4130
  206.0000  -999.2500  -999.2500     4.0970     0.2370    69.6540     8.9630     2.1200    -0.3940
  206.5000  -999.2500  -999.2500     3.8230     0.2500    70.7580     8.9630     2.1250    -0.3600
  207.0000  -999.2500  -999.2500     3.5730     0.2460    71.8570     8.9630     2.1290    -0.3250
  207.5000  -999.2500  -999.2500     3.3490     0.2460    72.9630     8.9630     2.1360    -0.2910
  208.0000  -999.2500  -999.2500     3.3300     0.2460    74.5880     8.9630     2.1490    -0.2620
  208.5000  -999.2500  -999.2500     3.3180     0.2480    76.2090     8.9620     2.1650    -0.2270
  209.0000  -999.2500  -999.2500   417.9460     0.2490    77.8270     8.9610     2.1820    -0.1700
  209.5000  -999.2500  -999.2500  1245.7939     0.2500    78.9130     8.9420     2.2000    -0.1110
  210.0000  -999.2500  -999.2500  1990.8560     0.2470    79.9880     9.0180     2.2220     0.1440
  210.5000  -999.2500  -999.2500  1968.5649     0.2460    81.0680     9.3420     2.2460     0.1500
  211.0000  -999.2500  -999.2500  1948.2990     0.2850    81.9370     9.5020     2.2690     0.1560
  211.5000  -999.2500  -999.2500  1928.0341     0.3510    82.6060     9.5890     2.2970     0.1530
  212.0000   -14.2820  -999.2500     3.8940     1.0340    83.2770     9.6320     2.2930     0.1440
  212.5000   -22.0360  -999.2500     3.9150     2.3040    83.9490     9.7010     2.2840     0.1370
  213.0000   -27.4370     3.5120     3.9570     5.0120    84.6130    10.0620     2.2950     0.1300
  213.5000   -33.4440     2.2330     3.9980     6.4790    85.1320    10.6360     2.3040     0.1240
  214.0000   -36.5700     1.0900     4.0390     6.6590    85.4910    11.2170     2.3130     0.1160
  214.5000   -39.5360     0.7400     4.0810     6.6210    85.1430    11.5700     2.3220     0.1090
  215.0000   -42.4390     0.7470     4.1220     6.5380    84.8230    11.9150     2.3290     0.1020
  215.5000   -45.3590     0.6150     4.2110     6.2050    84.5030    12.1830     2.3330     0.0950
  216.0000   -48.1280     0.5070     3.9900     5.7280    84.5320    12.4620     2.3350     0.0870
  216.5000   -50.3860     0.5940     3.7430     5.2510    84.8620    13.0140     2.3380     0.0800
  217.0000   -50.4590     0.8410     3.5710     4.7740    85.1920    13.5580     2.3390     0.0800
  217.5000   -50.5910     1.1890     4.3610     4.2500    85.5240    14.0320     2.3410     0.0790
  218.0000   -50.8390     2.2120     4.9700     5.5330    85.8570    14.0910     2.3420     0.0650
  218.5000   -51.5160     4.3470     5.5820     7.1000    86.1900    14.0590     2.3430     0.0550
  219.0000   -52.1020     4.8760     6.1970     7.4330    86.5060    13.9730     2.3520     0.0440
  219.5000   -52.8450     5.2230     6.8120     8.1860    86.3490    13.7910     2.3680     0.0330
  220.0000   -53.4640     5.7880     7.3650     9.0220    85.9250    13.4690     2.3930     0.0270
  220.5000   -53.3930     6.9360     7.4330     9.6340    85.5050    12.5470     2.4050     0.0260
  221.0000   -53.3340     8.0840     7.4240     9.7230    85.0850    12.6400     2.4110     0.0300
  221.5000   -53.2790     9.3470     7.4110     9.7850    84.6540    11.6700     2.4170     0.0330
  222.0000   -53.3040     9.6080     7.3980     9.7850    84.5400    11.4640     2.4200     0.0350
  222.5000   -53.8430     9.4320     7.3850     9.7850    84.9720    11.2510     2.4210     0.0370
  223.0000   -54.8530     9.2360     7.3720     9.7850    85.5690    11.2260     2.4200     0.0400
  223.5000   -55.8610     9.0520     6.9620     9.7470    86.1710    11.2220     2.4190     0.0400
  224.0000   -52.7670     8.2970     6.3430     9.6080    86.7720    11.2170     2.4170     0.0370
  224.5000   -50.3550     8.0540     5.9660     9.0320    87.3730    11.2120     2.4140     0.0340
  225.0000   -52.0970     7.5450     6.1880     7.9240    87.9750    11.2070     2.4120     0.0310
  225.5000   -59.0430     6.5190     6.0680     6.8340    88.5720    11.2020     2.4130     0.0280
  226.0000   -65.0880     5.5950     5.8040     5.1990    89.1530    11.1970     2.4180     0.0240
  226.5000   -64.8820     5.5950     5.8380     5.6110    89.5070    11.1920     2.4240     0.0240
  227.0000   -65.7890     5.6240     5.8910     7.5120    89.8790    11.1870     2.4330     0.0240
  227.5000   -69.9070     5.7220     5.9660     8.3740    90.0830    11.1970     2.4420     0.0250
  228.0000   -77.4040     5.8190     5.9660     7.2320    90.2980    11.2080     2.4520     0.0320
  228.5000   -80.4200     5.9170     6.1880     7.9880    90.4650    11.2200     2.4650     0.0360
  229.0000   -76.8480     6.0930     6.3660     9.1770    90.3840    11.2310     2.4680     0.0390
  229.5000   -71.2870     6.3480     6.5980     9.4190    89.6280    11.2420     2.4660     0.0360
  230.0000   -73.7180     6.6030     6.8810     9.6080    88.9280    11.2440     2.4630     0.0350
