~VERSION INFORMATION
 VERS.                2.0:   CWLS LOG ASCII STANDARD - VERSION 2.0
 WRAP.                 NO:   ONE LINE PER DEPTH STEP
~WELL INFORMATION
#MNEM.UNIT      DATA TYPE    INFORMATION
#----------   ------------   ------------------------------
 STRT.F            0.0000:   START DEPTH
 STOP.F         3040.0000:   STOP DEPTH
 STEP.F            0.5000:   STEP LENGTH
 NULL.          -999.2500:   NO VALUE
 COMP. LAWRENCE ALLISON & ASSOCIATES:   COMPANY
 WELL. LAWRENCE NPR 3 "AX" #77-28:   WELL
 FLD .      NPR - WILDCAT:   FIELD
 LOC .      S28 T39N R78W:   LOCATION
 CNTY.            NATRONA:   COUNTY
 STAT.            WYOMING:   STATE
 CTRY. UNITED STATES OF AMERICA:   COUNTRY
 SRVC.      DRESSER ATLAS:   SERVICE COMPANY
 DATE.        19-OCT-1986:   LOGDATE
 API .     49025111150000:   API NUMBER
~CURVE INFORMATION
#MNEM.UNIT       API CODE    CURVE DESCRIPTION
#----------   ------------   ------------------------------
 DEPT.F                  :   
 TENR.LBS    07 635 01 00:   TENSION FROM RESISTIVITY
 RILD.OHMM   07 120 46 00:   DEEP INDUCTION RESISTIVITY
 RILM.OHMM   07 120 44 00:   INDUCTION LOG MEDIUM RESISTIVITY
 RFOC.OHMM   07 220 04 00:   RESISTIVITY FOCUSED LOG RES.
 SPR .MV     07 010 01 00:   SPONTANEOUS POTENTIAL
 GRR .GAPI   07 310 01 00:   GAMMA RAY FROM RESISTIVITY
 CNC .DEC    42 890 03 00:   NEUTRON POROSITY SANDSTONE
 RHOB.G/C3   45 350 01 00:   BULK DENSITY
 TEND.LBS    45 635 01 00:   TENSION FROM DENSITY LOG
 CORR.G/C3   45 356 01 00:   DENSITY CORRECTION
 CALD.IN     45 280 60 00:   CALIPER FROM DENSITY LOG
~PARAMETER INFORMATION
#MNEM.UNIT          VALUE    DESCRIPTION
#----------   ------------   ------------------------------
 EKB .F         5086.0000:   Kelly bushing
 EGL .F         5074.0000:   Ground level
 EDF .F            0.0000:   Drilling floor
 TD  .F         3025.0000:   Total depth
 DATE.        19-OCT-1986:   Date logged
 CLNT.            A2DTECH:   Client Code
 SL  . 967' FSL @ 763' FEL:   Surface Location
 PD  .                 GL:   Permanent Datum
 EPD .F              5074:   Elevation Permanent Datum
 LMF .                 KB:   Log Measured From
 DMF .                 KB:   Drilling Measured From
 DAPD.F                12:   Feet Above Permanent Datum
 DD  .F              3021:   Depth driller
 DL  .F              3025:   Depth logger
 BLI .F              3023:   Bottom log interval
 CS1 .IN            8.625:   Casing size
 CBD1.      8.625" @ 620':   Casing driller 1
 CBL1.F               615:   Casing logger 1
 BS1 .IN            7.875:   Bit size
 BSD1.F              3021:   Depth drilled with bit1
 DFT .        KCL/POLTMER:   Type fluid in hole
 DFD .                8.9:   Density
 DFV .                 38:   Viscosity
 DFPH.                9.5:   pH
 DFL .                 11:   Fluid loss
 MSS .           FLOWLINE:   Source of sample
 RMS .OHMM            .25:   Rm
 MST .F                65:   Rm Meas. temp.
 RMF .OHMM           .203:   Rmf
 MFST.F                65:   Rmf Meas. temp.
 RMC .OHMM            .31:   Rmc
 MCST.F                65:   Rmc Meas. temp.
 MFSS.               MEAS:   Source Rmf.
 MCSS.               CALC:   Source Rmc.
 RMB .OHMM           .136:   Rm. at BHT
 BHT .F               119:   BHT.
 TCS .HRS               5:   Time Circ. stopped
 MRT .F               119:   Maximum recorded temp.
 LUN .               6274:   Logging unit number
 LUL .               GLTE:   Logging unit location
 ENGI.             RAUTIO:   Recorded By
 WITN.             STRONG:   Witnessed by
 ORIG.         2.5" PRINT:   Origin of data
 UWI .     49025111150000:   Unique Well ID
 DICO. A2D TECHNOLOGIES, INC.:   Digitizing Company
~OTHER INFORMATION
~A    DEPT    TENR       RILD       RILM       RFOC        SPR         GRR       CNC       RHOB       TEND       CORR       CALD   
# ...
  793.0000   -74.3980     8.2030     8.1090     8.5290   -77.6720   100.8290  -999.2500  -999.2500  -999.2500  -999.2500  -999.2500
  793.5000   -74.6770     8.2330     8.1480     8.5480   -77.6880   100.2050  -999.2500  -999.2500  -999.2500  -999.2500  -999.2500
  794.0000   -74.9560     8.2630     8.1790     8.5660   -77.7070    98.4510  -999.2500  -999.2500  -999.2500  -999.2500  -999.2500
  794.5000   -75.2360     8.2940     8.1410     8.5840   -77.7240    98.2180  -999.2500  -999.2500  -999.2500  -999.2500  -999.2500
  795.0000   -75.5150     8.3300     8.1100     8.6020   -77.7420   100.0150  -999.2500  -999.2500  -999.2500  -999.2500  -999.2500
  795.5000   -75.7950     8.3030     8.0790     8.6200   -77.7590   101.7620  -999.2500  -999.2500  -999.2500  -999.2500  -999.2500
  796.0000   -76.0740     8.2700     8.0480     8.6340   -77.7760   101.6180  -999.2500  -999.2500  -999.2500  -999.2500  -999.2500
  796.5000   -76.3530     8.2360     8.0170     8.5810   -77.7940    99.7970  -999.2500  -999.2500  -999.2500  -999.2500  -999.2500
  797.0000   -76.6330     8.2030     7.9850     8.5370   -77.8110    98.4140  -999.2500  -999.2500  -999.2500  -999.2500  -999.2500
  797.5000   -76.9120     8.1700     7.9540     8.4940   -77.8290    97.0160  -999.2500  -999.2500  -999.2500  -999.2500  -999.2500
  798.0000   -77.1910     8.1360     7.9220     8.4490   -77.8460    95.5290  -999.2500  -999.2500  -999.2500  -999.2500  -999.2500
  798.5000   -77.4710     8.1030     7.8910     8.4050   -77.8640    94.1420  -999.2500  -999.2500  -999.2500  -999.2500  -999.2500
  799.0000   -77.7500     8.0700     7.8590     8.3610   -77.8810    93.1410  -999.2500  -999.2500  -999.2500  -999.2500  -999.2500
  799.5000   -78.0300     8.0360     7.8270     8.3160   -77.8990    94.7010  -999.2500  -999.2500  -999.2500  -999.2500  -999.2500
  800.0000   -78.3090     8.0030     7.7960     8.2720   -77.9160    95.9840  -999.2500  -999.2500  -999.2500  -999.2500  -999.2500
  800.5000   -78.5880     7.9690     7.7640     8.2270   -77.9330    97.3510  -999.2500  -999.2500  -999.2500  -999.2500  -999.2500
  801.0000   -78.8680     7.9350     7.7330     8.1830   -77.9520    99.3750  -999.2500  -999.2500  -999.2500  -999.2500  -999.2500
  801.5000   -79.1470     7.8910     7.7010     8.1380   -77.9680   103.3930  -999.2500  -999.2500  -999.2500  -999.2500  -999.2500
  802.0000   -79.4260     7.9080     7.6700     8.0940   -77.9860   106.0880  -999.2500  -999.2500  -999.2500  -999.2500  -999.2500
  802.5000   -79.7060     7.9360     7.6380     8.0340   -78.0090   105.7040  -999.2500  -999.2500  -999.2500  -999.2500  -999.2500
  803.0000   -79.9850     7.9640     7.6070     8.0960   -77.9370   104.9910  -999.2500  -999.2500  -999.2500  -999.2500  -999.2500
  803.5000   -80.2650     7.9930     7.5750     8.1900   -77.6660   103.1710  -999.2500  -999.2500  -999.2500  -999.2500  -999.2500
  804.0000   -80.5440     8.0340     7.5430     8.3300   -77.3960   101.4780  -999.2500  -999.2500  -999.2500  -999.2500  -999.2500
  804.5000   -80.8230     8.0170     7.5120     8.3090   -77.1340   100.2130  -999.2500  -999.2500  -999.2500  -999.2500  -999.2500
  805.0000   -81.1030     7.9790     7.4800     8.2670   -76.8580   101.8520  -999.2500  -999.2500  -999.2500  -999.2500  -999.2500
  805.5000   -81.3820     7.9420     7.4490     8.2260   -76.9200   102.9160  -999.2500  -999.2500  -999.2500  -999.2500  -999.2500
  806.0000   -81.6610     7.9050     7.4170     8.1840   -77.0570   101.4300  -999.2500  -999.2500  -999.2500  -999.2500  -999.2500
  806.5000   -81.9410     7.8680     7.3860     8.1430   -77.1960   100.0020  -999.2500  -999.2500  -999.2500  -999.2500  -999.2500
  807.0000   -82.2200     7.8310     7.3410     8.1010   -77.3280    99.1340  -999.2500  -999.2500  -999.2500  -999.2500  -999.2500
  807.5000   -82.5000     7.7940     7.3490     8.0600   -77.4640    99.2310  -999.2500  -999.2500  -999.2500  -999.2500  -999.2500
  808.0000   -82.7790     7.7570     7.3650     8.0340   -77.5970    99.2590  -999.2500  -999.2500  -999.2500  -999.2500  -999.2500
  808.5000   -83.0580     7.7200     7.3800     8.0280   -77.7360    99.1490  -999.2500  -999.2500  -999.2500  -999.2500  -999.2500
  809.0000   -83.3330     7.6830     7.3950     8.0230   -77.8650    99.8220  -999.2500  -999.2500  -999.2500  -999.2500  -999.2500
  809.5000   -76.1340     7.6460     7.4100     8.0170   -78.0020   101.8410  -999.2500  -999.2500  -999.2500  -999.2500  -999.2500
  810.0000   -69.0480     7.6110     7.4250     8.0120   -77.9250   102.3700  -999.2500  -999.2500  -999.2500  -999.2500  -999.2500
  810.5000   -61.9610     7.6350     7.4400     8.0060   -77.8300    99.9420  -999.2500  -999.2500  -999.2500  -999.2500  -999.2500
  811.0000   -54.8740     7.6590     7.4560     8.0000   -77.7270    99.4230  -999.2500  -999.2500  -999.2500  -999.2500  -999.2500
  811.5000   -47.7870     7.6820     7.4710     7.9950   -77.6300   100.0990  -999.2500  -999.2500  -999.2500  -999.2500  -999.2500
  812.0000   -48.4670     7.7060     7.4860     7.9890   -77.5320   101.5240  -999.2500  -999.2500  -999.2500  -999.2500  -999.2500
  812.5000   -57.4870     7.7300     7.5010     7.9830   -77.4300   103.4040  -999.2500  -999.2500  -999.2500  -999.2500  -999.2500
  813.0000   -66.5060     7.7530     7.5160     7.9780   -77.3340   102.4760  -999.2500  -999.2500  -999.2500  -999.2500  -999.2500
  813.5000   -75.5260     7.7770     7.5310     7.9720   -77.2460    99.3330  -999.2500  -999.2500  -999.2500  -999.2500  -999.2500
  814.0000   -83.3330     7.8010     7.5470     7.9660   -77.3030    98.6130  -999.2500  -999.2500  -999.2500  -999.2500  -999.2500
  814.5000   -76.2990     7.8250     7.5620     7.9610   -77.3610    99.5450  -999.2500  -999.2500  -999.2500  -999.2500  -999.2500
  815.0000   -70.0980     7.8480     7.5770     7.9550   -77.4250   100.3880  -999.2500  -999.2500  -999.2500  -999.2500  -999.2500
  815.5000   -63.8970     7.8700     7.5920     7.9490   -77.4860   101.6200  -999.2500  -999.2500  -999.2500  -999.2500  -999.2500
  816.0000   -57.6960     7.8900     7.6070     7.9430   -77.5480   102.9260  -999.2500  -999.2500  -999.2500  -999.2500  -999.2500
  816.5000   -51.4950     7.8440     7.5630     7.9380   -77.6100   101.4310  -999.2500  -999.2500  -999.2500  -999.2500  -999.2500
  817.0000   -44.1180     7.8050     7.5030     7.9320   -77.6720   100.3400  -999.2500  -999.2500  -999.2500  -999.2500  -999.2500
  817.5000   -45.0520     7.7660     7.4430     7.9260   -77.7330    99.0750  -999.2500  -999.2500  -999.2500  -999.2500  -999.2500
  818.0000   -46.2060     7.7270     7.3840     7.9210   -77.7960    97.8690  -999.2500  -999.2500  -999.2500  -999.2500  -999.2500
  818.5000   -47.3600     7.6880     7.3240     7.9150   -77.8560    96.9960  -999.2500  -999.2500  -999.2500  -999.2500  -999.2500
  819.0000   -48.5130     7.6480     7.2640     7.9100   -77.9190    98.9980  -999.2500  -999.2500  -999.2500  -999.2500  -999.2500
  819.5000   -49.6670     7.6090     7.2040     7.9040   -77.9830   102.1810  -999.2500  -999.2500  -999.2500  -999.2500  -999.2500
  820.0000   -50.8210     7.5700     7.1440     7.8990   -78.0120   104.5240  -999.2500  -999.2500  -999.2500  -999.2500  -999.2500
  820.5000   -51.9740     7.5310     7.0840     7.8960   -77.9110   107.5440  -999.2500  -999.2500  -999.2500  -999.2500  -999.2500
  821.0000   -53.1280     7.4920     7.0240     7.8480   -77.8150   106.8690  -999.2500  -999.2500  -999.2500  -999.2500  -999.2500
  821.5000   -54.2820     7.4520     6.9640     7.7800   -77.7150   105.3250  -999.2500  -999.2500  -999.2500  -999.2500  -999.2500
  822.0000   -55.4350     7.4130     6.9040     7.7130   -77.6160   103.5670  -999.2500  -999.2500  -999.2500  -999.2500  -999.2500
  822.5000   -56.5890     7.3740     6.8430     7.6460   -77.5180   104.4160  -999.2500  -999.2500  -999.2500  -999.2500  -999.2500
  823.0000   -57.7430     7.3350     6.8730     7.5800   -77.4180   106.6820  -999.2500  -999.2500  -999.2500  -999.2500  -999.2500
