~VERSION INFORMATION
 VERS.                2.0:   CWLS LOG ASCII STANDARD - VERSION 2.0
 WRAP.                 NO:   ONE LINE PER DEPTH STEP
~WELL INFORMATION
#MNEM.UNIT      DATA TYPE    INFORMATION
#----------   ------------   ------------------------------
 STRT.F            7.5000:   START DEPTH
 STOP.F         3140.0000:   STOP DEPTH
 STEP.F            0.5000:   STEP LENGTH
 NULL.          -999.2500:   NO VALUE
 COMP. LAWRENCE ALLISON WEST:   COMPANY
 WELL. LAWRENCE NPR 3 "AX" #51-3:   WELL
 FLD .                NPR:   FIELD
 LOC .       S3 T38N R78W:   LOCATION
 CNTY.            NATRONA:   COUNTY
 STAT.            WYOMING:   STATE
 CTRY. UNITED STATES OF AMERICA:   COUNTRY
 SRVC.      DRESSER ATLAS:   SERVICE COMPANY
 DATE.        09-NOV-1986:   LOGDATE
 API .     49025111180000:   API NUMBER
~CURVE INFORMATION
#MNEM.UNIT       API CODE    CURVE DESCRIPTION
#----------   ------------   ------------------------------
 DEPT.F                  :   
 CALD.IN     45 280 60 00:   CALIPER FROM DENSITY LOG
 DEN .LBS    45 350 01 00:   BULK DENSITY
 CORR.G/C3   45 356 01 00:   DENSITY CORRECTION
 NPOR.DEC    42 890 03 00:   ALPHA PROCESSED NEUTRON POROSITY
 SPR .MV     07 010 01 00:   SPONTANEOUS POTENTIAL
 GRR .GAPI   07 310 01 00:   GAMMA RAY FROM RESISTIVITY
 SFL .OHMM   07 220 01 00:   SHALLOW FOCUSED LOG RESISTIVITY
 ILD .OHMM   07 120 46 00:   DEEP INDUCTION RESISTIVITY
 ILM .OHMM   07 120 44 00:   INDUCTION LOG MEDIUM RESISTIVITY
 TENR.LBS    07 635 01 00:   TENSION FROM RESISTIVITY
~PARAMETER INFORMATION
#MNEM.UNIT          VALUE    DESCRIPTION
#----------   ------------   ------------------------------
 EKB .F         5132.0000:   Kelly bushing
 EGL .F         5120.0000:   Ground level
 TD  .F         3141.0000:   Total depth
 DATE.        09-NOV-1986:   Date logged
 CLNT.            A2DTECH:   Client Code
 SL  . 249' FNL & 2195' FEL:   Surface Location
 PD  .                 GL:   Permanent Datum
 EPD .F              5120:   Elevation Permanent Datum
 LMF .                 KB:   Log Measured From
 DMF .                 KB:   Drilling Measured From
 DAPD.F                12:   Feet Above Permanent Datum
 DD  .F              3141:   Depth driller
 DL  .F              3132:   Depth logger
 BLI .F              3126:   Bottom log interval
 CS1 .IN            8.625:   Casing size
 CBD1.      8.625" @ 690':   Casing driller 1
 CBL1.F               690:   Casing logger 1
 BS1 .IN            7.875:   Bit size
 BSD1.F              3141:   Depth drilled with bit1
 DFT .        KCL/POLYMER:   Type fluid in hole
 DFD .                8.9:   Density
 DFV .                 34:   Viscosity
 DFPH.                9.5:   pH
 DFL .                9.5:   Fluid loss
 MSS .           FLOWLINE:   Source of sample
 RMS .OHMM           .368:   Rm
 MST .F                66:   Rm Meas. temp.
 RMF .OHMM           .296:   Rmf
 MFST.F                66:   Rmf Meas. temp.
 RMC .OHMM           .468:   Rmc
 MCST.F                66:   Rmc Meas. temp.
 MFSS.               MEAS:   Source Rmf.
 MCSS.               CALC:   Source Rmc.
 RMB .OHMM           .282:   Rm. at BHT
 BHT .F               120:   BHT.
 TCS .HRS             3.5:   Time Circ. stopped
 MRT .F               120:   Maximum recorded temp.
 LUN .            HL-6274:   Logging unit number
 LUL .           GILLETTE:   Logging unit location
 ENGI.             RAUTIO:   Recorded By
 WITN.             STRONG:   Witnessed by
 ORIG.        2" 5" PRINT:   Origin of data
 UWI .     49025111180000:   Unique Well ID
 DICO. A2D TECHNOLOGIES, INC.:   Digitizing Company
~OTHER INFORMATION
~A    DEPT    CALD        DEN       CORR       NPOR        SPR         GRR       SFL        ILD        ILM       TENR   
# ...
 3123.0000     7.8715     2.4089    -0.0058     0.2307  -999.2500  -999.2500     2.8087     2.2319     2.3816   770.9632
 3123.5000     7.8723     2.4089    -0.0058     0.2307  -999.2500  -999.2500     2.8604     2.2312     2.4032   771.4368
 3124.0000     7.8731     2.4090    -0.0056     0.2307  -999.2500  -999.2500     2.9131     2.2305     2.4025   781.9887
 3124.5000     7.8739     2.4076    -0.0056     0.2307  -999.2500  -999.2500     2.9393     2.2299     2.4018   812.6964
 3125.0000     7.8747     2.4061    -0.0054     0.2307  -999.2500  -999.2500     2.7794     2.2500     2.3789   843.4026
 3125.5000     7.8756     2.4061    -0.0054     0.2307  -999.2500  -999.2500     2.6283     2.2493     2.3782   874.1073
 3126.0000     7.8766     2.4062    -0.0054     0.2307  -999.2500  -999.2500     2.5318     2.2487     2.3775   884.6556
 3126.5000     7.9169     2.4062    -0.0052     0.2307  -999.2500  -999.2500     2.5785     2.2480     2.3769   895.2040
 3127.0000     7.8577     2.4083    -0.0052     0.2307  -999.2500  -999.2500     2.6504     2.2683     2.3762   895.6743
 3127.5000     7.8585     2.4083    -0.0050     0.2307  -999.2500  -999.2500     2.7497     2.2678     2.3754   876.0855
 3128.0000     7.8592     2.4083    -0.0050     0.2307  -999.2500  -999.2500     2.8528     2.2670     2.3747   846.2329
 3128.5000     7.8599     2.4084    -0.0050     0.2307  -999.2500  -999.2500     2.8785     2.2664     2.3740   796.0399
 3129.0000     7.8406     2.4084    -0.0048     0.2307  -999.2500  -999.2500     2.9044     2.2444     2.3733   504.6910
 3129.5000     7.8614     2.4085    -0.0048     0.2307  -999.2500  -999.2500     2.9036     2.2440     2.3726   333.8857
 3130.0000     7.8623     2.4075    -0.0046     0.2307  -999.2500  -999.2500     2.8759     2.2437     2.3719   243.6918
 3130.5000     7.8631     2.4066    -0.0046     0.2307  -999.2500  -999.2500     2.8751     2.2432     2.3712   173.6528
 3131.0000     7.8638     2.4056    -0.0046     0.2307  -999.2500  -999.2500  -999.2500     2.2424     2.3705   -27.3559
 3131.5000     7.9045  -999.2500    -0.0044     0.2307  -999.2500  -999.2500  -999.2500     2.2418     2.3484   -57.0865
 3132.0000  -999.2500  -999.2500  -999.2500     0.2307  -999.2500  -999.2500  -999.2500     2.2409     2.3690   -76.7413
 3132.5000  -999.2500  -999.2500  -999.2500     0.2307  -999.2500  -999.2500  -999.2500     2.2402     2.3905   -86.3209
 3133.0000  -999.2500  -999.2500  -999.2500     0.2307  -999.2500  -999.2500  -999.2500     2.2396     2.3899   -95.9002
 3133.5000  -999.2500  -999.2500  -999.2500     0.2307  -999.2500  -999.2500  -999.2500     2.2810     2.3892  -105.4789
 3134.0000  -999.2500  -999.2500  -999.2500     0.2307  -999.2500  -999.2500  -999.2500     2.2802     2.3885  -104.9838
 3134.5000  -999.2500  -999.2500  -999.2500     0.2307  -999.2500  -999.2500  -999.2500     2.2795     2.3876  -114.5618
 3135.0000  -999.2500  -999.2500  -999.2500     0.2307  -999.2500  -999.2500  -999.2500     2.2787     2.3869  -124.1393
 3135.5000  -999.2500  -999.2500  -999.2500     0.2307  -999.2500  -999.2500  -999.2500     2.2782     2.3862  -143.7890
 3136.0000  -999.2500  -999.2500  -999.2500     0.2307  -999.2500  -999.2500  -999.2500     2.2774     2.3855  -153.3653
 3136.5000  -999.2500  -999.2500  -999.2500     0.2307  -999.2500  -999.2500  -999.2500     2.2767     2.3848  -162.9412
 3137.0000  -999.2500  -999.2500  -999.2500     0.2307  -999.2500  -999.2500  -999.2500     2.2761     2.3841  -162.4448
 3137.5000  -999.2500  -999.2500  -999.2500     0.2307  -999.2500  -999.2500  -999.2500     2.2754     2.3834  -172.0200
 3138.0000  -999.2500  -999.2500  -999.2500     0.2307  -999.2500  -999.2500  -999.2500     2.2538     2.3830  -181.5947
 3138.5000  -999.2500  -999.2500  -999.2500     0.2307  -999.2500  -999.2500  -999.2500     2.2531     2.3821  -191.1689
 3139.0000  -999.2500  -999.2500  -999.2500     0.2307  -999.2500  -999.2500  -999.2500     2.2318     2.3816  -200.7426
 3139.5000  -999.2500  -999.2500  -999.2500     0.2307  -999.2500  -999.2500  -999.2500     2.2310     2.3587  -200.2453
 3140.0000  -999.2500  -999.2500  -999.2500     0.2306  -999.2500  -999.2500  -999.2500     2.2304     2.3580  -199.6486
