~VERSION INFORMATION
 VERS.                2.0:   CWLS LOG ASCII STANDARD - VERSION 2.0
 WRAP.                 NO:   ONE LINE PER DEPTH STEP
~WELL INFORMATION
#MNEM.UNIT      DATA TYPE    INFORMATION
#----------   ------------   ------------------------------
 STRT.F         3500.0000:   START DEPTH
 STOP.F         6855.0000:   STOP DEPTH
 STEP.F            0.5000:   STEP LENGTH
 NULL.          -999.2500:   NO VALUE
 COMP.          U.S. NAVY:   COMPANY
 WELL.  US NAVY "G" #1-10:   WELL
 FLD . TEAPOT NAVAL RESERVE:   FIELD
 LOC .      S10 T38N R78W:   LOCATION
 CNTY.            NATRONA:   COUNTY
 STAT.            WYOMING:   STATE
 CTRY. UNITED STATES OF AMERICA:   COUNTRY
 SRVC.         LANE WELLS:   SERVICE COMPANY
 DATE.        23-MAR-1952:   LOGDATE
 API .     49025063380000:   API NUMBER
~CURVE INFORMATION
#MNEM.UNIT       API CODE    CURVE DESCRIPTION
#----------   ------------   ------------------------------
 DEPT.F                  :   
 GRN .GAPI   35 310 01 00:   GAMMA RAY
 NEUT.NAPI   35 330 01 00:   NEUTRON
~PARAMETER INFORMATION
#MNEM.UNIT          VALUE    DESCRIPTION
#----------   ------------   ------------------------------
 EKB .F         5195.0000:   Kelly bushing
 EGL .F         5184.0000:   Ground level
 EDF .F         5195.0000:   Drilling floor
 EPD .F            0.0000:   Permanent datum
 TD  .F         6861.0000:   Total depth
 CLNT.            A2DTECH:   Client Code
 PD  .                 GL:   Permanent Datum
 DATE.        23-MAR-1952:   Date Logged [DD-MMM-YYYY]
 DD  .F              6861:   Depth driller
 DL  .F              6861:   Depth logger
 BLI .F              6855:   Bottom log interval
 TLI .F              3500:   Top log interval
 BSD1.F              6861:   Depth drilled with bit1
 DFT .                MUD:   Type fluid in hole
 ENGI.            GAMBERG:   Recorded By
 WITN.           GRIBBENS:   Witnessed by
 ORIG.         2.5" PRINT:   Origin of data
 UWI .     49025063380000:   Unique Well ID
 DICO. A2D TECHNOLOGIES, INC.:   Digitizing Company
~OTHER INFORMATION
~A  DEPT       GRN        NEUT  
# ...
 3743.0000   116.0070    92.0802
 3743.5000   118.4109   130.9350
 3744.0000   114.8781   178.1094
 3744.5000   112.1951   213.4778
 3745.0000   113.6585   233.3479
 3745.5000   114.6341   205.3790
 3746.0000   113.9024   173.5941
 3746.5000   111.6724   141.8093
 3747.0000   109.4813   114.2367
 3747.5000   110.3498    88.9970
 3748.0000   111.6129    72.1096
 3748.5000   112.7796    62.6986
 3749.0000   113.1707    64.4985
 3749.5000   112.1205    85.1303
 3750.0000   111.0567   146.6993
 3750.5000   113.1707   202.9340
 3751.0000   114.6341   229.8289
 3751.5000   116.3415   242.0538
 3752.0000   117.0861   217.2123
 3752.5000   117.3171   212.7139
 3753.0000   115.4085   216.5596
 3753.5000   113.0529   226.8467
 3754.0000   110.1658   221.3204
 3754.5000   109.9885   200.4890
 3755.0000   110.8698   185.8191
 3755.5000   110.7317   171.1491
 3756.0000   107.8049   167.1407
 3756.5000   105.1219   181.0797
 3757.0000   103.4146   217.0938
 3757.5000   101.9428   247.1471
 3758.0000   101.2195   264.0587
 3758.5000   101.1715   253.2445
 3759.0000    99.5467   248.1010
 3759.5000    95.9693   246.0401
 3760.0000    92.2233   261.6137
 3760.5000    90.9756   281.1736
 3761.0000    90.7317   290.9536
 3761.5000    91.2539   288.5085
 3762.0000    92.1951   294.4690
 3762.5000    91.3415   310.5185
 3763.0000    89.5903   325.3290
 3763.5000    88.9195   331.4026
 3764.0000    88.5271   299.7344
 3764.5000    89.0244   229.8289
 3765.0000    91.9512   222.4939
 3765.5000    94.6341   212.7139
 3766.0000   100.0000   193.1540
 3766.5000   101.2195   157.6239
 3767.0000   104.3902   133.5907
 3767.5000   108.2927   127.1394
 3768.0000   109.7561   146.3579
 3768.5000   107.3171   201.4630
 3769.0000   106.7870   234.7188
 3769.5000   105.7675   239.6088
 3770.0000   106.0645   234.7188
 3770.5000   109.2152   210.2690
 3771.0000   110.2439   188.2339
 3771.5000   109.6252   177.9464
 3772.0000   111.2195   153.7029
 3772.5000   111.4271    94.9579
 3773.0000   110.7317    68.8513
 3773.5000   110.7065    70.0863
 3774.0000   111.2195   122.2494
 3774.5000   110.6570   141.8093
 3775.0000   107.8849   149.1443
 3775.5000   106.8293   171.1491
 3776.0000   107.8049   218.4850
 3776.5000   106.8601   253.2395
 3777.0000   105.4684   270.1536
 3777.5000   103.1707   263.9357
 3778.0000   101.4634   244.9561
 3778.5000   100.4878   233.6344
 3779.0000   102.1951   244.4988
 3779.5000   104.1463   256.7237
 3780.0000   104.3902   273.8386
 3780.5000   102.9801   293.3985
 3781.0000   100.0000   321.3639
 3781.5000   100.0000   346.9021
 3782.0000    98.8414   363.9141
 3782.5000    95.4314   369.1931
 3783.0000    94.1463   358.2886
 3783.5000    95.9642   264.0587
 3784.0000    96.8519   215.1589
 3784.5000    95.7213   180.9291
 3785.0000    96.5854   173.5941
 3785.5000    95.6098   183.3967
 3786.0000    92.1951   201.5343
 3786.5000    92.9268   221.0781
 3787.0000    93.6585   236.2501
 3787.5000    94.1665   245.5165
 3788.0000    94.0617   233.3457
 3788.5000    92.6700   210.2690
 3789.0000    91.1333   198.0440
 3789.5000    90.7317   195.5990
 3790.0000    91.3661   193.1540
 3790.5000    93.6585   168.2644
 3791.0000    93.6585   140.7776
 3791.5000    92.9268   124.6944
 3792.0000    91.2195   170.7676
 3792.5000    90.7233   219.5669
 3793.0000    93.7661   244.1900
 3793.5000    95.8935   315.4034
 3794.0000    95.4244   339.8533
 3794.5000    92.5079   352.0782
 3795.0000    91.7073   337.4083
 3795.5000    91.5796   297.0924
 3796.0000    90.7317   259.4925
 3796.5000    89.7561   268.7855
 3797.0000    89.7561   293.7428
 3797.5000    92.6829   303.1785
 3798.0000    96.0976   244.4988
 3798.5000    97.5923   222.4939
 3799.0000    98.3301   220.9802
 3799.5000    98.8399   249.3887
 3800.0000    99.5122   268.9487
 3800.5000    99.2023   257.6475
 3801.0000    97.0602   226.2933
 3801.5000    94.1463   187.0893
 3802.0000    91.2195   161.3692
 3802.5000    87.5610   219.4289
 3803.0000    84.3902   264.0587
 3803.5000    83.9024   259.4481
 3804.0000    86.9587   199.3099
 3804.5000    91.4298   197.2629
 3805.0000    94.4872   161.1692
 3805.5000    96.5704   116.3278
 3806.0000    98.3935   111.1684
 3806.5000    99.0244   133.3289
 3807.0000    98.7805   140.7415
 3807.5000    98.5366   162.9324
 3808.0000    98.0488   214.6800
 3808.5000    97.8049   245.1512
 3809.0000    96.5854   260.4917
 3809.5000    95.0898   269.6717
 3810.0000    92.9764   274.8779
 3810.5000    89.8215   261.5478
 3811.0000    86.1383   195.1278
 3811.5000    84.3988   143.4270
 3812.0000    82.3509   108.9677
 3812.5000    81.1993   116.3803
 3813.0000    80.4472    98.6568
 3813.5000    81.0750    53.6371
 3814.0000    82.5419    37.0766
 3814.5000    82.5814    43.3803
 3815.0000    82.5488    74.3926
 3815.5000    83.0755   122.1706
 3816.0000    84.6503   160.8909
 3816.5000    86.7011   131.3577
 3817.0000    89.7348    91.9722
 3817.5000    93.9450    55.0499
 3818.0000    97.1512    47.5532
 3818.5000    99.8921    42.7814
 3819.0000   100.4398    50.9329
 3819.5000   102.2177   105.0620
 3820.0000   106.9763   132.6752
 3820.5000   112.2132   135.4183
 3821.0000   114.8654   138.9693
 3821.5000   116.5291   146.3819
 3822.0000   117.7225   168.5728
 3822.5000   117.7845   190.7637
 3823.0000   117.7293   216.6945
 3823.5000   117.2452   254.1366
 3824.0000   115.9903   272.1148
 3824.5000   114.5915   258.3821
 3825.0000   110.6707   235.2217
 3825.5000   105.0426   222.9357
 3826.0000   103.3870   218.0330
 3826.5000   103.1207   220.5195
 3827.0000   104.1006   225.4690
 3827.5000   105.8114   232.9223
 3828.0000   109.2295   235.3680
 3828.5000   111.9160   216.2055
 3829.0000   116.9415   150.1611
 3829.5000   123.4704   126.3533
 3830.0000   127.3903   117.2414
 3830.5000   129.8153   122.1964
 3831.0000   131.8656   141.9242
 3831.5000   133.4287   173.9673
 3832.0000   135.1129   178.9169
 3832.5000   134.8724   204.9344
 3833.0000   129.5101   252.2907
 3833.5000   126.0989   270.1201
 3834.0000   122.1700   243.3425
 3834.5000   118.5589   210.1007
 3835.0000   115.4638   193.5158
 3835.5000   113.2899   188.9409
 3836.0000   110.1463   184.0421
 3836.5000   109.5464   171.7502
 3837.0000   111.9787   156.9953
 3837.5000   114.4212   152.0926
 3838.0000   115.4003   152.5764
 3838.5000   115.4038   155.3190
 3839.0000   117.1196   159.0307
 3839.5000   118.8254   182.9183
 3840.0000   117.0735   213.7978
 3840.5000   113.5175   250.7670
 3841.0000   111.0822   258.6532
 3841.5000   109.8184   211.4050
 3842.0000   109.0878   211.4943
 3842.5000   109.3359   218.8424
 3843.0000   110.0711   212.8586
 3843.5000   109.5868   196.7975
 3844.0000   108.1269   185.8460
 3844.5000   106.8487   189.5309
 3845.0000   105.6504   201.7284
 3845.5000   105.6988   226.3824
 3846.0000   107.2928   246.1102
 3846.5000   108.3785   253.5228
 3847.0000   108.8430   250.6185
 3847.5000   107.1774   226.4761
 3848.0000   106.8814   232.0532
 3848.5000   107.6722   239.7224
 3849.0000   107.1879   235.4683
 3849.5000   105.9554   221.3367
 3850.0000   106.3009   214.2896
 3850.5000   107.8808   216.7761
 3851.0000   109.5079   224.1887
 3851.5000   111.3337   224.2121
 3852.0000   111.6000   221.7725
 3852.5000   110.3847   235.4713
 3853.0000   110.0845   241.5237
 3853.5000   111.6112   229.7807
 3854.0000   112.1025   221.8719
 3854.5000   109.0793   221.9013
 3855.0000   105.6949   231.7769
 3855.5000   104.7358   244.1156
 3856.0000   104.2277   268.7696
 3856.5000   103.3670   293.4235
 3857.0000   102.4796   280.5767
 3857.5000   102.8604   269.7047
 3858.0000   105.3029   261.4741
 3858.5000   107.2576   262.5443
 3859.0000   109.4562   273.9739
 3859.5000   111.1841   288.6497
 3860.0000   110.8459   296.0623
 3860.5000   106.7457   291.1595
 3861.0000   105.3238   276.4046
 3861.5000   106.2337   256.5117
 3862.0000   108.7723   236.9761
 3862.5000   111.1897   202.5913
 3863.0000   112.1688   154.3562
 3863.5000   112.6601    92.4353
 3864.0000   112.9075    72.1182
