~VERSION INFORMATION
 VERS.                2.0:   CWLS LOG ASCII STANDARD - VERSION 2.0
 WRAP.                 NO:   ONE LINE PER DEPTH STEP
~WELL INFORMATION
#MNEM.UNIT      DATA TYPE    INFORMATION
#----------   ------------   ------------------------------
 STRT.F          218.5000:   START DEPTH
 STOP.F         3291.0000:   STOP DEPTH
 STEP.F            0.5000:   STEP LENGTH
 NULL.          -999.2500:   NO VALUE
 COMP.    FENIX & SCISSON:   COMPANY
 WELL.   FENIX SHX #63-23:   WELL
 FLD .  TEAPOT DOME NPR-3:   FIELD
 LOC .      S23 T38N R78W:   LOCATION
 CNTY.            NATRONA:   COUNTY
 STAT.            WYOMING:   STATE
 CTRY. UNITED STATES OF AMERICA:   COUNTRY
 SRVC.           BIRDWELL:   SERVICE COMPANY
 DATE.        08-JUL-1978:   LOGDATE
 API .     49025106600000:   API NUMBER
~CURVE INFORMATION
#MNEM.UNIT       API CODE    CURVE DESCRIPTION
#----------   ------------   ------------------------------
 DEPT.F                  :   
 GRD .GAPI   45 310 01 00:   GAMMA RAY FROM DENSITY LOG
 CALD.IN     45 280 60 00:   CALIPER FROM DENSITY LOG
 CORR.G/C3   45 356 01 00:   DENSITY CORRECTION
 RHOB.G/C3   45 350 01 00:   BULK DENSITY
 GR  .GAPI   35 310 01 00:   GAMMA RAY
 NEUT.NAPI   35 330 01 00:   NEUTRON
~PARAMETER INFORMATION
#MNEM.UNIT          VALUE    DESCRIPTION
#----------   ------------   ------------------------------
 EKB .F         5368.0000:   Kelly bushing
 EGL .F         5358.0000:   Ground level
 TD  .F         3299.0000:   Total depth
 CLNT.            A2DTECH:   Client Code
 PD  .                 GL:   Permanent Datum
 EPD .F              5358:   Elevation Permanent Datum
 LMF .                 KB:   Log Measured From
 DMF .                 KB:   Drilling Measured From
 DAPD.F                10:   Feet Above Permanent Datum
 DATE.        08-JUL-1978:   Date Logged [DD-MMM-YYYY]
 DD  .F              3299:   Depth driller
 DL  .F              3291:   Depth logger
 BLI .F              3291:   Bottom log interval
 TLI .F              1430:   Top log interval
 CS1 .IN            9.625:   Casing size
 CBD1.     9.625" @ 1450':   Casing driller 1
 CBL1.F              1442:   Casing logger 1
 BS1 .IN            8.750:   Bit size
 BSD1.F              3299:   Depth drilled with bit1
 DFT .          KCL WATER:   Type fluid in hole
 BHT .F               118:   BHT.
 TCS .HRS               2:   Time Circ. stopped
 MRT .F               118:   Maximum recorded temp.
 LUN .               2958:   Logging unit number
 LUL .               CASP:   Logging unit location
 ENGI.             MILLER:   Recorded By
 WITN.           MCGINLEY:   Witnessed by
 ORIG.           5" PRINT:   Origin of data
 UWI .     49025106600000:   Unique Well ID
 DICO. A2D TECHNOLOGIES, INC.:   Digitizing Company
 SL  . 1800' FNL & 1825' FEL:   Surface Location
~OTHER INFORMATION
~A   DEPT      GRD       CALD       CORR       RHOB          GR      NEUT   
# ...
 2246.5000    76.0942     9.4040     0.1005     2.5852  -999.2500  -999.2500
 2247.0000    78.0573     9.3729     0.0959     2.5737  -999.2500  -999.2500
 2247.5000    80.3772     9.3569     0.0882     2.5599  -999.2500  -999.2500
 2248.0000    83.5059     9.4017     0.0820     2.5529  -999.2500  -999.2500
 2248.5000    84.8637     9.4316     0.0897     2.5842  -999.2500  -999.2500
 2249.0000    84.8537     9.4612     0.1000     2.5949  -999.2500  -999.2500
 2249.5000    83.6024     9.4300     0.1029     2.5981  -999.2500  -999.2500
 2250.0000    81.9461     9.3937     0.1043     2.6012  -999.2500  -999.2500
 2250.5000    84.5100     9.3511     0.1057     2.6048  -999.2500  -999.2500
 2251.0000    84.3364     9.4102     0.1056     2.6061  -999.2500  -999.2500
 2251.5000    81.5832     9.5150     0.1085     2.6060  -999.2500  -999.2500
 2252.0000    80.1979     9.5132     0.1114     2.6028  -999.2500  -999.2500
 2252.5000    80.0329     9.4502     0.1128     2.5989  -999.2500  -999.2500
 2253.0000    80.7709     9.4332     0.1143     2.5919  -999.2500  -999.2500
 2253.5000    81.6653     9.4471     0.1141     2.5903  -999.2500  -999.2500
 2254.0000    83.1833     9.4450     0.1140     2.5971  -999.2500  -999.2500
 2254.5000    84.3616     9.4432     0.1139     2.6023  -999.2500  -999.2500
 2255.0000    85.1041     9.4410     0.1123     2.6022  -999.2500  -999.2500
 2255.5000    85.3949     9.4241     0.1076     2.5998  -999.2500  -999.2500
 2256.0000    83.8533     9.4071     0.0999     2.5974  -999.2500  -999.2500
 2256.5000    82.1623     9.4210     0.0952     2.5958  -999.2500  -999.2500
 2257.0000    80.4706     9.4341     0.0966     2.5957  -999.2500  -999.2500
 2257.5000    79.3893     9.4323     0.1011     2.6017  -999.2500  -999.2500
 2258.0000    78.7640     9.4458     0.1070     2.6077  -999.2500  -999.2500
 2258.5000    78.4469     9.4436     0.1100     2.6252  -999.2500  -999.2500
 2259.0000    78.7295     9.4418     0.1068     2.6137  -999.2500  -999.2500
 2259.5000    78.7116     9.4401     0.1020     2.5958  -999.2500  -999.2500
 2260.0000    79.2977     9.4536     0.0980     2.5874  -999.2500  -999.2500
 2260.5000    79.5842     9.4514     0.0957     2.5858  -999.2500  -999.2500
 2261.0000    79.8707     9.4653     0.0894     2.5827  -999.2500  -999.2500
 2261.5000    80.3092     9.4788     0.0968     2.5787  -999.2500  -999.2500
 2262.0000    80.4438     9.4766     0.1072     2.5764  -999.2500  -999.2500
 2262.5000    80.1180     9.4901     0.1130     2.5839  -999.2500  -999.2500
 2263.0000    79.3406     9.5035     0.1158     2.5869  -999.2500  -999.2500
 2263.5000    78.7153     9.5014     0.1217     2.5883  -999.2500  -999.2500
 2264.0000    78.5458     9.4996     0.1262     2.5851  -999.2500  -999.2500
 2264.5000    79.8962     9.5135     0.1334     2.5828  -999.2500  -999.2500
 2265.0000    82.2502     9.5422     0.1377     2.5933  -999.2500  -999.2500
 2265.5000    85.7840     9.6014     0.1421     2.6032  -999.2500  -999.2500
 2266.0000    87.5902     9.7053     0.1388     2.6000  -999.2500  -999.2500
 2266.5000    87.7291     9.7344     0.1264     2.5937  -999.2500  -999.2500
 2267.0000    86.9474     9.7631     0.1186     2.5876  -999.2500  -999.2500
 2267.5000    81.4588     9.7000     0.1061     2.5798  -999.2500  -999.2500
 2268.0000    78.6610     9.6374     0.0983     2.5752  -999.2500  -999.2500
 2268.5000    77.7721     9.6356     0.0981     2.5835  -999.2500  -999.2500
 2269.0000    77.4507     9.6335     0.0979     2.5872  -999.2500  -999.2500
 2269.5000    77.4333     9.6474     0.0977     2.5917  -999.2500  -999.2500
 2270.0000    78.6316     9.6452     0.1020     2.5948  -999.2500  -999.2500
 2270.5000    80.3071     9.5978     0.1033     2.5968  -999.2500  -999.2500
 2271.0000    82.0878     9.5656     0.1046     2.5975  -999.2500  -999.2500
 2271.5000    82.8302     9.5482     0.1041     2.5989  -999.2500  -999.2500
 2272.0000    83.1211     9.5465     0.0920     2.5682  -999.2500  -999.2500
 2272.5000    82.7953     9.5604     0.0796     2.5636  -999.2500  -999.2500
 2273.0000    81.5621     9.6039     0.0915     2.5780  -999.2500  -999.2500
 2273.5000    80.6130     9.6478     0.0959     2.5872  -999.2500  -999.2500
 2274.0000    79.6991     9.6765     0.0987     2.5969  -999.2500  -999.2500
 2274.5000    79.3777     9.5525     0.1000     2.5945  -999.2500  -999.2500
 2275.0000    79.3603     9.4899     0.0997     2.5914  -999.2500  -999.2500
 2275.5000    79.7987     9.4729     0.1011     2.5966  -999.2500  -999.2500
 2276.0000    80.7011     9.4560     0.1008     2.6011  -999.2500  -999.2500
 2276.5000    82.0391     9.4237     0.1036     2.6041  -999.2500  -999.2500
 2277.0000    83.5414     9.4216     0.1079     2.6055  -999.2500  -999.2500
 2277.5000    84.1362     9.4046     0.1123     2.6084  -999.2500  -999.2500
 2278.0000    84.7223     9.4185     0.1166     2.6099  -999.2500  -999.2500
 2278.5000    84.7048     9.4163     0.1179     2.6006  -999.2500  -999.2500
 2279.0000    84.3834     9.4146     0.1146     2.5974  -999.2500  -999.2500
 2279.5000    84.9695     9.4128     0.1129     2.5958  -999.2500  -999.2500
 2280.0000    85.5600     9.3954     0.1111     2.5911  -999.2500  -999.2500
 2280.5000    86.3024     9.3480     0.1139     2.5951  -999.2500  -999.2500
 2281.0000    86.7409     9.3463     0.1168     2.6116  -999.2500  -999.2500
 2281.5000    87.0274     9.3445     0.1226     2.6153  -999.2500  -999.2500
 2282.0000    87.1619     9.3428     0.1254     2.6228  -999.2500  -999.2500
 2282.5000    86.8361     9.3406     0.1176     2.6258  -999.2500  -999.2500
 2283.0000    85.7549     9.3236     0.1113     2.6073  -999.2500  -999.2500
 2283.5000    81.7860     9.2915     0.1065     2.6027  -999.2500  -999.2500
 2284.0000    79.0330     9.2593     0.1002     2.5924  -999.2500  -999.2500
 2284.5000    78.4073     9.2880     0.0969     2.5872  -999.2500  -999.2500
 2285.0000    79.1457     9.4228     0.0937     2.5901  -999.2500  -999.2500
 2285.5000    79.7362     9.3601     0.0919     2.5961  -999.2500  -999.2500
 2286.0000    79.1108     9.4954     0.0902     2.6037  -999.2500  -999.2500
 2286.5000    79.0934     9.5245     0.0899     2.5914  -999.2500  -999.2500
 2287.0000    79.5319     9.4614     0.0897     2.5889  -999.2500  -999.2500
 2287.5000    80.2699     9.3684     0.0910     2.5990  -999.2500  -999.2500
 2288.0000    80.7128     9.4580     0.0908     2.6033  -999.2500  -999.2500
 2288.5000    80.5390     9.3949     0.0905     2.6024  -999.2500  -999.2500
 2289.0000    79.0018     9.3779     0.0888     2.6031  -999.2500  -999.2500
 2289.5000    78.3764     9.3918     0.0825     2.5908  -999.2500  -999.2500
 2290.0000    79.4424     9.4049     0.0762     2.5807  -999.2500  -999.2500
 2290.5000    80.0132     9.4331     0.0759     2.5814  -999.2500  -999.2500
 2291.0000    80.4473     9.4314     0.0772     2.5848  -999.2500  -999.2500
 2291.5000    80.4299     9.4449     0.0816     2.5866  -999.2500  -999.2500
 2292.0000    80.5688     9.4431     0.0874     2.5857  -999.2500  -999.2500
 2292.5000    80.5470     9.4414     0.0903     2.5840  -999.2500  -999.2500
 2293.0000    80.8775     9.4548     0.0931     2.5855  -999.2500  -999.2500
 2293.5000    81.7235     9.4527     0.0943     2.5884  -999.2500  -999.2500
 2294.0000    82.7699     9.4509     0.0956     2.5914  -999.2500  -999.2500
 2294.5000    83.5167     9.4492     0.0954     2.5859  -999.2500  -999.2500
 2295.0000    81.0632     9.4322     0.0957     2.5820  -999.2500  -999.2500
 2295.5000    79.8155     9.4768     0.0971     2.5827  -999.2500  -999.2500
 2296.0000    79.0483     9.3826     0.0978     2.5887  -999.2500  -999.2500
 2296.5000    79.3348     9.4570     0.0975     2.5932  -999.2500  -999.2500
 2297.0000    79.9296     9.5770     0.0973     2.5939  -999.2500  -999.2500
 2297.5000    80.0641     9.5448     0.0971     2.5953  -999.2500  -999.2500
 2298.0000    80.1945     9.4974     0.0968     2.5952  -999.2500  -999.2500
