~VERSION INFORMATION
 VERS.                2.0:   CWLS LOG ASCII STANDARD - VERSION 2.0
 WRAP.                 NO:   ONE LINE PER DEPTH STEP
~WELL INFORMATION
#MNEM.UNIT      DATA TYPE    INFORMATION
#----------   ------------   ------------------------------
 STRT.F           42.0000:   START DEPTH
 STOP.F         2778.0000:   STOP DEPTH
 STEP.F            0.5000:   STEP LENGTH
 NULL.          -999.2500:   NO VALUE
 COMP.    FENIX & SCISSON:   COMPANY
 WELL. FENIX & SCISSON SHX #56-23:   WELL
 FLD .        TEAPOT DOME:   FIELD
 LOC .      S23 T38N R78W:   LOCATION
 CNTY.            NATRONA:   COUNTY
 STAT.            WYOMING:   STATE
 CTRY. UNITED STATES OF AMERICA:   COUNTRY
 SRVC.           BIRDWELL:   SERVICE COMPANY
 DATE.        29-AUG-1979:   LOGDATE
 API .     49025107920000:   API NUMBER
~CURVE INFORMATION
#MNEM.UNIT       API CODE    CURVE DESCRIPTION
#----------   ------------   ------------------------------
 DEPT.F                  :   
 GRD .GAPI   45 310 01 00:   GAMMA RAY FROM DENSITY LOG
 CALD.IN     45 280 60 00:   CALIPER FROM DENSITY LOG
 RHOB.G/C3   45 350 01 00:   BULK DENSITY
 CORR.G/C3   45 356 01 00:   DENSITY CORRECTION
 ILD .OHMM   07 120 46 00:   DEEP INDUCTION RESISTIVITY
 SFL .OHMM   07 220 01 00:   SHALLOW FOCUSED LOG RESISTIVITY
 SPR .MV     07 010 01 00:   SPONTANEOUS POTENTIAL
~PARAMETER INFORMATION
#MNEM.UNIT          VALUE    DESCRIPTION
#----------   ------------   ------------------------------
 EKB .F         5361.0000:   Kelly bushing
 EGL .F         5351.0000:   Ground level
 EDF .F         5360.0000:   Drilling floor
 TD  .F         1465.0000:   Total depth
 DATE.        29-AUG-1979:   Date logged
 CLNT.            A2DTECH:   Client Code
 PD  .                 GL:   Permanent Datum
 EPD .F              5351:   Elevation Permanent Datum
 LMF .                 KB:   Log Measured From
 DMF .                 KB:   Drilling Measured From
 DAPD.F                 9:   Feet Above Permanent Datum
 DD  .F              1465:   Depth driller
 DL  .F              1462:   Depth logger
 BLI .F              1457:   Bottom log interval
 TLI .F                40:   Top log interval
 CBD1.F                40:   Casing driller 1
 CBL1.F                40:   Casing logger 1
 BS1 .IN            12.25:   Bit size
 BSD1.F              1465:   Depth drilled with bit1
 DFT .            GEL/MUD:   Type fluid in hole
 DFD .                9.5:   Density
 DFV .                 40:   Viscosity
 DFPH.                9.0:   pH
 DFL .                 40:   Fluid loss
 MSS .            MUD PIT:   Source of sample
 RMS .OHMM            2.6:   Rm
 MST .F                68:   Rm Meas. temp.
 RMF .OHMM            1.8:   Rmf
 MFST.F                78:   Rmf Meas. temp.
 RMC .OHMM            2.8:   Rmc
 MCST.F                76:   Rmc Meas. temp.
 MFSS.               MEAS:   Source Rmf.
 MCSS.               MEAS:   Source Rmc.
 RMB .OHMM           1.96:   Rm. at BHT
 BHT .F                90:   BHT.
 TCS .HRS               5:   Time Circ. stopped
 MRT .F                90:   Maximum recorded temp.
 LUN .               2959:   Logging unit number
 LUL .             CASPER:   Logging unit location
 ENGI.         B. ROLLINS:   Recorded By
 WITN.              AMEND:   Witnessed by
 ORIG.           5" PRINT:   Origin of data
 UWI .     49025107920000:   Unique Well ID
 DICO. A2D TECHNOLOGIES, INC.:   Digitizing Company
~OTHER INFORMATION
~A   DEPT       GRD      CALD       RHOB         CORR      ILD        SFL         SPR  
   42.0000    75.0400  -999.2500  -999.2500     0.2180  -999.2500  -999.2500    -1.0000
   42.5000    75.8830  -999.2500  -999.2500     0.2250  -999.2500  -999.2500    -1.0000
   43.0000    76.2300    14.4460  -999.2500     0.2330  -999.2500  -999.2500    -1.0000
   43.5000    73.5790    14.4750  -999.2500     0.2380  -999.2500  -999.2500    -1.0000
   44.0000    71.3410    14.5040  -999.2500     0.2310  -999.2500  -999.2500    -1.0000
   44.5000    68.6900    14.5330  -999.2500     0.2190  -999.2500  -999.2500   -12.4800
   45.0000    68.2940    14.5610  -999.2500     0.2070  -999.2500  -999.2500   -23.4000
   45.5000    68.3240    14.5900  -999.2500     0.2000  -999.2500  -999.2500   -27.6370
   46.0000    69.4280    14.6030  -999.2500     0.1960  -999.2500  -999.2500   -36.9930
   46.5000    69.3110    14.6340  -999.2500     0.2020  -999.2500  -999.2500   -43.3880
   47.0000    67.1270    14.6560  -999.2500     0.2140  -999.2500  -999.2500   -43.5030
   47.5000    63.4120    14.7060  -999.2500     0.2200  -999.2500  -999.2500   -43.7060
   48.0000    62.5130    14.6620  -999.2500     0.2130  -999.2500  -999.2500   -41.0860
   48.5000    65.4110    14.5350  -999.2500     0.2060  -999.2500  -999.2500   -37.8310
   49.0000    71.0090    14.4140  -999.2500     0.2020  -999.2500  -999.2500   -34.6450
   49.5000    76.2230    14.2920  -999.2500     0.2040  -999.2500  -999.2500   -31.4490
   50.0000    79.3940    14.1680  -999.2500     0.2100  -999.2500  -999.2500   -28.2290
   50.5000    76.5730    14.0520  -999.2500     0.2170  -999.2500  -999.2500   -25.0520
   51.0000    74.5460    13.9220     2.3500     0.2240  -999.2500  -999.2500   -21.8140
   51.5000    77.8820    13.8370     2.3520     0.2290  -999.2500  -999.2500   -18.6000
   52.0000    82.6780    13.7710     2.3530     0.2310  -999.2500     3.8890   -15.7160
   52.5000    81.7760    13.7040     2.3550     0.2280  -999.2500     3.9200   -16.0110
   53.0000    79.2240    13.6360     2.3570     0.2260  -999.2500     4.0520   -16.7290
   53.5000    78.6770    13.5700     2.3630     0.2230  -999.2500     4.4520   -17.3650
   54.0000    79.3300    13.5040     2.3740     0.2200  -999.2500     4.8510   -17.4880
   54.5000    82.5940    13.4330     2.3800     0.2180  -999.2500     5.2260   -19.3050
   55.0000    86.6590    13.3980     2.3800     0.2180  -999.2500     4.8480   -28.6110
   55.5000    90.5840    13.4000     2.3770     0.2160  -999.2500     4.8910   -37.4720
   56.0000    92.9400    13.3930     2.3800     0.2140  -999.2500     5.5760   -48.1270
   56.5000    92.3000    13.3860     2.3880     0.2120  -999.2500     6.3390   -51.3080
   57.0000    91.8520    13.3800     2.3920     0.2110  -999.2500     7.1020   -54.4990
   57.5000    91.5410    13.3740     2.3880     0.2140     2.0030     7.8640   -57.2140
   58.0000    88.8280    13.3640     2.3780     0.2170     2.0410     8.5230   -57.8620
   58.5000    83.7040    13.3650     2.3810     0.2210     2.7410     8.6840   -59.0520
   59.0000    83.4420    13.3310     2.3850     0.2190     4.2740     8.6840   -60.0050
   59.5000    81.5580    13.3390     2.3870     0.2180     5.8060     8.6600   -60.9600
   60.0000    78.7020    13.3580     2.3760     0.2140     7.3380     8.6260   -61.8410
   60.5000    78.1560    13.3740     2.3620     0.2100     8.8490     8.5930   -62.2990
   61.0000    78.7490    13.3970     2.3510     0.2080     8.8780     8.5590   -62.6370
   61.5000    81.6380    13.4060     2.3170     0.2130     8.7380     8.5230   -62.5680
   62.0000    84.9670    13.4750     2.2750     0.2390     8.6650     8.2080   -62.4160
   62.5000    83.1370    13.5340     2.2590     0.2730     8.5920     7.8350   -62.2220
   63.0000    79.2830    13.8270     2.2960     0.3270     8.5190     7.5230   -62.0350
   63.5000    75.4940    14.0880     2.3240     0.3200     8.4450     7.2100   -61.8520
   64.0000    73.7100    14.3670     2.2760     0.2970     8.3720     6.8970   -61.6630
   64.5000    72.1550    14.6320     2.2930     0.3350     8.2990     6.5500   -61.4760
   65.0000    70.6570    14.9130     2.3200     0.3790     8.2260     6.4280   -61.4020
   65.5000    68.4560    15.1730     2.2930     0.4260     8.1520     6.3030   -61.6440
   66.0000    66.2640    15.4700     2.2400     0.4210     8.0790     6.1880   -61.9570
   66.5000    67.3690    15.5140     2.1880     0.3910     7.8460     6.0730   -62.2590
   67.0000    70.7270    15.3580     2.2270     0.3540     7.6250     5.9580   -62.5690
   67.5000    74.2190    15.0570     2.2670     0.3170     7.4050     5.8430   -62.8880
   68.0000    78.2030    14.7910     2.3120     0.2810     7.1840     5.7280   -62.9600
   68.5000    80.0340    14.5150     2.3390     0.2450     6.9640     5.6130   -62.6220
   69.0000    78.9280    14.2440     2.3440     0.2400     6.7440     5.4980   -62.1950
   69.5000    78.1990    13.9610     2.3610     0.2350     6.5230     5.3830   -62.5210
   70.0000    77.8310    13.8000     2.3780     0.2320     6.3030     5.2680   -62.6480
   70.5000    78.4740    13.7550     2.3650     0.2280     6.0830     5.0330   -63.1490
   71.0000    79.8000    13.6960     2.3630     0.2280     5.8620     5.0330   -63.5710
   71.5000    82.7820    13.6410     2.3710     0.2290     5.6420     4.9890   -63.9940
   72.0000    83.5250    13.5850     2.3800     0.2310     5.4270     4.9460   -64.5360
   72.5000    80.6330    13.5290     2.3900     0.2260     5.3260     4.9030   -64.5700
   73.0000    76.3610    13.4710     2.3920     0.2210     5.3260     4.8600   -64.6350
   73.5000    72.5930    13.4170     2.3930     0.2330     5.2840     4.8170   -64.5720
   74.0000    68.5590    13.3700     2.3940     0.2440     5.2430     4.7740   -64.3810
   74.5000    66.9510    13.4470     2.3950     0.2270     5.2030     4.7570   -62.0010
   75.0000    68.0610    13.5250     2.3880     0.2230     5.1620     4.7570   -59.7990
   75.5000    72.3200    13.6090     2.3790     0.2230     5.1290     4.7570   -58.3850
   76.0000    76.6110    13.6920     2.3750     0.2230     5.0330     4.7570   -58.2780
   76.5000    81.0570    13.7520     2.3760     0.2230     5.0330     4.7570   -58.3160
   77.0000    85.3180    13.7890     2.3770     0.2240     5.1290     4.8850   -58.4670
   77.5000    89.9070    13.8140     2.3780     0.2270     5.2260     4.9830   -58.6330
   78.0000    92.4550    13.8290     2.3790     0.2290     5.3810     5.0810   -58.7690
   78.5000    90.0740    13.8450     2.3800     0.2320     5.5120     5.1790   -58.9200
   79.0000    85.9170    13.8620     2.3810     0.2330     5.6420     5.2770   -59.0740
   79.5000    80.7590    13.8760     2.3810     0.2330     5.7730     5.3750   -59.2140
   80.0000    81.8630    13.8770     2.3810     0.2320     5.9040     5.4730   -59.3710
   80.5000    85.7380    13.8730     2.3800     0.2280     5.9620     5.6350   -59.0660
   81.0000    85.2610    13.8690     2.3720     0.2250     5.9620     5.5730   -58.6350
   81.5000    83.9110    13.8650     2.3630     0.2210     5.9620     5.3970   -58.1450
   82.0000    86.6410    13.8610     2.3590     0.2190     5.9620     5.2210   -57.8010
   82.5000    91.3260    13.8570     2.3650     0.2240     5.7800     5.0460   -58.2240
   83.0000    89.0440    13.8530     2.3670     0.2260     5.5870     4.8700   -58.5240
   83.5000    87.9920    13.8490     2.3670     0.2260     5.3940     4.6940   -58.8690
   84.0000    87.0640    13.8450     2.3670     0.2260     5.2010     4.5190   -59.2020
   84.5000    88.1100    13.8400     2.3700     0.2270     5.0080     4.3430   -59.5340
   85.0000    87.8990    13.8370     2.3740     0.2270     4.8150     4.1670   -59.7900
   85.5000    87.1980    13.8240     2.3790     0.2270     4.6220     3.9920   -59.6510
   86.0000    84.7860    13.8050     2.3750     0.2280     4.4130     3.9420   -59.4740
   86.5000    83.6610    13.7870     2.3680     0.2280     4.2500     3.9420   -59.2910
   87.0000    84.1300    13.7680     2.3600     0.2280     4.0930     3.9300   -59.1000
