~VERSION INFORMATION
 VERS.                2.0:   CWLS LOG ASCII STANDARD - VERSION 2.0
 WRAP.                 NO:   ONE LINE PER DEPTH STEP
~WELL INFORMATION
#MNEM.UNIT      DATA TYPE    INFORMATION
#----------   ------------   ------------------------------
 STRT.F          484.0000:   START DEPTH
 STOP.F         4096.0000:   STOP DEPTH
 STEP.F            0.5000:   STEP LENGTH
 NULL.          -999.2500:   NO VALUE
 COMP.    FENIX & SCISSON:   COMPANY
 WELL. FENIX NPR "JX" #58-28:   WELL
 FLD .                NPR:   FIELD
 LOC .      S28 T39N R78W:   LOCATION
 CNTY.            NATRONA:   COUNTY
 STAT.            WYOMING:   STATE
 CTRY. UNITED STATES OF AMERICA:   COUNTRY
 SRVC.              WELEX:   SERVICE COMPANY
 DATE.        02-MAY-1978:   LOGDATE
 API .     49025107810000:   API NUMBER
~CURVE INFORMATION
#MNEM.UNIT       API CODE    CURVE DESCRIPTION
#----------   ------------   ------------------------------
 DEPT.F                  :   
 NPHI.DEC    42 890 03 00:   NEUTRON POROSITY SANDSTONE
 RHOB.G/C3   45 350 01 00:   BULK DENSITY
 CORR.G/C3   45 356 01 00:   DENSITY CORRECTION
 CALD.IN     45 280 60 00:   CALIPER FROM DENSITY LOG
 GRD .GAPI   45 310 01 00:   GAMMA RAY FROM DENSITY LOG
 SPR .MV     07 010 01 00:   SPONTANEOUS POTENTIAL
 ILD .OHMM   07 120 46 00:   DEEP INDUCTION RESISTIVITY
 SGRD.OHMM   07 220 05 00:   SHALLOW SHORT GUARD RESISTIVITY
 ILM .OHMM   07 120 44 00:   INDUCTION LOG MEDIUM RESISTIVITY
~PARAMETER INFORMATION
#MNEM.UNIT          VALUE    DESCRIPTION
#----------   ------------   ------------------------------
 EKB .F         5115.0000:   Kelly bushing
 EGL .F         5101.0000:   Ground level
 EDF .F            0.0000:   Drilling floor
 EPD .F         5101.0000:   Permanent datum
 TD  .F         4100.0000:   Total depth
 DATE.        02-MAY-1978:   Date logged
 CLNT.            A2DTECH:   Client Code
 SL  . 525' FSL & 2406' FEL:   Surface Location
 PD  .                 GL:   Permanent Datum
 DAPD.F                14:   Feet Above Permanent Datum
 DD  .F              4100:   Depth driller
 DL  .F              4098:   Depth logger
 BLI .F              4096:   Bottom log interval
 CS1 .IN            8.625:   Casing size
 CBD1.      8.625" @ 501':   Casing driller 1
 CBL1.F               500:   Casing logger 1
 BS1 .IN            7.875:   Bit size
 BSD1.F              4100:   Depth drilled with bit1
 DFT .            CHM GEL:   Type fluid in hole
 DFD .                9.4:   Density
 DFV .                 48:   Viscosity
 DFPH.                9.3:   pH
 DFL .                8.5:   Fluid loss
 MSS .           FLOWLINE:   Source of sample
 RMS .OHMM           1.24:   Rm
 MST .F                70:   Rm Meas. temp.
 RMF .OHMM            .57:   Rmf
 MFST.F                70:   Rmf Meas. temp.
 RMC .OHMM           1.48:   Rmc
 MCST.F                70:   Rmc Meas. temp.
 MFSS.               MEAS:   Source Rmf.
 MCSS.               MEAS:   Source Rmc.
 RMB .OHMM            .87:   Rm. at BHT
 BHT .F               123:   BHT.
 TCS .HRS               4:   Time Circ. stopped
 MRT .F               123:   Maximum recorded temp.
 LUN .               1892:   Logging unit number
 LUL .             CASPER:   Logging unit location
 ENGI.               REIN:   Recorded By
 WITN.           DINSMORE:   Witnessed by
 ORIG.         2.5" PRINT:   Origin of data
 UWI .     49025107810000:   Unique Well ID
 DICO. A2D TECHNOLOGIES, INC.:   Digitizing Company
 TLI .                500:   Top log interval
~OTHER INFORMATION
~A   DEPT       NPHI     RHOB       CORR       CALD         GRD       SPR        ILD       SGRD        ILM   
# ...
 2637.5000     0.1710     2.5880     0.0570     9.2460    89.7140   -10.2110     7.4830     9.1130     7.9100
 2638.0000     0.1740     2.6020     0.0640     9.2460    86.3170    -9.8860     7.4730     8.9540     7.8990
 2638.5000     0.1790     2.6150     0.0720     9.2460    87.9280    -9.5770     7.4630     8.6950     7.8880
 2639.0000     0.1830     2.6150     0.0790     9.2460    89.5860    -9.2600     7.4520     8.4350     7.8780
 2639.5000     0.1870     2.6120     0.0870     9.2460    92.0980    -8.8650     7.4370     8.3080     7.8610
 2640.0000     0.1870     2.6030     0.0790     9.2460    96.8870    -8.3150     7.4400     7.0080     7.8650
 2640.5000     0.1860     2.5930     0.0670     9.2460   101.3030    -7.7670     7.4580     6.0670     7.8830
 2641.0000     0.1810     2.5850     0.0550     9.2460    97.2000    -7.8330     7.4740     9.4560     7.9010
 2641.5000     0.1810     2.5930     0.0520     9.2460    93.8710    -8.8600     7.4900     9.2750     7.9180
 2642.0000     0.1840     2.6030     0.0520     9.2460    90.0830    -9.3390     7.5060     8.9910     7.9350
 2642.5000     0.1860     2.6050     0.0520     9.2460    88.7380    -9.8780     7.5230     8.7060     7.9520
 2643.0000     0.1890     2.6030     0.0520     9.2460    90.4760    -9.9190     7.5400     8.4630     7.9710
 2643.5000     0.1890     2.6000     0.0480     9.2460    92.5310    -9.9200     7.5550     8.5610     7.9860
 2644.0000     0.1850     2.5960     0.0360     9.2460    93.7090    -9.9210     7.5700     8.6890     8.0020
 2644.5000     0.1810     2.5920     0.0400     9.2290    94.7510    -9.9460     7.6360     8.8170     8.0720
 2645.0000     0.1770     2.5960     0.0460     9.2080    92.0920   -10.3220     7.7780     8.9450     8.2220
 2645.5000     0.1750     2.6050     0.0510     9.1870    90.4330   -10.6900     7.9200     9.0730     8.3720
 2646.0000     0.1750     2.6120     0.0570     9.1670    88.6600   -11.0960     8.0620     9.2010     8.5220
 2646.5000     0.1750     2.6210     0.0620     9.1460    87.0290   -11.4190     8.2050     9.3290     8.6730
 2647.0000     0.1790     2.6170     0.0680     9.1250    88.6050   -11.5200     8.3470     9.4560     8.8230
 2647.5000     0.1850     2.6120     0.0660     9.1040    91.7410   -10.4150     8.4890     9.3540     8.9730
 2648.0000     0.1870     2.6090     0.0650     9.0830    91.1150   -10.6880     8.6210     9.1900     9.1130
 2648.5000     0.1890     2.6110     0.0630     9.0620    90.0380   -11.0720     8.4670     9.0250     8.9500
 2649.0000     0.1910     2.6110     0.0610     9.0460    90.2220   -10.8550     8.3230     8.9460     8.7980
 2649.5000     0.1910     2.6110     0.0600     9.0710    91.9030   -10.5400     8.1790     8.6580     8.6450
 2650.0000     0.1890     2.6090     0.0580     9.0930    91.0210   -10.2200     8.0350     8.4030     8.4930
 2650.5000     0.1860     2.6060     0.0560     9.1160    90.1340    -9.9390     7.8910     8.1560     8.3410
 2651.0000     0.1840     2.6030     0.0540     9.1390    89.0710   -10.0050     7.7460     8.2180     8.1880
 2651.5000     0.1860     2.5950     0.0530     9.1630    89.9760   -10.0760     7.6020     8.2790     8.0360
 2652.0000     0.1850     2.5870     0.0510     9.1850    90.6550   -10.1620     7.4580     8.3400     7.8840
 2652.5000     0.1830     2.5840     0.0490     9.2050    90.2250   -10.2400     7.3140     8.4010     7.7310
 2653.0000     0.1800     2.5860     0.0480     9.1990    89.6510   -10.3200     7.1660     8.4630     7.5740
 2653.5000     0.1770     2.5850     0.0490     9.1940    90.7080   -10.4010     7.1660     8.4340     7.5740
 2654.0000     0.1740     2.5800     0.0500     9.1870    92.6720   -10.4810     7.1660     8.3850     7.5740
 2654.5000     0.1700     2.5880     0.0520     9.1820    94.3170   -10.5620     7.3160     8.3080     7.7330
 2655.0000     0.1660     2.5950     0.0530     9.1760    95.0230   -10.6420     7.5520     8.5890     7.9830
 2655.5000     0.1630     2.6030     0.0540     9.1700    95.9880   -10.7230     7.7890     9.1910     8.2330
 2656.0000     0.1630     2.6010     0.0560     9.1640    95.5120   -10.8020     8.0250    10.1830     8.4830
 2656.5000     0.1610     2.5930     0.0570     9.1580    93.6760   -10.8820     8.2620    10.1280     8.7330
 2657.0000     0.1610     2.5990     0.0580     9.1520    91.8490   -10.9660     8.4990     9.9720     8.9840
 2657.5000     0.1580     2.6150     0.0600     9.1470    89.8860   -11.0380     8.7350     9.8160     9.2340
 2658.0000     0.1550     2.6310     0.0610     9.1410    87.5440   -11.1220     8.9720     9.6610     9.4840
 2658.5000     0.1520     2.6450     0.0620     9.1350    84.4220   -10.9300     9.2090     9.4560     9.7340
 2659.0000     0.1490     2.6480     0.0640     9.1290    85.9560   -10.6920     9.2960     9.5090     9.8260
 2659.5000     0.1460     2.6420     0.0630     9.1230    89.4790   -10.4460     9.3140    10.2720     9.8460
 2660.0000     0.1450     2.6450     0.0620     9.1170    89.2170   -10.2110     9.3330    11.0340     9.8650
 2660.5000     0.1460     2.6450     0.0610     9.1110    89.0690    -9.9710     9.3520    11.7970     9.8850
 2661.0000     0.1500     2.6450     0.0600     9.1060    85.1150    -9.9160     9.3700    12.2510     9.9050
 2661.5000     0.1550     2.6370     0.0590     9.1000    79.2210    -9.9170     9.3890    12.2510     9.9240
 2662.0000     0.1630     2.6350     0.0580     9.0940    76.2960    -9.9190     9.4070    12.2510     9.9440
 2662.5000     0.1700     2.6340     0.0570     9.0880    75.4560    -9.9170     9.4260    11.9480     9.9640
 2663.0000     0.1750     2.6300     0.0550     9.0840    75.3960    -9.9170     9.4440    11.5020     9.9830
 2663.5000     0.1760     2.6250     0.0540     9.0910    76.7520    -9.9200     9.4560    11.0560     9.9960
 2664.0000     0.1760     2.6260     0.0530     9.1040    77.4820    -9.9150     9.3860    10.6100     9.9220
 2664.5000     0.1740     2.6260     0.0520     9.1160    81.6680    -9.9190     9.2620    10.1640     9.7910
 2665.0000     0.1730     2.6230     0.0510     9.1280    83.6060    -9.9280     9.1390     9.7110     9.6600
 2665.5000     0.1730     2.6140     0.0500     9.1400    86.9810    -9.8860     9.0150     9.2830     9.5290
 2666.0000     0.1740     2.6070     0.0490     9.1520    87.7840   -10.2890     8.8910    10.2050     9.3980
 2666.5000     0.1780     2.6060     0.0480     9.1640    86.3900   -10.9700     8.7820    10.9640     9.2830
 2667.0000     0.1820     2.6160     0.0500     9.1760    85.0990   -11.0010     8.5310    10.9640     9.0180
 2667.5000     0.1870     2.6230     0.0540     9.1880    83.8070   -10.7710     8.3070    10.1440     8.7810
 2668.0000     0.1890     2.6180     0.0580     9.2000    83.0470   -10.5650     8.0830     9.2840     8.5440
 2668.5000     0.1930     2.6120     0.0610     9.2120    83.3820   -10.3600     7.8580     8.5330     8.3070
 2669.0000     0.1950     2.6090     0.0650     9.2240    84.8380   -10.1500     7.6340     8.1500     8.0700
 2669.5000     0.1970     2.6050     0.0690     9.2360    85.5990    -9.9400     7.4100     7.7660     7.8330
 2670.0000     0.1990     2.6020     0.0720     9.2480    88.0150    -9.7350     7.1320     7.3830     7.5390
 2670.5000     0.2000     2.5990     0.0760     9.2600    88.6770    -9.5220     6.8010     7.0000     7.1890
 2671.0000     0.2040     2.5890     0.0750     9.2720    90.2180    -9.4240     6.4690     6.6160     6.8380
 2671.5000     0.2060     2.5710     0.0740     9.2840    91.7150    -9.3270     6.1380     6.2910     6.4880
 2672.0000     0.2080     2.5640     0.0740     9.2960    93.2210    -9.2390     5.8070     5.9830     6.1380
 2672.5000     0.2110     2.5590     0.0730     9.3080    96.5650    -9.1270     5.4760     5.6740     5.7880
 2673.0000     0.2150     2.5340     0.0680     9.3200   104.2310    -9.2310     5.1450     5.3660     5.4380
 2673.5000     0.2190     2.5030     0.0570     9.3320   112.5560    -9.4620     4.8130     5.0580     5.0880
