~VERSION INFORMATION
 VERS.                2.0:   CWLS LOG ASCII STANDARD - VERSION 2.0
 WRAP.                 NO:   ONE LINE PER DEPTH STEP
~WELL INFORMATION
#MNEM.UNIT      DATA TYPE    INFORMATION
#----------   ------------   ------------------------------
 STRT.F          712.0000:   START DEPTH
 STOP.F         3352.0000:   STOP DEPTH
 STEP.F            0.5000:   STEP LENGTH
 NULL.          -999.2500:   NO VALUE
 COMP.    FENIX & SCISSON:   COMPANY
 WELL. FENIX & SCISSON "AX" #24-14:   WELL
 FLD .              NPR 3:   FIELD
 LOC .      S14 T38N R78W:   LOCATION
 CNTY.            NATRONA:   COUNTY
 STAT.            WYOMING:   STATE
 CTRY. UNITED STATES OF AMERICA:   COUNTRY
 SRVC.       SCHLUMBERGER:   SERVICE COMPANY
 DATE.        19-JUN-1981:   LOGDATE
 API .     49025108750000:   API NUMBER
~CURVE INFORMATION
#MNEM.UNIT       API CODE    CURVE DESCRIPTION
#----------   ------------   ------------------------------
 DEPT.F                  :   
 TENR.LBS    07 635 01 00:   TENSION
 ILD .OHMM   07 120 46 00:   DEEP INDUCTION RESISTIVITY
 SFL .OHMM   07 220 01 00:   SHALLOW FOCUSED LOG RESISTIVITY
 ILM .OHMM   07 120 44 00:   INDUCTION LOG MEDIUM RESISTIVITY
 SPR .MV     07 010 01 00:   SPONTANEOUS POTENTIAL
 TEND.LBS    45 635 01 00:   TENSION FROM DENSITY LOG
 DRHO.G/C3   45 356 01 00:   DENSITY CORRECTION
 CALD.IN     45 280 60 00:   CALIPER FROM DENSITY LOG
 GRD .GAPI   45 310 01 00:   GAMMA RAY FROM DENSITY LOG
 RHOB.G/C3   45 350 01 00:   BULK DENSITY
~PARAMETER INFORMATION
#MNEM.UNIT          VALUE    DESCRIPTION
#----------   ------------   ------------------------------
 EKB .F         5216.0000:   Kelly bushing
 EGL .F         5206.0000:   Ground level
 EDF .F         5215.0000:   Drilling floor
 EPD .F            0.0000:   Permanent datum
 TD  .F         3360.0000:   Total depth
 DATE.        19-JUN-1981:   Date logged
 CLNT.            A2DTECH:   Client Code
 SL  . 2413' FNL & 827' FWL:   Surface Location
 PD  .                 GL:   Permanent Datum
 DAPD.F                10:   Feet Above Permanent Datum
 DD  .F              3360:   Depth driller
 DL  .F              3348:   Depth logger
 BLI .F              3342:   Bottom log interval
 TLI .F               728:   Top log interval
 CS1 .IN            8.625:   Casing size
 CBD1.      8.625" @ 728':   Casing driller 1
 CBL1.F               728:   Casing logger 1
 BS1 .IN            7.875:   Bit size
 BSD1.F              3360:   Depth drilled with bit1
 DFT .                FGM:   Type fluid in hole
 DFD .                  9:   Density
 DFV .                 45:   Viscosity
 DFPH.                9.5:   pH
 DFL .                 10:   Fluid loss
 MSS .               TANK:   Source of sample
 RMS .OHMM           5.71:   Rm
 MST .F                68:   Rm Meas. temp.
 RMF .OHMM           1.27:   Rmf
 MFST.F                68:   Rmf Meas. temp.
 MFSS.               MEAS:   Source Rmf.
 RMB .OHMM           3.29:   Rm. at BHT
 BHT .F               118:   BHT.
 TCS .HRS            0800:   Time Circ. stopped
 TLAB.HRS            1130:   Time logger at bottom
 MRT .F               118:   Maximum recorded temp.
 LUN .               8039:   Logging unit number
 LUL .               CSPR:   Logging unit location
 ENGI.           G. PFARR:   Recorded By
 WITN.           R. SCOTT:   Witnessed by
 ORIG.           5" PRINT:   Origin of data
 UWI .     49025108750000:   Unique Well ID
 DICO. A2D TECHNOLOGIES, INC.:   Digitizing Company
~OTHER INFORMATION
~A   DEPT     TENR        ILD        SFL        ILM        SPR       TEND       DRHO       CALD         GRD      RHOB   
# ...
 2789.0000  1353.0240    24.8980    27.7960    19.0620   -33.5070  1418.9110     0.0190     8.3210    68.1850     2.3990
 2789.5000  1353.5900    24.3820    28.6990    18.9720   -33.5140  1420.4709     0.0250     8.3210    68.4620     2.4070
 2790.0000  1354.1560    23.9670    29.7800    18.8820   -33.7220  1422.0300     0.0280     8.3220    67.4560     2.4140
 2790.5000  1354.7220    24.0700    29.7800    18.7910   -33.9890  1423.5890     0.0320     8.3220    65.7750     2.4210
 2791.0000  1355.2880    24.1560    29.7800    18.7010   -34.0570  1425.1490     0.0360     8.3220    65.9420     2.4380
 2791.5000  1355.7640    24.2410    29.7800    18.6100   -34.1160  1426.7080     0.0390     8.3230    69.8370     2.4520
 2792.0000  1356.1300    24.3270    29.7800    18.5200   -34.2060  1428.2679     0.0420     8.3230    74.4270     2.4500
 2792.5000  1356.4960    24.4050    28.1010    18.4300   -34.3550  1429.8270     0.0340     8.3230    79.0410     2.4370
 2793.0000  1356.8621    24.0640    25.3040    18.3390   -34.7240  1431.3860     0.0240     8.3240    79.5570     2.4260
 2793.5000  1357.2271    23.7540    25.7660    18.2490   -34.6840  1432.9460     0.0150     8.3240    79.7500     2.4270
 2794.0000  1357.5930    23.4430    26.6390    18.1590   -34.6930  1434.5050     0.0080     8.3250    83.3030     2.4530
 2794.5000  1357.9590    23.1330    27.5120    18.0680   -34.6160  1436.0649     0.0150     8.3250    93.1460     2.4780
 2795.0000  1358.3250    22.8220    26.7500    17.9780   -34.2670  1437.6240     0.0210     8.3250    96.0320     2.4820
 2795.5000  1358.6910    22.6560    25.5390    17.8660   -34.3070  1438.5560     0.0260     8.3250    91.3440     2.4680
 2796.0000  1359.0570    22.5820    24.8500    17.7410   -34.3920  1438.6990     0.0300     8.3250    83.4080     2.4520
 2796.5000  1359.4220    22.5070    25.3900    17.6160   -34.7470  1438.8430     0.0330     8.3250    76.5230     2.4400
 2797.0000  1359.7880    22.4330    25.9100    17.4910   -35.1150  1438.9871     0.0370     8.3250    73.5170     2.4350
 2797.5000  1360.1541    22.3590    26.4290    17.3050   -35.0610  1439.1300     0.0370     8.3250    72.7670     2.4310
 2798.0000  1360.5200    22.2940    26.9490    17.3530   -35.0960  1439.2740     0.0330     8.3250    74.5430     2.4280
 2798.5000  1360.8860    22.2940    27.4680    17.4470   -34.9070  1439.4180     0.0280     8.3250    79.0130     2.4250
 2799.0000  1361.2510    22.2940    27.9880    17.5420   -34.6390  1439.5610     0.0230     8.3250    83.0290     2.4280
 2799.5000  1361.6169    22.2940    28.5070    17.6360   -34.6160  1439.7050     0.0180     8.3250    83.3040     2.4290
 2800.0000  1361.9830    22.2940    28.9170    17.7310   -34.5580  1439.8480     0.0120     8.3250    79.7790     2.4220
 2800.5000  1362.3490    22.2940    29.2460    17.8250   -34.5030  1439.9919     0.0070     8.3250    75.8780     2.4140
 2801.0000  1362.7150    22.2940    28.7670    17.9200   -34.4580  1440.1360     0.0040     8.3250    76.8480     2.4080
 2801.5000  1363.0800    22.2940    28.2950    18.0140   -34.3960  1440.2791     0.0050     8.3250    78.5810     2.4110
 2802.0000  1363.4460    23.5860    27.8240    18.1090   -34.3570  1440.4230     0.0050     8.3260    79.8560     2.4110
 2802.5000  1363.8120    25.5640    27.2040    18.2030   -34.3330  1440.5670     0.0050     8.3270    79.9920     2.4100
 2803.0000  1364.1780    27.5420    28.6780    18.9630   -34.8380  1440.7100     0.0040     8.3270    80.4490     2.4180
 2803.5000  1364.5439    29.5200    30.8310    21.3430   -35.2970  1440.8540     0.0040     8.3280    80.4340     2.4560
 2804.0000  1364.9100    31.4970    47.9000    23.7230   -35.8130  1440.9969     0.0050     8.3290    78.8270     2.5190
 2804.5000  1365.2750    33.1950    70.8710    25.7660   -35.8580  1441.1410     0.0150     8.3300    74.4590     2.5820
 2805.0000  1365.6410    33.9620    93.8420    28.7210   -35.8580  1441.2850     0.0270     8.3310    72.1760     2.6270
 2805.5000  1366.0070    35.0470   103.7910    27.9690   -35.7760  1441.4280     0.0410     8.3310    70.3660     2.6210
 2806.0000  1366.3730    34.4010    87.3910    26.6410   -35.3500  1441.5720     0.0510     8.3320    71.0400     2.5970
 2806.5000  1366.7390    32.7290    66.3520    25.3140   -35.2900  1441.7159     0.0410     8.3330    74.4500     2.5210
 2807.0000  1367.1040    31.0570    45.3140    23.9870   -35.1690  1441.8590     0.0320     8.3340    76.9050     2.4730
 2807.5000  1367.4700    29.3440    29.1670    22.6590   -35.0890  1442.0031     0.0230     8.3350    81.4840     2.4480
 2808.0000  1367.8361    27.4980    28.7210    21.3320   -35.4000  1442.1460     0.0160     8.3350    87.4500     2.4410
 2808.5000  1368.2020    25.6530    29.2990    20.0050   -35.3430  1442.2900     0.0130     8.3360    93.0920     2.4400
 2809.0000  1368.5680    23.9670    30.1730    18.6780   -35.0060  1442.4340     0.0120     8.3370    91.9770     2.4360
 2809.5000  1368.9340    23.7920    31.0470    18.2290   -34.6390  1442.5770     0.0130     8.3380    82.5410     2.4300
 2810.0000  1369.2990    23.6320    31.9210    18.1700   -34.1800  1442.7209     0.0150     8.3390    72.3050     2.4240
 2810.5000  1369.6650    23.4710    33.1950    18.1110   -33.6950  1442.8650     0.0170     8.3400    64.1230     2.4190
 2811.0000  1370.0310    23.3100    32.1290    18.0520   -33.4640  1443.0081     0.0190     8.3400    63.5070     2.4180
 2811.5000  1370.3970    23.1490    30.4230    17.9940   -33.3970  1443.1520     0.0200     8.3410    65.1780     2.4190
 2812.0000  1370.7629    22.9880    29.1690    17.9350   -33.2690  1443.2950     0.0250     8.3420    68.6790     2.4280
 2812.5000  1371.1281    22.8270    27.9160    17.8760   -33.2060  1443.4390     0.0300     8.3430    72.4930     2.4440
 2813.0000  1371.4940    22.6410    26.6620    17.8170   -32.9820  1443.5830     0.0360     8.3440    76.5780     2.4550
 2813.5000  1371.8600    22.3580    25.4080    17.7580   -33.1950  1443.7260     0.0340     8.3440    80.5190     2.4540
 2814.0000  1372.2260    22.0760    23.9670    17.6990   -33.2430  1443.8700     0.0300     8.3450    81.1090     2.4410
 2814.5000  1372.5920    21.7930    24.2880    17.6400   -33.4020  1444.0140     0.0240     8.3460    79.2400     2.4190
 2815.0000  1372.9570    21.5110    24.6650    17.4660   -33.4120  1444.1570     0.0160     8.3470    77.9950     2.4030
 2815.5000  1373.3230    21.2280    25.0430    17.2360   -33.8480  1444.3010     0.0120     8.3480    77.0380     2.4020
 2816.0000  1373.6890    20.9460    25.3040    17.0060   -34.0550  1444.4440     0.0130     8.3480    76.7130     2.4020
 2816.5000  1374.0551    20.6630    24.5490    16.7760   -34.7870  1444.5880     0.0140     8.3490    79.0820     2.4030
 2817.0000  1374.4210    20.3650    23.7230    16.5460   -34.6480  1444.7321     0.0150     8.3500    81.9870     2.4070
 2817.5000  1374.7870    20.1500    22.8430    16.3150   -34.6780  1444.8750     0.0180     8.3510    83.4190     2.4170
 2818.0000  1375.1520    19.9220    23.1140    16.0850   -34.8120  1445.0190     0.0210     8.3520    82.0580     2.4180
 2818.5000  1375.5179    19.6940    23.6550    15.8550   -34.8400  1445.1630     0.0180     8.3520    80.8470     2.4120
 2819.0000  1375.8840    19.4670    24.4050    15.8080   -35.2980  1445.3060     0.0200     8.3530    81.9980     2.4110
 2819.5000  1376.2500    19.2890    23.9150    15.8080   -35.8170  1445.4500     0.0240     8.3540    83.2510     2.4220
 2820.0000  1376.6160    20.1200    23.1180    15.8080   -35.8090  1445.5940     0.0320     8.3550    84.3210     2.4370
 2820.5000  1376.9810    21.1250    21.8940    16.0830   -35.5950  1445.7371     0.0430     8.3560    82.8370     2.4300
 2821.0000  1377.3470    22.1300    22.6260    17.1780   -35.2570  1445.8810     0.0340     8.3560    80.2000     2.4150
 2821.5000  1377.7130    23.1360    24.2020    18.2720   -34.7120  1446.0240     0.0220     8.3570    76.4160     2.4010
 2822.0000  1378.0790    24.1410    25.7780    19.3660   -34.6960  1446.1680     0.0130     8.3580    72.9040     2.3990
