~VERSION INFORMATION
 VERS.                2.0:   CWLS LOG ASCII STANDARD - VERSION 2.0
 WRAP.                 NO:   ONE LINE PER DEPTH STEP
~WELL INFORMATION
#MNEM.UNIT      DATA TYPE    INFORMATION
#----------   ------------   ------------------------------
 STRT.F            7.0000:   START DEPTH
 STOP.F         3304.0000:   STOP DEPTH
 STEP.F            0.5000:   STEP LENGTH
 NULL.          -999.2500:   NO VALUE
 COMP. LAWRENCE ALLISON ASSOC. WEST:   COMPANY
 WELL. LAWRENCE NPR  "X" #18-2:   WELL
 FLD .              N P R:   FIELD
 LOC .       S2 T38N R78W:   LOCATION
 CNTY.            NATRONA:   COUNTY
 STAT.            WYOMING:   STATE
 CTRY. UNITED STATES OF AMERICA:   COUNTRY
 SRVC.      DRESSER ATLAS:   SERVICE COMPANY
 DATE.        28-APR-1986:   LOGDATE
 API .     49025110710000:   API NUMBER
~CURVE INFORMATION
#MNEM.UNIT       API CODE    CURVE DESCRIPTION
#----------   ------------   ------------------------------
 DEPT.F                  :   
 TEND.LBS    45 635 01 00:   TENSION FROM DENSITY LOG
 DEN .G/C3   45 635 01 00:   DENSITY
 CORR.G/C3   45 356 01 00:   DENSITY CORRECTION
 CNC .DEC    42 890 03 00:   NEUTRON PORISITY SANDSTONE
 TENR.LBS    07 635 01 00:   TENSION FROM RESISTIVITY
 CALR.IN     07 280 01 00:   CALIPER FROM RESISTIVITY
 SPR .MV     07 010 01 00:   SPONTANEOUS POTENTIAL
 GRR .GAPI   07 310 01 00:   GAMMA RAY FROM RESISTIVITY
 RFOC.OHMM   07 220 04 00:   RESISTIVITY FOCUSED LOG RES.
 RILD.OHMM   07 120 46 00:   DEEP INDUCTION RESISTIVITY
 RILM.OHMM   07 120 44 00:   INDUCTION LOG MEDIUM RESISTIVITY
 TENS.LBS    60 635 01 00:   TENSION
 AC  .US/F   60 250 00 00:   ACCOUSTIC
~PARAMETER INFORMATION
#MNEM.UNIT          VALUE    DESCRIPTION
#----------   ------------   ------------------------------
 EKB .F         5142.0000:   Kelly bushing
 EGL .F         5130.0000:   Ground level
 EDF .F            0.0000:   Drilling floor
 EPD .F         5130.0000:   Permanent datum
 TD  .F         3296.0000:   Total depth
 DATE.        28-APR-1986:   Date logged
 CLNT.            A2DTECH:   Client Code
 SL  . 210' FSL & 204' FWL:   Surface Location
 PD  .                 GL:   Permanent Datum
 DD  .F              3295:   Depth driller
 DL  .F              3290:   Depth logger
 BLI .F              3296:   Bottom log interval
 CS1 .IN            8.625:   Casing size
 CBD1.      8.625" @ 563':   Casing driller 1
 CBL1.F               560:   Casing logger 1
 BS1 .IN            7.875:   Bit size
 BSD1.F              3295:   Depth drilled with bit1
 DFT .        POLYMER KCL:   Type fluid in hole
 DFD .                8.9:   Density
 DFV .                 38:   Viscosity
 DFPH.                8.5:   pH
 DFL .                9.2:   Fluid loss
 MSS .           FLOWLINE:   Source of sample
 RMS .OHMM           .435:   Rm
 MST .F                74:   Rm Meas. temp.
 RMF .OHMM            .33:   Rmf
 MFST.F                74:   Rmf Meas. temp.
 RMC .OHMM            .54:   Rmc
 MCST.F                74:   Rmc Meas. temp.
 MFSS.               CALC:   Source Rmf.
 MCSS.               CALC:   Source Rmc.
 RMB .OHMM            .77:   Rm. at BHT
 BHT .F               119:   BHT.
 TCS .HRS               4:   Time Circ. stopped
 MRT .F               119:   Maximum recorded temp.
 LUN .            HL 6264:   Logging unit number
 LUL .           GILLETTE:   Logging unit location
 ENGI.      P.M. FAHLSING:   Recorded By
 WITN.             STRONG:   Witnessed by
 ORIG.         2.5" PRINT:   Origin of data
 UWI .     49025110710000:   Unique Well ID
 DICO. A2D TECHNOLOGIES, INC.:   Digitizing Company
 DAPD.                 12:   Feet Above Permanent Datum
~OTHER INFORMATION
~A    DEPT    TEND        DEN       CORR        CNC       TENR       CALR        SPR         GRR      RFOC       RILD       RILM       TENS         AC   
# ...
 2191.0000  -999.2500  -999.2500  -999.2500  -999.2500   -62.1930    10.8230   -42.4760    97.6510     6.2390     5.4440     6.1280  -999.2500  -999.2500
 2191.5000  -999.2500  -999.2500  -999.2500  -999.2500   -62.0120    10.8160   -42.1610    98.0220     6.3010     5.5590     6.1070  -999.2500  -999.2500
 2192.0000  -999.2500  -999.2500  -999.2500  -999.2500   -59.4120    10.8100   -41.8440    94.9460     6.3580     5.6750     6.0870  -999.2500  -999.2500
 2192.5000  -999.2500  -999.2500  -999.2500  -999.2500   -56.8110    10.8030   -41.5300    88.5220     6.4160     5.8050     6.0670  -999.2500  -999.2500
 2193.0000  -999.2500  -999.2500  -999.2500  -999.2500   -54.2110    10.7960   -41.2160    85.1080     6.4690     5.8050     6.0480  -999.2500  -999.2500
 2193.5000  -999.2500  -999.2500  -999.2500  -999.2500   -51.6100    10.7910   -40.9000    85.9510     6.8550     5.8050     6.0280  -999.2500  -999.2500
 2194.0000  -999.2500  -999.2500  -999.2500  -999.2500   -49.0090    10.7800   -40.5820    87.3460     7.7670     5.8050     6.0180  -999.2500  -999.2500
 2194.5000  -999.2500  -999.2500  -999.2500  -999.2500   -46.4090    10.8160   -40.3160    89.2760     8.3300     5.8050     5.9740  -999.2500  -999.2500
 2195.0000  -999.2500  -999.2500  -999.2500  -999.2500   -44.1180    10.8420   -40.1760    88.2290     7.6970     5.7580     5.9340  -999.2500  -999.2500
 2195.5000  -999.2500  -999.2500  -999.2500  -999.2500   -46.3790    10.8650   -40.0290    85.5950     7.0030     5.6690     5.8940  -999.2500  -999.2500
 2196.0000  -999.2500  -999.2500  -999.2500  -999.2500   -48.3990    10.8880   -39.8890    82.9970     6.3090     5.5790     5.8540  -999.2500  -999.2500
 2196.5000  -999.2500  -999.2500  -999.2500  -999.2500   -50.4200    10.9030   -39.7490    82.2330     6.0180     5.4900     5.8140  -999.2500  -999.2500
 2197.0000  -999.2500  -999.2500  -999.2500  -999.2500   -52.4410    10.9010   -39.5970    82.9260     6.0180     5.4000     5.7740  -999.2500  -999.2500
 2197.5000  -999.2500  -999.2500  -999.2500  -999.2500   -54.4610    10.8840   -39.6570    84.9550     6.2390     5.3110     5.7340  -999.2500  -999.2500
 2198.0000  -999.2500  -999.2500  -999.2500  -999.2500   -56.4820    10.8590   -39.9500    86.9260     6.4660     5.2210     5.7010  -999.2500  -999.2500
 2198.5000  -999.2500  -999.2500  -999.2500  -999.2500   -58.5030    10.8330   -40.2290    97.6980     6.7010     5.1320     5.5990  -999.2500  -999.2500
 2199.0000  -999.2500  -999.2500  -999.2500  -999.2500   -60.5230    10.8080   -40.5210   106.9060     7.0800     5.0420     5.5120  -999.2500  -999.2500
 2199.5000  -999.2500  -999.2500  -999.2500  -999.2500   -62.5440    10.7850   -40.7930   116.4760     6.9550     4.9530     5.4260  -999.2500  -999.2500
 2200.0000  -999.2500  -999.2500  -999.2500  -999.2500   -64.5650    10.7870   -41.1160   118.9990     6.6330     4.8460     5.3390  -999.2500  -999.2500
 2200.5000  -999.2500  -999.2500  -999.2500  -999.2500   -66.5850    10.8230   -41.1390   117.7880     6.3100     4.7760     5.2520  -999.2500  -999.2500
 2201.0000  -999.2500  -999.2500  -999.2500  -999.2500   -68.6060    10.8590   -41.1480   115.7690     5.9880     4.6050     5.1650  -999.2500  -999.2500
 2201.5000  -999.2500  -999.2500  -999.2500  -999.2500   -70.6260    10.8570   -41.1390   113.7210     5.8050     4.5080     5.1150  -999.2500  -999.2500
 2202.0000  -999.2500  -999.2500  -999.2500  -999.2500   -72.6470    10.8430   -41.1450   112.6820     5.8050     4.5080     5.1150  -999.2500  -999.2500
 2202.5000  -999.2500  -999.2500  -999.2500  -999.2500   -74.6680    10.8280   -41.1460   111.5610     5.8050     4.5900     5.2090  -999.2500  -999.2500
 2203.0000  -999.2500  -999.2500  -999.2500  -999.2500   -76.6880    10.8150   -41.0640   110.4020     5.8050     4.8010     5.3030  -999.2500  -999.2500
 2203.5000  -999.2500  -999.2500  -999.2500  -999.2500   -78.7090    10.8010   -40.7390   109.4300     5.8050     4.9940     5.4000  -999.2500  -999.2500
 2204.0000  -999.2500  -999.2500  -999.2500  -999.2500   -80.7300    10.7870   -40.4020   109.2410     5.9100     5.1860     5.5960  -999.2500  -999.2500
 2204.5000  -999.2500  -999.2500  -999.2500  -999.2500   -82.7500    10.7740   -40.0910   112.7380     6.3620     5.3780     5.9290  -999.2500  -999.2500
 2205.0000  -999.2500  -999.2500  -999.2500  -999.2500   -80.6860    10.7610   -39.7400   115.4080     6.7070     5.5700     6.2620  -999.2500  -999.2500
 2205.5000  -999.2500  -999.2500  -999.2500  -999.2500   -76.9660    10.7470   -39.4450   116.3070     6.8710     5.7630     6.5950  -999.2500  -999.2500
 2206.0000  -999.2500  -999.2500  -999.2500  -999.2500   -73.2450    10.7340   -39.4520   114.9870     7.0800     5.9550     6.9280  -999.2500  -999.2500
 2206.5000  -999.2500  -999.2500  -999.2500  -999.2500   -69.5250    10.7200   -40.0990   112.9050     7.7260     6.1470     7.2600  -999.2500  -999.2500
 2207.0000  -999.2500  -999.2500  -999.2500  -999.2500   -65.8040    10.7060   -40.6200   110.8050     8.0340     6.3390     7.4740  -999.2500  -999.2500
 2207.5000  -999.2500  -999.2500  -999.2500  -999.2500   -62.0830    10.7120   -41.1720   109.7510     8.0340     6.5320     7.3930  -999.2500  -999.2500
 2208.0000  -999.2500  -999.2500  -999.2500  -999.2500   -58.3630    10.7480   -41.7300   110.2440     7.8930     6.7240     7.2500  -999.2500  -999.2500
 2208.5000  -999.2500  -999.2500  -999.2500  -999.2500   -54.6420    10.7410   -42.2600   111.4320     7.7490     6.9540     7.0800  -999.2500  -999.2500
 2209.0000  -999.2500  -999.2500  -999.2500  -999.2500   -50.9220    10.7580   -42.8550   113.0780     7.8240     7.3410     7.0400  -999.2500  -999.2500
 2209.5000  -999.2500  -999.2500  -999.2500  -999.2500   -47.2010    10.7830   -43.1390   110.9210     8.0060     7.2040     6.9410  -999.2500  -999.2500
 2210.0000  -999.2500  -999.2500  -999.2500  -999.2500   -43.4800    10.8060   -43.0280   105.8040     8.1810     6.9840     6.8420  -999.2500  -999.2500
 2210.5000  -999.2500  -999.2500  -999.2500  -999.2500   -39.7600    10.8290   -42.6520   102.7850     8.3300     6.7630     6.7440  -999.2500  -999.2500
 2211.0000  -999.2500  -999.2500  -999.2500  -999.2500   -36.0390    10.8540   -42.3730   101.8240     7.9570     6.5430     6.6450  -999.2500  -999.2500
 2211.5000  -999.2500  -999.2500  -999.2500  -999.2500   -32.3190    10.8740   -42.0380    99.8990     7.4680     6.3230     6.5460  -999.2500  -999.2500
 2212.0000  -999.2500  -999.2500  -999.2500  -999.2500   -28.5980    10.9000   -41.6780    98.7950     6.8290     6.1020     6.4480  -999.2500  -999.2500
 2212.5000  -999.2500  -999.2500  -999.2500  -999.2500   -24.5100    10.9090   -41.5980    98.9440     6.9540     5.8820     6.3490  -999.2500  -999.2500
 2213.0000  -999.2500  -999.2500  -999.2500  -999.2500   -30.0870    10.9450   -41.7970   100.5720     7.1740     5.6610     6.2500  -999.2500  -999.2500
 2213.5000  -999.2500  -999.2500  -999.2500  -999.2500   -41.1110    10.9400   -41.9100   105.6930     7.3410     5.5760     6.1520  -999.2500  -999.2500
 2214.0000  -999.2500  -999.2500  -999.2500  -999.2500   -52.1350    10.9330   -41.8890   111.6400     6.9570     5.5440     6.0530  -999.2500  -999.2500
 2214.5000  -999.2500  -999.2500  -999.2500  -999.2500   -63.7250    10.9090   -40.8910   112.5870     6.2340     5.5130     5.9100  -999.2500  -999.2500
 2215.0000  -999.2500  -999.2500  -999.2500  -999.2500   -51.9610    10.8840   -39.7760   109.8970     5.9100     5.4000     5.9860  -999.2500  -999.2500
 2215.5000  -999.2500  -999.2500  -999.2500  -999.2500   -39.5590    10.8560   -38.8090   106.8270     6.4870     5.4000     6.0720  -999.2500  -999.2500
 2216.0000  -999.2500  -999.2500  -999.2500  -999.2500   -27.1570    10.8190   -38.9660   104.9070     7.1010     5.4000     6.1420  -999.2500  -999.2500
 2216.5000  -999.2500  -999.2500  -999.2500  -999.2500   -35.6580    10.8240   -39.1910   105.3830     7.4740     5.4990     6.2120  -999.2500  -999.2500
