~VERSION INFORMATION
 VERS.                2.0:   CWLS LOG ASCII STANDARD - VERSION 2.0
 WRAP.                 NO:   ONE LINE PER DEPTH STEP
~WELL INFORMATION
#MNEM.UNIT      DATA TYPE    INFORMATION
#----------   ------------   ------------------------------
 STRT.F          728.0000:   START DEPTH
 STOP.F         3296.0000:   STOP DEPTH
 STEP.F            0.5000:   STEP LENGTH
 NULL.          -999.2500:   NO VALUE
 COMP.    FENIX & SCISSON:   COMPANY
 WELL. FENIX TX "AX" #55-34:   WELL
 FLD . N. P. R. - WILDCAT:   FIELD
 LOC .      S34 T39N R78W:   LOCATION
 CNTY.            NATRONA:   COUNTY
 STAT.            WYOMING:   STATE
 CTRY. UNITED STATES OF AMERICA:   COUNTRY
 SRVC.       SCHLUMBERGER:   SERVICE COMPANY
 DATE.        22-JUL-1981:   LOGDATE
 API .     49025108770000:   API NUMBER
~CURVE INFORMATION
#MNEM.UNIT       API CODE    CURVE DESCRIPTION
#----------   ------------   ------------------------------
 DEPT.F                  :   
 TENS.LBS    60 635 01 00:   TENSION FROM SONIC LOG
 DT  .US/F   60 520 00 00:   DELTA TIME
 RHOB.G/C3   45 350 01 00:   BULK DENSITY
 TEND.LBS    45 635 01 00:   TENSION FROM DENSITY LOG
 CORR.G/C3   45 356 01 00:   DENSITY CORRECTION
 CALD.IN     45 280 60 00:   CALIPER FROM DENSITY LOG
 NPHI.DEC    42 890 03 00:   NEUTRON POROSITY SANDSTONE
 TENR.LBS    07 635 01 00:   TENSION FROM RESISTIVITY
 SPR .MV     07 010 01 00:   SPONTANEOUS POTENTIAL
 GRR .GAPI   07 310 01 00:   GAMMA RAY FROM RESISTIVITY
 SFL .OHMM   07 220 01 00:   SHALLOW FOCUSED LOG RESISTIVITY
 ILM .OHMM   07 120 44 00:   INDUCTION LOG MEDIUM RESISTIVITY
 ILD .OHMM   07 120 46 00:   DEEP INDUCTION RESISTIVITY
~PARAMETER INFORMATION
#MNEM.UNIT          VALUE    DESCRIPTION
#----------   ------------   ------------------------------
 EKB .F         5092.0000:   Kelly bushing
 EGL .F         5082.0000:   Ground level
 EDF .F            0.0000:   Drilling floor
 TD  .F         3170.0000:   Total depth
 DATE.        22-JUL-1981:   Date logged
 CLNT.            A2DTECH:   Client Code
 SL  . 2012' FSL & 2774' FWL:   Surface Location
 PD  .                 GL:   Permanent Datum
 EPD .F              5082:   Elevation Permanent Datum
 LMF .                 KB:   Log Measured From
 DMF .                 KB:   Drilling Measured From
 DAPD.F                10:   Feet Above Permanent Datum
 DD  .F              3170:   Depth driller
 DL  .F              3110:   Depth logger
 BLI .F              3104:   Bottom log interval
 TLI .F               753:   Top log interval
 CS1 .IN            9.625:   Casing size
 CBD1.      9.625" @ 751':   Casing driller 1
 CBL1.F               753:   Casing logger 1
 BS1 .IN            7.875:   Bit size
 BSD1.F              3170:   Depth drilled with bit1
 DFT .                FGM:   Type fluid in hole
 DFD .                  9:   Density
 DFV .                  9:   Viscosity
 DFPH.                9.8:   pH
 DFL .                8.6:   Fluid loss
 MSS .           MUD/TANK:   Source of sample
 RMS .OHMM           1.72:   Rm
 MST .F                72:   Rm Meas. temp.
 RMF .OHMM           1.17:   Rmf
 MFST.F                70:   Rmf Meas. temp.
 MFSS.               MEAS:   Source Rmf.
 RMB .OHMM           0.90:   Rm. at BHT
 BHT .F               144:   BHT.
 TCS .HRS            1215:   Time Circ. stopped
 TLAB.HRS            0400:   Time logger at bottom
 MRT .F               144:   Maximum recorded temp.
 LUN .               8035:   Logging unit number
 LUL .               CSPR:   Logging unit location
 ENGI.            PURPICH:   Recorded By
 WITN.           R. SCOTT:   Witnessed by
 ORIG.           5" PRINT:   Origin of data
 UWI .     49025108770000:   Unique Well ID
 DICO. A2D TECHNOLOGIES, INC.:   Digitizing Company
~OTHER INFORMATION
~A   DEPT     TENS         DT         RHOB      TEND      CORR       CALD         NPHI     TENR        SPR         GRR       SFL        ILM        ILD   
# ...
 1976.0000  -999.2500  -999.2500     2.5050   991.9030     0.0140     7.7070     0.3250   615.2040   -54.8150   144.3670     7.3240     6.2100     6.5180
 1976.5000  -999.2500  -999.2500     2.5080   991.9030     0.0190     7.7070     0.3230   615.2730   -54.8840   145.4800     7.2580     6.2670     6.5370
 1977.0000  -999.2500  -999.2500     2.5100   991.9030     0.0190     7.7070     0.3330   615.3410   -54.9550   145.1310     7.3610     6.2670     6.5610
 1977.5000  -999.2500  -999.2500     2.5120   991.9030     0.0200     7.7070     0.3420   615.4100   -55.0250   144.5080     7.4800     6.2000     6.5610
 1978.0000  -999.2500  -999.2500     2.5180   991.9030     0.0250     7.7070     0.3510   615.4780   -55.0690   146.5970     7.5980     6.1370     6.5610
 1978.5000  -999.2500  -999.2500     2.5290   991.9030     0.0310     7.7070     0.3450   615.5470   -55.0690   149.3780     7.6680     6.0730     6.5610
 1979.0000  -999.2500  -999.2500     2.5320   991.9030     0.0380     7.7070     0.3400   615.6160   -55.0690   152.1000     7.6680     6.0410     6.4420
 1979.5000  -999.2500  -999.2500     2.5210   991.9030     0.0390     7.7070     0.3420   615.6840   -55.0320   153.3330     7.2920     5.9310     6.2100
 1980.0000  -999.2500  -999.2500     2.5020   991.9030     0.0270     7.7070     0.3450   615.7530   -54.7860   151.7690     7.0390     5.7730     6.0310
 1980.5000  -999.2500  -999.2500     2.4890   991.9030     0.0170     7.7070     0.3330   615.8210   -54.5410   150.0570     6.9960     5.5340     5.8250
 1981.0000  -999.2500  -999.2500     2.4880   991.9030     0.0080     7.7070     0.3220   615.8900   -54.2970   147.7720     6.9960     5.2950     5.6190
 1981.5000  -999.2500  -999.2500     2.4910   991.9030     0.0180     7.7070     0.3250   615.9580   -54.0530   145.2990     6.5460     5.0550     5.4130
 1982.0000  -999.2500  -999.2500     2.4940   991.9030     0.0320     7.7070     0.3370   616.0270   -53.8090   142.7940     5.8170     4.8160     5.2070
 1982.5000  -999.2500  -999.2500     2.4850   991.9030     0.0450     7.7070     0.3560   616.0960   -53.5640   140.3320     5.0880     4.5770     5.0000
 1983.0000  -999.2500  -999.2500     2.4770   991.9030     0.0570     7.7070     0.3850   616.1640   -53.3200   138.5550     4.3590     4.3370     4.7940
 1983.5000  -999.2500  -999.2500     2.4670   991.9030     0.0470     7.7070     0.3810   616.2330   -53.1130   140.4010     3.9980     4.1850     4.5880
 1984.0000  -999.2500  -999.2500     2.4750   991.9030     0.0280     7.7070     0.3650   616.3010   -53.1180   143.6200     5.3650     4.1470     4.5040
 1984.5000  -999.2500  -999.2500     2.4860   991.9030     0.0060     7.7070     0.3540   616.3700   -53.1190   146.8460     6.2100     4.1090     4.4630
 1985.0000  -999.2500  -999.2500     2.4930   991.9030     0.0120     7.7070     0.3550   616.4380   -53.1190   146.3450     5.8170     4.2360     4.4630
 1985.5000  -999.2500  -999.2500     2.4960   991.9030     0.0240     7.7070     0.3590   616.5070   -53.1190   145.3840     5.2590     4.3610     4.5910
 1986.0000  -999.2500  -999.2500     2.4950   991.9030     0.0350     7.7070     0.3630   616.5760   -53.1190   146.4250     4.8470     4.4870     4.7260
 1986.5000  -999.2500  -999.2500     2.4870   991.9030     0.0270     7.7070     0.3600   616.6440   -53.1190   150.3680     5.3650     4.6120     4.8620
 1987.0000  -999.2500  -999.2500     2.4810   991.9030     0.0110     7.7070     0.3430   616.7130   -53.1190   153.2080     6.1490     4.7380     4.9970
 1987.5000  -999.2500  -999.2500     2.4870   991.9030     0.0040     7.7070     0.3290   616.7810   -53.1190   153.6200     6.9320     4.8630     5.1330
 1988.0000  -999.2500  -999.2500     2.5000   991.9030     0.0090     7.7070     0.3330   616.8500   -53.1190   154.0800     6.7510     4.9820     5.2680
 1988.5000  -999.2500  -999.2500     2.5120   991.9030     0.0180     7.7070     0.3440   616.9180   -53.1190   154.5700     6.4580     5.0280     5.3620
 1989.0000  -999.2500  -999.2500     2.5240   991.9030     0.0280     7.7070     0.3550   616.9870   -53.1180   156.6080     6.1650     5.0280     5.3620
 1989.5000  -999.2500  -999.2500     2.5310   991.9030     0.0350     7.7070     0.3530   617.0560   -53.1230   158.8490     5.9860     5.0280     5.3620
 1990.0000  -999.2500  -999.2500     2.5290   993.3890     0.0290     7.7070     0.3490   617.1240   -53.2570   161.0910     5.9310     5.0280     5.3620
 1990.5000  -999.2500  -999.2500     2.5140   994.6600     0.0210     7.7070     0.3480   617.1930   -53.3940   163.4420     6.1580     5.0280     5.3620
 1991.0000  -999.2500  -999.2500     2.4980   995.9310     0.0130     7.7070     0.3500   617.2610   -53.4880   162.5360     6.3160     5.0290     5.3620
 1991.5000  -999.2500  -999.2500     2.4810   997.2020     0.0090     7.7070     0.3510   617.3300   -53.3190   160.6320     6.4740     5.0290     5.3610
 1992.0000  -999.2500  -999.2500     2.4770   998.4730     0.0090     7.7070     0.3420   617.3980   -53.1520   158.6830     6.6330     5.0340     5.3580
 1992.5000  -999.2500  -999.2500     2.4830   999.7440     0.0120     7.7070     0.3320   617.4670   -52.9870   158.7170     6.6820     4.9370     5.3680
 1993.0000  -999.2500  -999.2500     2.4900  1001.0150     0.0130     7.7070     0.3210   617.5360   -52.8210   157.2890     6.2630     4.8920     5.2640
 1993.5000  -999.2500  -999.2500     2.4970  1002.2860     0.0130     7.7070     0.3270   617.6040   -52.6560   153.7220     5.9830     4.8030     5.1690
 1994.0000  -999.2500  -999.2500     2.4990  1003.5570     0.0110     7.7070     0.3330   617.6730   -52.5150   150.4560     5.7020     4.7150     5.0750
 1994.5000  -999.2500  -999.2500     2.4960  1004.8280     0.0100     7.7070     0.3400   617.7410   -52.4450   148.0440     5.5620     4.5490     4.9190
 1995.0000  -999.2500  -999.2500     2.4970  1006.0980     0.0090     7.7070     0.3420   617.8100   -52.3740   148.6370     5.5820     4.3820     4.7430
 1995.5000  -999.2500  -999.2500     2.5030  1007.3690     0.0090     7.7070     0.3430   617.8780   -52.3030   153.2020     5.6090     4.2150     4.5660
 1996.0000  1581.0670    93.4240     2.5110  1008.6400     0.0200     7.7070     0.3450   617.9470   -52.2330   157.7240     5.6140     4.0480     4.3900
 1996.5000  1581.0670    93.4240     2.5030  1009.9110     0.0350     7.7070     0.3510   618.0160   -52.1580   162.0590     4.9340     3.8810     4.2130
 1997.0000  1580.1840    93.9100     2.4820  1011.1820     0.0480     7.7070     0.3770   618.0840   -52.1970   160.4310     4.3040     3.7150     4.0350
 1997.5000  1579.5240    94.3590     2.4610  1012.4530     0.0390     7.7070     0.3940   618.1530   -52.2680   156.3950     3.7490     3.6810     3.9980
 1998.0000  1578.6990    94.9200     2.4470  1013.7240     0.0240     7.7070     0.4020   618.2210   -52.3390   151.3130     4.6180     3.9390     4.1730
 1998.5000  1577.8750    94.8830     2.4580  1014.9950     0.0090     7.7070     0.3860   618.2900   -52.4100   142.4700     5.6430     4.1490     4.3840
 1999.0000  1577.0500    94.7490     2.4830  1016.2660     0.0050     7.7070     0.3660   618.3580   -52.4800   133.9800     6.6670     4.3590     4.5940
 1999.5000  1576.2250    94.6010     2.4920  1017.5370     0.0000     7.7070     0.3470   618.4270   -52.4900   130.5670     7.1260     4.5690     4.8040
 2000.0000  1575.4010    94.5320     2.5020  1018.8080     0.0000     7.7070     0.3320   618.4960   -52.2650   135.0260     6.5620     4.7590     5.0150
 2000.5000  1574.5760    94.5750     2.5120  1020.0790     0.0100     7.7070     0.3370   618.5640   -52.0450   140.4940     6.1050     4.7400     5.0750
 2001.0000  1573.7510    94.6240     2.5220  1021.3500     0.0210     7.7070     0.3440   618.6330   -52.0430   145.8660     5.6490     4.7050     5.0310
 2001.5000  1572.9270    94.3300     2.5280  1022.6210     0.0330     7.7070     0.3510   618.7010   -52.2060   146.7330     5.2160     4.6690     4.9930
