~VERSION INFORMATION
 VERS.                2.0:   CWLS LOG ASCII STANDARD - VERSION 2.0
 WRAP.                 NO:   ONE LINE PER DEPTH STEP
~WELL INFORMATION
#MNEM.UNIT      DATA TYPE    INFORMATION
#----------   ------------   ------------------------------
 STRT.F          407.0000:   START DEPTH
 STOP.F         3228.0000:   STOP DEPTH
 STEP.F            0.5000:   STEP LENGTH
 NULL.          -999.2500:   NO VALUE
 COMP.    FENIX & SCISSON:   COMPANY
 WELL.   FENIX "A" #21-34:   WELL
 FLD .             N.P.R.:   FIELD
 LOC .      S34 T39N R78W:   LOCATION
 CNTY.            NATRONA:   COUNTY
 STAT.            WYOMING:   STATE
 CTRY. UNITED STATES OF AMERICA:   COUNTRY
 SRVC.       SCHLUMBERGER:   SERVICE COMPANY
 DATE.        05-MAY-1977:   LOGDATE
 API .     49025103710000:   API NUMBER
~CURVE INFORMATION
#MNEM.UNIT       API CODE    CURVE DESCRIPTION
#----------   ------------   ------------------------------
 DEPT.F                  :   
 SPR .MV     11 010 01 00:   SPONTANEOUS POTENTIAL FROM RES.
 LLS .OHMM   11 220 09 00:   LATEROLOG LOG SHALLOW
 LLD .OHMM   11 220 10 00:   LATEROLOG DEEP
 MSFL.OHMM   11 270 04 00:   MICRO SPHERICALLY FOCUSED
 CALD.IN     45 280 60 00:   CALIPER FROM DENSITY LOG
 NPHI.DEC    42 890 03 00:   NEUTRON POROSITY SANDSTONE
 GRD .GAPI   45 310 01 00:   GAMMA RAY FROM DENSITY LOG
 CORR.G/C3   45 356 01 00:   DENSITY CORRECTION
 RHOB.G/C3   45 350 01 00:   BULK DENSITY
~PARAMETER INFORMATION
#MNEM.UNIT          VALUE    DESCRIPTION
#----------   ------------   ------------------------------
 EKB .F         5086.0000:   Kelly bushing
 EGL .F         5074.0000:   Ground level
 TD  .F         3226.0000:   Total depth
 CLNT.            A2DTECH:   Client Code
 SL  . 990' FWL & 330' FNL:   Surface Location
 PD  .                 GL:   Permanent Datum
 EPD .F              5074:   Elevation Permanent Datum
 LMF .                 KB:   Log Measured From
 DMF .                 KB:   Drilling Measured From
 DAPD.F                12:   Feet Above Permanent Datum
 DATE.        05-MAY-1977:   Date Logged [DD-MMM-YYYY]
 DD  .F              3226:   Depth driller
 DL  .F              3229:   Depth logger
 BLI .F              3227:   Bottom log interval
 TLI .F               430:   Top log interval
 CS1 .IN            8.625:   Casing size
 CBD1.      8.625" @ 424':   Casing driller 1
 CBL1.F               430:   Casing logger 1
 BS1 .IN            7.875:   Bit size
 BSD1.F              3226:   Depth drilled with bit1
 DFT .                KCL:   Type fluid in hole
 DFD .                9.4:   Density
 DFV .                 31:   Viscosity
 DFPH.                  8:   pH
 DFL .                9.6:   Fluid loss
 MSS .           MUD TANK:   Source of sample
 RMS .OHMM          0.202:   Rm
 MST .F                78:   Rm Meas. temp.
 RMF .OHMM          0.191:   Rmf
 MFST.F                76:   Rmf Meas. temp.
 MFSS.               MEAS:   Source Rmf.
 RMC .OHMM           0.30:   Rmc
 MCST.F                78:   Rmc Meas. temp.
 MCSS.               CALC:   Source Rmc.
 RMB .OHMM          0.123:   Rm. at BHT
 BHT .F               128:   BHT.
 TCS .HRS            1400:   Time Circ. stopped
 TLAB.HRS            0300:   Time logger at bottom
 MRT .F               128:   Maximum recorded temp.
 LUN .               5642:   Logging unit number
 LUL .               CSPR:   Logging unit location
 ENGI.                FIX:   Recorded By
 WITN.         HARRINGTON:   Witnessed by
 ORIG.           5" PRINT:   Origin of data
 UWI .     49025103710000:   Unique Well ID
 DICO. A2D TECHNOLOGIES, INC.:   Digitizing Company
~OTHER INFORMATION
~A   DEPT      SPR        LLS        LLD       MSFL       CALD       NPHI         GRD      CORR       RHOB   
# ...
 2998.5000   -39.6864     5.8944     4.5711     6.8241     9.3036     0.2477   116.7468     0.0137     2.4694
 2999.0000   -37.4189     6.1936     4.8036     6.9272     9.3050     0.2522   110.4366     0.0077     2.4659
 2999.5000   -40.9550     6.1147     4.8423     6.9834     9.3025     0.2555   105.0870     0.0215     2.4771
 3000.0000   -42.1102     5.9126     4.7809     6.9434     9.2267     0.2446   107.8247     0.0340     2.4925
 3000.5000   -45.1998     5.7955     4.7203     6.8560     9.2246     0.2421   111.6902     0.0466     2.5009
 3001.0000   -43.5276     5.9248     4.7915     6.8641     9.2241     0.2547   108.3377     0.0520     2.5033
 3001.5000   -43.1946     6.1399     4.8651     6.8722     9.2242     0.2622   103.8573     0.0567     2.4966
 3002.0000   -41.4525     6.0198     4.9117     6.7971     9.2256     0.2582   102.7526     0.0598     2.5148
 3002.5000   -42.0018     5.8614     4.9090     5.9110     9.2274     0.2497   105.9492     0.0539     2.5186
 3003.0000   -40.9362     5.7468     4.5092     5.6768     9.2293     0.2431   104.4011     0.0419     2.4969
 3003.5000   -40.5815     5.6435     4.1439     5.4216     9.2312     0.2397   103.3038     0.0389     2.5038
 3004.0000   -39.8009     5.4768     3.9254     5.1714     9.2331     0.2445   112.0604     0.0390     2.5007
 3004.5000   -41.2538     5.3101     3.7966     4.9327     9.2350     0.2453   115.5193     0.0346     2.4920
 3005.0000   -41.4786     5.1434     3.6976     4.8370     9.2369     0.2456   116.3899     0.0355     2.4891
 3005.5000   -41.0229     5.0439     3.6514     5.1181     9.2387     0.2575   114.6073     0.0371     2.4907
 3006.0000   -41.7411     5.0172     3.6297     5.4154     9.2406     0.2698   117.3414     0.0364     2.4916
 3006.5000   -43.1408     4.9874     3.6093     5.5737     9.2425     0.2774   118.2656     0.0343     2.4894
 3007.0000   -42.3123     4.9954     3.6403     5.6578     9.2441     0.2853   119.1897     0.0306     2.4865
 3007.5000   -41.7031     4.9658     3.7216     5.7831     9.2421     0.2927   117.4071     0.0262     2.4776
 3008.0000   -40.5784     4.9738     3.8047     5.8299     9.2306     0.2996   114.2711     0.0187     2.4649
 3008.5000   -38.7946     5.0148     3.8635     5.8367     9.2193     0.2959   113.6163     0.0135     2.4650
 3009.0000   -36.5186     5.0913     3.9218     5.8435     9.2080     0.2898   114.3521     0.0129     2.4721
 3009.5000   -33.8500     5.1690     3.9280     5.8518     9.1966     0.2828   117.7258     0.0191     2.4813
 3010.0000   -31.9689     5.2116     3.9605     5.7781     9.1853     0.2740   120.2234     0.0222     2.4842
 3010.5000   -30.4034     5.2183     3.9932     5.7053     9.1740     0.2730   114.6117     0.0223     2.4768
 3011.0000   -28.5947     5.1475     4.0248     5.6318     9.1627     0.2777   111.7012     0.0254     2.4920
 3011.5000   -27.0229     4.9842     3.9471     5.5608     9.1514     0.2795   112.8509     0.0308     2.5026
 3012.0000   -25.8018     4.8559     3.8441     5.5689     9.1401     0.2736   115.1285     0.0385     2.5065
 3012.5000   -24.9186     4.8270     3.7961     5.5753     9.1287     0.2696   114.0226     0.0499     2.4923
 3013.0000   -24.8670     4.8348     3.8023     5.5817     9.1174     0.2741   119.8476     0.0334     2.4819
 3013.5000   -23.5715     4.8410     3.8072     5.5114     9.1061     0.2710   126.4779     0.0244     2.4827
 3014.0000   -20.3129     4.8473     3.7596     5.4418     9.0948     0.2699   128.2988     0.0127     2.4729
 3014.5000   -19.4324     4.8535     3.7126     5.4107     9.0835     0.2693   125.6139     0.0019     2.4641
 3015.0000   -18.1828     4.8260     3.7175     5.4546     9.0721     0.2650   126.3125     0.0195     2.4786
 3015.5000   -16.5497     4.8325     3.8045     5.4989     9.0608     0.2634   122.5053     0.0317     2.4824
 3016.0000   -16.8593     4.7392     3.8318     5.5066     9.0495     0.2631   121.6249     0.0197     2.4600
 3016.5000   -17.3603     4.6131     3.6817     5.4750     9.0381     0.2636   120.2935     0.0144     2.4699
 3017.0000   -17.0346     4.4594     3.5845     5.4813     9.0264     0.2716   120.6321     0.0418     2.4813
 3017.5000   -15.3672     4.3480     3.5409     5.3379     9.0257     0.2785   124.8540     0.0389     2.4889
 3018.0000   -13.8892     4.3235     3.4485     5.2707     9.0258     0.2799   127.1315     0.0322     2.4845
 3018.5000   -12.8761     4.3305     3.4280     5.3134     9.0258     0.2777   128.2813     0.0300     2.4951
 3019.0000   -13.7612     4.3655     3.3863     5.2465     9.0260     0.2773   129.8821     0.0341     2.5051
 3019.5000   -14.4174     4.4023     3.3662     5.0725     9.0254     0.2809   132.1597     0.0423     2.5048
 3020.0000   -14.7294     4.4079     3.3250     4.8734     9.0095     0.2844   135.3394     0.0485     2.4992
 3020.5000   -14.4993     4.4136     3.2385     4.6485     8.9399     0.2801   134.0079     0.0539     2.5099
 3021.0000   -13.9012     4.3886     3.1534     4.5261     8.8809     0.2830   138.1084     0.0570     2.5138
 3021.5000   -13.3583     4.2744     3.1825     4.4667     8.8280     0.2902   138.3375     0.0450     2.5054
 3022.0000   -13.1773     4.1630     3.2521     4.4136     8.8274     0.2967   135.6581     0.0338     2.4749
 3022.5000   -12.6087     4.0545     3.1672     4.3279     8.8330     0.3051   132.2965     0.0188     2.4388
 3023.0000   -12.8522     3.9445     3.0633     4.2147     8.8431     0.3020   130.7395     0.0135     2.4322
 3023.5000   -12.3447     3.7942     2.8818     4.1045     8.8533     0.2992   128.7258     0.0190     2.4436
 3024.0000   -11.4723     3.7456     2.7680     3.9707     8.8608     0.3166   131.4600     0.0292     2.4633
 3024.5000   -11.3994     3.6492     2.6772     3.8402     8.9086     0.3306   134.1886     0.0404     2.4724
 3025.0000   -13.4041     3.6036     2.6255     3.7398     8.9487     0.3348   137.8195     0.0352     2.4665
 3025.5000   -15.1705     3.5575     2.6841     3.6672     8.9466     0.3341   141.5582     0.0149     2.4455
 3026.0000   -15.6945     3.5632     2.7823     3.6714     8.9464     0.3295   143.5024     0.0210     2.4553
 3026.5000   -15.2518     3.5421     2.9042     3.7527     8.9451     0.3201   141.2687     0.0378     2.4683
 3027.0000   -14.9407     3.5724     3.0105     3.8094     8.9089     0.3152   144.9051     0.0485     2.4609
 3027.5000   -14.7934     3.5770     3.0144     3.8669     8.8442     0.3097   146.2804     0.0380     2.4723
 3028.0000   -15.0296     3.5816     2.7719     3.8715     8.8161     0.3126   142.2421     0.0326     2.4589
 3028.5000   -15.2210     3.5884     2.6493     3.8225     8.8037     0.3119   140.1968     0.0473     2.4801
 3029.0000   -15.5755     3.6412     2.6162     3.8006     8.7909     0.3034   147.0228     0.0321     2.4742
 3029.5000   -16.1503     3.5492     2.5836     3.8325     8.7780     0.3009   149.6422     0.0142     2.4583
 3030.0000   -16.1901     3.4325     2.5690     3.8369     8.7652     0.3062   150.6774     0.0226     2.4371
 3030.5000   -16.3383     3.3636     2.5911     3.8408     8.7522     0.3174   152.2864     0.0371     2.4437
 3031.0000   -16.7661     3.4160     2.6125     3.8457     8.7463     0.3249   145.9880     0.0539     2.4686
 3031.5000   -16.9459     3.4681     2.6523     3.8502     8.7436     0.3295   140.5964     0.0630     2.4921
 3032.0000   -17.6463     3.4726     2.6742     3.6472     8.7409     0.3373   137.2348     0.0541     2.4771
 3032.5000   -19.0052     3.4531     2.6045     3.4789     8.7383     0.3414   141.5425     0.0476     2.4885
 3033.0000   -19.1424     3.3865     2.5365     3.3413     8.7356     0.3386   144.4967     0.0391     2.4713
 3033.5000   -18.7041     3.2982     2.4183     3.2765     8.7329     0.3322   147.6949     0.0172     2.4534
 3034.0000   -17.2537     3.1680     2.2904     3.2352     8.7303     0.3291   150.9880     0.0121     2.4489
 3034.5000   -16.3361     3.0838     2.2791     3.2166     8.7276     0.3396   152.4626     0.0243     2.4498
