~VERSION INFORMATION
 VERS.                2.0:   CWLS LOG ASCII STANDARD - VERSION 2.0
 WRAP.                 NO:   ONE LINE PER DEPTH STEP
~WELL INFORMATION
#MNEM.UNIT      DATA TYPE    INFORMATION
#----------   ------------   ------------------------------
 STRT.F          196.5000:   START DEPTH
 STOP.F         3202.0000:   STOP DEPTH
 STEP.F            0.5000:   STEP LENGTH
 NULL.          -999.2500:   NO VALUE
 COMP.    FENIX & SCISSON:   COMPANY
 WELL.   FENIX "AX" #26-3:   WELL
 FLD .              NPR-3:   FIELD
 LOC .       S3 T38N R78W:   LOCATION
 CNTY.            NATRONA:   COUNTY
 STAT.            WYOMING:   STATE
 CTRY. UNITED STATES OF AMERICA:   COUNTRY
 SRVC.              WELEX:   SERVICE COMPANY
 DATE.        19-JUN-1977:   LOGDATE
 API .     49025103800000:   API NUMBER
~CURVE INFORMATION
#MNEM.UNIT       API CODE    CURVE DESCRIPTION
#----------   ------------   ------------------------------
 DEPT.F                  :   
 CALD.IN     45 280 60 00:   CALIPER FROM DENSITY LOG
 GRD .GAPI   45 310 01 00:   GAMMA RAY FROM DENSITY LOG
 RHOB.G/C3   45 350 01 00:   BULK DENSITY
 CORR.G/C3   45 356 01 00:   DENSITY CORRECTION
 SPR .MV     07 010 01 00:   SPONTANEOUS POTENTIAL
 ILD .OHMM   07 120 46 00:   DEEP INDUCTION RESISTIVITY
 ILM .OHMM   07 120 44 00:   INDUCTION LOG MEDIUM RESISTIVITY
 SGRD.OHMM   07 220 05 00:   SHALLOW SHORT GUARD RESISTIVITY
~PARAMETER INFORMATION
#MNEM.UNIT          VALUE    DESCRIPTION
#----------   ------------   ------------------------------
 EKB .F         5231.0000:   Kelly bushing
 EGL .F         5221.0000:   Ground level
 EDF .F            0.0000:   Drilling floor
 TD  .F         3204.0000:   Total depth
 CLNT.            A2DTECH:   Client Code
 SL  . 1320' FSL & 740' FWL:   Surface Location
 PD  .                 GL:   Permanent Datum
 EPD .F              5221:   Elevation Permanent Datum
 LMF .                 KB:   Log Measured From
 DMF .                 KB:   Drilling Measured From
 DAPD.F                10:   Feet Above Permanent Datum
 DATE.        19-JUN-1977:   Date Logged [DD-MMM-YYYY]
 DD  .F              3200:   Depth driller
 DL  .F              3204:   Depth logger
 BLI .F              3202:   Bottom log interval
 TLI .F               220:   Top log interval
 CS1 .IN            8.625:   Casing size
 CBD1.      8.625" @ 220':   Casing driller 1
 CBL1.F               220:   Casing logger 1
 BS1 .IN            7.875:   Bit size
 BSD1.F              3200:   Depth drilled with bit1
 DFT .                KCL:   Type fluid in hole
 DFD .                9.1:   Density
 RMS .OHMM           1.19:   Rm
 MST .F                65:   Rm Meas. temp.
 TCS .HRS               4:   Time Circ. stopped
 MRT .F               115:   Maximum recorded temp.
 LUN .               8766:   Logging unit number
 ENGI.          T. JOYNER:   Recorded By
 WITN.         PETTINGILL:   Witnessed by
 ORIG.           5" PRINT:   Origin of data
 UWI .     49025103800000:   Unique Well ID
 DICO. A2D TECHNOLOGIES, INC.:   Digitizing Company
 DFPH.                7.5:   pH
 DFL .                4.2:   Fluid loss
 MSS .            MUD PIT:   Source of sample
 RMF .OHMM           1.19:   Rmf
 MFST.F                65:   Rmf Meas. temp.
 MFSS.               MEAS:   Source Rmf.
 RMC .OHMM           2.01:   Rmc
 MCST.F                65:   Rmc Meas. temp.
 MCSS.               MEAS:   Source Rmc.
 RMB .OHMM            .67:   Rm. at BHT
 BHT .F               115:   BHT.
~OTHER INFORMATION
~A   DEPT     CALD         GRD      RHOB       CORR        SPR        ILD        ILM       SGRD   
# ...
 2586.0000     9.5373    97.0765     2.4729     0.0127   -51.5136     6.3500     7.4996     7.7123
 2586.5000     9.5384    99.1916     2.4708     0.0128   -51.5011     6.3551     7.4705     8.1539
 2587.0000     9.5544   100.1180     2.4694     0.0136   -51.4911     6.4025     7.3718     8.3864
 2587.5000     9.5556   100.1530     2.4747     0.0136   -51.4793     6.4072     7.3755     8.0510
 2588.0000     9.5567   100.7822     2.4801     0.0137   -51.4674     6.4113     7.3794     7.7824
 2588.5000     9.5579    99.9256     2.4847     0.0145   -51.3303     6.3549     7.3839     8.0043
 2589.0000     9.5591    99.0602     2.4878     0.0146   -51.0704     6.3315     7.3877     8.2894
 2589.5000     9.5454   102.9672     2.4894     0.0154   -50.9880     6.3357     7.3914     8.2939
 2590.0000     9.5469   104.1908     2.4895     0.0147   -51.1244     6.3398     7.3951     8.1810
 2590.5000     9.5329   105.1174     2.4888     0.0140   -51.1124     6.3440     7.3989     8.0145
 2591.0000     9.4896   104.2300     2.4860     0.0141   -51.1006     6.3481     7.4026     7.8626
 2591.5000     9.4911   101.9268     2.4839     0.0127   -51.0868     6.3523     7.4063     7.7591
 2592.0000     9.4923   100.7730     2.4825     0.0112   -51.0753     6.3570     7.4101     7.5821
 2592.5000     9.4934    99.3220     2.4744     0.0098   -51.0637     6.3611     7.4186     7.3507
 2593.0000     9.4945   104.1118     2.4790     0.0084   -51.0522     6.3651     7.5739     7.2882
 2593.5000     9.4809   103.8495     2.4716     0.0077   -51.0406     6.4196     7.6302     7.2569
 2594.0000     9.4821   106.5590     2.4642     0.0063   -51.0291     6.5512     7.7403     7.3626
 2594.5000     9.4833   105.7023     2.4598     0.0064   -51.0177     6.7387     7.9613     7.5725
 2595.0000     9.4844   106.9260     2.4652     0.0064   -51.0059     6.8362     8.0761     8.2331
 2595.5000     9.4859   108.7439     2.4691     0.0065   -50.9941     6.9805     8.3066     8.8363
 2596.0000     9.4870   107.2930     2.4602     0.0066   -50.9800     7.1390     8.4265     9.4582
 2596.5000     9.4882   107.6433     2.4649     0.0070   -50.8205     7.3385     8.4892     9.8629
 2597.0000     9.4892   109.5311     2.4769     0.0082   -50.8089     7.4450     8.5524    10.1441
 2597.5000     9.4905   111.2697     2.4807     0.0083   -50.7974     7.6577     8.5568    10.2905
 2598.0000     9.4472   108.9272     2.4794     0.0091   -50.7858     7.7688     8.5621    10.0160
 2598.5000     9.4484   106.5847     2.4787     0.0091   -50.7743     7.9197     8.6856     9.8828
 2599.0000     9.4495   106.9168     2.4766     0.0107   -50.7627     8.1067     8.7502     9.7527
 2599.5000     9.4507   108.7260     2.4782     0.0123   -50.8991     8.2812     8.8765     9.6255
 2600.0000     9.4519   104.3120     2.4858     0.0131   -50.8876     8.4594     9.0670     9.4990
 2600.5000     9.4530   102.2666     2.4844     0.0124   -50.8757     8.5822     9.3258     9.5107
 2601.0000     9.2662   100.8157     2.4823     0.0125   -50.8616     8.5890     9.5920     9.7764
 2601.5000     9.0260    99.9590     2.4800     0.0111   -50.8500     8.5944     9.6633     9.9175
 2602.0000     8.9812    98.2027     2.4795     0.0097   -50.8385     8.4823     9.5988    10.0606
 2602.5000     9.0564    95.8009     2.4790     0.0097   -51.2331     8.3717     9.4747     9.9281
 2603.0000     9.2795    99.1925     2.4789     0.0098   -51.3624     8.2612     9.2861     9.7302
 2603.5000     9.4433    99.8246     2.4775     0.0099   -51.3437     8.1534     9.0991     9.5865
 2604.0000     9.4294    98.0487     2.4799     0.0099   -51.3254     8.0484     8.9787     9.6201
 2604.5000     9.4006    96.9377     2.4852     0.0100   -51.3062     7.8889     8.8697     9.7382
 2605.0000     9.4015    97.2726     2.4891     0.0101   -51.2870     7.7860     8.6332     9.8186
 2605.5000     9.4286    99.3905     2.4929     0.0102   -51.2677     7.6282     8.3450     9.8240
 2606.0000     9.4263   103.8859     2.4953     0.0102   -51.2454     7.5231     8.1775     9.8294
 2606.5000     9.4244   103.3293     2.4976     0.0118   -51.2267     7.4343     8.1272     9.8358
 2607.0000     9.4224   101.5839     2.4985     0.0134   -51.2101     7.4391     8.3034     9.7063
 2607.5000     9.4204   100.4235     2.4993     0.0135   -51.1893     7.4276     8.5564     9.5570
 2608.0000     9.4184    99.2820     2.4979     0.0128   -51.1706     7.4489     8.6658     9.3045
 2608.5000     9.4165    99.0225     2.4943     0.0106   -51.3003     7.5056     8.5520     8.8739
 2609.0000     9.4156    99.3581     2.4892     0.0092   -51.2811     7.5623     8.4385     8.5804
 2609.5000     9.4483    99.6939     2.4832     0.0078   -51.2618     7.6194     8.3277     9.0764
 2610.0000     9.4351   100.3338     2.4789     0.0079   -51.2390     7.6242     8.2753     9.4677
 2610.5000     9.4380   100.9659     2.4820     0.0079   -51.3682     7.6292     8.2244     9.6736
 2611.0000     9.4403   101.3008     2.4851     0.0080   -51.3521     7.5816     8.3440     9.4816
 2611.5000     9.4575   101.8215     2.4875     0.0103   -51.3328     7.5877     8.4654     9.2314
 2612.0000     9.4598   101.9706     2.4928     0.0119   -51.3121     7.4875     8.5895     9.3694
 2612.5000     9.4622   102.3055     2.4974     0.0135   -51.2934     7.3910     8.7143     9.7732
 2613.0000     9.4496   102.6404     2.4997     0.0128   -51.4231     7.3958     8.7931    10.2650
 2613.5000     9.4371   102.6781     2.4976     0.0121   -51.5518     7.4725     8.8463    11.1599
 2614.0000     9.4251   102.7162     2.4923     0.0114   -51.5325     7.5079     8.8516    10.6451
 2614.5000     9.4126   102.4564     2.4821     0.0115   -51.5144     7.5868     8.9183    10.1521
 2615.0000     9.4149   102.1969     2.4784     0.0116   -51.6421     7.6217     8.9237     9.8163
 2615.5000     9.4321   101.6403     2.4831     0.0117   -51.6228     7.7323     8.9911     9.5573
 2616.0000     9.4344   100.4987     2.4862     0.0117   -51.6035     7.7908     8.9967     9.5653
 2616.5000     9.4367    99.6449     2.4885     0.0126   -51.7308     7.8507     9.0033     9.8410
 2617.0000     9.4390    99.2214     2.4901     0.0126   -51.7105     7.8557     8.9453     9.9174
 2617.5000     9.4413    98.7197     2.4924     0.0127   -51.6938     7.8607     8.8292     9.8575
 2618.0000     9.4437    98.2628     2.4940     0.0129   -51.6746     7.8658     8.7724     9.6549
 2618.5000     9.4461    97.7156     2.4904     0.0136   -51.6544     7.8168     8.5397     9.3929
 2619.0000     9.4637    97.4562     2.4868     0.0144   -51.6361     7.7669     8.4276     9.2240
 2619.5000     9.4512    97.1966     2.4861     0.0152   -51.6154     7.7198     8.3169     9.7572
 2620.0000     9.4535    97.2438     2.4885     0.0153   -51.5976     7.6716     8.3221     9.8989
 2620.5000     9.4707    97.2815     2.4908     0.0154   -51.5784     7.5716     8.3283     9.5077
 2621.0000     9.4576    97.6107     2.4939     0.0155   -51.5592     7.4729     8.2759     9.0051
 2621.5000     9.4605    97.7221     2.4955     0.0148   -51.5390     7.3422     8.2662     8.4123
 2622.0000     9.4478    97.9890     2.4964     0.0141   -51.4263     7.1476     8.2276     8.5507
 2622.5000     9.4502    98.3239     2.4980     0.0127   -51.3535     7.0524     8.1196     9.3031
 2623.0000     9.4526    98.3617     2.4988     0.0128   -51.2614     6.9609     7.9042     9.6822
 2623.5000     9.4400    98.6965     2.4997     0.0129   -51.1636     7.0137     7.8545     9.4268
 2624.0000     9.4132    99.6258     2.5006     0.0129   -51.1479     7.1147     7.8594     9.1150
 2624.5000     9.4001   100.8945     2.5014     0.0130   -51.1287     7.2671     7.8643     8.8135
 2625.0000     9.3881   103.0704     2.5015     0.0131   -51.1075     7.2710     7.8700     8.5810
 2625.5000     9.3904   106.2863     2.5031     0.0132   -51.0902     7.2749     7.8747     8.1274
 2626.0000     9.3927   107.2156     2.5032     0.0132   -50.9231     7.2288     7.8795     7.6977
