~VERSION INFORMATION
 VERS.                2.0:   CWLS LOG ASCII STANDARD - VERSION 2.0
 WRAP.                 NO:   ONE LINE PER DEPTH STEP
~WELL INFORMATION
#MNEM.UNIT      DATA TYPE    INFORMATION
#----------   ------------   ------------------------------
 STRT.F           46.0000:   START DEPTH
 STOP.F         2736.5000:   STOP DEPTH
 STEP.F            0.5000:   STEP LENGTH
 NULL.          -999.2500:   NO VALUE
 COMP.          INTEX OIL:   COMPANY
 WELL. INTEX NPR 3 "AX" #72-20:   WELL
 FLD .             TEAPOT:   FIELD
 LOC .      S20 T39N R78W:   LOCATION
 CNTY.            NATRONA:   COUNTY
 STAT.            WYOMING:   STATE
 CTRY. UNITED STATES OF AMERICA:   COUNTRY
 SRVC.       SCHLUMBERGER:   SERVICE COMPANY
 DATE.        11-MAY-1966:   LOGDATE
 API .     49025095110000:   API NUMBER
~CURVE INFORMATION
#MNEM.UNIT       API CODE    CURVE DESCRIPTION
#----------   ------------   ------------------------------
 DEPT.F                  :   
 SPR .MV     05 010 01 00:   SPONTANEOUS POTENTIAL FROM RES.
 ILD .OHMM   05 120 46 00:   INDUCTION LOG DEEP
 ASN .OHMM   05 041 16 00:   AMPLIFIED SHORT NORMAL 16"
 CALD.IN     45 280 60 00:   CALIPER FROM DENSITY LOG
 CORR.G/C3   45 356 01 00:   DENSITY CORRECTION
 RHOB.G/C3   45 350 01 00:   BULK DENSITY
 GRD .GAPI   45 310 01 00:   GAMMA RAY FROM DENSITY LOG
~PARAMETER INFORMATION
#MNEM.UNIT          VALUE    DESCRIPTION
#----------   ------------   ------------------------------
 EKB .F         5042.3000:   Kelly bushing
 EGL .F         5032.0000:   Ground level
 EDF .F            0.0000:   Drilling floor
 EPD .F         5032.0000:   Permanent datum
 TD  .F         2740.0000:   Total depth
 DATE.        11-MAY-1966:   Date logged
 CLNT.            A2DTECH:   Client Code
 DAPD.F              10.3:   Feet Above Permanent Datum
 DD  .F              2740:   Depth driller
 DL  .F              2737:   Depth logger
 BLI .F              2736:   Bottom log interval
 TLI .F                88:   Top log interval
 CS1 .IN            10.75:   Casing size
 CBD1.       10.75" @ 24':   Casing driller 1
 BS1 .IN            7.875:   Bit size
 BSD1.F              2740:   Depth drilled with bit1
 DFT .           OIL EMUL:   Type fluid in hole
 DFD .                9.8:   Density
 DFV .                 58:   Viscosity
 MSS .         CIRCULATED:   Source of sample
 RMS .OHMM           3.04:   Rm
 MST .F                54:   Rm Meas. temp.
 RMF .OHMM           1.95:   Rmf
 MFST.F                55:   Rmf Meas. temp.
 MFSS.                 FR:   Source Rmf.
 RMB .OHMM           1.64:   Rm. at BHT
 BHT .F               100:   BHT.
 TCS .HRS               4:   Time Circ. stopped
 MRT .F               100:   Maximum recorded temp.
 LUN .               4507:   Logging unit number
 LUL .               CSPR:   Logging unit location
 ENGI.               HAUG:   Recorded By
 WITN.             TUTTLE:   Witnessed by
 ORIG.        2" 5" PRINT:   Origin of data
 UWI .     49025095110000:   Unique Well ID
 DICO. A2D TECHNOLOGIES, INC.:   Digitizing Company
~OTHER INFORMATION
~A   DEPT      SPR        ILD        ASN       CALD       CORR       RHOB         GRD  
# ...
 2685.0000   -25.2030     7.1430    10.1390     8.0830     0.0340     2.4600    99.9700
 2685.5000   -24.5360     6.8540    10.0920     8.0840     0.0370     2.4620   102.6710
 2686.0000   -23.8800     6.6090    10.0320     8.0850     0.0400     2.4630   104.9910
 2686.5000   -23.2530     6.3450     9.6120     8.0870     0.0430     2.4480   104.5620
 2687.0000   -23.1390     6.0900     9.0650     8.0880     0.0440     2.4230   103.6430
 2687.5000   -23.0450     5.8360     8.5230     8.0890     0.0430     2.4240   104.0820
 2688.0000   -22.9750     5.5720     7.9900     8.0900     0.0420     2.4240   104.4600
 2688.5000   -22.8820     5.3260     7.4590     8.0920     0.0410     2.4250   107.0770
 2689.0000   -22.7990     5.0370     7.1380     8.0930     0.0400     2.4240   109.2820
 2689.5000   -22.5600     4.9880     6.8220     8.0940     0.0380     2.4140   112.9940
 2690.0000   -22.3550     4.9550     6.6550     8.0950     0.0330     2.4030   118.7290
 2690.5000   -22.1340     4.9300     6.4820     8.0970     0.0280     2.3920   124.4300
 2691.0000   -21.9360     4.8960     6.3940     8.0980     0.0230     2.3840   126.9950
 2691.5000   -21.6960     4.8680     6.3290     8.0990     0.0260     2.3890   123.2210
 2692.0000   -21.7660     4.8370     6.3160     8.1000     0.0300     2.3920   120.7970
 2692.5000   -22.0690     4.8080     6.3360     8.1020     0.0340     2.4090   119.3020
 2693.0000   -22.3270     4.7780     6.3540     8.1030     0.0370     2.4100   117.2660
 2693.5000   -22.6020     4.7480     6.3710     8.1040     0.0250     2.4040   118.4280
 2694.0000   -22.8340     4.7180     6.3770     8.1060     0.0250     2.3990   119.0700
 2694.5000   -22.9670     4.6880     6.3320     8.1060     0.0300     2.3940   113.1460
 2695.0000   -23.1710     4.6600     6.2300     8.1040     0.0300     2.3890   111.3100
 2695.5000   -22.8930     4.6270     6.1080     8.1020     0.0260     2.3800   112.8260
 2696.0000   -22.5520     4.6270     6.0280     8.1010     0.0210     2.3710   115.0020
 2696.5000   -22.3250     4.6510     5.9430     8.0990     0.0160     2.3700   115.9380
 2697.0000   -22.0520     4.6700     5.8460     8.0980     0.0110     2.3700   114.2120
 2697.5000   -21.9780     4.6910     5.8620     8.0960     0.0160     2.3780   112.0120
 2698.0000   -21.9240     4.7110     5.8940     8.0940     0.0230     2.3830   111.5260
 2698.5000   -21.8720     4.7310     5.9440     8.0930     0.0260     2.3940   111.2110
 2699.0000   -21.8140     4.7520     6.0270     8.0910     0.0280     2.4060   110.7840
 2699.5000   -21.7610     4.7720     6.1330     8.0900     0.0300     2.4120   112.3660
 2700.0000   -21.7040     4.7920     6.2660     8.0880     0.0380     2.4230   112.4520
 2700.5000   -21.6540     4.8120     6.3970     8.0860     0.0450     2.4390   112.4570
 2701.0000   -21.5690     4.8130     6.4950     8.0850     0.0530     2.4430   110.5410
 2701.5000   -21.4520     4.8130     6.4570     8.0830     0.0520     2.4370   108.9770
 2702.0000   -21.3470     4.8130     6.3580     8.0810     0.0510     2.4480   106.7980
 2702.5000   -21.2390     4.8130     6.2490     8.0800     0.0490     2.4470   111.7890
 2703.0000   -21.2280     4.8130     6.1400     8.0780     0.0470     2.4450   114.6320
 2703.5000   -21.2300     4.8130     6.0910     8.0770     0.0420     2.4360   114.8300
 2704.0000   -21.2280     4.8110     6.0750     8.0750     0.0320     2.4130   115.3210
 2704.5000   -21.2180     4.8170     6.0470     8.0730     0.0230     2.4080   114.3010
 2705.0000   -20.9820     4.7610     6.0310     8.0720     0.0250     2.4040   110.7030
 2705.5000   -20.7010     4.6390     5.7870     8.0700     0.0280     2.4110   108.8520
 2706.0000   -20.4200     4.5260     5.4970     8.0690     0.0310     2.4160   112.0420
 2706.5000   -20.1420     4.4110     5.3540     8.0670     0.0330     2.4230   116.6840
 2707.0000   -19.8570     4.2950     5.2960     8.0660     0.0360     2.4290   119.6390
 2707.5000   -19.6490     4.1820     5.3600     8.0650     0.0390     2.4360   117.8880
 2708.0000   -19.6480     4.0630     5.4650     8.0630     0.0390     2.4390   113.5730
 2708.5000   -19.6420     3.9520     5.5920     8.0620     0.0390     2.4370   109.4160
 2709.0000   -19.6460     3.8500     5.7080     8.0610     0.0330     2.4370   104.6830
 2709.5000   -19.6500     3.9880     5.7210     8.0600     0.0260     2.4240   103.9610
 2710.0000   -19.7230     4.1400     5.6520     8.0590     0.0190     2.4090   109.1010
 2710.5000   -19.7840     4.3000     5.4050     8.0570     0.0120     2.3970   112.3910
 2711.0000   -19.8530     4.4520     5.2730     8.0560     0.0070     2.4020   112.7300
 2711.5000   -19.9150     4.6090     5.3400     8.0550     0.0150     2.4100   113.4650
 2712.0000   -19.9830     4.7640     5.7030     8.0540     0.0220     2.4250   113.3230
 2712.5000   -20.0520     4.9200     6.0490     8.0530     0.0290     2.4400   112.5400
 2713.0000   -20.2330     5.0750     6.4390     8.0520     0.0380     2.4420   112.7890
 2713.5000   -20.4020     5.2320     6.7990     8.0500     0.0420     2.4430   113.0550
 2714.0000   -20.5770     5.3850     7.0610     8.0490     0.0470     2.4360   112.4750
 2714.5000   -20.7480     5.5460     7.2570     8.0480     0.0390     2.4300   110.6480
 2715.0000   -20.9200     5.5930     7.4600     8.0470     0.0250     2.4220   106.2660
 2715.5000   -21.0950     5.5700     7.4360     8.0460     0.0240     2.4210   101.8580
 2716.0000   -21.2620     5.5560     7.2250     8.0440     0.0290     2.4210    98.3340
 2716.5000   -21.3880     5.5400     7.1000     8.0430     0.0330     2.4280    99.1810
 2717.0000   -21.5720     5.5230     7.0320     8.0420     0.0370     2.4250   101.2440
 2717.5000   -21.4420     5.5080     6.9820     8.0410     0.0330     2.4190   103.4670
 2718.0000   -20.9470     5.4910     6.9480     8.0400     0.0290     2.4120   103.9150
 2718.5000   -20.5030     5.4750     7.0850     8.0380     0.0370     2.4130   103.0840
 2719.0000   -20.8950     5.4590     7.0910     8.0370     0.0410     2.4160   103.8910
 2719.5000   -21.4150     5.4420     7.0930     8.0360     0.0320     2.4190   103.7280
 2720.0000   -21.5180     5.4280     7.0770     8.0350     0.0250     2.4140   102.0300
 2720.5000   -21.1820     5.4090     6.9170     8.0340     0.0170     2.4100   101.4250
 2721.0000   -20.9260     5.3920     6.7620     8.0330     0.0210     2.4110   102.1760
 2721.5000   -20.6350     5.2750     6.6350     8.0310     0.0260     2.4220  -999.2500
 2722.0000   -20.3630     5.1650     6.6070     8.0300     0.0300     2.4220  -999.2500
 2722.5000   -20.0650     5.0480     6.5590     8.0290     0.0240     2.4110  -999.2500
 2723.0000   -20.0150     4.9360     6.5130     8.0280     0.0200     2.4040  -999.2500
 2723.5000   -19.9820     4.8210     6.4660     8.0290     0.0140     2.4130  -999.2500
 2724.0000   -19.9570     4.7060     6.3450     8.0310     0.0180     2.4200  -999.2500
 2724.5000   -19.9230     4.6110     6.1340     8.0330     0.0300     2.4290  -999.2500
 2725.0000   -19.8940     4.5740     5.7360     8.0350     0.0370     2.4340  -999.2500
 2725.5000   -19.8630     4.5370     5.6260     8.0370     0.0320     2.4290  -999.2500
 2726.0000   -19.8330     4.5020     5.5940     8.0390     0.0270     2.4270  -999.2500
 2726.5000   -19.8030     4.4660     5.6030     8.0410     0.0430     2.4400  -999.2500
 2727.0000   -19.7730     4.4300     5.5980     8.0430     0.0440     2.4360  -999.2500
 2727.5000   -19.7420     4.3940     5.5990     8.0450     0.0370     2.4340  -999.2500
 2728.0000   -19.7120     4.3580     5.5510     8.0460     0.0320     2.4320  -999.2500
 2728.5000   -19.6820     4.3220     5.4820     8.0480     0.0350     2.4300  -999.2500
 2729.0000   -19.6520     4.2860     5.4150     8.0500     0.0380     2.4400  -999.2500
 2729.5000   -19.6220     4.2490     5.3470     8.0520     0.0450     2.4490  -999.2500
 2730.0000   -19.5920     4.2190     5.2820     8.0540     0.0570     2.4600  -999.2500
