~VERSION INFORMATION
 VERS.                2.0:   CWLS LOG ASCII STANDARD - VERSION 2.0
 WRAP.                 NO:   ONE LINE PER DEPTH STEP
~WELL INFORMATION
#MNEM.UNIT      DATA TYPE    INFORMATION
#----------   ------------   ------------------------------
 STRT.F           50.0000:   START DEPTH
 STOP.F         5698.0000:   STOP DEPTH
 STEP.F            0.5000:   STEP LENGTH
 NULL.          -999.2500:   NO VALUE
 COMP. LAWRENCE - ALLISON:   COMPANY
 WELL. LAWRENCE TPX #57-3:   WELL
 FLD .              NPR 3:   FIELD
 LOC .       S3 T38N R78W:   LOCATION
 CNTY.            NATRONA:   COUNTY
 STAT.            WYOMING:   STATE
 CTRY. UNITED STATES OF AMERICA:   COUNTRY
 SRVC.       SCHLUMBERGER:   SERVICE COMPANY
 DATE.        09-AUG-1982:   LOGDATE
 API .     49025108900000:   API NUMBER
~CURVE INFORMATION
#MNEM.UNIT       API CODE    CURVE DESCRIPTION
#----------   ------------   ------------------------------
 DEPT.F                  :   
 TEND.LBS    45 635 01 00:   TENSION FROM DENSITY LOG
 CALD.IN     45 280 60 00:   CALIPER FROM DENSITY LOG
 NPHI.DEC    42 890 03 00:   NEUTRON POROSITY SANDSTONE
 CORR.G/C3   45 356 01 00:   DENSITY CORRECTION
 RHOB.G/C3   45 350 01 00:   BULK DENSITY
 SPR .MV     11 010 01 00:   SPONTANEOUS POTENTIAL FROM RESISTIVITY
 TENR.LBS    11 635 01 00:   TENSION FROM RESISTIVITY
 GRR .GAPI   11 310 01 00:   GAMMA RAY FROM RESISTIVITY
 LLD .OHMM   11 220 10 00:   LATEROLOG DEEP
 LLS .OHMM   11 220 09 00:   LATEROLOG LOG SHALLOW
 MSFL.OHMM   11 270 04 00:   MICRO SPHERICALLY FOCUSED
~PARAMETER INFORMATION
#MNEM.UNIT          VALUE    DESCRIPTION
#----------   ------------   ------------------------------
 EKB .F         5190.0000:   Kelly bushing
 EGL .F         5180.0000:   Ground level
 EDF .F         5189.0000:   Drilling floor
 TD  .F         5686.0000:   Total depth
 CLNT.            A2DTECH:   Client Code
 SL  . 1002' FSL & 2479' FEL:   Surface Location
 PD  .                 GL:   Permanent Datum
 EPD .F              5180:   Elevation Permanent Datum
 LMF .                 KB:   Log Measured From
 DMF .                 KB:   Drilling Measured From
 DAPD.F                10:   Feet Above Permanent Datum
 DATE.        09-AUG-1982:   Date Logged [DD-MMM-YYYY]
 DD  .F              5685:   Depth driller
 DL  .F              5686:   Depth logger
 BLI .F              5683:   Bottom log interval
 TLI .F               494:   Top log interval
 CS1 .IN            9.625:   Casing size
 CBD1.      9.625" @ 500':   Casing driller 1
 CBL1.F               494:   Casing logger 1
 BS1 .IN             8.75:   Bit size
 BSD1.F              5685:   Depth drilled with bit1
 DFT .                KCL:   Type fluid in hole
 DFD .                9.0:   Density
 DFV .                 38:   Viscosity
 DFPH.                8.5:   pH
 DFL .                9.0:   Fluid loss
 MSS .            MUDTANK:   Source of sample
 RMS .OHMM           0.27:   Rm
 MST .F                79:   Rm Meas. temp.
 RMF .OHMM           0.27:   Rmf
 MFST.F                79:   Rmf Meas. temp.
 MFSS.               MEAS:   Source Rmf.
 RMB .OHMM            .13:   Rm. at BHT
 BHT .F               164:   BHT.
 TCS .HRS            1300:   Time Circ. stopped
 MRT .F               164:   Maximum recorded temp.
 LUN .               8035:   Logging unit number
 LUL .               CSPR:   Logging unit location
 ENGI.            PERAKIS:   Recorded By
 WITN.           L. FIVAS:   Witnessed by
 ORIG.        2" 5" PRINT:   Origin of data
 UWI .     49025108900000:   Unique Well ID
 DICO. A2D TECHNIOLOGIES,INC.:   Digitizing Company
 RMC .OHMM           0.41:   Rmc
 MCST.F                79:   Rmc Meas. temp.
 MCSS.               CALC:   Source Rmc.
 TLAB.HRS            2000:   Time logger at bottom
~OTHER INFORMATION
~A  DEPTH     TEND       CALD       NPHI       CORR       RHOB        SPR       TENR        GRR        LLD        LLS       MSFL
# ...
 2551.0000  1066.3982     9.1140     0.2018     0.0019     2.4121   -54.6487  1030.1943    80.5983    23.7603    20.1519    13.6578
 2551.5000  1056.4863     9.1297     0.2039     0.0027     2.4018   -54.8766  1029.4897    77.6083    23.6011    20.2978    13.2920
 2552.0000  1059.4913     9.1302     0.2040     0.0050     2.3988   -55.1046  1013.9573    79.1559    22.9656    19.8917    13.7633
 2552.5000  1066.3320     9.1308     0.2008     0.0035     2.4004   -55.3325  1013.3724    83.8157    22.8064    19.0944    14.7508
 2553.0000  1073.1432     9.1315     0.1933     0.0019     2.4116   -55.5604  1027.8816    88.2528    21.4412    18.5827    16.3632
 2553.5000  1080.0343     9.1321     0.1900     0.0013     2.4272   -55.7883  1027.1509    84.9611    20.1571    18.8094    18.7879
 2554.0000  1086.8667     9.1037     0.1867     0.0066     2.4399   -56.0162  1026.5660    82.2727    21.4470    18.6815    21.1307
 2554.5000  1093.6948     9.1059     0.1816     0.0133     2.4616   -56.2463  1025.9812    82.9026    21.5971    18.3018    21.8801
 2555.0000  1094.3776     9.1080     0.1743     0.0193     2.4758   -56.5218  1025.3965    85.6441    20.5860    18.0531    21.7386
 2555.5000  1094.3776     9.1097     0.1728     0.0231     2.4751   -56.8151  1039.7593    87.7823    19.2211    17.4206    18.8931
 2556.0000  1094.3776     9.1013     0.1780     0.0179     2.4559   -57.1091  1039.1627    87.8089    17.8239    16.2870    14.5047
 2556.5000  1112.9392     9.0931     0.1866     0.0133     2.4244   -57.4055  1038.5649    87.2321    17.8262    15.8461    11.6292
 2557.0000  1132.1787     9.0715     0.1944     0.0106     2.4059   -57.6846  1052.9529    87.5604    18.6235    16.4016    11.4736
 2557.5000  1151.4182     9.0443     0.1989     0.0069     2.3977   -57.4659  1067.3157    88.4919    20.0418    17.6909    11.6386
 2558.0000  1133.2329     9.0313     0.2015     0.0047     2.3933   -57.2217  1066.5846    89.7580    20.3219    19.0816    11.8048
 2558.5000  1107.5803     9.0342     0.2052     0.0032     2.3918   -56.9789  1066.0001    91.9486    20.0472    19.6148    11.9734
 2559.0000  1094.3776     9.0370     0.2085     0.0040     2.3934   -56.7351  1050.4677    94.9131    19.5061    19.2158    12.1444
 2559.5000  1094.3776     9.0398     0.2103     0.0063     2.3942   -56.5139  1034.9352    95.8447    18.2129    18.1889    12.4030
 2560.0000  1094.3776     9.0426     0.2094     0.0094     2.3972   -56.7245  1034.3503    94.0613    16.8889    17.0990    12.7547
 2560.5000  1094.3776     9.0454     0.2073     0.0125     2.4121   -56.8993  1033.7655    91.6746    17.3620    17.1120    13.3067
 2561.0000  1086.7778     9.0482     0.2094     0.0168     2.4335   -56.7724  1033.1808    88.3829    19.1183    18.3184    15.2586
 2561.5000  1078.8848     9.0500     0.2069     0.0184     2.4636   -56.6455  1047.5439    85.6946    21.8219    21.0192    19.7116
 2562.0000  1076.9829     9.0500     0.1868     0.0184     2.4867   -56.5195  1046.9359    83.3079    25.2094    24.7907    23.7506
 2562.5000  1083.3961     9.0500     0.1660     0.0199     2.4965   -56.3937  1046.2281    80.9212    32.0272    30.0538    28.6172
 2563.0000  1089.8092     9.0500     0.1578     0.0237     2.5025   -56.2679  1060.7372    81.2494    31.8120    29.8499    36.9401
 2563.5000  1077.5100     9.0500     0.1566     0.0282     2.5047   -56.1415  1060.0065    84.2962    29.0967    27.4885    41.2612
 2564.0000  1014.0562     9.0500     0.1566     0.0305     2.5025   -56.0567  1059.4216    87.3930    25.7141    24.6275    43.3128
 2564.5000  1081.3253     9.0500     0.1601     0.0298     2.4906   -55.9919  1058.8368    89.1735    21.3615    21.9130    15.9598
 2565.0000  1110.7095     9.0500     0.1746     0.0267     2.4497   -55.9271  1073.3461    87.6972    18.2404    17.4672    12.8076
 2565.5000  1103.8688     9.0500     0.2047     0.0187     2.4329   -55.8621  1072.6150    85.0088    16.6834    16.1964    12.2095
 2566.0000  1097.0281     9.0501     0.2143     0.0150     2.4081   -55.7973  1072.0305    82.3205    16.9166    16.9961    12.1306
 2566.5000  1098.5676     9.0538     0.2167     0.0143     2.4051   -55.7320  1071.4457    77.5205    18.2767    18.8432    12.5621
 2567.0000  1105.4083     9.0617     0.2182     0.0143     2.4059   -55.7447  1070.8521    74.8321    20.9403    21.4734    12.9182
 2567.5000  1112.2490     9.0696     0.2194     0.0166     2.4037   -55.8383  1070.2542    74.2554    24.8695    23.9712    13.1027
 2568.0000  1114.4579     9.0701     0.2173     0.0189     2.3873   -56.1017  1069.5453    73.0753    28.7351    25.6785    13.1986
 2568.5000  1114.4579     9.0700     0.2119     0.0181     2.3777   -56.7808  1054.0127    72.1969    29.3377    26.3961    13.2952
 2569.0000  1114.4579     9.0693     0.2067     0.0145     2.3762   -57.3713  1053.4279    75.5417    27.5815    25.1578    13.4851
 2569.5000  1108.7999     9.0671     0.2031     0.0093     2.3778   -57.9039  1052.8431    80.1490    23.3902    23.0089    13.5825
 2570.0000  1102.7640     9.0649     0.1983     0.0071     2.3871   -58.4310  1052.2583    85.5716    19.0345    19.7813    13.2209
 2570.5000  1096.7281     9.0628     0.1961     0.0131     2.4117   -58.9548  1036.7258    94.9343    16.4783    17.0545    12.6035
 2571.0000  1090.2008     9.0606     0.2018     0.0221     2.4323   -59.4427  1036.1414   101.5974    14.4617    13.4634    12.2647
 2571.5000  1083.3601     9.0585     0.2154     0.0310     2.4457   -59.8388  1035.5565   103.7356    13.3913    12.6566    12.1854
 2572.0000  1076.5194     9.0563     0.2199     0.0333     2.4562   -60.0693  1034.9718   104.3654    13.5062    12.5706    12.2758
 2572.5000  1074.2972     9.0542     0.2211     0.0333     2.4629   -59.9658  1034.3796    98.9622    14.5689    13.5590    12.2808
 2573.0000  1074.2972     9.0520     0.2189     0.0349     2.4682   -59.8685  1033.7817    92.0506    16.8334    16.2132    12.4562
 2573.5000  1074.2972     9.0500     0.2144     0.0312     2.4570   -59.7701  1048.1653    89.0606    19.4499    18.0992    13.6287
 2574.0000  1081.2751     9.0500     0.2065     0.0215     2.4303   -59.6719  1047.4342    89.0871    20.2715    17.2501    15.5408
 2574.5000  1094.1014     9.0501     0.1996     0.0141     2.4169   -59.5738  1046.8494    87.6054    19.0581    15.4547    14.7870
 2575.0000  1106.9277     9.0542     0.2017     0.0127     2.4210   -59.4758  1046.2646    86.1237    14.3797    13.1053    12.8844
 2575.5000  1111.6332     9.0626     0.2065     0.0149     2.4341   -59.3784  1045.6801    86.7801    12.8839    12.4050    12.6545
 2576.0000  1104.7925     9.0706     0.2113     0.0187     2.4475   -59.2714  1045.0953    87.6863    12.7097    12.9284    12.6609
 2576.5000  1097.9518     9.0732     0.2164     0.0225     2.4558   -59.0770  1059.6045    87.1150    13.9688    14.4322    12.2372
 2577.0000  1094.3776     9.0760     0.2203     0.0270     2.4625   -58.2611  1058.8734    85.3316    16.8521    16.9052    11.6658
 2577.5000  1094.3776     9.0788     0.2234     0.0307     2.4633   -57.4291  1043.3408    81.7383    20.4312    19.1329    11.1211
 2578.0000  1094.3776     9.0816     0.2218     0.0315     2.4507   -56.5918  1027.8026    78.4466    23.6068    19.9397    10.5290
 2578.5000  1099.4243     9.0844     0.2055     0.0323     2.4313   -56.3037  1027.2046    76.3616    23.9368    19.8045    10.2470
 2579.0000  1106.2650     9.0873     0.2004     0.0331     2.4194   -56.2985  1041.4404    74.5782    23.6132    19.5354    10.1108
 2579.5000  1113.1057     9.0897     0.1983     0.0339     2.4134   -56.2975  1040.8557    73.0965    22.1997    18.2390     9.9765
 2580.0000  1114.4579     9.0833     0.2019     0.0309     2.4069   -56.3005  1040.2709    74.9330    20.0276    16.4533     9.9032
 2580.5000  1114.4579     9.0764     0.2067     0.0243     2.3816   -56.4395  1054.7802    77.6745    18.5717    15.1310     9.5813
 2581.0000  1114.4579     9.0700     0.2115     0.0168     2.3689   -57.0736  1054.0493    79.8371    17.9467    15.0489     9.3246
