~VERSION INFORMATION
 VERS.                2.0:   CWLS LOG ASCII STANDARD - VERSION 2.0
 WRAP.                 NO:   ONE LINE PER DEPTH STEP
~WELL INFORMATION
#MNEM.UNIT      DATA TYPE    INFORMATION
#----------   ------------   ------------------------------
 STRT.F           46.5000:   START DEPTH
 STOP.F         3160.0000:   STOP DEPTH
 STEP.F            0.5000:   STEP LENGTH
 NULL.          -999.2500:   NO VALUE
 COMP. LAWRENCE ALLISON & WEST:   COMPANY
 WELL. LAWRENCE NPR 3 "AX" #42-34:   WELL
 FLD .                NPR:   FIELD
 LOC .      S34 T39N R78W:   LOCATION
 CNTY.            NATRONA:   COUNTY
 STAT.            WYOMING:   STATE
 CTRY. UNITED STATES OF AMERICA:   COUNTRY
 SRVC.      WESTERN ATLAS:   SERVICE COMPANY
 DATE.        19-OCT-1987:   LOGDATE
 API .     49025111830000:   API NUMBER
~CURVE INFORMATION
#MNEM.UNIT       API CODE    CURVE DESCRIPTION
#----------   ------------   ------------------------------
 DEPT.F                  :   
 CALD.IN     45 280 60 00:   CALIPER FROM DENSITY LOG
 DEN .LBS    45 635 01 00:   BUCK DENSITY
 CORR.G/C3   45 356 01 00:   DENSITY CORRECTION
 NPOR.DEC    42 890 03 00:   ALPHA PROCESSED NEUTRON POROSITY
 SPR .MV     07 010 01 00:   SPONTANEOUS POTENTIAL
 GRR .GAPI   07 310 01 00:   GAMMA RAY FROM RESISTIVITY
 RFOC.OHMM   07 220 04 00:   RESISTIVITY FOCUSED LOG RES.
 RILD.OHMM   07 120 46 00:   DEEP INDUCTION RESISTIVITY
 RILM.OHMM   07 120 44 00:   INDUCTION LOG MEDIUM RESISTIVITY
 TENR.LBS    07 635 01 00:   TENSION FROM RESISTIVITY
~PARAMETER INFORMATION
#MNEM.UNIT          VALUE    DESCRIPTION
#----------   ------------   ------------------------------
 EKB .F         5088.0000:   Kelly bushing
 EGL .F         5077.0000:   Ground level
 EDF .F         5087.0000:   Drilling floor
 TD  .F         3151.0000:   Total depth
 DATE.        19-OCT-1987:   Date logged
 CLNT.            A2DTECH:   Client Code
 SL  . 1032' FNL & 2316' FWL:   Surface Location
 PD  .                 GL:   Permanent Datum
 EPD .F              5077:   Elevation Permanent Datum
 LMF .                 KB:   Log Measured From
 DMF .                 KB:   Drilling Measured From
 DAPD.F                11:   Feet Above Permanent Datum
 DD  .F              3151:   Depth driller
 DL  .F              3151:   Depth logger
 BLI .F              3149:   Bottom log interval
 TLI .F                50:   Top log interval
 CS1 .IN            8.625:   Casing size
 CBD1.      8.625" @ 693':   Casing driller 1
 CBL1.F               693:   Casing logger 1
 BS1 .IN            7.875:   Bit size
 BSD1.F              3151:   Depth drilled with bit1
 DFT .        KCL/POLYMER:   Type fluid in hole
 DFD .                9.2:   Density
 DFV .                 53:   Viscosity
 DFPH.                9.5:   pH
 DFL .               11.8:   Fluid loss
 MSS .            MUD/PIT:   Source of sample
 RMS .OHMM           .441:   Rm
 MST .F                66:   Rm Meas. temp.
 RMF .OHMM           .336:   Rmf
 MFST.F                66:   Rmf Meas. temp.
 RMC .OHMM           .711:   Rmc
 MCST.F                66:   Rmc Meas. temp.
 MFSS.               MEAS:   Source Rmf.
 MCSS.               MEAS:   Source Rmc.
 RMB .OHMM           .244:   Rm. at BHT
 BHT .F               119:   BHT.
 TCS .HRS               3:   Time Circ. stopped
 MRT .F               119:   Maximum recorded temp.
 LUN .            HL-6343:   Logging unit number
 LUL .               CODY:   Logging unit location
 ENGI.               JULL:   Recorded By
 WITN.             STRONG:   Witnessed by
 ORIG.           5" PRINT:   Origin of data
 UWI .     49025111830000:   Unique Well ID
 DICO. A2D TECHNOLOGIES, INC.:   Digitizing Company
~OTHER INFORMATION
~A   DEPT     CALD        DEN       CORR       NPOR        SPR         GRR      RFOC       RILD       RILM       TENR   
# ...
 2157.0000     8.0992     2.4821    -0.0020     0.2696   -26.7017    98.1549     5.9695     4.9244     5.0638   -95.3774
 2157.5000     8.0978     2.4881    -0.0021     0.2613   -27.1096    92.4907     6.4892     5.2061     5.3536   -95.1774
 2158.0000     8.1361     2.4840    -0.0123     0.2498   -27.7194    90.8687     7.6699     5.4025     5.4530   -84.8705
 2158.5000     8.1356     2.4759    -0.0266     0.2494   -27.9255    90.0523     8.7345     5.6584     5.5541   -94.7773
 2159.0000     8.1345     2.4687    -0.0308     0.2507   -27.3259    89.6396     8.7323     5.8175     5.5529   -94.5773
 2159.5000     8.1336     2.4727    -0.0046     0.2515   -27.4939    88.8268     8.1802     5.5000     5.4493   -94.3773
 2160.0000     8.1325     2.4808    -0.0006     0.2714   -27.6619    83.5696     7.7347     5.2142     5.1044   -94.1372
 2160.5000     8.1311     2.4756     0.0255     0.2795   -27.9426    81.0280     7.0464     4.9628     4.5640   -93.9372
 2161.0000     8.1300     2.4685     0.0052     0.2843   -28.1478    82.3402     6.8511     4.6487     4.3151   -93.7372
 2161.5000     8.1289     2.4564    -0.0010     0.2832   -28.5567    93.2277     6.0697     4.4781     4.1565   -93.5371
 2162.0000     8.1278     2.4391     0.0171     0.2767   -28.9646   102.5043     5.0856     4.3133     4.1171   -93.3371
 2162.5000     8.1266     2.4421     0.0251     0.2719   -29.3735   110.1663     4.8535     4.3123     4.1161   -93.1371
 2163.0000     8.1454     2.4532     0.0109     0.2671   -29.9834   106.9274     5.0364     4.2715     4.1927   -92.9370
 2163.5000     8.1441     2.4632    -0.0074     0.2687   -29.9876    99.6513     5.5777     4.2706     4.2310   -92.7370
 2164.0000     8.1432     2.4622    -0.0217     0.2784   -29.9919    94.3938     6.1771     4.2696     4.2696   -92.5369
 2164.5000     8.1425     2.4500    -0.0036     0.2801   -29.5925    91.5623     7.1002     4.2685     4.3488   -82.2294
 2165.0000     8.1413     2.4368    -0.0098     0.2801   -29.5967    99.6244     7.5061     4.3077     4.3885   -82.0293
 2165.5000     8.1400     2.4307    -0.0200     0.2898   -29.6010   104.4589     6.1155     4.4286     4.4288   -81.8292
 2166.0000     8.1388     2.4337    -0.0100     0.2899   -28.5959   104.8573     5.7826     4.5109     4.4691   -81.6291
 2166.5000     8.1375     2.4458     0.0081     0.2826   -28.1964   102.0221     5.6749     4.5521     4.5099   -91.4967
 2167.0000     8.1363     2.4487     0.0262     0.2818   -28.4025    99.1830     5.9437     4.5939     4.5089  -101.4044
 2167.5000     8.1351     2.4396     0.0119     0.2911   -28.2049    99.9816     6.0540     4.5927     4.5501   -91.0966
 2168.0000     8.1133     2.4325    -0.0124     0.2972   -28.2092   101.5877     5.9412     4.6780     4.6349   -90.8965
 2168.5000     8.1536     2.4365    -0.0328     0.2956   -27.8097   104.4052     5.9399     4.8997     4.7208   -80.5885
 2169.0000     8.1524     2.4506    -0.0410     0.2856   -27.6103   105.2039     6.1067     4.9446     4.8988   -80.3884
 2169.5000     8.1512     2.4566    -0.0390     0.2743   -28.0209   106.0025     6.5770     5.5279     5.0365   -80.1883
 2170.0000     8.1499     2.4525    -0.0311     0.2658   -28.0252   107.6088     7.0834     5.8442     5.5784  -100.2043
 2170.5000     8.1487     2.4494     0.0072     0.2650   -29.0389   103.9658     8.5300     6.1206     5.6820  -100.0043
 2171.0000     8.1475     2.4483     0.0273     0.2650   -29.0432   103.5530     9.1865     6.1196     5.8417   -99.8043
 2171.5000     8.1462     2.4483     0.0272     0.2626   -29.0475   103.1403     8.6861     6.0054     5.8398   -99.6043
 2172.0000     8.1450     2.4523    -0.0012     0.2602   -29.2536    99.0934     7.6950     6.0042     5.8390   -99.4042
 2172.5000     8.1637     2.4553    -0.0134     0.2627   -29.2579    94.6407     7.1418     6.0031     5.6770   -89.0158
 2173.0000     8.1623     2.4825    -0.0155     0.2635   -29.4641    94.2279     7.0087     6.0021     5.5194   -99.0042
 2173.5000     8.1616     2.4946    -0.0176     0.2643   -29.6703    92.1998     7.0072     5.8899     5.4165   -88.6557
 2174.0000     8.1607     2.5046    -0.0016     0.2664   -29.8765    89.7680     7.0712     5.7800     5.5171   -98.5641
 2174.5000     8.1596     2.5046    -0.0260     0.2688   -30.0827    92.9894     6.9394     5.7788     5.4648   -88.2555
 2175.0000     8.1583     2.4894    -0.0180     0.2713   -30.0869    96.2110     6.8737     5.7775     5.5147   -77.9468
 2175.5000     8.1374     2.4853    -0.0059     0.2693   -30.0921    94.5866     7.0013     5.9394     5.6172   -87.8553
 2176.0000     8.1358     2.4852    -0.0040     0.2588   -29.6925    91.7508     7.4015     5.9384     5.7216   -87.6552
 2176.5000     8.1549     2.4872    -0.0041     0.2556   -29.2930    88.5110     7.8246     5.9374     5.8279   -97.5639
 2177.0000     8.1537     2.4902    -0.0022     0.2556   -28.8934    86.4827     7.8230     5.9361     5.8266   -97.3638
 2177.5000     8.1732     2.4901    -0.0023     0.2572   -29.5034    85.6698     7.5357     5.9349     5.8799   -97.1638
 2178.0000     8.1712     2.4901    -0.0105     0.2605   -28.7017    85.6607     7.6755     6.0451     5.9891   -86.8549
 2178.5000     8.1705     2.4830     0.0096     0.2654   -28.7054    88.4767     7.5325     6.2735     6.1001   -86.6548
 2179.0000     8.1694     2.4789     0.0014     0.2686   -28.7091    94.9256     7.1884     6.2719     6.1559   -86.4547
 2179.5000     8.1683     2.4748     0.0154     0.2683   -28.7128    99.7630     7.1204     6.3289     6.2703   -96.3636
 2180.0000     8.1669     2.4687     0.0073     0.2683   -28.7171    98.9463     7.6687     6.4465     6.2689   -96.1235
 2180.5000     8.1459     2.4504     0.0072     0.2683   -28.7213    95.7063     8.2594     6.5054     6.2676   -95.9234
 2181.0000     8.1243     2.4433    -0.0698     0.2683   -27.9178    92.4663     9.0625     6.4432     6.2663   -95.7234
 2181.5000     8.0831     2.4493    -0.0678     0.2651   -27.5191    92.0534     9.0606     6.3230     6.0359   -95.5233
 2182.0000     8.0615     2.4644    -0.0316     0.2607   -27.9204    94.4676     8.4091     6.1480     5.6014  -105.4326
 2182.5000     8.1008     2.4724    -0.0337     0.2615   -27.9306    95.2664     7.7322     5.8128     5.3953   -95.1232
 2183.0000     8.1400     2.4724    -0.0338     0.2680   -27.5318    97.6807     6.9142     5.3948     5.1013   -94.9231
 2183.5000     8.1584     2.4703    -0.0339     0.2848   -27.3342   102.5185     6.1827     5.1479     4.7784   -94.7230
 2184.0000     8.0570     2.4642    -0.0017     0.2944   -27.1365   109.7798     5.9556     5.0050     4.6027   -94.5230
 2184.5000     8.1164     2.4571    -0.0078     0.2956   -26.9388   116.6373     5.6312     4.9576     4.6017   -94.3229
 2185.0000     8.0346     2.4469     0.0022     0.2969   -26.7411   119.0520     5.4748     4.9104     4.6870   -94.1228
 2185.5000     8.0540     2.4368     0.0182     0.2961   -26.5433   117.4276     5.7342     4.9093     4.8183   -93.9227
 2186.0000     8.1330     2.4357     0.0343     0.2845   -26.7461   114.9953     5.9503     4.9083     4.8177  -103.8323
 2186.5000     8.1117     2.4478    -0.0042     0.2767   -27.3597   110.5433     7.4370     4.9072     4.8619  -103.5923
 2187.0000     8.1110     2.4750    -0.0225     0.2884   -27.9698   109.7249     7.7894     4.9062     4.9521  -103.3923
 2187.5000     8.1095     2.4861    -0.0065     0.3010   -28.1761   112.5435     7.7156     4.9512     4.9973   -93.0824
 2188.0000     8.1278     2.4901    -0.0025     0.3097   -28.3823   116.1705     6.5858     4.9500     4.9967  -102.9922
 2188.5000     8.1273     2.4910     0.0115     0.3156   -28.1846   114.5495     6.1122     4.9489     4.9952   -92.6822
 2189.0000     8.1267     2.4910     0.0336     0.3176   -27.9869   112.9209     6.1109     4.9478     4.9941   -92.4821
 2189.5000     8.1251     2.4869     0.0477     0.3164   -27.7900   112.9121     6.3412     4.9468     4.9931   -92.2820
 2190.0000     8.1240     2.4626     0.0334     0.3136   -27.5931   115.7309     6.4589     4.9922     4.9920  -112.3021
