~VERSION INFORMATION
 VERS.                2.0:   CWLS LOG ASCII STANDARD - VERSION 2.0
 WRAP.                 NO:   ONE LINE PER DEPTH STEP
~WELL INFORMATION
#MNEM.UNIT      DATA TYPE    INFORMATION
#----------   ------------   ------------------------------
 STRT.F          224.0000:   START DEPTH
 STOP.F         2912.0000:   STOP DEPTH
 STEP.F            0.5000:   STEP LENGTH
 NULL.          -999.2500:   NO VALUE
 COMP.    FENIX & SCISSON:   COMPANY
 WELL. FENIX & SCISSON NPR 34 "A" #3-21:   WELL
 FLD .             NPR #3:   FIELD
 LOC .      S21 T39N R78W:   LOCATION
 CNTY.            NATRONA:   COUNTY
 STAT.            WYOMING:   STATE
 CTRY. UNITED STATES OF AMERICA:   COUNTRY
 SRVC.              WELEX:   SERVICE COMPANY
 DATE.        15-JUL-1977:   LOGDATE
 API .     49025103970000:   API NUMBER
~CURVE INFORMATION
#MNEM.UNIT       API CODE    CURVE DESCRIPTION
#----------   ------------   ------------------------------
 DEPT.F                  :   
 CALD.IN     45 280 60 00:   CALIPER FROM DENSITY LOG
 CORR.G/C3   45 356 01 00:   DENSITY CORRECTION
 RHOB.G/C3   45 350 01 00:   BULK DENSITY
 GRD .GAPI   45 310 01 00:   GAMMA RAY FROM DENSITY LOG
 SPR .MV     07 010 01 00:   SPONTANEOUS POTENTIAL
 ILD .OHMM   07 120 46 00:   DEEP INDUCTION RESISTIVITY
 ILM .OHMM   07 120 44 00:   INDUCTION LOG MEDIUM RESISTIVITY
 SGRD.OHMM   07 220 05 00:   SHALLOW SHORT GUARD RESISTIVITY
~PARAMETER INFORMATION
#MNEM.UNIT          VALUE    DESCRIPTION
#----------   ------------   ------------------------------
 EKB .F         4921.0000:   Kelly bushing
 EGL .F         4911.0000:   Ground level
 TD  .F         2914.0000:   Total depth
 CLNT.            A2DTECH:   Client Code
 SL  . 2310' FNL & 1650' FWL:   Surface Location
 DATE.        15-JUL-1977:   Date Logged [DD-MMM-YYYY]
 DD  .F              2900:   Depth driller
 DL  .F              2914:   Depth logger
 BLI .F              2912:   Bottom log interval
 TLI .F               218:   Top log interval
 CS1 .              8.625:   Casing size
 CBD1.      8.625" @ 230':   Casing driller 1
 CBL1.IN              226:   Casing logger 1
 BS1 .IN            7.875:   Bit size
 BSD1.F              2900:   Depth drilled with bit1
 DFT .                KCL:   Type fluid in hole
 DFD .                8.9:   Density
 DFV .               1.42:   Viscosity
 DFPH.                7.5:   pH
 DFL .               19.6:   Fluid loss
 MSS .            MUD PIT:   Source of sample
 RMS .OHMM           3.75:   Rm
 MST .F                83:   Rm Meas. temp.
 RMF .OHMM           3.40:   Rmf
 MFST.F                83:   Rmf Meas. temp.
 MFSS.           MEASURED:   Source Rmf.
 RMC .OHMM            9.0:   Rmc
 MCST.F                83:   Rmc Meas. temp.
 MCSS.           MEASURED:   Source Rmc.
 RMB .OHMM           2.80:   Rm. at BHT
 BHT .F               111:   BHT.
 TCS .HRS               3:   Time Circ. stopped
 MRT .F               111:   Maximum recorded temp.
 LUN .               8766:   Logging unit number
 LUL .             CASPER:   Logging unit location
 ENGI.          T. JOYNER:   Recorded By
 WITN.     MR. PETTINGILL:   Witnessed by
 ORIG.           5" PRINT:   Origin of data
 UWI .     49025103970000:   Unique Well ID
 DICO. A2D TECHNOLOGIES, INC.:   Digitizing Company
 PD  .                 GL:   Permanent Datum
 EPD .F              4911:   Elevation Permanent Datum
 LMF .                 KB:   Log Measured From
 DMF .                 KB:   Drilling Measured From
 DAPD.F                10:   Feet Above Permanent Datum
~OTHER INFORMATION
~A   DEPT      CALD        CORR       RHOB       GRD       SPR        ILD        ILM       SGRD   
# ...
  386.0000     9.4733     0.0311     2.4112    87.2799   -56.7062     8.0690     8.5068     9.5016
  386.5000     9.4911     0.0312     2.4091    88.0477   -57.1363     8.1284     8.5115     9.5081
  387.0000     9.5095     0.0328     2.4204    87.6180   -58.3104     8.1318     8.5752     9.5146
  387.5000     9.5124     0.0329     2.4257    86.5824   -58.7446     8.1351     8.5799     9.5212
  388.0000     9.5302     0.0345     2.4235    86.6667   -58.2777     8.1385     8.6442     9.4622
  388.5000     9.5480     0.0347     2.4274    87.2500   -56.9221     8.1419     8.5882     9.3389
  389.0000     9.5658     0.0348     2.4334    87.1239   -57.7986     8.0882     8.5349     9.2171
  389.5000     9.5839     0.0334     2.4373    86.8557   -59.8656     8.0924     8.5396     9.1600
  390.0000     9.6015     0.0336     2.4403    87.6234   -58.5100     8.0391     8.4843     9.0406
  390.5000     9.6044     0.0337     2.4427    88.3910   -56.8608     7.9870     8.3725     8.9798
  391.0000     9.6371     0.0353     2.4450    88.2599   -58.7749     7.9911     8.2621     8.8675
  391.5000     9.6401     0.0384     2.4496    88.2894   -58.4610     7.9393     8.2678     8.8125
  392.0000     9.6579     0.0430     2.4534    89.0570   -56.9565     7.8878     8.3297     8.8188
  392.5000     9.6608     0.0446     2.4587    89.6759   -57.9819     7.8358     8.3343     8.8249
  393.0000     9.6648     0.0447     2.4633    90.1459   -58.2672     7.7850     8.2803     8.8921
  393.5000     9.6518     0.0464     2.4626    90.0148   -56.3123     7.6820     8.1161     8.9599
  394.0000     9.6250     0.0465     2.4530    89.7407   -57.4864     7.5795     8.0091     8.9768
  394.5000     9.6119     0.0451     2.4419    89.6155   -58.3670     7.5303     7.9572     9.0345
  395.0000     9.5862     0.0422     2.4367    90.2403   -56.7097     7.4299     7.9068     9.0420
  395.5000     9.5717     0.0408     2.4446    90.8591   -56.0981     7.3817     8.0223     9.0482
  396.0000     9.5623     0.0425     2.4407    91.7755   -56.9746     7.3848     8.0267     9.0544
  396.5000     9.5504     0.0396     2.4281    92.9837   -57.4088     7.3879     8.0868     9.0606
  397.0000     9.5541     0.0337     2.4207    92.2692   -57.3884     7.3909     8.0913     9.1297
  397.5000     9.5570     0.0339     2.4133    91.8463   -56.9256     7.3429     8.0957     9.2630
  398.0000     9.5599     0.0384     2.4156    90.9771   -55.8676     7.3460     8.1002     9.3336
  398.5000     9.5480     0.0416     2.4232    89.6614   -56.8929     7.3491     8.1047     9.3400
  399.0000     9.5509     0.0462     2.4293    88.1969   -57.1783     7.3521     8.1091     9.4112
  399.5000     9.5382     0.0463     2.4279    87.4764   -55.9674     7.4062     8.1136     9.5486
  400.0000     9.5263     0.0464     2.4249    87.5000   -55.5046     7.4607     8.1181     9.6214
  400.5000     9.5154     0.0465     2.4258    88.1190   -56.3811     7.5156     8.1225     9.5601
  401.0000     9.4886     0.0451     2.4191    88.1424   -56.8153     7.5709     8.1270     9.5009
  401.5000     9.4759     0.0438     2.4162    86.0343   -55.6044     7.6267     8.1315     9.5091
  402.0000     9.4640     0.0424     2.4233    85.9575   -57.2290     7.6829     8.1360     9.5815
  402.5000     9.4521     0.0427     2.4255    86.4275   -55.7205     7.7932     8.1404     9.6546
  403.0000     9.4558     0.0413     2.4346    85.4153   -55.7042     7.8506     8.1449     9.7282
  403.5000     9.4587     0.0370     2.4428    83.6515   -56.5807     7.9083     8.2059     9.8702
  404.0000     9.4617     0.0311     2.4327    82.3359   -56.7172     8.0293     8.3247     9.9454
  404.5000     9.4646     0.0238     2.4256    83.1035   -55.6551     8.1455     8.4451    10.0212
  405.0000     9.4676     0.0165     2.4205    83.8712   -57.1269     8.3111     8.5674    10.0976
  405.5000     9.4706     0.0106     2.4192    84.4901   -56.6641     8.4412     8.6914    10.1046
  406.0000     9.4586     0.0183     2.4231    84.8113   -55.6061     8.6116     8.8172    10.1115
  406.5000     9.4616     0.0304     2.4314    85.2814   -57.3755     8.7353     8.9880    10.1185
  407.0000     9.4489     0.0410     2.4456    85.4538   -57.9585     8.8607     9.2099    10.1938
  407.5000     9.4526     0.0487     2.4577    85.4775   -56.8964     8.9878     9.2156    10.0511
  408.0000     9.4556     0.0548     2.4645    85.6499   -55.8384     9.0540     9.1578    10.0588
  408.5000     9.4437     0.0595     2.4683    85.6735   -55.5285     9.0577     9.1635    10.1347
  409.0000     9.4466     0.0641     2.4721    85.6972   -57.0002     9.2222     9.2327    10.3532
  409.5000     9.4340     0.0657     2.4745    85.7346   -56.8310     9.2279     9.2385    10.5036
  410.0000     9.4377     0.0612     2.4409    85.1492   -56.3682     9.2337     9.3083    10.5101
  410.5000     9.4406     0.0538     2.4343    84.1312   -56.3519     9.3035     9.3786    10.5165
  411.0000     9.4436     0.0462     2.4314    83.8572   -56.3355     9.3093     9.5150    10.4490
  411.5000     9.4466     0.0424     2.4322    83.8809   -56.3192     9.4449     9.7203    10.2411
  412.0000     9.4495     0.0500     2.4413    83.9047   -56.3922     9.5824     9.9301    10.1769
  412.5000     9.4525     0.0532     2.4474    83.9286   -56.4379     9.7220    10.0745    10.3263
  413.0000     9.4557     0.0548     2.4504    83.9524   -56.4101     9.8636    10.2210    10.5489
  413.5000     9.4586     0.0505     2.4453    83.9753   -56.0904     9.9382    10.2273    10.7763
  414.0000     9.4616     0.0446     2.4275    83.4037   -56.0682    10.0134    10.3046    10.8577
  414.5000     9.4646     0.0388     2.4253    83.1357   -56.0460    10.0892    10.3110    10.9396
  415.0000     9.4675     0.0389     2.4291    82.8558   -56.1782    10.1655    10.3174    10.9464
  415.5000     9.4705     0.0436     2.4352    82.2901   -56.3048    10.1718    10.2525    10.9531
  416.0000     9.4883     0.0512     2.4368    81.5697   -56.4315    10.1781    10.2590    10.9598
  416.5000     9.4913     0.0499     2.4302    80.5516   -56.5581    10.1844    10.2654    10.9666
  417.0000     9.4786     0.0440     2.4228    80.1288   -56.3816    10.1907    10.2008    10.9733
  417.5000     9.4823     0.0397     2.4064    80.1525   -56.3594    10.1970    10.1371    10.9802
  418.0000     9.4697     0.0458     2.4192    80.6225   -56.1884    10.2033    10.1433    10.9870
  418.5000     9.4585     0.0520     2.4327    81.3902   -55.8686    10.2096    10.0796    11.0701
  419.0000     9.4614     0.0521     2.4366    82.4555   -55.6976    10.2159    10.0860    11.1536
  419.5000     9.4644     0.0507     2.4374    83.2232   -55.6755    10.2224    10.1622    11.3955
  420.0000     9.4524     0.0494     2.4367    83.5385   -55.8021    10.2287    10.1685    11.5611
  420.5000     9.4554     0.0480     2.4361    82.3776   -56.2319    10.2351    10.2453    11.7290
  421.0000     9.4584     0.0467     2.4347    81.3595   -56.3530    10.2415    10.3229    11.8176
  421.5000     9.4614     0.0469     2.4318    80.1927   -56.3308    10.3906    10.4730    11.9068
  422.0000     9.4643     0.0470     2.4281    79.3235   -56.4583    10.4693    10.6253    11.9141
  422.5000     9.4673     0.0456     2.4252    78.3054   -56.5848    10.5499    10.7056    11.8394
  423.0000     9.4702     0.0428     2.4224    77.1386   -56.2643    10.7035    10.7197    11.8467
  423.5000     9.4583     0.0414     2.4217    75.5253   -56.0933    10.7845    10.7933    11.6896
  424.0000     9.4613     0.0386     2.4278    74.9478   -56.2202    10.7912    10.8000    11.5364
  424.5000     9.4494     0.0358     2.4311    76.7631   -56.1978    10.7979    10.7320    11.4641
  425.0000     9.4524     0.0344     2.4219    78.2748   -56.1756    10.8046    10.7387    11.3922
  425.5000     9.4558     0.0316     2.4273    78.4668   -56.3022    10.8112    10.6714    11.4010
  426.0000     9.4431     0.0287     2.4318    78.1726   -56.4289    10.7417    10.6044    11.3277
