~VERSION INFORMATION
 VERS.                2.0:   CWLS LOG ASCII STANDARD - VERSION 2.0
 WRAP.                 NO:   ONE LINE PER DEPTH STEP
~WELL INFORMATION
#MNEM.UNIT      DATA TYPE    INFORMATION
#----------   ------------   ------------------------------
 STRT.F          206.0000:   START DEPTH
 STOP.F         3218.0000:   STOP DEPTH
 STEP.F            0.5000:   STEP LENGTH
 NULL.          -999.2500:   NO VALUE
 COMP.    FENIX & SCISSON:   COMPANY
 WELL.     FENIX AX #16-2:   WELL
 FLD .              NPR 3:   FIELD
 LOC .       S2 T38N R78W:   LOCATION
 CNTY.            NATRONA:   COUNTY
 STAT.            WYOMING:   STATE
 CTRY. UNITED STATES OF AMERICA:   COUNTRY
 SRVC.       SCHLUMBERGER:   SERVICE COMPANY
 DATE.        10-OCT-1977:   LOGDATE
 API .     49025105780000:   API NUMBER
~CURVE INFORMATION
#MNEM.UNIT       API CODE    CURVE DESCRIPTION
#----------   ------------   ------------------------------
 DEPT.F                  :   
 GRD .GAPI   45 310 01 00:   GAMMA RAY FROM DENSITY LOG
 CALD.IN     45 280 60 00:   CALIPER FROM DENSITY LOG
 RHOB.G/C3   45 350 01 00:   BULK DENSITY
 CORR.G/C3   45 356 01 00:   DENSITY CORRECTION
 SPR .MV     07 010 01 00:   SPONTANEOUS POTENTIAL FROM RES.
 RILD.OHMM   07 120 46 00:   DEEP INDUCTION RESISTIVITY
 RILM.OHMM   07 120 44 00:   INDUCTION LOG MEDIUM RESISTIVITY
 RLL8.OHMM   07 220 08 00:   LATEROLOG-8 RES.
~PARAMETER INFORMATION
#MNEM.UNIT          VALUE    DESCRIPTION
#----------   ------------   ------------------------------
 EKB .F         5123.0000:   Kelly bushing
 EGL .F         5113.0000:   Ground level
 EDF .F            0.0000:   Drilling floor
 TD  .F         3220.0000:   Total depth
 CLNT.            A2DTECH:   Client Code
 SL  . 1772' FSL & 576' FWL:   Surface Location
 PD  .                 GL:   Permanent Datum
 EPD .F              5113:   Elevation Permanent Datum
 LMF .                 KB:   Log Measured From
 DMF .                 KB:   Drilling Measured From
 DAPD.F                10:   Feet Above Permanent Datum
 DATE.        10-OCT-1977:   Date Logged [DD-MMM-YYYY]
 DD  .F              3220:   Depth driller
 DL  .F              3218:   Depth logger
 BLI .F              3212:   Bottom log interval
 TLI .F               223:   Top log interval
 CS1 .IN            8.625:   Casing size
 CBD1.      8.625" @ 222':   Casing driller 1
 CBL1.F               223:   Casing logger 1
 BS1 .IN            7.875:   Bit size
 BSD1.F              3220:   Depth drilled with bit1
 DFT .                KCL:   Type fluid in hole
 DFD .                8.6:   Density
 DFV .                 32:   Viscosity
 DFPH.                 11:   pH
 MSS .            MUD PIT:   Source of sample
 RMS .OHMM           0.29:   Rm
 MST .F                82:   Rm Meas. temp.
 RMF .OHMM          0.228:   Rmf
 MFST.F                81:   Rmf Meas. temp.
 MFSS.               MEAS:   Source Rmf.
 RMB .OHMM           0.21:   Rm. at BHT
 BHT .F               122:   BHT.
 TCS .HRS            0600:   Time Circ. stopped
 MRT .F               122:   Maximum recorded temp.
 LUN .               5642:   Logging unit number
 ENGI. CHALUPSKY PETERSON:   Recorded By
 WITN.     WES PETTINGILL:   Witnessed by
 ORIG.           5" PRINT:   Origin of data
 UWI .     49025105780000:   Unique Well ID
 DICO. A2D TECHNOLOGIES, INC.:   Digitizing Company
 TLAB.HRS            1000:   Time logger at bottom
 LUL .               CSPR:   Logging unit location
~OTHER INFORMATION
~A   DEPT       GRD      CALD       RHOB       CORR        SPR       RILD       RILM       RLL8   
# ...
  975.5000   106.3829    11.0167     2.5191     0.0031   -61.6667     9.0269     7.8234     9.0014
  976.0000   105.4838    11.0183     2.5160     0.0145   -60.4199     9.0357     7.8328     8.8837
  976.5000   106.5363    11.0349     2.5041     0.0093   -59.9532     9.0445     7.7273     8.8107
  977.0000   108.0392    11.0366     2.5087     0.0064   -59.3215     9.0337     7.6798     8.7749
  977.5000   109.9926    11.0535     2.5147     0.0034   -59.5266     8.9954     7.6325     8.7872
  978.0000   110.5943    11.0551     2.5109     0.0028   -59.7629     8.9401     7.6418     8.7970
  978.5000   107.4430    11.0567     2.5034     0.0059   -60.4256     8.9510     7.6493     8.8068
  979.0000   104.5916    11.0733     2.5012     0.0127   -61.1463     9.0240     7.6568     8.8168
  979.5000   104.1426    11.0749     2.5109     0.0219   -61.9208     9.0978     7.6642     8.8268
  980.0000   106.0964    11.0765     2.5215     0.0204   -62.7535     9.1087     7.6171     8.8389
  980.5000   106.2480    11.0631     2.5177     0.0160   -63.5881     9.0526     7.5703     8.8488
  981.0000   106.6999    11.0648     2.5147     0.0055   -64.6004     8.9969     7.4720     8.7957
  981.5000   107.7524    11.0513     2.5185     0.0086   -65.1203     8.9416     7.4780     8.8055
  982.0000   111.3575    11.0379     2.5215    -0.0011   -65.6563     8.8866     7.4855     8.7502
  982.5000   113.0106    11.0399     2.5177     0.0015   -66.7970     8.8953     7.4939     8.7624
  983.0000   110.9099    11.0415     2.5132     0.0074   -67.3522     8.7755     7.5012     8.7722
  983.5000   106.5272    11.0431     2.5178     0.0105   -67.4780     8.7235     7.5085     8.8450
  984.0000   105.3334    11.0447     2.5264     0.0173   -67.2352     8.6700     7.5158     8.8549
  984.5000   104.1579    11.0463     2.5313     0.0212   -66.7682     8.6787     7.5230     8.8017
  985.0000   103.4083    11.0458     2.5260     0.0205   -65.6501     8.6250     7.5305     8.7490
  985.5000   106.1128    11.0432     2.5133     0.0176   -64.1562     8.5110     7.5381     8.6963
  986.0000   109.4175    11.0405     2.5028     0.0109   -62.5950     8.4607     7.5471     8.7067
  986.5000   110.4701    11.0379     2.4916     0.0004   -61.1308     8.4689     7.4988     8.6562
  987.0000   110.0211    11.0399     2.4901    -0.0040   -60.1630     8.4148     7.5607     8.6635
  987.5000   108.3709    11.0415     2.4908    -0.0002   -59.4582     8.4250     7.5692     8.6115
  988.0000   110.2644    11.0431     2.4938     0.0022   -59.3170     8.4333     7.5766     8.6235
  988.5000   113.1790    11.0597     2.4968     0.0053   -60.0895     8.4415     7.5282     8.5945
  989.0000   114.6819    11.0613     2.5028     0.0091   -60.6646     8.4498     7.5374     8.5211
  989.5000   115.8846    11.0629     2.5118     0.0175   -61.3110     8.4583     7.5447     8.5306
  990.0000   112.4326    11.0645     2.5118     0.0221   -61.5994     8.5275     7.4983     8.4503
  990.5000   108.5301    11.0661     2.5096     0.0139   -61.9341     8.5373     7.5056     8.4278
  991.0000   106.5796    11.0678     2.5089     0.0064   -61.9402     8.4827     7.4064     8.4379
  991.5000   106.5811    11.0697     2.5106     0.0050   -62.9560     8.5540     7.3102     8.4470
  992.0000   107.3574    11.0713     2.5254     0.0172   -65.8657     8.5007     7.2135     8.5174
  992.5000   109.2871    11.0729     2.5269     0.0165   -67.4935     8.5097     7.2205     8.5285
  993.0000   110.1894    11.0895     2.5081     0.0045   -68.7233     8.4571     7.2794     8.5368
  993.5000   110.7911    11.0757     2.5119     0.0091   -69.1059     8.4656     7.3388     8.4844
  994.0000   104.3365    11.0927     2.5179     0.0092   -68.2583     8.4740     7.4517     8.5580
  994.5000   103.7370    11.0943     2.5209     0.0063   -67.3235     8.5450     7.4589     8.5661
  995.0000   105.3905    11.0960     2.5118     0.0063   -66.7304     8.5533     7.5198     8.5759
  995.5000   105.9925    11.0979     2.4968     0.0049   -65.9090     8.6231     7.5273     8.5859
  996.0000   105.8319    11.0995     2.4962    -0.0027   -64.8773     8.6305     7.4808     8.5343
  996.5000   104.9444    11.1011     2.5014    -0.0040   -63.2435     8.6399     7.4348     8.5441
  997.0000   105.3967    11.1027     2.5045     0.0044   -61.7349     8.6483     7.3383     8.5539
  997.5000   105.2480    11.1043     2.5082     0.0053   -60.9447     8.5931     7.2913     8.5655
  998.0000   102.2464    11.1209     2.5120     0.0038   -60.1701     8.5421     7.2465     8.5750
  998.5000   101.4968    11.1225     2.5037    -0.0006   -59.9710     8.4293     7.2019     8.5832
  999.0000   104.5016    11.1255     2.4977    -0.0119   -59.9379     8.4375     7.1576     8.5930
  999.5000   105.4039    11.1411     2.5045    -0.0110   -60.1837     8.3259     7.1152     8.6039
 1000.0000   106.3063    11.1427     2.5127    -0.0064   -60.5289     8.2747     7.0716     8.4318
 1000.5000   109.3892    11.1743     2.5247     0.0164   -61.5373     8.1693     7.1316     8.3793
 1001.0000   110.3061    11.1638     2.5233     0.0231   -62.3240     8.0606     7.0868     8.3296
 1001.5000   110.0040    11.1516     2.5188     0.0179   -63.1088     8.0128     7.0442     8.1651
 1002.0000   106.1474    11.1471     2.5173     0.0134   -63.9336     7.9085     7.0019     8.0016
 1002.5000   103.1255    11.1486     2.5210     0.0187   -64.8937     7.8056     6.9598     7.8952
 1003.0000   104.4877    11.1797     2.5195     0.0173   -65.5080     7.8733     6.9196     7.7391
 1003.5000   106.1471    11.1959     2.5165     0.0075   -66.2899     8.1112     6.8782     7.6933
 1004.0000   108.7061    11.1971     2.5151     0.0008   -66.9958     8.2378     6.8861     7.9258
 1004.5000   110.8153    11.1982     2.5166     0.0039   -67.2898     8.1889     6.8940     8.1174
 1005.0000   111.5752    11.1994     2.5218     0.0108   -67.4969     8.1403     6.9019     8.1771
 1005.5000   112.7848    11.2156     2.5263     0.0234   -67.0999     8.0920     6.8601     8.1868
 1006.0000   113.6946    11.2168     2.5278     0.0184   -66.4041     8.0440     6.8189     8.0204
 1006.5000   113.8661    11.2182     2.5278     0.0199   -65.2701     8.0560     6.8284     7.8621
 1007.0000   112.2039    11.2194     2.5271     0.0124   -63.4751     8.0082     6.8351     7.8131
 1007.5000   109.1229    11.2356     2.5249     0.0170   -61.5368     8.0177     6.8437     7.7667
 1008.0000   105.3423    11.2367     2.5196     0.0186   -60.9864     8.0273     6.8514     7.7782
 1008.5000   105.0502    11.2529     2.5095     0.0073   -60.3241     8.0369     6.8591     7.7875
 1009.0000   107.3119    11.2541     2.4941     0.0021   -59.9521     8.0645     6.9160     7.7968
 1009.5000   109.4211    11.2552     2.4822    -0.0032   -59.9074     8.1720     6.9734     7.8622
 1010.0000   110.4808    11.2714     2.4972    -0.0038   -60.2651     8.1818     6.9812     8.0440
 1010.5000   110.9408    11.2576     2.5039     0.0098   -60.3483     8.1915     6.9892     8.1113
 1011.0000   111.4008    11.2438     2.5032     0.0144   -60.6513     8.2601     6.9972     8.2377
 1011.5000   111.5610    11.2299     2.5047     0.0106   -61.4223     8.2700     7.0569     8.3066
 1012.0000   110.6717    11.2314     2.5167     0.0024   -62.1778     8.2801     7.0648     8.3164
 1012.5000   108.4208    11.2173     2.5212     0.0085   -62.6945     8.2902     7.1235     8.3263
 1013.0000   108.1435    11.2188     2.5219     0.0146   -63.5315     8.3021     7.0787     8.3362
 1013.5000   108.4561    11.2199     2.5234     0.0176   -64.2152     8.2504     7.0362     8.2274
 1014.0000   109.5133    11.2211     2.5257     0.0222   -64.8629     8.2014     6.9441     8.1206
 1014.5000   108.3984    11.2223     2.5257     0.0165   -66.2409     8.2137     6.8532     7.9559
 1015.0000   107.7364    11.2384     2.5250     0.0087   -66.8411     8.2824     6.9616     7.7842
 1015.5000   107.1469    11.2396     2.5220     0.0179   -67.0848     8.4117     7.1715     7.4827
