~VERSION INFORMATION
 VERS.                2.0:   CWLS LOG ASCII STANDARD - VERSION 2.0
 WRAP.                 NO:   ONE LINE PER DEPTH STEP
~WELL INFORMATION
#MNEM.UNIT      DATA TYPE    INFORMATION
#----------   ------------   ------------------------------
 STRT.F          204.5000:   START DEPTH
 STOP.F         2964.0000:   STOP DEPTH
 STEP.F            0.5000:   STEP LENGTH
 NULL.          -999.2500:   NO VALUE
 COMP.    FENIX & SCISSON:   COMPANY
 WELL. FENIX NPR 3 "AX" #14-28:   WELL
 FLD .  TEAPOT DOME NPR-3:   FIELD
 LOC .      S28 T39N R78W:   LOCATION
 CNTY.            NATRONA:   COUNTY
 STAT.            WYOMING:   STATE
 CTRY. UNITED STATES OF AMERICA:   COUNTRY
 SRVC.           BIRDWELL:   SERVICE COMPANY
 DATE.        24-MAY-1978:   LOGDATE
 API .     49025106450000:   API NUMBER
~CURVE INFORMATION
#MNEM.UNIT       API CODE    CURVE DESCRIPTION
#----------   ------------   ------------------------------
 DEPT.F                  :   
 SPR .MV     05 010 01 00:   SPONTANEOUS POTENTIAL
 CORR.G/C3   45 356 01 00:   DENSITY CORRECTION
 DEN .G/C3   45 350 01 00:   DENSITY
 CALD.IN     45 280 60 00:   CALIPER FROM DENSITY LOG
 GRD .GAPI   45 310 01 00:   GAMMA RAY FROM DENSITY LOG
 SN  .OHMM   05 040 16 00:   SHORT NORMAL 16"
 ILD .OHMM   05 120 46 00:   DEEP INDUCTION RESISTIVITY
~PARAMETER INFORMATION
#MNEM.UNIT          VALUE    DESCRIPTION
#----------   ------------   ------------------------------
 EKB .F         5042.0000:   Kelly bushing
 EGL .F         5032.0000:   Ground level
 EDF .F            0.0000:   Drilling floor
 TD  .F         2957.0000:   Total depth
 DATE.        24-MAY-1978:   Date logged
 CLNT.            A2DTECH:   Client Code
 SL  . 2410' FNL & 280' FWL:   Surface Location
 PD  .                 GL:   Permanent Datum
 EPD .F              5032:   Elevation Permanent Datum
 LMF .                 KB:   Log Measured From
 DMF .                 KB:   Drilling Measured From
 DAPD.F                10:   Feet Above Permanent Datum
 DD  .F              2950:   Depth driller
 DL  .F              2957:   Depth logger
 BLI .F              2951:   Bottom log interval
 TLI .F               225:   Top log interval
 CS1 .IN            8.625:   Casing size
 CBL1.F               225:   Casing logger 1
 BS1 .IN            7.875:   Bit size
 BSD1.F              2950:   Depth drilled with bit1
 DFT .       CHEMICAL GEL:   Type fluid in hole
 DFD .                  9:   Density
 DFV .                 34:   Viscosity
 DFPH.               10.5:   pH
 DFL .                  6:   Fluid loss
 MSS .           FLOWLINE:   Source of sample
 RMS .OHMM            1.5:   Rm
 MST .F                70:   Rm Meas. temp.
 RMF .OHMM            1.1:   Rmf
 MFST.F                78:   Rmf Meas. temp.
 RMC .OHMM            2.8:   Rmc
 MCST.F                72:   Rmc Meas. temp.
 MFSS.               MEAS:   Source Rmf.
 RMB .OHMM           0.95:   Rm. at BHT
 BHT .F               110:   BHT.
 TCS .HRS               2:   Time Circ. stopped
 MRT .F               110:   Maximum recorded temp.
 LUN .               2958:   Logging unit number
 LUL .               CASP:   Logging unit location
 ENGI.             MILLER:   Recorded By
 WITN.            RHOADES:   Witnessed by
 ORIG.           5" PRINT:   Origin of data
 UWI .     49025106450000:   Unique Well ID
 DICO. A2D TECHNOLOGIES, INC.:   Digitizing Company
~OTHER INFORMATION
~A   DEPT      SPR       CORR        DEN       CALD         GRD        SN        ILD   
  204.5000  -999.2500  -999.2500  -999.2500  -999.2500    66.6530  -999.2500  -999.2500
  205.0000  -999.2500  -999.2500  -999.2500  -999.2500    66.6530  -999.2500  -999.2500
  205.5000  -999.2500  -999.2500  -999.2500  -999.2500    66.6030  -999.2500  -999.2500
  206.0000  -999.2500  -999.2500  -999.2500  -999.2500    66.5640  -999.2500  -999.2500
  206.5000  -999.2500  -999.2500  -999.2500  -999.2500    66.5250  -999.2500  -999.2500
  207.0000  -999.2500  -999.2500  -999.2500  -999.2500    66.4870  -999.2500  -999.2500
  207.5000  -999.2500  -999.2500  -999.2500  -999.2500    66.4480  -999.2500  -999.2500
  208.0000  -999.2500  -999.2500  -999.2500  -999.2500    66.4310  -999.2500  -999.2500
  208.5000  -999.2500  -999.2500  -999.2500  -999.2500    66.3850  -999.2500  -999.2500
  209.0000  -999.2500  -999.2500  -999.2500  -999.2500    66.3560  -999.2500  -999.2500
  209.5000  -999.2500  -999.2500  -999.2500  -999.2500    66.3130  -999.2500  -999.2500
  210.0000  -999.2500  -999.2500  -999.2500  -999.2500    66.2410  -999.2500  -999.2500
  210.5000  -999.2500  -999.2500  -999.2500  -999.2500    66.7390  -999.2500  -999.2500
  211.0000  -999.2500  -999.2500  -999.2500  -999.2500    68.0430  -999.2500  -999.2500
  211.5000  -999.2500  -999.2500  -999.2500  -999.2500    69.6850  -999.2500  -999.2500
  212.0000  -999.2500  -999.2500  -999.2500  -999.2500    68.5760  -999.2500  -999.2500
  212.5000  -999.2500  -999.2500  -999.2500  -999.2500    65.9810  -999.2500  -999.2500
  213.0000  -999.2500  -999.2500  -999.2500  -999.2500    66.0460  -999.2500  -999.2500
  213.5000  -999.2500  -999.2500  -999.2500  -999.2500    66.1640  -999.2500  -999.2500
  214.0000  -999.2500  -999.2500  -999.2500  -999.2500    64.9290  -999.2500  -999.2500
  214.5000  -999.2500  -999.2500  -999.2500  -999.2500    63.6680  -999.2500  -999.2500
  215.0000  -999.2500  -999.2500  -999.2500  -999.2500    62.7140  -999.2500  -999.2500
  215.5000  -999.2500  -999.2500  -999.2500  -999.2500    63.9260  -999.2500  -999.2500
  216.0000  -999.2500  -999.2500  -999.2500  -999.2500    64.7230  -999.2500  -999.2500
  216.5000  -999.2500  -999.2500  -999.2500  -999.2500    65.9370  -999.2500  -999.2500
  217.0000  -999.2500  -999.2500  -999.2500  -999.2500    67.0600  -999.2500  -999.2500
  217.5000  -999.2500  -999.2500  -999.2500  -999.2500    72.2510  -999.2500  -999.2500
  218.0000  -999.2500  -999.2500  -999.2500  -999.2500    77.0170  -999.2500  -999.2500
  218.5000  -999.2500  -999.2500  -999.2500  -999.2500    79.4460  -999.2500  -999.2500
  219.0000  -999.2500  -999.2500  -999.2500  -999.2500    78.0620  -999.2500  -999.2500
  219.5000  -999.2500  -999.2500  -999.2500  -999.2500    77.1310  -999.2500  -999.2500
  220.0000  -999.2500  -999.2500  -999.2500  -999.2500    76.1580  -999.2500  -999.2500
  220.5000  -999.2500  -999.2500  -999.2500  -999.2500    75.1620  -999.2500  -999.2500
  221.0000  -999.2500  -999.2500  -999.2500  -999.2500    75.1390  -999.2500  -999.2500
  221.5000  -999.2500  -999.2500  -999.2500  -999.2500    75.0990  -999.2500  -999.2500
  222.0000  -999.2500  -999.2500  -999.2500  -999.2500    75.1620  -999.2500  -999.2500
  222.5000  -999.2500  -999.2500  -999.2500  -999.2500    74.5390  -999.2500  -999.2500
  223.0000  -999.2500  -999.2500  -999.2500  -999.2500    72.7500  -999.2500  -999.2500
  223.5000  -999.2500  -999.2500  -999.2500  -999.2500    71.2160  -999.2500  -999.2500
  224.0000  -999.2500  -999.2500  -999.2500  -999.2500    70.2350  -999.2500  -999.2500
  224.5000  -999.2500  -999.2500  -999.2500  -999.2500    74.4250  -999.2500  -999.2500
  225.0000  -999.2500  -999.2500  -999.2500  -999.2500    77.8030  -999.2500  -999.2500
  225.5000  -999.2500  -999.2500  -999.2500     8.9630    81.4000  -999.2500  -999.2500
  226.0000  -999.2500  -999.2500     2.3880     8.9540    81.2050  -999.2500  -999.2500
  226.5000  -999.2500     0.1060     2.3020     8.9440    81.9630  -999.2500  -999.2500
  227.0000  -999.2500     0.1300     2.2740     8.9340    83.9590  -999.2500  -999.2500
  227.5000  -999.2500     0.1540     2.2450     8.9250    86.1060  -999.2500  -999.2500
  228.0000  -999.2500     0.1470     2.2160     8.9150    86.3780  -999.2500    15.7480
  228.5000  -999.2500     0.1650     2.1870     8.9060    85.3330  -999.2500    15.7480
  229.0000  -999.2500     0.1890     2.1580     8.9010    84.5020  -999.2500    16.0410
  229.5000  -999.2500     0.2050     2.1440     8.8920    83.4240  -999.2500    15.9840
  230.0000     0.2000     0.2120     2.1150     8.8910    84.2390  -999.2500    15.8650
  230.5000     0.2000     0.2550     2.0810     8.8910    86.4980  -999.2500    15.7450
  231.0000     0.2000     0.3690     2.1090     8.8910    87.5730  -999.2500    15.5660
  231.5000     0.2000     0.2890     2.1590     8.8910    86.3430  -999.2500    15.6420
  232.0000     0.2000     0.2570     2.1510     8.8910    85.4510  -999.2500    15.4620
  232.5000     0.2000     0.2700     2.1210     8.8910    84.3550  -999.2500    15.5760
  233.0000     0.2000     0.2810     2.0920     8.8910    83.9750  -999.2500    15.7480
  233.5000    -0.3760     0.2920     2.0680     8.8910    84.0470  -999.2500    15.6330
  234.0000    -7.4030     0.2990     2.0540     8.8910    85.3540  -999.2500    15.2520
  234.5000   -10.3800     0.2980     2.0400     8.8910    85.9970     4.5680    14.8720
  235.0000   -10.2540     0.2980     2.0260     8.8910    85.6220     4.3260    14.3650
  235.5000   -10.3700     0.2980     2.0110     8.8910    86.2470     4.1650    14.4400
  236.0000   -10.4430     0.2980     1.9950     8.8910    86.4020     4.0280    14.5530
  236.5000   -10.4950     0.2990     1.9740     8.8910    85.3810     3.8920    14.6650
  237.0000   -10.5880     0.3110     1.9540     8.8910    84.5120     3.7550    14.7770
  237.5000   -10.5470     0.3210     1.9470     8.8910    83.6560     3.6180    14.8890
  238.0000   -10.4530     0.3320     1.9570     8.8910    84.7290     3.5520    15.0010
  238.5000   -10.3560     0.3440     1.9960     8.8910    87.0190     3.6180    15.1130
  239.0000   -10.2640     0.3410     2.0540     8.8910    89.2830     3.8200    15.1800
  239.5000   -10.3920     0.3090     2.1140     8.8910    90.7120     4.3180    15.1300
  240.0000   -11.2290     0.2800     2.1000     8.8910    90.9890     4.8170    15.0460
  240.5000   -12.1190     0.2550     2.0590     8.8910    91.5840     5.3150    14.9620
  241.0000   -12.7500     0.2540     2.0400     8.8910    90.8390     5.8140    14.8780
  241.5000   -12.9750     0.2530     2.0320     8.8910    89.1910     6.6370    14.7930
  242.0000   -13.2960     0.2530     2.0230     8.8910    88.2010     3.4240    14.7090
  242.5000   -13.2690     0.2520     2.0150     8.8910    89.7880     4.3710    14.6250
  243.0000   -12.9590     0.2520     2.0060     8.8910    90.6880     6.1200    14.5410
  243.5000   -12.6760     0.2510     2.0060     8.8910    89.6010     7.8690    14.4570
  244.0000   -12.8430     0.2510     2.0070     8.8910    88.6620     9.2410    14.3650
  244.5000   -13.0240     0.2500     2.0090     8.8910    87.6840     9.2410    14.3650
  245.0000   -13.0360     0.2500     2.0080     8.8910    87.9970     9.2410    14.3740
  245.5000   -13.0590     0.2500     2.0070     8.8910    88.1760     9.2020    14.4040
  246.0000   -13.0870     0.2490     2.0050     8.8910    89.7960     9.1580    14.4340
  246.5000   -13.1080     0.2490     2.0060     8.8910    92.4400     9.1150    14.4640
  247.0000   -13.1340     0.2480     2.0070     8.8910    95.2070     9.0710    14.4940
  247.5000   -13.1580     0.2480     2.0070     8.8910    95.6340     9.0280    14.5250
  248.0000   -13.1820     0.2470     2.0080     8.8910    92.6940     8.9840    14.5550
  248.5000   -13.2060     0.2470     2.0090     8.8910    90.1410     8.9410    14.5860
  249.0000   -13.2310     0.2460     2.0070     8.8910    88.2000     8.9070    14.6160
  249.5000   -13.2550     0.2460     2.0030     8.8910    89.6150     8.9070    14.6330
