~VERSION INFORMATION
 VERS.                2.0:   CWLS LOG ASCII STANDARD - VERSION 2.0
 WRAP.                 NO:   ONE LINE PER DEPTH STEP
~WELL INFORMATION
#MNEM.UNIT      DATA TYPE    INFORMATION
#----------   ------------   ------------------------------
 STRT.F           46.5000:   START DEPTH
 STOP.F         3160.0000:   STOP DEPTH
 STEP.F            0.5000:   STEP LENGTH
 NULL.          -999.2500:   NO VALUE
 COMP. LAWRENCE ALLISON & WEST:   COMPANY
 WELL. LAWRENCE NPR 3 "AX" #42-34:   WELL
 FLD .                NPR:   FIELD
 LOC .      S34 T39N R78W:   LOCATION
 CNTY.            NATRONA:   COUNTY
 STAT.            WYOMING:   STATE
 CTRY. UNITED STATES OF AMERICA:   COUNTRY
 SRVC.      WESTERN ATLAS:   SERVICE COMPANY
 DATE.        19-OCT-1987:   LOGDATE
 API .     49025111830000:   API NUMBER
~CURVE INFORMATION
#MNEM.UNIT       API CODE    CURVE DESCRIPTION
#----------   ------------   ------------------------------
 DEPT.F                  :   
 CALD.IN     45 280 60 00:   CALIPER FROM DENSITY LOG
 DEN .LBS    45 635 01 00:   BUCK DENSITY
 CORR.G/C3   45 356 01 00:   DENSITY CORRECTION
 NPOR.DEC    42 890 03 00:   ALPHA PROCESSED NEUTRON POROSITY
 SPR .MV     07 010 01 00:   SPONTANEOUS POTENTIAL
 GRR .GAPI   07 310 01 00:   GAMMA RAY FROM RESISTIVITY
 RFOC.OHMM   07 220 04 00:   RESISTIVITY FOCUSED LOG RES.
 RILD.OHMM   07 120 46 00:   DEEP INDUCTION RESISTIVITY
 RILM.OHMM   07 120 44 00:   INDUCTION LOG MEDIUM RESISTIVITY
 TENR.LBS    07 635 01 00:   TENSION FROM RESISTIVITY
~PARAMETER INFORMATION
#MNEM.UNIT          VALUE    DESCRIPTION
#----------   ------------   ------------------------------
 EKB .F         5088.0000:   Kelly bushing
 EGL .F         5077.0000:   Ground level
 EDF .F         5087.0000:   Drilling floor
 TD  .F         3151.0000:   Total depth
 DATE.        19-OCT-1987:   Date logged
 CLNT.            A2DTECH:   Client Code
 SL  . 1032' FNL & 2316' FWL:   Surface Location
 PD  .                 GL:   Permanent Datum
 EPD .F              5077:   Elevation Permanent Datum
 LMF .                 KB:   Log Measured From
 DMF .                 KB:   Drilling Measured From
 DAPD.F                11:   Feet Above Permanent Datum
 DD  .F              3151:   Depth driller
 DL  .F              3151:   Depth logger
 BLI .F              3149:   Bottom log interval
 TLI .F                50:   Top log interval
 CS1 .IN            8.625:   Casing size
 CBD1.      8.625" @ 693':   Casing driller 1
 CBL1.F               693:   Casing logger 1
 BS1 .IN            7.875:   Bit size
 BSD1.F              3151:   Depth drilled with bit1
 DFT .        KCL/POLYMER:   Type fluid in hole
 DFD .                9.2:   Density
 DFV .                 53:   Viscosity
 DFPH.                9.5:   pH
 DFL .               11.8:   Fluid loss
 MSS .            MUD/PIT:   Source of sample
 RMS .OHMM           .441:   Rm
 MST .F                66:   Rm Meas. temp.
 RMF .OHMM           .336:   Rmf
 MFST.F                66:   Rmf Meas. temp.
 RMC .OHMM           .711:   Rmc
 MCST.F                66:   Rmc Meas. temp.
 MFSS.               MEAS:   Source Rmf.
 MCSS.               MEAS:   Source Rmc.
 RMB .OHMM           .244:   Rm. at BHT
 BHT .F               119:   BHT.
 TCS .HRS               3:   Time Circ. stopped
 MRT .F               119:   Maximum recorded temp.
 LUN .            HL-6343:   Logging unit number
 LUL .               CODY:   Logging unit location
 ENGI.               JULL:   Recorded By
 WITN.             STRONG:   Witnessed by
 ORIG.           5" PRINT:   Origin of data
 UWI .     49025111830000:   Unique Well ID
 DICO. A2D TECHNOLOGIES, INC.:   Digitizing Company
~OTHER INFORMATION
~A   DEPT     CALD        DEN       CORR       NPOR        SPR         GRR      RFOC       RILD       RILM       TENR   
# ...
 1051.5000  -999.2500  -999.2500  -999.2500  -999.2500   -12.1353   106.2359     9.0489     7.9709     7.6548   -92.4223
 1052.0000  -999.2500  -999.2500  -999.2500  -999.2500   -12.3413   109.8626     8.9629     8.1186     7.6524   -92.1735
 1052.5000  -999.2500  -999.2500  -999.2500  -999.2500   -12.3452   112.2789     8.7146     8.1157     7.6505   -91.9246
 1053.0000  -999.2500  -999.2500  -999.2500  -999.2500   -12.3460   112.6750     8.4722     8.1899     7.6485   -91.6260
 1053.5000  -999.2500  -999.2500  -999.2500  -999.2500   -12.1511   114.2832     8.3917     8.1882     7.6465  -101.4836
 1054.0000  -999.2500  -999.2500  -999.2500  -999.2500   -12.3571   115.4914     8.3895     8.1862     7.6450  -111.3413
 1054.5000  -999.2500  -999.2500  -999.2500  -999.2500   -12.7651   110.6310     8.5448     8.3378     7.6426  -100.9861
 1055.0000  -999.2500  -999.2500  -999.2500  -999.2500   -12.7691   108.1989     8.8659     8.5713     7.6407  -100.7373
 1055.5000  -999.2500  -999.2500  -999.2500  -999.2500   -12.7731   108.9990     9.0300     8.7302     7.6387  -100.4885
 1056.0000  -999.2500  -999.2500  -999.2500  -999.2500   -12.7770   111.0121     9.1121     8.7279     7.6364  -100.2397
 1056.5000  -999.2500  -999.2500  -999.2500  -999.2500   -12.7818   106.9630     8.8073     8.7257     7.6344   -99.9909
 1057.0000  -999.2500  -999.2500  -999.2500  -999.2500   -12.9862   105.7430     8.5626     8.4833     7.6325   -99.7421
 1057.5000  -999.2500  -999.2500  -999.2500  -999.2500   -13.3958   106.5415     8.5604     8.3246     7.6305   -99.4933
 1058.0000  -999.2500  -999.2500  -999.2500  -999.2500   -13.6017   109.3618     8.5582     8.3225     7.6290   -89.0878
 1058.5000  -999.2500  -999.2500  -999.2500  -999.2500   -13.8077   111.7781     8.7168     8.5560     7.6266   -88.8390
 1059.0000  -999.2500  -999.2500  -999.2500  -999.2500   -13.8117   110.9621     8.8784     8.6338     7.5541   -88.5901
 1059.5000  -999.2500  -999.2500  -999.2500  -999.2500   -13.6136   105.7017     8.9591     8.7124     7.5526   -88.3412
 1060.0000  -999.2500  -999.2500  -999.2500  -999.2500   -13.0116   102.4640     9.0406     8.7101     7.4800   -98.1995
 1060.5000  -999.2500  -999.2500  -999.2500  -999.2500   -12.8135   105.6858     8.9536     8.5469     7.4781  -108.0578
 1061.0000  -999.2500  -999.2500  -999.2500  -999.2500   -12.6155   109.3142     8.9518     8.3093     7.4069  -118.0157
 1061.5000  -999.2500  -999.2500  -999.2500  -999.2500   -12.9102   111.7297     8.7030     8.1540     7.3365   -97.4530
 1062.0000  -999.2500  -999.2500  -999.2500  -999.2500   -13.0282   111.7250     8.3828     8.0015     7.2667   -97.2042
 1062.5000  -999.2500  -999.2500  -999.2500  -999.2500   -13.0322   104.8445     8.1984     7.9983     7.2649   -86.8480
 1063.0000  -999.2500  -999.2500  -999.2500  -999.2500   -12.8341   104.0341     8.1205     7.7760     7.2630   -86.5991
 1063.5000  -999.2500  -999.2500  -999.2500  -999.2500   -12.4341   108.8689     8.1184     7.9213     7.2612   -96.4079
 1064.0000  -999.2500  -999.2500  -999.2500  -999.2500   -12.4380   109.6731     8.3460     7.8459     7.3271   -96.1591
 1064.5000  -999.2500  -999.2500  -999.2500  -999.2500   -12.4420   104.8127     8.6600     7.8439     7.4628   -95.9102
 1065.0000  -999.2500  -999.2500  -999.2500  -999.2500   -12.6480   103.5927     8.7387     7.8419     7.6009   -95.6614
 1065.5000  -999.2500  -999.2500  -999.2500  -999.2500   -12.6488   103.9888     8.8177     7.9128     7.6696   -95.4125
 1066.0000  -999.2500  -999.2500  -999.2500  -999.2500   -13.4640   104.7889     8.8154     7.9950     7.6676  -125.4868
 1066.5000  -999.2500  -999.2500  -999.2500  -999.2500   -13.8720   105.1850     8.8132     8.0578     7.6660   -94.9148
 1067.0000  -999.2500  -999.2500  -999.2500  -999.2500   -14.2808   105.5811     8.8109     8.2067     7.6641   -94.6660
 1067.5000  -999.2500  -999.2500  -999.2500  -999.2500   -14.4867   107.1893     8.8087     8.2814     7.6617   -94.4171
 1068.0000  -999.2500  -999.2500  -999.2500  -999.2500   -14.2887   106.7774     8.8887     8.2792     7.6602   -94.1683
 1068.5000  -999.2500  -999.2500  -999.2500  -999.2500   -14.6967   103.9396     8.8864     8.0491     7.6578   -93.8697
 1069.0000  -999.2500  -999.2500  -999.2500  -999.2500   -14.7006   104.3357     8.9672     7.9725     7.6562   -93.6208
 1069.5000  -999.2500  -999.2500  -999.2500  -999.2500   -14.9058   107.1560     8.9649     7.9702     7.6539   -93.3719
 1070.0000  -999.2500  -999.2500  -999.2500  -999.2500   -14.9106   110.7844     8.9626     7.9689     7.6523   -93.1231
 1070.5000  -999.2500  -999.2500  -999.2500  -999.2500   -15.1166   108.7563     8.9603     7.9664     7.6500   -92.8742
 1071.0000  -999.2500  -999.2500  -999.2500  -999.2500   -14.9185   107.1322     8.9576     7.9640     7.7191  -112.8417
 1071.5000  -999.2500  -999.2500  -999.2500  -999.2500   -14.5185   107.9323     8.9553     8.1874     7.7171  -112.5930
 1072.0000  -999.2500  -999.2500  -999.2500  -999.2500   -13.9172   107.1163     8.9530     8.1458     7.7155  -122.4525
 1072.5000  -999.2500  -999.2500  -999.2500  -999.2500   -13.5171   101.4528     8.9507     8.1074     7.7852  -101.9870
 1073.0000  -999.2500  -999.2500  -999.2500  -999.2500   -13.5211   101.4480     8.9484     8.1053     7.7832   -91.7294
 1073.5000  -999.2500  -999.2500  -999.2500  -999.2500   -13.5250   106.2829     8.9462     8.1033     7.7817   -91.3809
 1074.0000  -999.2500  -999.2500  -999.2500  -999.2500   -13.5290   111.1233     8.9439     8.1012     7.7793  -111.2495
 1074.5000  -999.2500  -999.2500  -999.2500  -999.2500   -13.9370   117.1759     8.9416     8.0995     7.7761  -100.9419
 1075.0000  -999.2500  -999.2500  -999.2500  -999.2500   -13.7389   116.3599     9.0228     8.1728     7.7746  -100.6931
 1075.5000  -999.2500  -999.2500  -999.2500  -999.2500   -13.5409   114.3318     9.0205     8.2471     7.7733  -100.4442
 1076.0000  -999.2500  -999.2500  -999.2500  -999.2500   -13.1408   111.4956     9.0182     8.2446     7.7709  -100.1954
 1076.5000  -999.2500  -999.2500  -999.2500  -999.2500   -13.3468   109.4675     9.0155     8.3974     7.7689   -99.9466
 1077.0000  -999.2500  -999.2500  -999.2500  -999.2500   -13.5528   109.4596     9.0132     8.3953     7.7669   -99.6977
 1077.5000  -999.2500  -999.2500  -999.2500  -999.2500   -13.9616   109.4517     9.0109     8.2383     7.7654   -89.3400
 1078.0000  -999.2500  -999.2500  -999.2500  -999.2500   -14.3696   111.0599     9.0928     8.0093     7.7207   -89.0911
 1078.5000  -999.2500  -999.2500  -999.2500  -999.2500   -13.3635   111.0519     9.0905     7.9330     7.6895   -98.9511
 1079.0000  -999.2500  -999.2500  -999.2500  -999.2500   -12.9634   109.8303     9.0881     7.9310     7.6872   -98.6525
 1079.5000  -999.2500  -999.2500  -999.2500  -999.2500   -12.7653   108.2119     9.0858     7.9290     7.6852   -98.4036
 1080.0000  -999.2500  -999.2500  -999.2500  -999.2500   -13.3754   108.6064     8.9166     8.0760     7.6832  -138.5913
 1080.5000  -999.2500  -999.2500  -999.2500  -999.2500   -12.7733   111.0227     8.9136     8.0739     7.6817   -97.9059
 1081.0000  -999.2500  -999.2500  -999.2500  -999.2500   -12.9793   113.4349     8.9116     8.0718     7.6797   -97.6570
 1081.5000  -999.2500  -999.2500  -999.2500  -999.2500   -13.3873   112.6189     8.9088     8.0694     7.6770   -97.4081
 1082.0000  -999.2500  -999.2500  -999.2500  -999.2500   -13.9989   109.7820     8.9070     8.0677     7.7471   -97.1593
 1082.5000  -999.2500  -999.2500  -999.2500  -999.2500   -14.0024   109.7748     8.9043     8.0656     7.6730  -107.0198
 1083.0000  -999.2500  -999.2500  -999.2500  -999.2500   -14.0060   112.1911     8.9020     8.0632     7.6710   -96.6615
 1083.5000  -999.2500  -999.2500  -999.2500  -999.2500   -14.2120   114.2033     8.8997     8.0611     7.6690   -96.4126
 1084.0000  -999.2500  -999.2500  -999.2500  -999.2500   -13.4079   114.5994     8.8151     8.0595     7.6671   -96.1637
 1084.5000  -999.2500  -999.2500  -999.2500  -999.2500   -13.6139   114.9955     8.8128     8.0570     7.6652   -95.8651
