~VERSION INFORMATION
 VERS.                2.0:   CWLS LOG ASCII STANDARD - VERSION 2.0
 WRAP.                 NO:   ONE LINE PER DEPTH STEP
~WELL INFORMATION
#MNEM.UNIT      DATA TYPE    INFORMATION
#----------   ------------   ------------------------------
 STRT.F            9.5000:   START DEPTH
 STOP.F         3154.0000:   STOP DEPTH
 STEP.F            0.5000:   STEP LENGTH
 NULL.          -999.2500:   NO VALUE
 COMP. LAWRENCE ALISON AND ASSOCIATES:   COMPANY
 WELL. LAWRENCE "X" #86-3:   WELL
 FLD .          N.P.R. #3:   FIELD
 LOC .       S3 T38N R78W:   LOCATION
 CNTY.            NATRONA:   COUNTY
 STAT.            WYOMING:   STATE
 CTRY. UNITED STATES OF AMERICA:   COUNTRY
 SRVC.       DRESSER ALAS:   SERVICE COMPANY
 DATE.        13-JUN-1986:   LOGDATE
 API .     49025110920000:   API NUMBER
~CURVE INFORMATION
#MNEM.UNIT       API CODE    CURVE DESCRIPTION
#----------   ------------   ------------------------------
 DEPT.F                  :   
 CALD.IN     45 280 60 00:   CALIPER FROM DENSITY LOG
 RHOB.G/C3   45 350 01 00:   BULK DENSITY
 CORR.G/C3   45 356 01 00:   DENSITY CORRECTION
 CNC .DEC    42 890 03 00:   NEUTRON PORISITY LIMESTONE
 SPR .MV     07 010 01 00:   SPONTANEOUS POTENTIAL
 GRR .GAPI   07 310 01 00:   GAMMA RAY FROM RESISTIVITY
 RFOC.OHMM   07 220 04 00:   RESISTIVITY FOCUSED LOG RES.
 ILD .OHMM   07 120 46 00:   DEEP INDUCTION RESISTIVITY
 ILM .OHMM   07 120 44 00:   INDUCTION LOG MEDIUM RESISTIVITY
 TENR.LBS    07 635 01 00:   TENSION FROM RESISTIVITY
~PARAMETER INFORMATION
#MNEM.UNIT          VALUE    DESCRIPTION
#----------   ------------   ------------------------------
 EKB .F         5153.0000:   Kelly bushing
 EGL .F         5142.0000:   Ground level
 EDF .F         5151.0000:   Drilling floor
 TD  .F         3151.0000:   Total depth
 DATE.        13-JUN-1986:   Date logged
 CLNT.            A2DTECH:   Client Code
 SL  . 1450' FSL & 144' FEL:   Surface Location
 PD  .                 GL:   Permanent Datum
 EPD .F              5142:   Elevation Permanent Datum
 LMF .                 KB:   Log Measured From
 DMF .                 KB:   Drilling Measured From
 DAPD.F                11:   Feet Above Permanent Datum
 DD  .F              3151:   Depth driller
 DL  .F              3151:   Depth logger
 BLI .F              3146:   Bottom log interval
 TLI .F                11:   Top log interval
 CS1 .IN            8.625:   Casing size
 CBD1.      8.625" @ 584':   Casing driller 1
 CBL1.F               592:   Casing logger 1
 BS1 .IN            7.875:   Bit size
 BSD1.F              3151:   Depth drilled with bit1
 DFT .            KCL-GEL:   Type fluid in hole
 DFD .                8.8:   Density
 DFV .                 35:   Viscosity
 DFPH.                8.5:   pH
 DFL .               15.5:   Fluid loss
 MSS .           FLOWLINE:   Source of sample
 RMS .OHMM           0.49:   Rm
 MST .F                80:   Rm Meas. temp.
 RMF .OHMM           0.38:   Rmf
 MFST.F                80:   Rmf Meas. temp.
 RMC .OHMM           0.61:   Rmc
 MCST.F                80:   Rmc Meas. temp.
 MFSS.               MEAS:   Source Rmf.
 MCSS.               CALC:   Source Rmc.
 RMB .OHMM           0.37:   Rm. at BHT
 BHT .F               112:   BHT.
 TCS .HRS            0.37:   Time Circ. stopped
 MRT .F               112:   Maximum recorded temp.
 LUN .            HL-6274:   Logging unit number
 LUL .           GILLETTE:   Logging unit location
 WITN.             STRONG:   Witnessed by
 ORIG.           5" PRINT:   Origin of data
 UWI .     49025110920000:   Unique Well ID
 DICO. A2D TECHNOLOGIES, INC.:   Digitizing Company
~OTHER INFORMATION
~A    DEPT    CALD       RHOB       CORR        CNC        SPR        GRR       RFOC        ILD        ILM       TENR   
# ...
 1919.0000  -999.2500  -999.2500  -999.2500  -999.2500   -95.7669   128.9292     8.4680     7.8872     7.2589   -71.3345
 1919.5000  -999.2500  -999.2500  -999.2500  -999.2500   -95.7717   128.9244     8.3108     7.8152     7.3247   -71.1346
 1920.0000  -999.2500  -999.2500  -999.2500  -999.2500   -95.7774   126.9073     8.0071     7.8860     7.3229   -70.9347
 1920.5000  -999.2500  -999.2500  -999.2500  -999.2500   -95.7822   126.9025     8.7001     7.8849     7.2537   -70.7348
 1921.0000  -999.2500  -999.2500  -999.2500  -999.2500   -95.7870   126.4953     8.8605     7.9571     7.2520   -80.5894
 1921.5000  -999.2500  -999.2500  -999.2500  -999.2500   -95.9929   125.2835     8.9407     7.9731     7.2503   -80.3896
 1922.0000  -999.2500  -999.2500  -999.2500  -999.2500   -96.4000   125.2785     8.9386     7.9892     7.3163   -70.1352
 1922.5000  -999.2500  -999.2500  -999.2500  -999.2500   -96.6050   126.0773     9.0196     8.0053     7.3142   -69.9353
 1923.0000  -999.2500  -999.2500  -999.2500  -999.2500   -96.2103   125.6710     9.0175     8.0214     7.3121   -79.7902
 1923.5000  -999.2500  -999.2500  -999.2500  -999.2500   -96.2113   124.8613     8.8497     8.0375     7.3104   -79.5904
 1924.0000  -999.2500  -999.2500  -999.2500  -999.2500   -95.8156   124.4540     8.8769     8.0537     7.3097   -79.3905
 1924.5000  -999.2500  -999.2500  -999.2500  -999.2500   -95.8185   124.4490     8.7938     8.0699     7.3069   -69.1357
 1925.0000  -999.2500  -999.2500  -999.2500  -999.2500   -95.2225   124.0416     8.7917     8.0882     7.2379   -78.9509
 1925.5000  -999.2500  -999.2500  -999.2500  -999.2500   -95.2263   121.6209     8.7896     8.0122     7.1694   -78.7511
 1926.0000  -999.2500  -999.2500  -999.2500  -999.2500   -95.2320   121.2134     8.7876     8.0114     7.1677   -78.5513
 1926.5000  -999.2500  -999.2500  -999.2500  -999.2500   -95.2348   121.6108     8.7855     7.9712     7.1660   -78.3515
 1927.0000  -999.2500  -999.2500  -999.2500  -999.2500   -95.8471   120.8007     8.7834     7.9312     7.1169   -78.1516
 1927.5000  -999.2500  -999.2500  -999.2500  -999.2500   -96.4537   118.7831     8.8330     7.8914     7.1048   -67.8960
 1928.0000  -999.2500  -999.2500  -999.2500  -999.2500   -96.4585   114.3502     8.8309     7.8517     7.0949   -67.6961
 1928.5000  -999.2500  -999.2500  -999.2500  -999.2500   -96.4633   113.9423     8.8292     7.8123     7.0939   -67.4961
 1929.0000  -999.2500  -999.2500  -999.2500  -999.2500   -96.4681   119.1700     8.8272     7.7731     7.1104   -67.2962
 1929.5000  -999.2500  -999.2500  -999.2500  -999.2500   -96.4729   124.8007     8.8247     7.7341     7.1270   -67.0962
 1930.0000  -999.2500  -999.2500  -999.2500  -999.2500   -96.4787   125.8070     8.3458     7.7040     7.1436   -56.8401
 1930.5000  -999.2500  -999.2500  -999.2500  -999.2500   -95.6783   118.7519     8.7389     7.7025     7.1524   -66.6963
 1931.0000  -999.2500  -999.2500  -999.2500  -999.2500   -95.6821   115.1232     8.9827     7.5435     7.1510   -76.5128
 1931.5000  -999.2500  -999.2500  -999.2500  -999.2500   -95.2852   113.9089     9.3192     7.3877     6.8106   -76.3129
 1932.0000  -999.2500  -999.2500  -999.2500  -999.2500   -95.0887   115.5140     9.2321     7.2806     6.4864   -66.0564
 1932.5000  -999.2500  -999.2500  -999.2500  -999.2500   -95.0934   116.7167     8.4122     7.2792     6.2762   -65.8564
 1933.0000  -999.2500  -999.2500  -999.2500  -999.2500   -95.0982   116.7114     8.1054     7.2771     6.2750   -65.6564
 1933.5000  -999.2500  -999.2500  -999.2500  -999.2500   -94.9044   115.0953     7.1855     7.2754     6.2741   -85.5303
 1934.0000  -999.2500  -999.2500  -999.2500  -999.2500   -95.3090   114.2846     6.9871     7.4097     6.4938   -85.3705
 1934.5000  -999.2500  -999.2500  -999.2500  -999.2500   -95.9179   114.6819     7.3842     7.4083     6.8144   -85.1707
 1935.0000  -999.2500  -999.2500  -999.2500  -999.2500   -96.3263   116.2875     8.5596     7.4758     7.1364   -84.9709
 1935.5000  -999.2500  -999.2500  -999.2500  -999.2500   -96.7339   120.7124     9.0470     7.5428     6.9398   -64.6564
 1936.0000  -999.2500  -999.2500  -999.2500  -999.2500   -96.7377   123.9275     8.8786     7.6116     6.8736   -64.4564
 1936.5000  -999.2500  -999.2500  -999.2500  -999.2500   -96.5412   121.1039     8.8774     7.7513     6.8085   -64.2564
 1937.0000  -999.2500  -999.2500  -999.2500  -999.2500   -96.5469   119.8904     8.7931     7.8224     6.8069   -74.1140
 1937.5000  -999.2500  -999.2500  -999.2500  -999.2500   -96.3494   120.2881     8.5500     7.8203     6.8053   -83.9319
 1938.0000  -999.2500  -999.2500  -999.2500  -999.2500   -95.5514   119.0744     8.5487     7.8183     6.8037   -83.7320
 1938.5000  -999.2500  -999.2500  -999.2500  -999.2500   -96.1590   118.2635     7.9361     7.8163     6.8021   -83.5322
 1939.0000  -999.2500  -999.2500  -999.2500  -999.2500   -96.1619   114.6324     7.7174     7.8143     7.0897   -73.2743
 1939.5000  -999.2500  -999.2500  -999.2500  -999.2500   -96.1671   113.0155     8.6205     7.8123     7.1154   -83.1325
 1940.0000  -999.2500  -999.2500  -999.2500  -999.2500   -96.3743   112.2043     9.0262     7.8103     7.1412   -82.9726
 1940.5000  -999.2500  -999.2500  -999.2500  -999.2500   -96.3791   113.0046     9.0249     7.8086     7.1671   -82.7328
 1941.0000  -999.2500  -999.2500  -999.2500  -999.2500   -96.3839   117.4315     9.0236     7.8072     7.1819   -82.5329
 1941.5000  -999.2500  -999.2500  -999.2500  -999.2500   -96.1892   122.6635     9.0215     7.7829     6.9834   -82.3332
 1942.0000  -999.2500  -999.2500  -999.2500  -999.2500   -96.1930   126.6872     8.6107     7.7587     6.9177   -82.1333
 1942.5000  -999.2500  -999.2500  -999.2500  -999.2500   -96.0344   123.8624     8.2962     7.7346     6.8520   -81.9335
 1943.0000  -999.2500  -999.2500  -999.2500  -999.2500   -95.8025   121.4394     8.0668     7.7106     6.7868   -71.6747
 1943.5000  -999.2500  -999.2500  -999.2500  -999.2500   -95.8044   121.0312     7.9906     7.6867     6.7483   -71.4347
 1944.0000  -999.2500  -999.2500  -999.2500  -999.2500   -95.8092   121.0261     8.2136     7.6511     6.7217   -81.2938
 1944.5000  -999.2500  -999.2500  -999.2500  -999.2500   -95.8140   119.8119     8.6006     7.6504     6.7198   -71.0348
 1945.0000  -999.2500  -999.2500  -999.2500  -999.2500   -95.8197   115.7760     8.6785     7.5780     6.6562   -80.8941
 1945.5000  -999.2500  -999.2500  -999.2500  -999.2500   -95.8245   112.1429     8.7571     7.6468     6.6546   -80.6942
 1946.0000  -999.2500  -999.2500  -999.2500  -999.2500   -95.2246   111.3313     8.6744     7.7527     6.7149   -80.4943
 1946.5000  -999.2500  -999.2500  -999.2500  -999.2500   -95.2284   115.3569     8.3572     7.8601     6.7137   -80.2944
 1947.0000  -999.2500  -999.2500  -999.2500  -999.2500   -95.4357   120.5911     8.6703     7.9691     6.8369   -70.0348
 1947.5000  -999.2500  -999.2500  -999.2500  -999.2500   -96.2487   123.0049     8.8298     8.0795     6.9638   -69.8348
 1948.0000  -999.2500  -999.2500  -999.2500  -999.2500   -97.0592   120.5809     8.9098     8.1914     7.1581   -69.6348
 1948.5000  -999.2500  -999.2500  -999.2500  -999.2500   -97.0602   118.5598     8.9077     8.2995     7.2230   -79.4947
 1949.0000  -999.2500  -999.2500  -999.2500  -999.2500   -96.8663   115.3291     8.6617     8.7958     7.4244   -79.2948
 1949.5000  -999.2500  -999.2500  -999.2500  -999.2500   -96.6676   117.3398     8.8215     8.9541     7.5622   -79.0949
 1950.0000  -999.2500  -999.2500  -999.2500  -999.2500   -96.2708   120.1571     8.8194     9.1962     7.7732   -78.8551
 1950.5000  -999.2500  -999.2500  -999.2500  -999.2500   -96.0720   123.7811     9.0656     9.4402     7.8437   -78.6551
 1951.0000  -999.2500  -999.2500  -999.2500  -999.2500   -95.4748   125.1933     9.1477     9.5263     7.8418   -78.4552
 1951.5000  -999.2500  -999.2500  -999.2500  -999.2500   -95.4777   119.3350     9.2612     9.6132     7.8396   -78.2553
 1952.0000  -999.2500  -999.2500  -999.2500  -999.2500   -95.2827   115.2948     9.2608     9.7911     7.8377   -78.0553
