~VERSION INFORMATION
 VERS.                2.0:   CWLS LOG ASCII STANDARD - VERSION 2.0
 WRAP.                 NO:   ONE LINE PER DEPTH STEP
~WELL INFORMATION
#MNEM.UNIT      DATA TYPE    INFORMATION
#----------   ------------   ------------------------------
 STRT.F          197.0000:   START DEPTH
 STOP.F         3074.5000:   STOP DEPTH
 STEP.F            0.5000:   STEP LENGTH
 NULL.          -999.2500:   NO VALUE
 COMP.    FENIX & SCISSON:   COMPANY
 WELL.   FENIX "A" #36-21:   WELL
 FLD .             NPR #3:   FIELD
 LOC .      S21 T39N R78W:   LOCATION
 CNTY.            NATRONA:   COUNTY
 STAT.            WYOMING:   STATE
 CTRY. UNITED STATES OF AMERICA:   COUNTRY
 SRVC.              WELEX:   SERVICE COMPANY
 DATE.        06-JUL-1977:   LOGDATE
 API .     49025103920000:   API NUMBER
~CURVE INFORMATION
#MNEM.UNIT       API CODE    CURVE DESCRIPTION
#----------   ------------   ------------------------------
 DEPT.F                  :   
 CALD.IN     45 280 60 00:   CALIPER FROM DENSITY LOG
 GRD .GAPI   45 310 01 00:   GAMMA RAY FROM DENSITY LOG
 CORR.G/C3   45 356 01 00:   DENSITY CORRECTION
 RHOB.G/C3   45 350 01 00:   BULK DENSITY
 SPR .MV     11 010 01 00:   SPONTANEOUS POTENTIAL FROM RES.
 FORX.OHMM   11 000 00 00:   FORMATION FACTOR
 GURD.OHMM   11 220 05 00:   GUARD LOG RESISTIVITY
 NPHI.DEC    42 890 03 00:   NEUTRON POROSITY SANDSTONE
~PARAMETER INFORMATION
#MNEM.UNIT          VALUE    DESCRIPTION
#----------   ------------   ------------------------------
 EKB .F         4960.0000:   Kelly bushing
 EGL .F         4950.0000:   Ground level
 EDF .F            0.0000:   Drilling floor
 EPD .F         4950.0000:   Permanent datum
 TD  .F         3078.0000:   Total depth
 CLNT.            A2DTECH:   Client Code
 SL  . 1650' FSL & 1650' FWL:   Surface Location
 PD  .                 GL:   Permanent Datum
 DAPD.F                10:   Feet Above Permanent Datum
 DATE.        06-JUL-1977:   Date Logged [DD-MMM-YYYY]
 DD  .F              3066:   Depth driller
 DL  .F              3078:   Depth logger
 BLI .F              3076:   Bottom log interval
 TLI .F               200:   Top log interval
 CS1 .IN            8.625:   Casing size
 BS1 .IN            7.875:   Bit size
 BSD1.F              3066:   Depth drilled with bit1
 DFT .            KCL MUD:   Type fluid in hole
 DFD .                9.2:   Density
 DFV .                 35:   Viscosity
 DFPH.                7.5:   pH
 DFL .                 18:   Fluid loss
 MSS .           FLOWLINE:   Source of sample
 RMS .OHMM            0.9:   Rm
 MST .F                80:   Rm Meas. temp.
 RMF .OHMM           0.81:   Rmf
 MFST.F                80:   Rmf Meas. temp.
 MFSS.               FANN:   Source Rmf.
 RMC .OHMM           1.06:   Rmc
 MCST.F                80:   Rmc Meas. temp.
 MCSS.                KIT:   Source Rmc.
 RMB .OHMM           0.60:   Rm. at BHT
 BHT .F               119:   BHT.
 TCS .HRS               3:   Time Circ. stopped
 MRT .F               119:   Maximum recorded temp.
 LUN .               8611:   Logging unit number
 LUL .             CASPER:   Logging unit location
 ENGI.             C DOAK:   Recorded By
 WITN.         HARRINGTON:   Witnessed by
 ORIG.           5" PRINT:   Origin of data
 UWI .     49025103920000:   Unique Well ID
 DICO. A2D TECHNOLOGIES,INC.:   Digitizing Company
~OTHER INFORMATION
~A   DEPT     CALD         GRD      CORR       RHOB        SPR       FORX       GURD       NPHI   
# ...
 2465.0000     7.6443    98.6138     0.0146     2.3452   -43.6991     8.6250    13.6242     0.2317
 2465.5000     7.6614    96.2411     0.0178     2.3460   -43.9882     9.0018    13.9075     0.2293
 2466.0000     7.6636    93.9651     0.0179     2.3491   -44.2774     9.4990    13.5268     0.2309
 2466.5000     7.6659    93.1117     0.0196     2.3529   -44.2646    10.6801    13.6331     0.2334
 2467.0000     7.6682    92.8404     0.0197     2.3559   -43.6556    11.0546    14.6266     0.2352
 2467.5000     7.6709    92.5770     0.0199     2.3360   -43.0314    11.3637    16.0682     0.2382
 2468.0000     7.6732    92.3136     0.0201     2.3264   -42.1159    21.4274    21.1762     0.2397
 2468.5000     7.6754    92.3531     0.0203     2.3205   -41.2271    20.2777    18.8285     0.2369
 2469.0000     7.7220    92.3847     0.0189     2.3169   -40.3187    13.4084    10.8362     0.2354
 2469.5000     7.7095    92.1209     0.0176     2.3162   -39.7096    13.5012    10.1820     0.2338
 2470.0000     7.6821    92.1529     0.0147     2.3170   -38.9509    13.9747    11.2138     0.2284
 2470.5000     7.6690    91.8895     0.0134     2.3141   -37.8919    14.1687    11.0585     0.2218
 2471.0000     7.6570    91.3311     0.0106     2.3083   -36.9835    13.7833    10.3900     0.2196
 2471.5000     7.6445    90.4856     0.0093     2.3046   -35.9253    13.4084    10.0369     0.2202
 2472.0000     7.6467    88.4523     0.0095     2.3047   -35.3163    13.2248    10.3166     0.2229
 2472.5000     7.6490    85.2390     0.0096     2.2922   -35.1564    13.9747    10.1034     0.2268
 2473.0000     7.6364    81.4358     0.0098     2.2781   -35.4481    15.1799    10.7497     0.2276
 2473.5000     7.6091    77.6326     0.0099     2.2671   -35.7350    14.9721    10.4555     0.2228
 2474.0000     7.5818    73.2394     0.0101     2.2612   -36.0239    11.6815    11.3571     0.2158
 2474.5000     7.5544    73.5712     0.0103     2.2717   -36.0135     8.8662    12.3369     0.2098
 2475.0000     7.5271    75.3727     0.0105     2.2933   -36.0030     8.1622    11.9163     0.2056
 2475.5000     7.5151    77.4692     0.0106     2.3090   -35.9906     8.0505    12.3332     0.2025
 2476.0000     7.5321    79.8606     0.0108     2.3150   -35.9804     7.9951    13.2166     0.2010
 2476.5000     7.5344    81.6621     0.0094     2.3136   -36.2696     8.1622    13.1074     0.1997
 2477.0000     7.5217    83.4636     0.0081     2.3152   -36.8581     8.3904    12.4992     0.1982
 2477.5000     7.5241    83.1710     0.0068     2.3212   -37.5964     8.8662    13.0261     0.1961
 2478.0000     7.5263    80.6856     0.0054     2.3169   -38.7838     9.3045    14.3466     0.1930
 2478.5000     7.5434    76.7816     0.0056     2.3028   -41.0191     9.3689    13.5734     0.1903
 2479.0000     7.5802    74.4533     0.0073     2.2969   -42.5058     8.8053    13.1110     0.1903
 2479.5000     7.6224    73.2970     0.0089     2.3000   -44.3135     7.9402    11.3399     0.1923
 2480.0000     7.6246    77.4663     0.0121     2.3254   -46.4575     7.0136    11.2971     0.1944
 2480.5000     7.6565    86.0524     0.0167     2.3693   -49.2108     7.1258    12.3161     0.1950
 2481.0000     7.7031    92.8687     0.0199     2.3868   -50.8473     8.1622    14.4105     0.1937
 2481.5000     7.7349    97.9150     0.0245     2.4042   -52.8234    14.3654    17.8763     0.1847
 2482.0000     7.7963   103.2921     0.0291     2.4052   -54.7165    13.4084    14.7315     0.1733
 2482.5000     7.8430   107.5962     0.0353     2.4068   -55.6045    13.0437    11.5675     0.1726
 2483.0000     7.8896   111.8820     0.0384     2.4151   -56.7918    12.6889    12.4786     0.1744
 2483.5000     7.9214   113.6834     0.0415     2.4382   -57.9792    12.1748    12.3062     0.1780
 2484.0000     7.9533   115.1899     0.0432     2.4546   -59.1666    12.5152    11.8048     0.1824
 2484.5000     8.0011   116.4015     0.0448     2.4636   -60.0545    11.0546     9.2057     0.1881
 2485.0000     8.0170   117.0230     0.0465     2.4615   -60.6431    10.1070     8.3564     0.1951
 2485.5000     8.0197   117.0546     0.0482     2.4564   -60.9326     9.7512     8.0160     0.2025
 2486.0000     8.0220   117.3812     0.0498     2.4535   -61.2216     9.2406     7.9052     0.2126
 2486.5000     8.0242   117.4130     0.0500     2.4726   -61.5106     9.0515     8.1252     0.2153
 2487.0000     8.0117   117.4454     0.0517     2.4964   -61.6728     8.9893     8.7048     0.2216
 2487.5000     8.0139   117.4838     0.0533     2.5002   -61.7896     8.9275     8.2360     0.2281
 2488.0000     8.0008   117.2125     0.0550     2.5025   -61.9290     9.1141     8.2348     0.2293
 2488.5000     8.0036   116.9570     0.0551     2.5011   -62.0685     9.3689     8.7013     0.2269
 2489.0000     8.0059   116.6857     0.0553     2.4937   -62.2080     9.9001     9.5172     0.2262
 2489.5000     8.0081   116.7252     0.0554     2.4863   -62.3474    10.6801     9.4504     0.2256
 2490.0000     8.0104   117.3467     0.0556     2.4812   -62.3346    10.9787     9.0657     0.2232
 2490.5000     7.9830   115.9034     0.0528     2.4775   -62.6238    10.9033     8.4597     0.2186
 2491.0000     7.9854   112.6843     0.0514     2.4784   -62.6136    10.6067     8.5172     0.2141
 2491.5000     7.9881   110.8760     0.0501     2.4863   -62.7531    10.2473     8.5751     0.2087
 2492.0000     7.9903   110.0984     0.0473     2.4941   -62.8925     9.7646     8.4560     0.1997
 2492.5000     7.9772   111.0228     0.0460     2.4942   -63.1817     9.6309     8.3390     0.1951
 2493.0000     7.9647   110.7515     0.0447     2.4890   -63.4709     9.4990     8.4541     0.1948
 2493.5000     7.9527   109.9061     0.0448     2.4757   -63.7600     9.3689     8.9326     0.1950
 2494.0000     7.9396   108.7577     0.0435     2.4512   -63.8969     9.2406     8.8090     0.1962
 2494.5000     7.9122   107.6093     0.0437     2.4416   -64.0364     9.6309     8.6870     0.1980
 2495.0000     7.9298   106.1660     0.0438     2.4395   -64.0262    10.1769     9.3067     0.2012
 2495.5000     7.9469   105.9026     0.0425     2.4522   -64.0159    11.0700    10.3923     0.2060
 2496.0000     7.9491   109.5459     0.0427     2.4671   -64.0057    11.2857     9.6977     0.2141
 2496.5000     7.9662   111.5784     0.0443     2.4784   -63.9955    10.3896     9.0492     0.2203
 2497.0000     7.9536   111.6099     0.0445     2.4814   -63.9850     9.8321     7.9906     0.2185
 2497.5000     7.9564   111.9365     0.0461     2.4762   -63.9725     9.5647     7.8800     0.2167
 2498.0000     7.9583   113.7380     0.0478     2.4793   -63.9622     9.4990     7.8789     0.2185
 2498.5000     7.9606   116.1294     0.0524     2.4972   -63.9520     9.4990     8.0984     0.2196
 2499.0000     7.9632   119.1109     0.0541     2.5092   -63.9418    10.0376     8.4398     0.2233
 2499.5000     7.9654   121.2074     0.0543     2.5137   -64.0812    10.1140     8.4387     0.2304
 2500.0000     7.9085   120.6557     0.0544     2.5063   -64.2233     9.7646     8.3219     0.2396
 2500.5000     7.9109   115.3862     0.0546     2.5027   -64.3627     9.4990     7.3173     0.2423
 2501.0000     7.9280   110.4118     0.0532     2.4975   -64.5000     9.4990     7.0490     0.2405
 2501.5000     7.9452   107.5022     0.0504     2.4879   -64.4894     9.2406     7.5518     0.2387
 2502.0000     7.9481   106.6475     0.0491     2.4731   -64.6289     9.2406     7.9247     0.2362
 2502.5000     7.9797   107.8778     0.0478     2.4650   -64.7683     9.5074     8.7400     0.2304
 2503.0000     7.9826   110.5729     0.0479     2.4673   -64.7556     9.9791     8.8729     0.2245
 2503.5000     7.9850   111.4982     0.0466     2.4689   -64.8976    10.3308     8.2157     0.2257
 2504.0000     7.9873   110.3204     0.0486     2.4794   -64.8848    10.4760     7.9380     0.2241
 2504.5000     7.9897   109.8089     0.0505     2.4764   -64.8746    10.3343     8.0034     0.2166
 2505.0000     7.9921   111.0392     0.0492     2.4691   -65.0166    10.1945     9.0139     0.2094
