~VERSION INFORMATION
 VERS.                2.0:   CWLS LOG ASCII STANDARD - VERSION 2.0
 WRAP.                 NO:   ONE LINE PER DEPTH STEP
~WELL INFORMATION
#MNEM.UNIT      DATA TYPE    INFORMATION
#----------   ------------   ------------------------------
 STRT.F          176.5000:   START DEPTH
 STOP.F         3010.0000:   STOP DEPTH
 STEP.F            0.5000:   STEP LENGTH
 NULL.          -999.2500:   NO VALUE
 COMP.    FENIX & SCISSON:   COMPANY
 WELL.   FENIX "A" #36-28:   WELL
 FLD .              NPR 3:   FIELD
 LOC .      S28 T39N R78W:   LOCATION
 CNTY.            NATRONA:   COUNTY
 STAT.            WYOMING:   STATE
 CTRY. UNITED STATES OF AMERICA:   COUNTRY
 SRVC.       SCHLUMBERGER:   SERVICE COMPANY
 DATE.        19-AUG-1977:   LOGDATE
 API .     49025104150000:   API NUMBER
~CURVE INFORMATION
#MNEM.UNIT       API CODE    CURVE DESCRIPTION
#----------   ------------   ------------------------------
 DEPT.F                  :   
 SPR .MV     07 010 01 00:   SPONTANEOUS POTENTIAL
 ILM .OHMM   07 120 44 00:   INDUCTION LOG MEDIUM RESISTIVITY
 ILD .OHMM   07 120 46 00:   INDUCTION LOG DEEP RESISTIVITY
 LL8 .OHMM   07 220 08 00:   LATEROLOG-8 RESISTIVITY
 GRD .GAPI   45 310 01 00:   GAMMA RAY FROM DENSITY LOG
 CALD.IN     45 280 60 00:   CALIPER FROM DENSITY LOG
 RHOB.G/C3   45 350 01 00:   BULK DENSITY
 DCOR.G/C3   45 356 01 00:   DENSITY CORRECTION
~PARAMETER INFORMATION
#MNEM.UNIT          VALUE    DESCRIPTION
#----------   ------------   ------------------------------
 EKB .F         5107.0000:   Kelly bushing
 EGL .F         5097.0000:   Ground level
 EDF .F            0.0000:   Drilling floor
 TD  .F         3012.0000:   Total depth
 DATE.        19-AUG-1977:   Date logged
 CLNT.            A2DTECH:   Client Code
 SL  . 1650' FSL & 1650' FWL:   Surface Location
 PD  .                 GL:   Permanent Datum
 EPD .F              5097:   Elevation Permanent Datum
 LMF .                 KB:   Log Measured From
 DMF .                 KB:   Drilling Measured From
 DAPD.F                10:   Feet Above Permanent Datum
 DD  .F              3010:   Depth driller
 DL  .F              3011:   Depth logger
 BLI .F              3005:   Bottom log interval
 TLI .F               215:   Top log interval
 CS1 .IN            8.625:   Casing size
 CBD1.      8.625" @ 205':   Casing driller 1
 CBL1.F               215:   Casing logger 1
 BS1 .IN            7.875:   Bit size
 BSD1.F              3010:   Depth drilled with bit1
 DFT .                FGM:   Type fluid in hole
 DFD .                8.8:   Density
 DFV .                 33:   Viscosity
 DFPH.               10.5:   pH
 DFL .               10.6:   Fluid loss
 MSS .            MUD PIT:   Source of sample
 RMS .OHMM            .19:   Rm
 MST .F                76:   Rm Meas. temp.
 RMF .OHMM            .17:   Rmf
 MFST.F                78:   Rmf Meas. temp.
 MFSS.               MEAS:   Source Rmf.
 RMB .OHMM            .13:   Rm. at BHT
 BHT .F               112:   BHT.
 TCS .HRS            0700:   Time Circ. stopped
 TLAB.HRS            1400:   Time logger at bottom
 MRT .F               112:   Maximum recorded temp.
 LUN .               5642:   Logging unit number
 ENGI.          CHALUPSKY:   Recorded By
 WITN.     WES PETTINGILL:   Witnessed by
 ORIG.           5" PRINT:   Origin of data
 UWI .     49025104150000:   Unique Well ID
 DICO. A2D TECHNOLOGIES, INC.:   Digitizing Company
 LUL .               CSPR:   Logging unit location
~OTHER INFORMATION
~A   DEPT      SPR        ILM        ILD        LL8        GRD       CALD       RHOB       DCOR   
# ...
 2606.5000   -78.0430     9.8130     9.0330    10.6740   113.0520     8.5230     2.4470     0.0860
 2607.0000   -78.3980     9.9250     9.1540    10.5010   113.6400     8.5220     2.4630     0.0760
 2607.5000   -78.4510    10.0310     9.0990    10.7940   114.4520     8.5200     2.4810     0.0880
 2608.0000   -78.1150     9.7990     9.0350    10.6950   112.9270     8.5160     2.4630     0.0940
 2608.5000   -77.8200     9.5770     8.9160    10.4060   110.8030     8.5070     2.4390     0.0660
 2609.0000   -77.9840     9.3550     8.6480    10.7100   109.1240     8.4970     2.4200     0.0410
 2609.5000   -78.1460     9.1540     8.3790    11.3000   108.2830     8.4880     2.4440     0.0390
 2610.0000   -78.8350     8.9140     8.1110    10.7450   108.1450     8.4790     2.4260     0.0510
 2610.5000   -79.7440     8.6940     7.9040     9.9440   109.5570     8.4700     2.4020     0.0390
 2611.0000   -79.2720     8.4750     7.7580     9.2230   112.9330     8.4610     2.4370     0.0460
 2611.5000   -78.6830     8.2550     7.6110     9.0960   116.9760     8.4620     2.4630     0.0600
 2612.0000   -78.9410     8.0350     7.4640     8.9640   121.2670     8.4630     2.4760     0.0690
 2612.5000   -79.5140     7.8740     7.3170     8.7950   125.2920     8.4650     2.4440     0.0510
 2613.0000   -79.1750     7.7330     7.1700     8.5850   125.7690     8.4660     2.4660     0.0680
 2613.5000   -78.8490     7.5920     7.0190     8.6500   126.4110     8.4670     2.4590     0.0620
 2614.0000   -79.2880     7.4510     6.7890     8.7350   127.5800     8.4680     2.4770     0.0600
 2614.5000   -79.9060     7.3100     6.5520     8.8200   123.0570     8.4690     2.4600     0.0670
 2615.0000   -80.5350     7.1640     6.3150     8.9050   118.8030     8.4710     2.4680     0.0530
 2615.5000   -81.1650     7.0190     6.1740     8.5700   116.3340     8.4720     2.4910     0.0690
 2616.0000   -81.7490     6.7260     6.1740     8.0790   118.1460     8.4730     2.4810     0.0730
 2616.5000   -81.4600     6.4350     5.8260     7.5520   118.6190     8.4740     2.4630     0.0590
 2617.0000   -81.1400     6.1450     5.4850     7.0250   120.8710     8.4760     2.4440     0.0450
 2617.5000   -80.8130     5.8550     5.1440     6.4980   125.3210     8.4770     2.4300     0.0350
 2618.0000   -81.0230     5.5820     5.0440     5.9710   129.7520     8.4780     2.4470     0.0520
 2618.5000   -82.0790     5.4790     4.9790     5.8980   133.1020     8.4790     2.4650     0.0660
 2619.0000   -82.3740     5.3820     4.8970     6.2960   131.7490     8.4810     2.4860     0.0740
 2619.5000   -82.3730     5.2360     4.8210     6.5830   130.0780     8.4820     2.4790     0.0450
 2620.0000   -82.1050     5.2740     4.8710     6.3390   130.3440     8.4830     2.4650     0.0540
 2620.5000   -81.7300     5.3510     4.9170     6.0070   131.1790     8.4840     2.4520     0.0470
 2621.0000   -81.3240     5.4290     4.9630     6.1270   132.0730     8.4850     2.4440     0.0380
 2621.5000   -80.8800     5.5120     5.0090     6.6760   133.9700     8.4870     2.4740     0.0500
 2622.0000   -80.5420     5.6090     5.0550     7.1480   134.4200     8.4880     2.5110     0.0610
 2622.5000   -80.4220     5.7050     5.0960     7.2000   131.4180     8.4890     2.4980     0.0660
 2623.0000   -80.3000     5.8440     5.1080     7.4310   127.4210     8.4900     2.4810     0.0400
 2623.5000   -80.1790     5.7860     5.1200     7.8340   123.4240     8.4920     2.4640     0.0490
 2624.0000   -80.0570     5.6850     5.1330     7.4920   120.9570     8.4930     2.4480     0.0570
 2624.5000   -79.9360     5.5830     5.1610     6.9620   121.9560     8.4940     2.4410     0.0350
 2625.0000   -79.8220     5.4810     5.2680     6.1180   124.9690     8.4950     2.4330     0.0320
 2625.5000   -79.5380     5.6480     5.3960     6.3580   128.7340     8.4970     2.4420     0.0300
 2626.0000   -79.2270     5.8140     5.5540     6.9520   131.9420     8.4980     2.4470     0.0390
 2626.5000   -78.9170     6.2870     5.9230     7.5450   127.5520     8.4990     2.4310     0.0360
 2627.0000   -78.3820     6.8260     6.3390     8.3400   122.4070     8.5010     2.4490     0.0550
 2627.5000   -77.7280     7.5660     7.0520    10.0430   117.4380     8.5040     2.5200     0.0830
 2628.0000   -77.0720     8.4160     7.8230    12.1850   115.1160     8.5070     2.4960     0.0680
 2628.5000   -76.4160     9.2660     8.5930    14.3270   109.1510     8.5100     2.4590     0.0580
 2629.0000   -75.7580    10.1160     9.3630    16.1510   104.1900     8.5140     2.4640     0.0650
 2629.5000   -75.1090    10.4740     9.9850    15.4480   103.2480     8.5170     2.4730     0.0580
 2630.0000   -74.9650    10.7940    10.3110    14.0010   105.6380     8.5200     2.4820     0.0540
 2630.5000   -74.8820    10.6080    10.0420    13.3250   106.8250     8.5230     2.4780     0.0780
 2631.0000   -74.6770    10.4010     9.8340    13.3250   107.0380     8.5270     2.4670     0.0680
 2631.5000   -74.1020    10.1940     9.6270    12.9100   108.1800     8.5300     2.4560     0.0560
 2632.0000   -73.7420     9.9870     9.4190    12.4600   109.7200     8.5330     2.4470     0.0500
 2632.5000   -73.5510     9.7800     9.2120    12.0090   111.2460     8.5360     2.4640     0.0590
 2633.0000   -73.3600     9.5740     9.0040    11.5590   112.7900     8.5390     2.4730     0.0650
 2633.5000   -73.1720     9.3670     8.7970    11.0950   115.9440     8.5390     2.4350     0.0430
 2634.0000   -73.1620     9.1990     8.5850    11.2630   118.8670     8.5390     2.4260     0.0530
 2634.5000   -73.4760     9.0950     8.4900    11.4040   118.4820     8.5390     2.4380     0.0450
 2635.0000   -73.7900     8.9920     8.3940    10.9590   117.8620     8.5390     2.4360     0.0400
 2635.5000   -73.7170     8.8880     8.2970    10.5840   118.3140     8.5390     2.4280     0.0750
 2636.0000   -73.5700     8.7850     8.2010    10.2170   118.8330     8.5390     2.4740     0.0690
 2636.5000   -73.5320     8.6820     8.1040     9.9460   120.8080     8.5390     2.4470     0.0550
 2637.0000   -73.9590     8.6640     8.0070     9.8290   122.4730     8.5390     2.4180     0.0470
 2637.5000   -74.3770     8.6640     7.9110     9.7960   123.3340     8.5390     2.4570     0.0620
 2638.0000   -74.7910     8.6640     7.8140     9.7640   120.0790     8.5390     2.4490     0.0440
 2638.5000   -75.2060     8.5880     7.6900     9.9940   116.8520     8.5390     2.4360     0.0490
 2639.0000   -75.2840     8.3030     7.5350    10.4060   115.2480     8.5330     2.4150     0.0550
 2639.5000   -74.9840     8.0190     7.3800    10.3130   117.3740     8.5260     2.4410     0.0540
 2640.0000   -74.6930     7.7620     7.2250     9.9160   121.3240     8.5190     2.4260     0.0390
 2640.5000   -74.4670     7.5720     7.1230     9.1640   125.4560     8.5120     2.4170     0.0290
 2641.0000   -74.6800     7.3990     7.0730     8.0870   131.1940     8.5050     2.4250     0.0410
 2641.5000   -74.7640     7.2140     7.0230     7.2790   139.1790     8.4980     2.4370     0.0580
 2642.0000   -74.4990     7.3340     6.9730     8.6370   145.7800     8.4910     2.4580     0.0520
 2642.5000   -74.2530     7.4640     6.9230     9.7600   141.5480     8.4840     2.4530     0.0410
 2643.0000   -74.4750     7.5930     6.8840     9.4400   131.2290     8.4770     2.4460     0.0320
 2643.5000   -74.7280     7.7230     6.8640     9.0220   126.0750     8.4700     2.4680     0.0370
 2644.0000   -74.9870     7.9060     6.8440     9.1970   128.7830     8.4630     2.4950     0.0430
 2644.5000   -74.8510     7.7380     6.7800     9.7540   127.6270     8.4560     2.4850     0.0500
 2645.0000   -74.6640     7.4500     6.5260    10.3110   125.1640     8.4490     2.4520     0.0440
 2645.5000   -75.3820     7.1620     6.1810     9.6610   124.2360     8.4420     2.4640     0.0380
 2646.0000   -76.1380     6.8740     6.2120     8.7410   127.9500     8.4450     2.4570     0.0440
 2646.5000   -76.8800     6.7250     6.2740     7.8200   130.3680     8.4500     2.4440     0.0100
