~VERSION INFORMATION
 VERS.                2.0:   CWLS LOG ASCII STANDARD - VERSION 2.0
 WRAP.                 NO:   ONE LINE PER DEPTH STEP
~WELL INFORMATION
#MNEM.UNIT      DATA TYPE    INFORMATION
#----------   ------------   ------------------------------
 STRT.F            0.5000:   START DEPTH
 STOP.F         3195.0000:   STOP DEPTH
 STEP.F            0.5000:   STEP LENGTH
 NULL.          -999.2500:   NO VALUE
 COMP.   TESORO PETROLEUM:   COMPANY
 WELL. TESORO NPR 3 "A" #15-10:   WELL
 FLD .        TEAPOT DOME:   FIELD
 LOC .      S10 T38N R78W:   LOCATION
 CNTY.            NATRONA:   COUNTY
 STAT.            WYOMING:   STATE
 CTRY. UNITED STATES OF AMERICA:   COUNTRY
 SRVC.       SCHLUMBERGER:   SERVICE COMPANY
 DATE.        03-JUL-1969:   LOGDATE
 API .     49025600130000:   API NUMBER
~CURVE INFORMATION
#MNEM.UNIT       API CODE    CURVE DESCRIPTION
#----------   ------------   ------------------------------
 DEPT.F                  :   
 SPR .MV     05 010 01 00:   SPONTANEOUS POTENTIAL FROM RES.
 ASN .OHMM   05 041 16 00:   AMPLIFIED SHORT NORMAL 16"
 ILD .OHMM   05 120 46 00:   INDUCTION LOG DEEP
 CALD.IN     45 280 60 00:   CALIPER FROM DENSITY LOG
 GRD .GAPI   45 310 01 00:   GAMMA RAY FROM DENSITY LOG
 RHOB.G/C3   45 350 01 00:   BULK DENSITY
~PARAMETER INFORMATION
#MNEM.UNIT          VALUE    DESCRIPTION
#----------   ------------   ------------------------------
 EKB .F         5250.0000:   Kelly bushing
 EGL .F         5237.0000:   Ground level
 EDF .F            0.0000:   Drilling floor
 TD  .F         3200.0000:   Total depth
 CLNT.            A2DTECH:   Client Code
 SL  . 990' FWL & 1980' FSL:   Surface Location
 PD  .                 GL:   Permanent Datum
 EPD .F              5237:   Elevation Permanent Datum
 LMF .                 KB:   Log Measured From
 DMF .                 KB:   Drilling Measured From
 DAPD.F                13:   Feet Above Permanent Datum
 DATE.        03-JUL-1969:   Date Logged [DD-MMM-YYYY]
 DD  .F              3200:   Depth driller
 DL  .F              3196:   Depth logger
 BLI .F              3195:   Bottom log interval
 TLI .F               676:   Top log interval
 CS1 .IN            10.75:   Casing size
 CBD1.      10.75" @ 675':   Casing driller 1
 CBL1.F               676:   Casing logger 1
 BS1 .IN            6.125:   Bit size
 BSD1.F              3200:   Depth drilled with bit1
 DFT .      FRESH GEL MUD:   Type fluid in hole
 DFD .                9.5:   Density
 DFV .                 46:   Viscosity
 DFPH.                9.5:   pH
 DFL .                6.4:   Fluid loss
 MSS .           FLOWLINE:   Source of sample
 RMS .OHMM           2.05:   Rm
 MST .F                76:   Rm Meas. temp.
 RMF .OHMM           1.49:   Rmf
 MFST.F                78:   Rmf Meas. temp.
 MFSS.               MEAS:   Source Rmf.
 RMB .OHMM           1.34:   Rm. at BHT
 BHT .F               116:   BHT.
 TCS .HRS               2:   Time Circ. stopped
 MRT .F               116:   Maximum recorded temp.
 LUN .               4507:   Logging unit number
 LUL .               CSPR:   Logging unit location
 ENGI.             KNOBEL:   Recorded By
 WITN.                MAY:   Witnessed by
 ORIG.        2" 5" PRINT:   Origin of data
 UWI .     49025600130000:   Unique Well ID
 DICO. A2D TECHNOLOGIES, INC.:   Digitizing Company
~OTHER INFORMATION
~A    DEPT     SPR          ASN      ILD       CALD        GRD       RHOB   
# ...
 2080.5000   -27.2840    11.5431     8.7165    10.2238   121.2426     2.4919
 2081.0000   -27.0501    11.3197     8.4965    10.2241   121.9116     2.4799
 2081.5000   -27.0127    11.0959     8.5015    10.2097   118.8381     2.4687
 2082.0000   -26.8644    10.9473     8.5076    10.2100   115.9829     2.4590
 2082.5000   -26.6900    10.9495     8.5125    10.2103   112.6446     2.4665
 2083.0000   -26.6376    10.9512     8.3675    10.2106   109.3934     2.4808
 2083.5000   -26.4421    11.1034     8.2225    10.2109   108.3003     2.4951
 2084.0000   -26.2732    11.1056     8.2287    10.2112   108.5287     2.4982
 2084.5000   -26.0858    11.1825     8.1574    10.2115   108.9795     2.4907
 2085.0000   -26.0957    11.1843     8.1636    10.2118   109.2079     2.4803
 2085.5000   -26.3162    11.1108     8.2435    10.2121   109.8769     2.4848
 2086.0000   -26.5085    10.9622     8.1734    10.1976   110.1054     2.4834
 2086.5000   -26.7256    10.8136     8.1796    10.1980   108.5738     2.4789
 2087.0000   -26.8597    10.6654     8.1096    10.2032   107.9191     2.4670
 2087.5000   -26.7891    10.3669     7.9646    10.2132   108.1498     2.4707
 2088.0000   -26.6224    10.3686     7.8208    10.2135   108.8206     2.4820
 2088.5000   -26.4939    10.2947     7.8257    10.1991   109.2694     2.4806
 2089.0000   -26.2717    10.2218     7.8306    10.1994   109.9383     2.4754
 2089.5000   -26.2331    10.2240     7.8368    10.1998   110.3891     2.4702
 2090.0000   -26.0882    10.2257     7.8417    10.2000   110.8378     2.4672
 2090.5000   -25.9720    10.2275     7.8467    10.2003   111.2865     2.4703
 2091.0000   -25.8931    10.2297     7.7017    10.2153   111.5170     2.4696
 2091.5000   -25.8834    10.2314     7.4067    10.2156   110.8644     2.4599
 2092.0000   -25.8138    10.1580     7.2617    10.2306   108.0092     2.4554
 2092.5000   -25.7404     9.9339     7.3429    10.2603   105.3485     2.4644
 2093.0000   -25.6670     9.7857     7.3478    10.2753   104.9419     2.4735
 2093.5000   -25.5938     9.9497     7.2778    10.2903   105.6129     2.4780
 2094.0000   -25.5195     9.7834     7.2077    10.2906   106.0672     2.4766
 2094.5000   -25.4949     9.8578     7.1377    10.2909   106.9529     2.4691
 2095.0000   -25.5617     9.9774     7.1439    10.2912   107.6219     2.4617
 2095.5000   -25.6304     9.4737     7.2999    10.2768   108.5111     2.4700
 2096.0000   -25.7437     9.4737     7.4548    10.2624   110.2835     2.4723
 2096.5000   -26.1074     9.6241     7.6096    10.2479   111.6133     2.4791
 2097.0000   -26.4722     9.6992     7.6897    10.2482   112.7228     2.4844
 2097.5000   -26.8420     9.7744     7.6195    10.2191   113.6141     2.4837
 2098.0000   -26.5205     9.7744     7.4757    10.1900   113.8425     2.4874
 2098.5000   -26.1243     9.6992     7.4806    10.1750   113.1899     2.4927
 2099.0000   -25.9234     9.7744     7.4858    10.1612   112.0835     2.4913
 2099.5000   -25.9217     9.8496     7.4917    10.1615   108.5828     2.4846
 2100.0000   -26.0680     9.9248     7.6466    10.1618   105.7255     2.4959
 2100.5000   -25.9190     9.7744     7.7265    10.1915   106.6168     2.5042
 2101.0000   -25.6227     9.6241     7.6564    10.1918   107.7284     2.5102
 2101.5000   -25.4740     9.6241     7.5114    10.1921   107.9548     2.5163
 2102.0000   -25.3254     9.6241     7.6462    10.2071   106.8637     2.5186
 2102.5000   -25.4713     9.6241     7.4963    10.2047   106.6516     2.5089
 2103.0000   -25.6172     9.6241     7.3463    10.2007   107.5429     2.5224
 2103.5000   -25.9103     9.6241     7.3463    10.1966   107.9916     2.5292
 2104.0000   -26.0559     9.6241     7.4963    10.1795   107.5387     2.5345
 2104.5000   -26.2018     9.6241     7.6462    10.1650   106.9067     2.5195
 2105.0000   -26.0528     9.7744     7.7211    10.1654   105.5953     2.4956
 2105.5000   -25.9041     9.8011     7.7961    10.1659   103.6211     2.4799
 2106.0000   -25.9027     9.9248     7.8711    10.1662   105.8340     2.4987
 2106.5000   -25.9013     9.9248     7.9460    10.1666   108.0449     2.5055
 2107.0000   -25.7523     9.9248     8.0210    10.1669   109.5949     2.5108
 2107.5000   -25.6037    10.0307     8.0960    10.1526   109.1646     2.5123
 2108.0000   -25.4550    10.0752     8.0960    10.1529   107.8512     2.4988
 2108.5000   -25.3063    10.2256     8.0960    10.1533   106.7581     2.4876
 2109.0000   -25.4523    10.3008     8.0960    10.1390   106.1055     2.4779
 2109.5000   -25.8924    10.3759     8.1711    10.1247   105.8934     2.4855
 2110.0000   -26.0383    10.5263     8.2459    10.1250   105.9036     2.4848
 2110.5000   -26.0368    10.6767     8.3958    10.1254   106.1322     2.4781
 2111.0000   -25.8879    10.8271     8.3958    10.1258   106.3626     2.4661
 2111.5000   -25.8865    10.8271     8.4708    10.1261   107.0316     2.4737
 2112.0000   -25.8851    10.9774     8.4708    10.1265   106.5356     2.4782
 2112.5000   -25.7361    11.0212     8.4708    10.1121   106.3299     2.4767
 2113.0000   -25.5874    11.1278     8.4708    10.1125   106.3480     2.4843
 2113.5000   -25.2915    10.9774     8.3875    10.1129   105.4852     2.4948
 2114.0000   -24.9956    10.8271     8.2459    10.1132   105.0555     2.4799
 2114.5000   -24.8466    10.6767     8.0960    10.1136   104.6295     2.4664
 2115.0000   -24.9928    10.5263     8.0960    10.1140   103.9869     2.4485
 2115.5000   -24.9912    10.2256     8.0960    10.0997   104.4456     2.4575
 2116.0000   -24.9897    10.0752     8.0960    10.1147   105.5615     2.4726
 2116.5000   -24.9880    10.0000     8.0210    10.1151   107.9989     2.4756
 2117.0000   -24.8393    10.0752     7.9460    10.1007   109.7755     2.4742
 2117.5000   -24.9855    10.2256     7.9460    10.1011   110.6748     2.4712
 2118.0000   -24.9838    10.3008     8.0960    10.0868   110.9096     2.4757
 2118.5000   -24.8348    10.5263     8.2459    10.0872   111.3646     2.4720
 2119.0000   -24.9810    10.7519     8.3958    10.0875   112.0400     2.4818
 2119.5000   -24.9793    10.9774     8.5457    10.0879   113.8202     2.4976
 2120.0000   -25.1350    11.1278     8.6957    10.0883   116.6982     2.5052
 2120.5000   -25.2711    11.4286     8.7706    10.0886   116.2722     2.5120
 2121.0000   -25.4170    11.5789     8.8501    10.0890   115.8462     2.5165
 2121.5000   -25.4153    11.7293     8.9955    10.0893   114.7312     2.5031
 2122.0000   -25.4138    11.9549     9.1454    10.0898   113.6763     2.4904
 2122.5000   -25.2649    12.0721     9.2204    10.0901   113.0300     2.4836
 2123.0000   -25.2635    12.1805     9.3039    10.0905   112.1635     2.4844
 2123.5000   -24.9676    12.1805     9.4453    10.0908   110.7884     2.4822
 2124.0000   -24.9444    12.2556     9.4453    10.0912   107.3504     2.4755
 2124.5000   -24.6699    12.2556     9.4453    10.0916   106.7005     2.4666
 2125.0000   -24.5212    12.1805     9.2954    10.0919   107.3795     2.4614
 2125.5000   -24.5199    12.2097     9.2954    10.0923   107.3605     2.4674
 2126.0000   -24.8127    12.2556     9.2204    10.0632   105.8667     2.4735
 2126.5000   -24.9589    12.1805     9.1454    10.0636   106.9862     2.4735
 2127.0000   -25.1048    12.1053     9.2954    10.0640   108.5426     2.4728
 2127.5000   -25.2504    12.0301     9.2954    10.0644   108.7773     2.4721
 2128.0000   -25.1014    12.0882     9.5202    10.0647   106.5929     2.4751
 2128.5000   -24.9527    12.1805     9.7459    10.0651   105.2858     2.4797
 2129.0000   -24.9513    12.4812     9.8951    10.0654   105.7409     2.4880
 2129.5000   -24.9499    12.7820    10.1199    10.0659   106.8732     2.4963
 2130.0000   -24.9482    12.9323    10.2699    10.0662   108.8573     2.5001
 2130.5000   -24.9468    13.0827    10.4948    10.0665   111.2947     2.4994
 2131.0000   -24.7982    13.0827    10.4948    10.0670   113.0714     2.4964
 2131.5000   -25.0981    13.2331    10.5697    10.0673   114.6278     2.4920
 2132.0000   -25.6787    13.2331    10.5697    10.0677   112.2230     2.4920
