~VERSION INFORMATION
 VERS.                2.0:   CWLS LOG ASCII STANDARD - VERSION 2.0
 WRAP.                 NO:   ONE LINE PER DEPTH STEP
~WELL INFORMATION
#MNEM.UNIT      DATA TYPE    INFORMATION
#----------   ------------   ------------------------------
 STRT.F           27.5000:   START DEPTH
 STOP.F         5889.0000:   STOP DEPTH
 STEP.F            0.5000:   STEP LENGTH
 NULL.          -999.2500:   NO VALUE
 COMP.   LAWRENCE ALLISON:   COMPANY
 WELL. LAWRENCE "X" #25-11:   WELL
 FLD .        N.P.R NO. 3:   FIELD
 LOC .      S11 T38N R78W:   LOCATION
 CNTY.            NATRONA:   COUNTY
 STAT.            WYOMING:   STATE
 CTRY. UNITED STATES OF AMERICA:   COUNTRY
 SRVC.      DRESSER ATLAS:   SERVICE COMPANY
 DATE.        09-FEB-1983:   LOGDATE
 API .     49025109170000:   API NUMBER
~CURVE INFORMATION
#MNEM.UNIT       API CODE    CURVE DESCRIPTION
#----------   ------------   ------------------------------
 DEPT.F                  :   
 CN  .DEC    42 890 03 00:   NEUTRON POROSITY
 GRD .GAPI   45 310 01 00:   GAMMA RAY FROM DENSITY LOG
 CORR.G/C3   45 356 01 00:   DENSITY CORRECTION
 DEN .G/C3   45 350 01 00:   BULK DENSITY
 CALD.IN     45 280 60 00:   CALIPER FROM DENSITY LOG
 TEND.LBS    45 635 01 00:   TENSION FORM DENSITY LOG
 GRS .GAPI   60 310 01 00:   GAMMA RAY FROM SONIC LOG
 TENS.LBS    60 635 01 00:   TENSION FROM SONIC
 DT  .US/F   60 520 00 00:   DELTA TIME
 SPR .MV     11 010 01 00:   SPONTANEOUS POTENTIAL FROM RES.
 RD  .OHMM   11 220 10 00:   RESISTIVITY DEEP
 RS  .OHMM   11 220 09 00:   RESISTIVITY SHALLOW
 RMLL.OHMM   11 270 04 00:   MICRO LATEROLOG
 TENR.LBS    11 635 01 00:   TENSION FROM RES.
~PARAMETER INFORMATION
#MNEM.UNIT          VALUE    DESCRIPTION
#----------   ------------   ------------------------------
 EKB .F         5196.0000:   Kelly bushing
 EGL .F         5186.0000:   Ground level
 TD  .F         5883.0000:   Total depth
 CLNT.            A2DTECH:   Client Code
 SL  . 1989' FSL & 1148' FWL:   Surface Location
 PD  .                 GL:   Permanent Datum
 EPD .F              5186:   Elevation Permanent Datum
 LMF .                 KB:   Log Measured From
 DMF .                 KB:   Drilling Measured From
 DAPD.F                10:   Feet Above Permanent Datum
 DATE.        09-FEB-1983:   Date Logged [DD-MMM-YYYY]
 DD  .F              5883:   Depth driller
 DL  .F              5882:   Depth logger
 BLI .F              5871:   Bottom log interval
 TLI .F               700:   Top log interval
 CS1 .IN            9.625:   Casing size
 CBD1.      9.625" @ 701':   Casing driller 1
 CBL1.F               700:   Casing logger 1
 BS1 .IN             8.75:   Bit size
 BSD1.F              5883:   Depth drilled with bit1
 DFT .    HEC/DRISPAC/KCL:   Type fluid in hole
 DFD .                  9:   Density
 DFV .                 35:   Viscosity
 DFPH.                  8:   pH
 DFL .                6.4:   Fluid loss
 MSS .           FLOWLINE:   Source of sample
 RMS .OHMM           0.23:   Rm
 MST .F                50:   Rm Meas. temp.
 RMF .OHMM           0.17:   Rmf
 MFST.F                54:   Rmf Meas. temp.
 MFSS.               MEAS:   Source Rmf.
 BHT .F               176:   BHT.
 TCS .HRS              10:   Time Circ. stopped
 MRT .F               176:   Maximum recorded temp.
 LUN .               6274:   Logging unit number
 LUL .               GLTE:   Logging unit location
 ENGI.          TOLLEFSON:   Recorded By
 WITN.           JENNINGS:   Witnessed by
 ORIG.           5" PRINT:   Origin of data
 UWI .     49025109170000:   Unique Well ID
 DICO. A2D TECHNOLOGIES, INC.:   Digitizing Company
 RMC .OHMM           0.41:   Rmc
 MCST.F                54:   Rmc Meas. temp.
 MCSS.               MEAS:   Source Rmc.
~OTHER INFORMATION
~A  DEPTH       CN        GRD       CORR        DEN       CALD       TEND        GRS       TENS         DT        SPR         RD         RS       RMLL       TENR
# ...
 5515.5000     0.1711   110.2197     0.0834     2.7311     9.1100   -40.8651    98.0648   -46.9126    64.1329   -58.3092    23.4755    13.7395     7.2524   -84.4646
 5516.0000     0.1727   112.3757     0.0984     2.7319     9.1100   -39.9580    98.0470   -54.5181    64.2822   -58.4552    22.8251    13.0938     7.1461   -76.9941
 5516.5000     0.1736   114.8869     0.1045     2.7274     9.1100   -39.0509    97.4622   -54.5934    64.4313   -58.7489    22.0375    12.7396     7.0905   -69.5434
 5517.0000     0.1769   116.9997     0.0985     2.7252     9.1100   -38.1439    96.9128   -54.6687    64.4305   -59.0436    21.5758    12.4811     6.6867   -69.6161
 5517.5000     0.1799   118.5498     0.0908     2.7343     9.1100   -37.2368    97.5503   -54.7440    64.3547   -59.2056    21.2707    12.2284     6.2031   -62.1291
 5518.0000     0.1817   119.1908     0.0791     2.7426     9.1100   -36.3297    98.4464   -54.8193    64.2039   -59.6320    20.9698    11.9807     6.7350   -54.6784
 5518.5000     0.1829   119.2747     0.0761     2.7479     9.1100   -35.4582    99.5906   -54.8946    64.1284   -59.9284    20.9614    11.8181     7.1632   -54.7511
 5519.0000     0.1858   116.8364     0.0897     2.7615     9.1100   -35.4582    98.6122   -54.9699    64.5775   -60.2233    21.2434    11.7402     7.4616   -54.8265
 5519.5000     0.1926   112.3345     0.1033     2.7713     9.1058   -35.4582    97.1973   -55.0452    64.4268   -60.5183    21.3825    11.7442     7.1013   -54.9144
 5520.0000     0.1878   109.0361     0.1138     2.7744     9.0923   -35.4582    96.6129   -55.1205    63.9009   -60.8117    21.5248    11.8288     6.9487   -54.9871
 5520.5000     0.1824   106.6468     0.1199     2.7669     9.0974   -35.4582    95.5039   -55.1958    63.2249   -61.1068    21.9658    11.9146     7.4406   -55.0597
 5521.0000     0.1747   105.4608     0.1079     2.7617     9.1068   -35.4582    93.7454   -55.2711    62.5490   -61.1007    22.4307    11.9177     8.7827   -55.1323
 5521.5000     0.1650   106.1106     0.0959     2.7557     9.1136   -35.4582    92.2815   -55.3464    62.0231   -61.0936    22.7217    11.9208    10.0828   -47.6621
 5522.0000     0.1590   106.7515     0.0899     2.7535     9.1190   -35.4582    91.1099   -47.8908    62.1724   -60.9374    22.3981    12.0067     9.6628   -47.7376
 5522.5000     0.1566   106.7879     0.0960     2.7520     9.1245   -37.4502    95.5392   -40.1731    62.5468   -60.9316    21.3298    12.0937     8.7598   -47.8130
 5523.0000     0.1578   106.2240     0.1081     2.7503     9.1298   -42.5299    98.1989   -32.7768    63.0711   -60.7754    20.0331    11.7666     8.1070   -47.8995
 5523.5000     0.1593   105.6441     0.1278     2.7348     9.1300   -44.2650    99.0914   -25.5268    63.6705   -60.6192    18.9136    11.4488     7.8232   -47.9722
 5524.0000     0.1608   105.3760     0.1142     2.7213     9.1300   -41.5915    97.9220   -25.6024    64.2699   -60.6134    17.6696    11.2160     8.4370   -48.0392
 5524.5000     0.1635   106.3287     0.1052     2.7153     9.1300   -38.9180    96.7504   -40.7965    64.8693   -60.6075    16.9438    10.7636     8.7884   -48.1146
 5525.0000     0.1675   108.1818     0.0782     2.7236     9.1300   -36.2445    97.9396   -55.8735    65.4687   -60.7521    15.8039    10.1163     8.8439   -48.1900
 5525.5000     0.1762   109.4798     0.0722     2.7380     9.1300   -33.5710    99.4212   -55.9489    66.0681   -60.7449    14.3379     8.9342     8.7731   -48.2655
 5526.0000     0.1822   109.1607     0.0918     2.7433     9.1300   -30.8975   100.6082   -56.0243    66.7426   -60.7390    12.9169     8.1677     7.4713   -48.3535
 5526.5000     0.1861   108.5896     0.1084     2.7343     9.1300   -28.2239   102.9734   -56.0998    67.4170   -60.7332    12.1317     7.4673     6.3363   -48.4261
 5527.0000     0.1880   109.2393     0.1022     2.7208     9.1300   -25.5504   101.8040   -56.1752    67.4914   -60.7274    11.7956     7.2149     5.3056   -48.4988
 5527.5000     0.1934   109.9293     0.0965     2.7133     9.1300   -22.8750    97.1000   -56.2506    67.1904   -60.5712    12.1229     7.0198     4.9798   -48.5714
 5528.0000     0.1968   111.1331     0.1055     2.7103     9.1300   -20.1966    91.5123   -56.3260    66.6645   -60.4150    12.6314     7.0710     5.2233   -48.6440
 5528.5000     0.2012   109.9559     0.1026     2.7180     9.1300   -17.5299    91.8157   -48.8705    65.6135   -60.2586    13.2522     7.2212     5.5555   -48.7180
 5529.0000     0.1952   108.4756     0.1116     2.7315     9.1300   -16.1853    92.4136   -48.9468    64.7125   -59.9508    13.7137     7.4776     5.6676   -56.3489
 5529.5000     0.1874   106.6924     0.1252     2.7308     9.1300   -18.7251    92.4224   -49.0222    64.0366   -59.7946    14.2899     7.6895     5.5415   -56.4102
 5530.0000     0.1768   105.8182     0.1206     2.7256     9.1300   -21.2649    91.8421   -49.0977    63.5858   -59.3377    14.6869     7.8691     5.5015   -56.4857
 5530.5000     0.1715   105.2470     0.1013     2.7226     9.1300   -23.8048    89.7891   -49.1731    63.6602   -59.0311    14.8844     8.1882     5.4967   -53.3837
 5531.0000     0.1685   102.5634     0.0727     2.7219     9.1300   -25.4980    89.2066   -41.7169    63.7345   -58.5742    15.1893     8.5376     5.5700   -49.0950
 5531.5000     0.1709    99.5680     0.0442     2.7220     9.1300   -25.4980    88.0394   -41.7938    63.7335   -58.1172    15.7183     8.9640     5.8007   -49.1704
 5532.0000     0.1803    96.8756     0.0578     2.7166     9.1300   -25.4980    85.3972   -34.3374    63.7328   -57.8105    16.6071     9.2971     6.0844   -49.2459
 5532.5000     0.1923    95.0924     0.0834     2.7114     9.1300   -25.4980    84.2256   -26.8844    63.8072   -57.5026    17.4251     9.7452     6.2071   -49.3340
 5533.0000     0.1845    91.4967     0.0970     2.7055     9.1300   -18.3727    82.7639   -26.9598    63.7313   -57.1961    18.3052    10.0913     5.9473   -49.4066
 5533.5000     0.1764    88.5013     0.1015     2.7018     9.1300    -6.6503    81.5945   -49.6257    63.6555   -56.8895    19.4495    10.3772     6.1950   -49.4721
 5534.0000     0.1713    86.1120     0.0610     2.6966     9.1300     4.3825    80.4251   -57.2312    63.4297   -56.7333    20.4075    10.8956     6.5889   -49.5475
 5534.5000     0.1749    83.4196     0.0370     2.6936     9.1300   -13.5458    78.3720   -57.3066    62.6788   -56.2763    21.2649    11.2821     7.0079   -49.6245
 5535.0000     0.1800    80.1212     0.0325     2.7170     9.1300   -19.6125    73.3735   -49.8494    61.8076   -56.1202    22.1584    11.8451     7.2998   -44.5009
 5535.5000     0.1770    76.6758     0.0731     2.7924     9.1300   -24.2304    62.7785   -34.8671    60.0850   -55.9639    24.3443    12.5231     7.7701   -42.2323
 5536.0000     0.1545    70.1998     0.0972     2.8557     9.1300   -29.7502    41.5796   -34.9425    56.8988   -55.6571    37.9960    13.4238     9.4205   -42.3191
 5536.5000     0.1106    56.3534     0.1063     2.9250     9.1300   -35.6114    25.9772   -27.4849    53.4023   -55.3494    72.8238    15.4210    19.5182   -42.3917
 5537.0000     0.0656    37.2422     0.1033     2.9792     9.1300   -41.4726    16.5604   -27.5633    50.9336   -54.8924   229.8000    21.8020    38.5203   -42.4644
 5537.5000     0.0400    23.6407     0.1259     3.0922     9.1300   -47.3337    12.7401   -27.6387    50.3588   -54.4355  1177.4010    56.6677   723.5788   -42.5370
 5538.0000     0.0250    13.3726     0.1576     3.1458     9.1300   -53.1949    13.3380   -42.7743    50.2206   -53.9785  1468.9041   242.4164  1946.6055   -42.6096
 5538.5000     0.0211     9.7711     0.1832     3.1556     9.1300   -52.2940    14.8195   -57.9100    50.3063   -53.5216  1702.4706  1312.0720  1944.9155   -42.6847
 5539.0000     0.0205     8.5939     0.1873     3.1202     9.1300   -47.3782    16.3011   -57.9855    50.4441   -53.0647  1176.0070  1707.0701  1929.7762   -42.7730
 5539.5000     0.0218     8.6376     0.1652     3.0962     9.1300   -42.4624    20.1391   -58.0609    50.5289   -52.4571   323.4890   974.9343  1928.1027   -42.8456
