~VERSION INFORMATION
 VERS.                2.0:   CWLS LOG ASCII STANDARD - VERSION 2.0
 WRAP.                 NO:   ONE LINE PER DEPTH STEP
~WELL INFORMATION
#MNEM.UNIT      DATA TYPE    INFORMATION
#----------   ------------   ------------------------------
 STRT.F           15.0000:   START DEPTH
 STOP.F         3245.5000:   STOP DEPTH
 STEP.F            0.5000:   STEP LENGTH
 NULL.          -999.2500:   NO VALUE
 COMP. LAWRENCE ALLISON AND ASSOCIATES:   COMPANY
 WELL. LAWRENCE ALLISON 11 X34 #3-3:   WELL
 FLD .             NPR #3:   FIELD
 LOC .       S3 T38N R78W:   LOCATION
 CNTY.            NATRONA:   COUNTY
 STAT.            WYOMING:   STATE
 CTRY. UNITED STATES OF AMERICA:   COUNTRY
 SRVC.      DRESSER ATLAS:   SERVICE COMPANY
 DATE.        23-MAY-1985:   LOGDATE
 API .     49025110530000:   API NUMBER
~CURVE INFORMATION
#MNEM.UNIT       API CODE    CURVE DESCRIPTION
#----------   ------------   ------------------------------
 DEPT.F                  :   
 SPR .MV     07 010 01 00:   SPONTANEOUS POTENTIAL
 GRR .GAPI   07 310 01 00:   GAMMA RAY FROM RESISTIVITY
 SFL .OHMM   07 220 01 00:   SHALLOW FOCUSED LOG RES.
 ILD .OHMM   07 120 46 00:   INDUCTION LOG DEEP RESISTIVITY
 ILM .OHMM   07 120 44 00:   INDUCTION LOG MEDIUM RESISTIVITY
 TENR.LBS    07 635 01 00:   TENSION
 CALR.IN     07 280 01 00:   CALIPER FROM RESISTIVITY
 RHOB.G/C3   45 350 01 00:   BULK DENSITY
 CORR.G/C3   45 356 01 00:   DENSITY CORRECTION
 CNC .DEC    42 890 03 00:   NEUTRON POROSITY SANDSTONE
~PARAMETER INFORMATION
#MNEM.UNIT          VALUE    DESCRIPTION
#----------   ------------   ------------------------------
 EKB .F         5099.0000:   Kelly bushing
 EGL .F         5087.0000:   Ground level
 EDF .F            0.0000:   Drilling floor
 EPD .F         5087.0000:   Permanent datum
 TD  .F         3240.0000:   Total depth
 DATE.         2-MAY-1985:   Date logged
 CLNT.            A2DTECH:   Client Code
 PD  .                 GL:   Permanent Datum
 DD  .F              3239:   Depth driller
 DL  .F              3242:   Depth logger
 BLI .F              3240:   Bottom log interval
 TLI .F                15:   Top log interval
 CS1 .IN            8.625:   Casing size
 CBD1.      8.625" @ 487':   Casing driller 1
 CBL1.F               487:   Casing logger 1
 BSD1.F              3239:   Depth drilled with bit1
 DFT .            KCL GEL:   Type fluid in hole
 ENGI.      MACK. EDWARDS:   Recorded By
 WITN.         MR. STRONG:   Witnessed by
 ORIG.           5" PRINT:   Origin of data
 UWI .     49025110530000:   Unique Well ID
 DICO. A2D TECHNOLOGIES, INC.:   Digitizing Company
 DAPD.IN               12:   Feet Above Permanent Datum
 BS1 .              7.875:   Bit size
 DFD .                9.1:   Density
 DFV .                 35:   Viscosity
 DFPH.                  8:   pH
 DFL .                9.8:   Fluid loss
 MSS .           FLOWLINE:   Source of sample
 RMS .OHMM            .27:   Rm
 MST .F                68:   Rm Meas. temp.
 RMF .OHMM             .2:   Rmf
 MFST.F                68:   Rmf Meas. temp.
 MFSS.               MEAS:   Source Rmf.
 RMC .OHMM            .34:   Rmc
 MCST.F                68:   Rmc Meas. temp.
 MCSS.               CALC:   Source Rmc.
 RMB .OHMM            .15:   Rm. at BHT
 BHT .F               126:   BHT.
 TCS .HRS               3:   Time Circ. stopped
 MRT .F               126:   Maximum recorded temp.
 LUN .               6274:   Logging unit number
 LUL .               GLTE:   Logging unit location
~OTHER INFORMATION
~A   DEPT      SPR        GRR        SFL        ILD        ILM       TENR       CALR       RHOB       CORR        CNC   
# ...
 1020.0000   -73.5111    73.9295     7.3870     8.3284     6.8630   -48.2259  -999.2500  -999.2500  -999.2500  -999.2500
 1020.5000   -73.5111    74.8224     7.2528     8.2541     6.7385   -48.4183  -999.2500  -999.2500  -999.2500  -999.2500
 1021.0000   -73.5111    74.5248     7.2534     8.1805     6.7389   -48.6108  -999.2500  -999.2500  -999.2500  -999.2500
 1021.5000   -73.5111    74.5248     7.1216     8.1002     6.6166   -58.7928  -999.2500  -999.2500  -999.2500  -999.2500
 1022.0000   -73.5111    73.9295     7.1222     7.9526     6.3782   -59.0241  -999.2500  -999.2500  -999.2500  -999.2500
 1022.5000   -74.3048    72.1438     7.2548     7.7767     6.2623   -59.2168  -999.2500  -999.2500  -999.2500  -999.2500
 1023.0000   -74.5032    73.0367     7.2554     7.6046     6.2628   -59.4096  -999.2500  -999.2500  -999.2500  -999.2500
 1023.5000   -74.3048    75.7152     7.1238     7.4363     6.1490   -59.6024  -999.2500  -999.2500  -999.2500  -999.2500
 1024.0000   -74.3048    76.9057     6.8670     7.2717     6.1495   -59.7951  -999.2500  -999.2500  -999.2500  -999.2500
 1024.5000   -73.5111    70.6557     6.8674     7.1108     6.1499   -49.9971  -999.2500  -999.2500  -999.2500  -999.2500
 1025.0000   -74.3048    69.4652     6.7428     6.9954     6.0383   -50.1896  -999.2500  -999.2500  -999.2500  -999.2500
 1025.5000   -74.3048    71.2510     6.7432     6.9759     6.0386   -50.3821  -999.2500  -999.2500  -999.2500  -999.2500
 1026.0000   -74.1063    73.0367     6.7437     6.9565     6.0391   -60.5660  -999.2500  -999.2500  -999.2500  -999.2500
 1026.5000   -74.1063    75.4176     6.7441     6.9371     6.0394   -30.7842  -999.2500  -999.2500  -999.2500  -999.2500
 1027.0000   -73.9079    76.9057     6.6217     6.9178     6.0399   -40.9681  -999.2500  -999.2500  -999.2500  -999.2500
 1027.5000   -73.9079    76.3105     6.6219     6.8986     6.0404   -41.1605  -999.2500  -999.2500  -999.2500  -999.2500
 1028.0000   -73.7095    75.4176     6.5352     6.8711     6.0407   -41.3915  -999.2500  -999.2500  -999.2500  -999.2500
 1028.5000   -73.7095    74.8224     6.4497     6.8713     6.0412   -41.5839  -999.2500  -999.2500  -999.2500  -999.2500
 1029.0000   -73.5111    74.5248     6.5028     6.8717     6.0415   -41.7763  -999.2500  -999.2500  -999.2500  -999.2500
 1029.5000   -73.7095    73.9295     6.6241     6.8722     6.0420   -51.9615  -999.2500  -999.2500  -999.2500  -999.2500
 1030.0000   -73.7095    73.9295     6.6245     6.8727     6.0423   -62.1471  -999.2500  -999.2500  -999.2500  -999.2500
 1030.5000   -74.1063    75.4176     6.6250     6.8732     6.0428   -62.3013  -999.2500  -999.2500  -999.2500  -999.2500
 1031.0000   -74.1063    76.9057     6.6254     6.8737     5.9330   -52.5394  -999.2500  -999.2500  -999.2500  -999.2500
 1031.5000   -74.1063    75.4176     6.6259     6.8742     5.9334   -52.7320  -999.2500  -999.2500  -999.2500  -999.2500
 1032.0000   -74.1063    75.1200     6.6263     6.8747     5.9338   -52.9247  -999.2500  -999.2500  -999.2500  -999.2500
 1032.5000   -74.1063    76.3105     6.6268     6.8752     5.9342   -53.1173  -999.2500  -999.2500  -999.2500  -999.2500
 1033.0000   -74.7148    76.3105     6.5064     6.8757     5.9346   -53.3101  -999.2500  -999.2500  -999.2500  -999.2500
 1033.5000   -75.0984    75.1200     6.5069     6.8762     5.9350   -43.5085  -999.2500  -999.2500  -999.2500  -999.2500
 1034.0000   -75.4952    75.1200     6.5073     6.8767     5.9355   -43.7010  -999.2500  -999.2500  -999.2500  -999.2500
 1034.5000   -75.2968    75.4176     6.6287     6.8769     5.9358   -43.9320  -999.2500  -999.2500  -999.2500  -999.2500
 1035.0000   -75.2968    76.9057     6.6290     6.9148     5.9363   -54.1194  -999.2500  -999.2500  -999.2500  -999.2500
 1035.5000   -75.0984    76.3105     6.6296     6.9529     5.9366   -54.3121  -999.2500  -999.2500  -999.2500  -999.2500
 1036.0000   -74.9000    74.8224     6.6300     6.9913     5.9371   -44.5095  -999.2500  -999.2500  -999.2500  -999.2500
 1036.5000   -74.7016    73.3343     6.6305     7.0298     5.9374   -54.6976  -999.2500  -999.2500  -999.2500  -999.2500
 1037.0000   -74.3742    73.3343     6.7542     7.0686     5.9379   -54.8903  -999.2500  -999.2500  -999.2500  -999.2500
 1037.5000   -74.1063    73.9295     6.8800     7.1075     5.9382   -65.0790  -999.2500  -999.2500  -999.2500  -999.2500
 1038.0000   -74.3048    76.3105     6.8806     7.1385     5.9387   -65.2720  -999.2500  -999.2500  -999.2500  -999.2500
 1038.5000   -74.5032    75.1200     6.8810     7.1387     5.9390   -65.4650  -999.2500  -999.2500  -999.2500  -999.2500
 1039.0000   -74.3048    73.9295     6.7561     7.1135     5.9395   -65.6579  -999.2500  -999.2500  -999.2500  -999.2500
 1039.5000   -74.3048    73.3343     6.7565     7.0885     5.9398   -65.8895  -999.2500  -999.2500  -999.2500  -999.2500
 1040.0000   -74.1063    72.1438     6.6338     7.0635     5.9403   -46.0501  -999.2500  -999.2500  -999.2500  -999.2500
 1040.5000   -74.1063    75.7152     6.6342     7.0387     5.9406   -46.2812  -999.2500  -999.2500  -999.2500  -999.2500
 1041.0000   -73.9079    78.0962     6.5137     7.0139     5.8327   -46.4737  -999.2500  -999.2500  -999.2500  -999.2500
 1041.5000   -74.0853    77.7986     6.3953     6.9892     5.8332   -46.6663  -999.2500  -999.2500  -999.2500  -999.2500
 1042.0000   -74.1063    74.5248     6.5146     6.9646     5.8335   -56.8567  -999.2500  -999.2500  -999.2500  -999.2500
 1042.5000   -74.3048    70.0605     6.6360     6.9401     5.8340   -67.0474  -999.2500  -999.2500  -999.2500  -999.2500
 1043.0000   -74.5032    70.3581     6.6366     6.9157     5.8343   -77.2387  -999.2500  -999.2500  -999.2500  -999.2500
 1043.5000   -74.3048    73.3343     6.5160     6.8861     5.8347   -77.4319  -999.2500  -999.2500  -999.2500  -999.2500
 1044.0000   -74.1063    73.9295     6.5164     6.8685     5.8350   -67.6266  -999.2500  -999.2500  -999.2500  -999.2500
 1044.5000   -73.7095    76.6081     6.5169     6.8509     5.8357   -67.8197  -999.2500  -999.2500  -999.2500  -999.2500
 1045.0000   -73.7095    80.7748     6.5173     6.8334     5.8359   -58.0138  -999.2500  -999.2500  -999.2500  -999.2500
 1045.5000   -74.1302    82.5605     6.3990     6.8160     5.9446   -58.2067  -999.2500  -999.2500  -999.2500  -999.2500
 1046.0000   -74.3048    81.6676     6.3993     6.7985     6.0556   -78.3982  -999.2500  -999.2500  -999.2500  -999.2500
 1046.5000   -74.5032    76.0129     6.3998     6.7812     6.0559   -48.5929  -999.2500  -999.2500  -999.2500  -999.2500
 1047.0000   -74.3048    73.9295     6.4002     6.7638     6.0564   -58.8239  -999.2500  -999.2500  -999.2500  -999.2500
 1047.5000   -74.3048    74.5248     6.2842     6.7466     6.1692   -59.0168  -999.2500  -999.2500  -999.2500  -999.2500
 1048.0000   -74.1063    76.9057     6.2844     6.7293     6.1697   -59.2097  -999.2500  -999.2500  -999.2500  -999.2500
 1048.5000   -74.5032    79.5843     6.2848     6.7121     6.1701   -59.4026  -999.2500  -999.2500  -999.2500  -999.2500
 1049.0000   -74.7016    79.5843     6.2852     6.6950     6.0580   -59.5955  -999.2500  -999.2500  -999.2500  -999.2500
 1049.5000   -74.7016    79.8819     6.2857     6.6779     6.0585   -59.7884  -999.2500  -999.2500  -999.2500  -999.2500
 1050.0000   -74.7016    79.8819     6.2861     6.6608     5.9483   -79.9832  -999.2500  -999.2500  -999.2500  -999.2500
 1050.5000   -74.7016    79.8819     6.2866     6.6438     5.9488   -80.1948  -999.2500  -999.2500  -999.2500  -999.2500
 1051.0000   -74.5069    79.2864     6.2858     6.6420     5.9474   -79.8756  -999.2500  -999.2500  -999.2500  -999.2500
 1051.5000   -74.1121    78.0958     6.2851     6.5204     5.9468   -79.8107  -999.2500  -999.2500  -999.2500  -999.2500
 1052.0000   -73.9157    76.0127     6.2844     6.5197     5.9463   -69.7462  -999.2500  -999.2500  -999.2500  -999.2500
 1052.5000   -73.7193    77.7980     6.2837     6.4000     5.9457   -69.6813  -999.2500  -999.2500  -999.2500  -999.2500
 1053.0000   -73.7212    79.2857     6.2830     6.3996     5.8368   -59.6171  -999.2500  -999.2500  -999.2500  -999.2500
