~VERSION INFORMATION
 VERS.                2.0:   CWLS LOG ASCII STANDARD - VERSION 2.0
 WRAP.                 NO:   ONE LINE PER DEPTH STEP
~WELL INFORMATION
#MNEM.UNIT      DATA TYPE    INFORMATION
#----------   ------------   ------------------------------
 STRT.F            5.0000:   START DEPTH
 STOP.F         4012.0000:   STOP DEPTH
 STEP.F            0.5000:   STEP LENGTH
 NULL.          -999.2500:   NO VALUE
 COMP.   LAWRENCE ALLISON:   COMPANY
 WELL. LAWRENCE "X" 51 #1-15:   WELL
 FLD .                NPR:   FIELD
 LOC .      S15 T38N R78W:   LOCATION
 CNTY.            NATRONA:   COUNTY
 STAT.            WYOMING:   STATE
 CTRY. UNITED STATES OF AMERICA:   COUNTRY
 SRVC.      DRESSER ATLAS:   SERVICE COMPANY
 DATE.        03-JUN-1985:   LOGDATE
 API .     49025110270000:   API NUMBER
~CURVE INFORMATION
#MNEM.UNIT       API CODE    CURVE DESCRIPTION
#----------   ------------   ------------------------------
 DEPT.F                  :   
 NPHI.DEC    42 890 03 00:   NEUTRON POROSITY SANDSTONE
 RHOB.G/C3   45 350 01 00:   BULK DENSITY
 CORR.G/C3   45 356 01 00:   DENSITY CORRECTION
 TEND.LBS    45 635 01 00:   TENSION FROM DENSITY LOG
 CALD.IN     45 280 60 00:   CALIPER FROM DENSITY LOG
 GRR .GAPI   07 310 01 00:   GAMMA RAY FROM RESISTIVITY
 SPR .MV     07 010 01 00:   SPONTANEOUS POTENTIAL
 RSFL.OHMM   07 220 01 00:   SPHERICALLY FOCUSED LOG RES.
 RILD.OHMM   07 120 46 00:   DEEP INDUCTION RESISTIVITY
 RILM.OHMM   07 120 44 00:   INDUCTION LOG MEDIUM RESISTIVITY
 TENR.LBS    07 635 01 00:   TENSION
~PARAMETER INFORMATION
#MNEM.UNIT          VALUE    DESCRIPTION
#----------   ------------   ------------------------------
 EKB .F         5235.0000:   Kelly bushing
 EGL .F         5222.0000:   Ground level
 EDF .F            0.0000:   Drilling floor
 TD  .F         4010.0000:   Total depth
 DATE.        03-JUN-1985:   Date logged
 CLNT.            A2DTECH:   Client Code
 SL  . 202' FNL & 2478' FEL:   Surface Location
 PD  .                 GL:   Permanent Datum
 EPD .F              5222:   Elevation Permanent Datum
 LMF .                 KB:   Log Measured From
 DMF .                 KB:   Drilling Measured From
 DAPD.F                13:   Feet Above Permanent Datum
 DD  .F              4010:   Depth driller
 DL  .F              4005:   Depth logger
 BLI .F              4003:   Bottom log interval
 CS1 .IN            8.625:   Casing size
 CBD1.      8.625" @ 605':   Casing driller 1
 CBL1.F               608:   Casing logger 1
 BS1 .IN            7.875:   Bit size
 BSD1.F              4010:   Depth drilled with bit1
 DFT .            KCL/GEL:   Type fluid in hole
 DFD .                  9:   Density
 DFV .                 45:   Viscosity
 DFPH.                  8:   pH
 DFL .                9.8:   Fluid loss
 MSS .           FLOWLINE:   Source of sample
 RMS .OHMM            .40:   Rm
 MST .F                65:   Rm Meas. temp.
 RMF .OHMM            .32:   Rmf
 MFST.F                65:   Rmf Meas. temp.
 RMC .OHMM            .50:   Rmc
 MCST.F                65:   Rmc Meas. temp.
 MFSS.               MEAS:   Source Rmf.
 MCSS.               CALC:   Source Rmc.
 RMB .OHMM            .20:   Rm. at BHT
 BHT .F               130:   BHT.
 TCS .HRS               3:   Time Circ. stopped
 MRT .F               130:   Maximum recorded temp.
 LUN .               6274:   Logging unit number
 LUL .               GLTE:   Logging unit location
 ENGI.             RAUTIO:   Recorded By
 WITN.             STRONG:   Witnessed by
 ORIG.     2.5", 5" PRINT:   Origin of data
 UWI .     49025110270000:   Unique Well ID
 DICO. A2D TECHNOLOGIES, INC.:   Digitizing Company
~OTHER INFORMATION
~A    DEPT    NPHI       RHOB       CORR       TEND       CALD        GRR        SPR       RSFL       RILD       RILM       TENR   
# ...
 2841.5000     0.2040     2.5310     0.0720   -28.9990     9.6620   128.0930   -88.5120     5.9020     4.8830     5.2020   -77.3300
 2842.0000     0.2060     2.5250     0.0430   -29.6780     9.6680   127.9490   -88.8390     5.7880     4.9610     5.3650   -79.1120
 2842.5000     0.2030     2.5160     0.0050   -30.3580     9.6740   123.9650   -89.1700     5.6890     5.0390     5.5270   -80.8950
 2843.0000     0.1970     2.5170    -0.0140   -31.0380     9.6800   119.6930   -89.0920     5.7420     5.1170     5.6900   -82.6770
 2843.5000     0.1920     2.5350     0.0040   -31.7180     9.6860   110.5930   -88.9840     5.9020     5.1880     5.7420   -84.4600
 2844.0000     0.1940     2.5480     0.0180   -32.3970     9.6920   105.5970   -88.8780     7.1480     5.1880     5.6190   -74.5610
 2844.5000     0.2020     2.5490     0.0210   -33.0770     9.6980   110.4610   -88.7660     8.3760     5.1880     5.5360   -73.6840
 2845.0000     0.2200     2.5480     0.0160   -33.7570     9.7040   118.2080   -88.6300     7.6770     5.1410     5.4530   -72.8070
 2845.5000     0.2340     2.5420     0.0230   -34.4370     9.7100   126.0840   -88.4930     6.9230     5.0940     5.3700   -71.9300
 2846.0000     0.2390     2.5460     0.0350   -35.1160     9.7160   128.6060   -88.3560     6.2950     5.0230     5.2880   -71.0530
 2846.5000     0.2250     2.5490     0.0460   -35.7960     9.7220   128.1650   -88.2140     6.2950     4.9570     5.2240   -70.1750
 2847.0000     0.2170     2.5450     0.0480   -36.4760     9.7280   128.2140   -88.3960     6.2950     4.8910     5.1600   -69.2980
 2847.5000     0.2190     2.5400     0.0490   -37.1550     9.7340   128.5760   -88.7140     6.2620     4.8250     5.0960   -68.4210
 2848.0000     0.2220     2.5380     0.0490   -37.8350     9.7400   129.3320   -89.0360     6.2060     4.7580     5.0010   -67.5440
 2848.5000     0.2230     2.5380     0.0510   -38.5150     9.7460   130.5950   -89.3570     6.1510     4.6920     4.9090   -66.6670
 2849.0000     0.2250     2.5360     0.0480   -39.1950     9.7520   130.6140   -89.6850     6.0960     4.6260     4.8400   -65.7890
 2849.5000     0.2260     2.5330     0.0420   -39.8740     9.7580   130.4830   -89.6700     6.0400     4.5600     4.7740   -64.9120
 2850.0000     0.2280     2.5290     0.0350   -40.4190     9.7640   131.2200   -89.5140     5.9850     4.4940     4.7080   -64.0350
 2850.5000     0.2290     2.5230     0.0340   -34.8120     9.7700   134.2860   -89.3540     5.9300     4.4280     4.6420   -63.1580
 2851.0000     0.2270     2.5160     0.0210   -30.1330     9.7760   135.3330   -89.1940     5.9020     4.3620     4.5760   -62.2810
 2851.5000     0.2210     2.5130     0.0080   -25.4540     9.7820   136.6640   -89.0290     5.8260     4.3090     4.5100   -61.4040
 2852.0000     0.2130     2.5080     0.0010   -20.7750     9.7880   139.4140   -88.9170     5.6060     4.2570     4.4770   -60.5260
 2852.5000     0.2020     2.5060    -0.0050   -16.0960     9.7940   141.9090   -88.8130     5.3860     4.2060     4.5010   -59.6490
 2853.0000     0.2050     2.5080    -0.0120   -11.4170     9.8000   141.4590   -88.7990     5.2000     4.1650     4.5490   -58.7720
 2853.5000     0.2090     2.5060    -0.0140    -6.7380     9.8060   138.4190   -88.8110     5.3170     4.2330     4.5960   -57.8950
 2854.0000     0.2130     2.5000    -0.0060    -2.0590     9.8120   135.0720   -88.8230     5.4330     4.3000     4.6430   -57.0180
 2854.5000     0.2170     2.4940     0.0060     2.6200     9.8180   134.7820   -88.8350     5.5500     4.3660     4.6910   -56.1400
 2855.0000     0.2180     2.4910     0.0170     7.2990     9.8240   137.0120   -88.8480     5.6080     4.4330     4.7380   -55.2630
 2855.5000     0.2180     2.4940     0.0290    11.9780     9.8300   136.8480   -88.8600     5.6370     4.5000     4.7860   -49.8150
 2856.0000     0.2240     2.4900     0.0400    16.6570     9.8360   134.5520   -88.8720     5.6370     4.5670     4.8330   -42.4070
 2856.5000     0.2400     2.4820     0.0520    21.3360     9.8420   129.2880   -88.8850     5.6480     4.6330     4.8800   -35.0000
 2857.0000     0.2390     2.4780     0.0370    26.0150     9.8480   128.9350   -88.8970     5.7580     4.7000     4.9280   -27.5930
 2857.5000     0.2360     2.4840     0.0110    30.6940     9.8540   129.1710   -88.9090     5.8690     4.7670     4.9750   -20.1850
 2858.0000     0.2340     2.4910    -0.0140    35.3730     9.8600   130.3410   -88.9220     5.9790     4.8340     5.0230   -16.8750
 2858.5000     0.2310     2.4960    -0.0420    39.4210     9.8680   131.5580   -88.9340     6.0120     4.9010     5.0700   -23.1250
 2859.0000     0.2300     2.5000    -0.0510    33.0780     9.8770   131.9990   -88.9460     6.0120     4.9670     5.1160   -29.3750
 2859.5000     0.2310     2.5050    -0.0260    27.4890     9.8850   130.5690   -88.9580     6.0320     5.0150     5.1620   -35.6250
 2860.0000     0.2330     2.5100    -0.0040    21.9010     9.8940   126.3780   -88.9710     6.0980     5.0440     5.2070   -41.8750
 2860.5000     0.2340     2.5130     0.0140    16.3120     9.9000   122.1610   -88.9830     6.1650     5.0730     5.2530   -48.1250
 2861.0000     0.2230     2.5050     0.0080    10.7230     9.9000   121.7900   -88.9730     6.2330     5.0940     5.3010   -54.3750
 2861.5000     0.2140     2.5000     0.0030     5.1340     9.9000   122.0400   -88.9490     6.1950     5.0510     5.3560   -60.6250
 2862.0000     0.2040     2.5000    -0.0020    -0.4550     9.9000   122.3250   -88.9250     6.1810     5.0120     5.4120   -65.5170
 2862.5000     0.2150     2.5040    -0.0080    -6.0430     9.9000   121.8280   -88.9000     6.1810     5.0010     5.4780   -70.6900
 2863.0000     0.2250     2.5090     0.0010   -11.6320     9.9000   120.7200   -88.8750     6.2110     5.0010     5.4220   -75.8620
 2863.5000     0.2220     2.5100     0.0150   -17.2210     9.9000   117.4350   -88.8510     6.5150     5.0010     5.3350   -81.0340
 2864.0000     0.2160     2.5130     0.0270   -20.8370     9.9000   119.0430   -88.8260     6.8190     4.9720     5.2470   -86.2070
 2864.5000     0.2090     2.5180     0.0420   -21.7350     9.9000   120.8120   -88.8020     7.0010     4.9300     5.1600   -91.3790
 2865.0000     0.2030     2.5200     0.0350   -22.6330     9.9000   121.7910   -88.7770     6.4330     4.8640     5.0730   -94.1670
 2865.5000     0.2000     2.5160     0.0160   -23.5320     9.9000   122.7220   -88.7520     6.2280     4.7830     4.9860   -91.3890
 2866.0000     0.1980     2.5140    -0.0040   -24.4300     9.9000   123.6790   -88.7280     6.1240     4.6920     4.8980   -88.6110
 2866.5000     0.1910     2.5070    -0.0150   -25.3280     9.9010   123.2770   -88.7030     6.0400     4.6010     4.8200   -85.8330
 2867.0000     0.1850     2.5010    -0.0080   -26.2260     9.9140   122.1500   -88.6790     5.7960     4.5190     4.8200   -83.0560
 2867.5000     0.1900     2.4950    -0.0020   -27.1240     9.9280   120.9970   -88.6540     5.5550     4.5640     4.8420   -80.2780
 2868.0000     0.1960     2.4960     0.0000   -28.0230     9.9420   121.0780   -88.6290     5.3910     4.6550     4.9310   -77.5000
 2868.5000     0.2110     2.4980    -0.0090   -28.9210     9.9560   121.7450   -88.6060     5.4330     4.7460     5.0250   -75.2340
 2869.0000     0.2290     2.5000    -0.0400   -29.8190     9.9700   122.9260   -88.6450     5.5590     4.8370     5.1200   -77.5780
 2869.5000     0.2250     2.5020    -0.0530   -30.7170     9.9840   123.9440   -88.7680     5.7730     4.9280     5.2150   -79.9220
 2870.0000     0.2150     2.5100    -0.0340   -31.6150     9.9980   122.9020   -88.8890     6.0470     5.0440     5.3100   -82.2660
 2870.5000     0.2030     2.5140    -0.0170   -32.5140    10.0120   121.8360   -89.0100     6.2380     5.1730     5.4040   -84.6090
 2871.0000     0.2070     2.5160    -0.0030   -33.4120    10.0260   120.7590   -89.1320     6.2380     5.3010     5.5300   -86.9530
 2871.5000     0.2150     2.5180     0.0080   -34.3100    10.0400   118.8230   -89.2530     6.2380     5.4290     5.6680   -89.2970
