~VERSION INFORMATION
 VERS.                2.0:   CWLS LOG ASCII STANDARD - VERSION 2.0
 WRAP.                 NO:   ONE LINE PER DEPTH STEP
~WELL INFORMATION
#MNEM.UNIT      DATA TYPE    INFORMATION
#----------   ------------   ------------------------------
 STRT.F          164.0000:   START DEPTH
 STOP.F         3223.5000:   STOP DEPTH
 STEP.F            0.5000:   STEP LENGTH
 NULL.          -999.2500:   NO VALUE
 COMP.    FENIX & SCISSON:   COMPANY
 WELL. FENIX & SCISSON "AX" #64-34:   WELL
 FLD . NAVAL PETROLEUM RESERVE #3:   FIELD
 LOC .      S34 T39N R78W:   LOCATION
 CNTY.            NATRONA:   COUNTY
 STAT.            WYOMING:   STATE
 CTRY. UNITED STATES OF AMERICA:   COUNTRY
 SRVC.       SCHLUMBERGER:   SERVICE COMPANY
 DATE.        30-DEC-1980:   LOGDATE
 API .     49025108660000:   API NUMBER
~CURVE INFORMATION
#MNEM.UNIT       API CODE    CURVE DESCRIPTION
#----------   ------------   ------------------------------
 DEPT.F                  :   
 GRD .GAPI   45 310 01 00:   GAMMA RAY FROM DENSITY LOG
 RHOB.G/C3   45 350 01 00:   BULK DENSITY
 CALD.IN     45 280 60 00:   CALIPER FROM DENSITY LOG
 CORR.G/C3   45 356 01 00:   DENSITY CORRECTION
 SPR .MV     07 010 01 00:   SPONTANEOUS POTENTIAL
 TENR.LBS    06 635 01 00:   TENSION FROM RESISTIVITY
 ILD .OHMM   07 120 46 00:   DEEP INDUCTION RESISTIVITY
 ILM .OHMM   07 120 44 00:   INDUCTION LOG MEDIUM RESISTIVITY
 SFL .OHMM   07 220 01 00:   SHALLOW FOCUSED LOG RESISTIVITY
~PARAMETER INFORMATION
#MNEM.UNIT          VALUE    DESCRIPTION
#----------   ------------   ------------------------------
 EKB .F         5088.0000:   Kelly bushing
 EGL .F         5078.0000:   Ground level
 TD  .F         3225.0000:   Total depth
 CLNT.            A2DTECH:   Client Code
 SL  . 3107' FSL & 3680' FWL:   Surface Location
 PD  .                 GL:   Permanent Datum
 EPD .F              5078:   Elevation Permanent Datum
 LMF .                 KB:   Log Measured From
 DMF .                 KB:   Drilling Measured From
 DAPD.F                10:   Feet Above Permanent Datum
 DATE.        30-DEC-1980:   Date Logged [DD-MMM-YYYY]
 DD  .F              3225:   Depth driller
 DL  .F              3225:   Depth logger
 BLI .F              3219:   Bottom log interval
 TLI .F               190:   Top log interval
 CS1 .IN            8.625:   Casing size
 CBD1.      8.625" @ 205':   Casing driller 1
 CBL1.F               190:   Casing logger 1
 BS1 .IN            7.875:   Bit size
 BSD1.F              3225:   Depth drilled with bit1
 DFT .              FRESH:   Type fluid in hole
 DFD .                  9:   Density
 DFV .                 46:   Viscosity
 MSS .           MUD TANK:   Source of sample
 RMS .OHMM           2.47:   Rm
 MST .F                57:   Rm Meas. temp.
 RMF .OHMM           1.45:   Rmf
 MFST.F                57:   Rmf Meas. temp.
 MFSS.               MEAS:   Source Rmf.
 RMB .OHMM            1.2:   Rm. at BHT
 BHT .F               124:   BHT.
 TCS .HRS            0400:   Time Circ. stopped
 MRT .F               124:   Maximum recorded temp.
 LUN .               8034:   Logging unit number
 LUL .               CSPR:   Logging unit location
 ENGI.             LARSON:   Recorded By
 WITN.              FIVAS:   Witnessed by
 ORIG.        2" 5" PRINT:   Origin of data
 UWI .     49025108660000:   Unique Well ID
 DICO. A2D TECHNOLOGIES, INC:   Digitizing Company
 TLAB.HRS            2030:   Time logger at bottom
~OTHER INFORMATION
~A   DEPT       GRD      RHOB       CALD       CORR        SPR       TENR        ILD        ILM        SFL   
# ...
 1003.5000    93.6040     2.5649     8.7294     0.0437   -64.9651   984.5788    10.3589    10.3601    10.8585
 1004.0000    94.1803     2.5710     8.7125     0.0414   -65.1017   985.1828    10.4252    10.4279    11.0855
 1004.5000    93.8552     2.5702     8.7264     0.0396   -65.2360   985.7869    10.4940    10.4961    11.4228
 1005.0000    92.7756     2.5624     8.7242     0.0389   -65.3867   986.3909    10.5591    10.6413    11.8935
 1005.5000    90.4821     2.5391     8.7221     0.0393   -65.7940   986.9950    10.7034    10.7866    12.2321
 1006.0000    89.2504     2.5158     8.7052     0.0406   -66.3096   987.5990    10.6923    10.7792    12.2229
 1006.5000    89.8405     2.5065     8.7034     0.0428   -66.7070   988.2031    10.6835    10.7700    11.7814
 1007.0000    91.0328     2.5057     8.7169     0.0460   -66.7706   988.8071    10.6747    10.6852    11.0810
 1007.5000    92.2294     2.5079     8.7151     0.0486   -66.7708   989.4113    10.6660    10.6011    10.6326
 1008.0000    94.3365     2.5141     8.6982     0.0498   -66.7822   990.0153    10.5693    10.5177    10.4726
 1008.5000    95.7030     2.5451     8.6964     0.0506   -66.3673   990.6194    10.4187    10.3599    10.3895
 1009.0000    94.7528     2.5559     8.6794     0.0506   -66.1534   991.2234    10.3354    10.2566    10.2331
 1009.5000    93.3697     2.5458     8.6926     0.0498   -65.8342   991.8275    10.1792     9.9775    10.2251
 1010.0000    93.6559     2.5326     8.6909     0.0372   -65.4338   992.4315     9.9535     9.8990    10.2157
 1010.5000    94.0938     2.5116     8.7042     0.0044   -65.0436   993.0356     9.8028     9.7505    10.2080
 1011.0000    94.0759     2.5177     8.7021     0.0044   -64.7208   993.6396     9.5837     9.6738    10.2003
 1011.5000    93.9031     2.5293     8.7004     0.0036   -64.7403   994.2443     9.4389     9.5207    10.1926
 1012.0000    93.7340     2.5456     8.6987     0.0023   -64.5920   994.8491     9.2962     9.3842    10.1847
 1012.5000    93.4132     2.5517     8.7121     0.0005   -64.4166   995.4644     9.2886     9.3777    10.1753
 1013.0000    93.0924     2.5447     8.7255    -0.0003   -64.3228   995.2081     9.2807     9.3718    10.1685
 1013.5000    92.9226     2.5424     8.7233    -0.0003   -64.3142   993.7535     9.2714     9.3648    10.1605
 1014.0000    93.6604     2.5415     8.7216    -0.0003   -64.3166   992.2988     9.2638     9.3582    10.1523
 1014.5000    95.0087     2.5400     8.7200    -0.0003   -64.5875   990.8441     9.2561     9.3503    10.1444
 1015.0000    97.7228     2.5399     8.7182    -0.0004   -64.7344   989.3895     9.2487     9.4115    10.1351
 1015.5000    98.6161     2.5422     8.7164    -0.0003   -64.7226   987.9348     9.2407     9.4051    10.1274
 1016.0000    98.2908     2.5484     8.7142     0.0027   -64.8603   986.4801     9.2333     9.3986    10.1203
 1016.5000    96.1490     2.5460     8.7125     0.0047   -65.0346   985.0255     9.2914     9.3921    10.1121
 1017.0000    94.0073     2.5382     8.7109     0.0085   -65.2092   983.5708     9.3499     9.3853    10.1043
 1017.5000    92.7760     2.5297     8.7091     0.0121   -65.3835   982.1161     9.3424     9.3776    10.0950
 1018.0000    94.1244     2.5343     8.7073     0.0145   -65.5586   980.6615     9.3343     9.3712    10.0874
 1018.5000    95.9280     2.5427     8.7207     0.0171   -65.7396   979.2068     9.3263     9.3647    10.0797
 1019.0000    94.6924     2.5489     8.7186     0.0183   -65.7527   977.7521     9.3846     9.3582     9.9998
 1019.5000    92.3989     2.5442     8.7168     0.0178   -65.9517   976.2975     9.3768     9.3502     9.9920
 1020.0000    91.7746     2.5318     8.7152     0.0157   -66.1255   974.8428     9.4371     9.4130     9.9111
 1020.5000    92.0607     2.5147     8.7133     0.0144   -65.9864   973.3881     9.4289     9.4050     9.8334
 1021.0000    91.1286     2.5185     8.7115     0.0144   -65.5973   971.9335     9.4208     9.3985     9.8251
 1021.5000    89.8973     2.5208     8.7096     0.0146   -65.3278   970.4788     9.4126     9.4600     9.8177
 1022.0000    88.6660     2.5239     8.7230     0.0151   -64.9486   969.0241     9.3364     9.3839     9.8101
 1022.5000    91.3801     2.5339     8.7211     0.0174   -64.5709   967.5695     9.3287     9.3775     9.8023
 1023.0000    92.8892     2.5579     8.7193     0.0185   -64.0913   966.1147     9.3884     9.3718     9.7937
 1023.5000    94.3760     2.5687     8.7172     0.0198   -64.0300   964.6601     9.3802     9.3646     9.7863
 1024.0000    94.6665     2.5671     8.7309     0.0213   -63.8828   963.2054     9.3710     9.3582     9.7790
 1024.5000    94.6448     2.5547     8.7445     0.0224   -63.7286   961.7507     9.2961     9.2749     9.7712
 1025.0000    94.3240     2.5314     8.7575     0.0237   -63.7065   960.2961     9.2218     9.2099     9.6922
 1025.5000    93.2280     2.5267     8.7406     0.0244   -63.8548   958.8414     9.1142     9.0717     9.6153
 1026.0000    92.1649     2.5375     8.7219     0.0244   -63.9092   957.3867     9.0080     8.9357     9.4706
 1026.5000    93.5090     2.5545     8.7064     0.0244   -64.0992   955.9321     8.8719     8.8016     9.3955
 1027.0000    94.5539     2.5537     8.7047     0.0244   -63.9101   954.4774     8.8010     8.7887     9.3207
 1027.5000    96.3575     2.5498     8.7030     0.0244   -63.8911   953.8784     8.7306     8.7249     9.3122
 1028.0000    95.5814     2.5482     8.7012     0.0243   -64.1027   953.8784     8.7234     8.7835     9.2383
 1028.5000    96.6220     2.5497     8.6994     0.0243   -64.4297   953.8784     8.7145     8.7759     9.2313
 1029.0000    97.8186     2.5497     8.7129     0.0243   -64.8579   953.8784     8.7073     8.7699     9.2244
 1029.5000    98.2608     2.5450     8.7261     0.0243   -65.2696   953.8784     8.7001     8.7638     9.2172
 1030.0000    95.6595     2.5357     8.7455     0.0251   -65.6126   953.8784     8.7576     8.8212     9.2087
 1030.5000    93.2034     2.5217     8.7527     0.0346   -66.0052   953.8784     8.7417     8.8136     9.2018
 1031.0000    92.8891     2.5294     8.7506     0.0497   -66.3558   953.8784     8.7051     8.8076     9.2631
 1031.5000    93.4788     2.5479     8.7488     0.0524   -66.3632   953.8784     8.6684     8.8015     9.3887
 1032.0000    94.6754     2.5665     8.7473     0.0511   -66.3599   953.8784     8.6318     8.7954     9.4495
 1032.5000    96.7825     2.5603     8.7303     0.0498   -66.1601   953.8784     8.5933     8.7701     9.5106
 1033.0000    96.2699     2.5416     8.7285     0.0469   -65.6893   953.8784     8.5863     8.7391     9.5722
 1033.5000    92.7981     2.5261     8.7267     0.0414   -65.1871   953.8784     8.5774     8.7081     9.6323
 1034.0000    90.0494     2.5198     8.7246     0.0270   -64.6844   953.8784     8.5704     8.6771     9.6948
 1034.5000    88.8181     2.5198     8.7230     0.0116   -64.1809   953.8784     8.5633     8.6461     9.7574
 1035.0000    89.7113     2.5182     8.7212     0.0078   -63.7089   953.8784     8.5563     8.6318     9.7482
 1035.5000    90.3009     2.5151     8.7194     0.0070   -63.6536   953.8784     8.5492     8.5638     9.7409
 1036.0000    91.4932     2.5197     8.7328     0.0070   -63.6119   953.8784     8.5404     8.5565     9.7340
 1036.5000    92.9933     2.5328     8.7458     0.0085   -63.5683   953.8784     8.5334     8.5506     9.7262
 1037.0000    95.1004     2.5444     8.7596     0.0158   -63.5274   953.8784     8.5264     8.6081     9.7186
 1037.5000    96.4492     2.5467     8.7423     0.0257   -63.6239   953.8784     8.5198     8.5389     9.7097
 1038.0000    93.9119     2.5451     8.7406     0.0350   -64.0080   953.8784     8.5123     8.5330     9.6327
 1038.5000    89.8848     2.5427     8.7236     0.0401   -64.3018   953.8784     8.5051     8.5257     9.4876
 1039.0000    88.9570     2.5404     8.7215     0.0440   -64.1697   953.8784     8.4966     8.5198     9.3448
 1039.5000    91.6711     2.5349     8.7200     0.0475   -64.0445   953.8784     8.4896     8.5140     9.0722
