~VERSION INFORMATION
 VERS.                2.0:   CWLS LOG ASCII STANDARD - VERSION 2.0
 WRAP.                 NO:   ONE LINE PER DEPTH STEP
~WELL INFORMATION
#MNEM.UNIT      DATA TYPE    INFORMATION
#----------   ------------   ------------------------------
 STRT.F          216.0000:   START DEPTH
 STOP.F         3241.0000:   STOP DEPTH
 STEP.F            0.5000:   STEP LENGTH
 NULL.          -999.2500:   NO VALUE
 COMP.    FENIX & SCISSON:   COMPANY
 WELL.    FENIX "A" #72-4:   WELL
 FLD .             NPR #3:   FIELD
 LOC .       S4 T38N R78W:   LOCATION
 CNTY.            NATRONA:   COUNTY
 STAT.            WYOMING:   STATE
 CTRY. UNITED STATES OF AMERICA:   COUNTRY
 SRVC.              WELEX:   SERVICE COMPANY
 DATE.        09-JUL-1977:   LOGDATE
 API .     49025103900000:   API NUMBER
~CURVE INFORMATION
#MNEM.UNIT       API CODE    CURVE DESCRIPTION
#----------   ------------   ------------------------------
 DEPT.F                  :   
 CORR.G/C3   45 356 01 00:   DENSITY CORRECTION
 GRD .GAPI   45 310 01 00:   GAMMA RAY FROM DENSITY LOG
 RHOB.G/C3   45 350 01 00:   BULK DENSITY
 CALD.IN     45 280 60 00:   CALIPER FROM DENSITY LOG
 SPR .MV     07 010 01 00:   SPONTANEOUS POTENTIAL
 ILD .OHMM   07 120 46 00:   DEEP INDUCTION RESISTIVITY
 ILM .OHMM   07 120 44 00:   INDUCTION LOG MEDIUM RESISTIVITY
 SGRD.OHMM   07 220 05 00:   SHALLOW SHORT GUARD RESISTIVITY
~PARAMETER INFORMATION
#MNEM.UNIT          VALUE    DESCRIPTION
#----------   ------------   ------------------------------
 EKB .F         5192.0000:   Kelly bushing
 EGL .F         5182.0000:   Ground level
 TD  .F         3243.0000:   Total depth
 CLNT.            A2DTECH:   Client Code
 SL  . 990' FNL & 990' FEL:   Surface Location
 PD  .                 GL:   Permanent Datum
 EPD .F              5182:   Elevation Permanent Datum
 LMF .                 KB:   Log Measured From
 DMF .                 KB:   Drilling Measured From
 DAPD.F                10:   Feet Above Permanent Datum
 DATE.        09-JUL-1977:   Date Logged [DD-MMM-YYYY]
 DD  .F              3230:   Depth driller
 DL  .F              3243:   Depth logger
 BLI .F              3241:   Bottom log interval
 TLI .F               224:   Top log interval
 CS1 .IN            8.625:   Casing size
 CBD1.      8.625" @ 221':   Casing driller 1
 CBL1.F               224:   Casing logger 1
 BS1 .IN            7.875:   Bit size
 BSD1.F              3230:   Depth drilled with bit1
 DFT .                KCL:   Type fluid in hole
 DFD .                8.9:   Density
 DFV .                 44:   Viscosity
 DFPH.                7.5:   pH
 DFL .                5.8:   Fluid loss
 MSS .            MUD PIT:   Source of sample
 RMS .OHMM           0.24:   Rm
 MST .F                68:   Rm Meas. temp.
 RMF .OHMM           0.20:   Rmf
 MFST.F                68:   Rmf Meas. temp.
 MFSS.               MEAS:   Source Rmf.
 RMC .OHMM           0.31:   Rmc
 MCST.F                68:   Rmc Meas. temp.
 MCSS.               MEAS:   Source Rmc.
 RMB .OHMM           0.13:   Rm. at BHT
 BHT .F               117:   BHT.
 TCS .HRS               3:   Time Circ. stopped
 MRT .F               117:   Maximum recorded temp.
 LUN .               8766:   Logging unit number
 LUL .             CASPER:   Logging unit location
 ENGI.          T. JOYNER:   Recorded By
 WITN.         HARRINGTON:   Witnessed by
 ORIG.           5" PRINT:   Origin of data
 UWI .     49025103900000:   Unique Well ID
 DICO. A2D TECHNOLOGIES, INC.:   Digitizing Company
~OTHER INFORMATION
~A   DEPT     CORR         GRD        RHOB     CALD        SPR        ILD        ILM       SGRD   
# ...
 2200.5000     0.0188   124.6173     2.4679     8.2408   -69.3877    10.3238    12.3975    19.0597
 2201.0000     0.0180   124.3367     2.4672     8.2352   -69.4661    10.4729    12.7763    19.1973
 2201.5000     0.0180   123.1550     2.4666     8.2255   -69.5444    10.5507    13.2236    18.9385
 2202.0000     0.0180   122.8700     2.4652     8.2157   -69.6227    10.6292    13.1395    18.2989
 2202.5000     0.0180   123.7860     2.4618     8.2134   -69.7011    10.7082    12.9658    17.3174
 2203.0000     0.0165   124.3995     2.4559     8.2143   -69.7794    10.7134    12.7927    17.0827
 2203.5000     0.0165   125.0134     2.4499     8.2152   -69.8577    10.7185    12.6253    16.8535
 2204.0000     0.0180   125.3329     2.4521     8.2163   -69.9361    10.7236    12.6322    15.8395
 2204.5000     0.0187   125.3503     2.4582     8.2321   -70.0144    10.7287    13.0844    15.4039
 2205.0000     0.0203   125.3677     2.4634     8.2178   -70.0927    10.7339    13.8373    15.9582
 2205.5000     0.0210   125.0827     2.4643     8.2189   -70.1710    10.7390    16.0120    17.0047
 2206.0000     0.0195   124.5040     2.4560     8.2048   -70.2494    10.7442    17.1695    18.1203
 2206.5000     0.0165   123.6316     2.4500     8.2206   -70.3277    10.6751    17.5395    18.7302
 2207.0000     0.0150   123.0529     2.4485     8.2215   -70.4062    10.6064    17.7938    18.2235
 2207.5000     0.0127   121.5800     2.4515     8.2075   -70.4847    10.5382    17.3172    17.6081
 2208.0000     0.0120   120.3934     2.4583     8.1934   -70.5621    10.3994    16.5052    16.6636
 2208.5000     0.0112   119.4855     2.4620     8.2094   -70.6046    10.2611    15.6092    15.3390
 2209.0000     0.0120   118.3579     2.4658     8.1951   -70.5484    10.1235    14.4458    15.1311
 2209.5000     0.0137   117.7792     2.4681     8.1662   -70.4952     9.9211    13.6213    15.1363
 2210.0000     0.0165   117.4942     2.4703     8.1971   -70.4421     9.7216    13.4413    14.9322
 2210.5000     0.0187   117.8141     2.4696     8.1980   -70.3888     9.3950    13.2637    14.6291
 2211.0000     0.0202   118.4276     2.4696     8.1988   -70.3356     9.0794    12.9980    14.2333
 2211.5000     0.0217   117.5465     2.4820     8.1997   -70.2823     8.8354    12.8245    13.9444
 2212.0000     0.0232   117.5683     2.4921     8.1857   -70.2291     8.6577    12.5677    14.1428
 2212.5000     0.0247   119.3741     2.4959     8.1891   -70.2059     8.5426    12.3160    14.3440
 2213.0000     0.0254   119.6895     2.4974     8.2025   -70.1896     8.4867    12.1549    14.4476
 2213.5000     0.0262   118.2167     2.4982     8.1885   -70.1733     8.4330    12.1615    13.9468
 2214.0000     0.0269   120.0268     2.4989     8.2043   -70.1571     8.4372    12.1681    13.6764
 2214.5000     0.0269   120.6360     2.4974     8.1902   -70.1408     8.4412    12.1748    14.0653
 2215.0000     0.0254   118.2733     2.4922     8.1911   -70.1245     8.4472    12.2661    13.8756
 2215.5000     0.0240   118.2907     2.4832     8.1920   -70.1082     8.5673    12.4439    14.2692
 2216.0000     0.0240   118.9042     2.4725     8.1928   -70.0919     8.6311    12.5395    14.8787
 2216.5000     0.0225   118.3255     2.4653     8.1788   -70.0756     8.7566    12.8155    15.3008
 2217.0000     0.0210   117.7347     2.4638     8.1799   -70.0593     8.8217    13.0976    15.6262
 2217.5000     0.0195   118.3607     2.4645     8.1957   -70.0430     8.9491    13.4600    15.6305
 2218.0000     0.0194   119.0776     2.4638     8.1815   -70.0267     9.0784    13.7501    15.5258
 2218.5000     0.0180   120.4860     2.4578     8.1825   -70.0104     9.1459    14.1440    15.2117
 2219.0000     0.0180   118.4170     2.4556     8.1833   -69.9941     9.1502    14.4488    15.1107
 2219.5000     0.0180   116.6460     2.4586     8.1842   -69.9778     9.3470    14.8627    15.2200
 2220.0000     0.0172   117.5576     2.4624     8.1851   -69.9615     9.8845    15.0782    15.9804
 2220.5000     0.0180   119.3634     2.4654     8.1561   -69.9453     9.9568    15.4032    16.2077
 2221.0000     0.0180   119.6789     2.4637     8.1570   -69.9290     9.8928    15.6265    15.9745
 2221.5000     0.0195   119.3979     2.4617     8.1581   -69.9127     9.8987    15.8531    15.6646
 2222.0000     0.0202   118.5138     2.4617     8.1590   -69.8964     9.8349    15.8617    15.4544
 2222.5000     0.0210   117.9428     2.4647     8.1598   -69.8801     9.7717    15.8704    15.2449
 2223.0000     0.0225   117.6665     2.4692     8.1607   -69.8638     9.8445    16.1005    15.2501
 2223.5000     0.0247   116.1936     2.4745     8.1616   -69.8475     9.8492    16.2212    15.3603
 2224.0000     0.0254   117.4033     2.4760     8.1624   -69.8312     9.9225    16.4611    15.4712
 2224.5000     0.0240   115.9304     2.4760     8.1633   -69.8149     9.9963    16.9525    15.5830
 2225.0000     0.0225   114.1594     2.4745     8.1642   -69.7986    10.0824    17.6971    15.6956
 2225.5000     0.0225   113.5764     2.4763     8.1800   -69.7823    10.2883    19.8751    15.9188
 2226.0000     0.0247   114.1943     2.4873     8.1960   -69.7660    10.4368    21.1648    17.5430
 2226.5000     0.0262   115.4039     2.4948     8.1967   -69.7497    10.5876    21.6208    17.1882
 2227.0000     0.0284   114.2014     2.4986     8.1977   -69.7335    10.7405    22.0868    16.9563
 2227.5000     0.0299   112.1644     2.5001     8.1837   -69.7172    10.8204    23.5200    17.5585
 2228.0000     0.0299   110.3935     2.4971     8.1845   -69.7009    10.8255    24.1938    17.6855
 2228.5000     0.0284   112.1993     2.4941     8.1854   -69.6846    10.7546    22.9024    17.5522
 2229.0000     0.0284   113.4089     2.4949     8.1863   -69.6683    10.6129    21.3817    17.0940
 2229.5000     0.0284   111.0419     2.4994     8.2021   -69.6520    10.5447    19.8242    16.6315
 2230.0000     0.0299   108.6748     2.5047     8.2030   -69.6357    10.4045    16.4524    15.7395
 2230.5000     0.0299   107.4993     2.5093     8.1742   -69.6194    10.1953    13.7490    14.1904
 2231.0000     0.0299   108.7096     2.5122     8.1749   -69.6031     9.7847    12.7474    13.7112
 2231.5000     0.0299   109.0251     2.5107     8.1759   -69.5868     9.3258    12.4060    13.3403
 2232.0000     0.0292   108.1483     2.5085     8.1768   -69.5705     9.0752    12.3271    12.8898
 2232.5000     0.0277   107.2759     2.5047     8.1777   -69.5542     8.9546    12.2487    12.7151
 2233.0000     0.0254   108.1875     2.5002     8.1785   -69.5379     8.7745    12.1561    14.4079
 2233.5000     0.0217   108.8011     2.4958     8.1748   -69.5217     8.5905    11.7646    14.8167
 2234.0000     0.0187   107.0301     2.4905     8.1654   -69.5054     8.3563    11.2141    14.8207
 2234.5000     0.0165   105.8509     2.4883     8.1663   -69.4891     8.1421    10.2542    14.8314
 2235.0000     0.0157   105.8727     2.4898     8.1672   -69.4728     8.1470     8.9949    14.8288
 2235.5000     0.0165   103.5056     2.4928     8.1681   -69.4565     8.0937     8.5739    14.6288
 2236.0000     0.0173   104.1318     2.4928     8.1691   -69.4402     8.0985     9.1937    14.4315
 2236.5000     0.0187   105.3288     2.4913     8.1699   -69.4239     8.1024    11.2447    14.0420
 2237.0000     0.0195   104.1540     2.4914     8.1708   -69.4076     8.1062    12.3107    12.6600
 2237.5000     0.0195   103.5753     2.4899     8.1716   -69.3913     8.2233    12.8400    11.9802
 2238.0000     0.0187   105.3854     2.4824     8.1725   -69.3750     8.5173    13.1167    12.9329
 2238.5000     0.0135   107.1912     2.4659     8.1734   -69.3587     8.8219    13.4924    14.8581
 2239.0000     0.0105   106.6125     2.4539     8.1743   -69.3424     9.1373    14.0725    15.7087
 2239.5000     0.0075   105.4377     2.4400     8.1752   -69.3261     9.3986    15.3028    15.8211
 2240.0000     0.0037   105.4551     2.4292     8.1761   -69.3098     9.7347    18.3274    14.8702
 2240.5000     0.0015   107.2609     2.4240     8.1770   -69.2936    10.1528    22.8354    14.9777
