~VERSION INFORMATION
 VERS.                2.0:   CWLS LOG ASCII STANDARD - VERSION 2.0
 WRAP.                 NO:   ONE LINE PER DEPTH STEP
~WELL INFORMATION
#MNEM.UNIT      DATA TYPE    INFORMATION
#----------   ------------   ------------------------------
 STRT.F            0.0000:   START DEPTH
 STOP.F         3504.0000:   STOP DEPTH
 STEP.F            0.5000:   STEP LENGTH
 NULL.          -999.2500:   NO VALUE
 COMP. LAWRENCE-ALLISON AND ASSOCIATES:   COMPANY
 WELL. LAWRENCE "TX" #16-34:   WELL
 FLD .              NPR 3:   FIELD
 LOC .      S34 T39N R78W:   LOCATION
 CNTY.            NATRONA:   COUNTY
 STAT.            WYOMING:   STATE
 CTRY. UNITED STATES OF AMERICA:   COUNTRY
 SRVC.       SCHLUMBERGER:   SERVICE COMPANY
 DATE.        10-APR-1982:   LOGDATE
 API .     49025108970000:   API NUMBER
~CURVE INFORMATION
#MNEM.UNIT       API CODE    CURVE DESCRIPTION
#----------   ------------   ------------------------------
 DEPT.F                  :   
 SPR .MV     07 010 01 00:   SPONTANEOUS POTENTIAL
 ILD .OHMM   07 120 46 00:   DEEP INDUCTION RESISTIVITY
 SFLU.OHMM   07 220 01 00:   SPHERICALLY FOCUSED LOG UNAVERAGED RESISTIVITY
 TENR.LBS    07 635 01 00:   TENSION FROM RESISTIVITY
 ILM .OHMM   07 120 44 00:   INDUCTION LOG MEDIUM RESISTIVITY
 GRD .GAPI   45 310 01 00:   GAMMA RAY FROM DENSITY LOG
 CALD.IN     45 280 60 00:   CALIPER FROM DENSITY LOG
 RHOB.G/C3   45 350 01 00:   BULK DENSITY
 CORR.G/C3   45 356 01 00:   DENSITY CORRECTION
 TEND.LBS    45 635 01 00:   TENSION FROM DENSITY LOG
 NPHI.DEC    42 890 03 00:   NEUTRON POROSITY SANDSTONE
~PARAMETER INFORMATION
#MNEM.UNIT          VALUE    DESCRIPTION
#----------   ------------   ------------------------------
 EKB .F         5149.0000:   Kelly bushing
 EGL .F         5139.0000:   Ground level
 EDF .F            0.0000:   Drilling floor
 TD  .F         3500.0000:   Total depth
 DATE.        10-APR-1982:   Date logged
 CLNT.            A2DTECH:   Client Code
 SL  . 1406' FSL & 423' FWL:   Surface Location
 PD  .                 GL:   Permanent Datum
 EPD .F              5139:   Elevation Permanent Datum
 LMF .                 KB:   Log Measured From
 DMF .                 KB:   Drilling Measured From
 DAPD.F                10:   Feet Above Permanent Datum
 DD  .F              3500:   Depth driller
 DL  .F              3497:   Depth logger
 BLI .F              3491:   Bottom log interval
 TLI .F               658:   Top log interval
 CS1 .IN            9.625:   Casing size
 CBD1.      9.625" @ 632':   Casing driller 1
 CBL1.F               658:   Casing logger 1
 BS1 .IN             8.75:   Bit size
 BSD1.F              3500:   Depth drilled with bit1
 DFT .           SPUD MUD:   Type fluid in hole
 DFD .                  9:   Density
 DFV .                 44:   Viscosity
 DFPH.                 10:   pH
 DFL .                  7:   Fluid loss
 MSS .           FLOWLINE:   Source of sample
 RMS .OHMM              2:   Rm
 MST .F                53:   Rm Meas. temp.
 RMF .OHMM            1.9:   Rmf
 MFST.F                53:   Rmf Meas. temp.
 RMC .OHMM            1.5:   Rmc
 MCST.F                53:   Rmc Meas. temp.
 MFSS.               MEAS:   Source Rmf.
 MCSS.               CALC:   Source Rmc.
 RMB .OHMM              1:   Rm. at BHT
 BHT .F               106:   BHT.
 TCS .HRS            1100:   Time Circ. stopped
 TLAB.HRS            1330:   Time logger at bottom
 MRT .F               106:   Maximum recorded temp.
 LUN .               8151:   Logging unit number
 LUL .                GLT:   Logging unit location
 ENGI.            NEUFFER:   Recorded By
 WITN.           JENNINGS:   Witnessed by
 ORIG.           5" PRINT:   Origin of data
 UWI .     49025108970000:   Unique Well ID
 DICO. A2D TECHNOLOGIES, INC.:   Digitizing Company
~OTHER INFORMATION
~A    DEPT     SPR        ILD       SFLU       TENR        ILM        GRD       CALD       RHOB       CORR       TEND       NPHI   
# ...
 2318.0000   -14.2640     3.2750     3.6340  1298.7010     3.1390    94.3450  -999.2500     1.5870     0.0670  1336.9310     0.4060
 2318.5000   -13.9450     3.0170     3.3100  1298.7010     2.8650    88.0990  -999.2500     1.4480     0.0200  1337.9320     0.4320
 2319.0000   -13.6270     2.8140     2.8900  1298.7010     2.5920    81.9010  -999.2500     1.3100    -0.0100  1338.9330     0.4750
 2319.5000   -13.3110     2.5230     2.4690  1298.7010     2.4100    77.3340  -999.2500     1.1880    -0.0200  1340.0000     0.5370
 2320.0000   -13.1160     2.9500     2.0230  1298.7010     3.0330    78.1630  -999.2500     1.1860    -0.0210  1339.0649     0.5820
 2320.5000   -13.6810     2.8930     2.2550  1298.7010     3.1700    84.0240  -999.2500     1.4180     0.0230  1338.0640     0.5140
 2321.0000   -14.2510     2.8330     2.6490  1298.7010     3.2950    90.0520  -999.2500     1.6220     0.0790  1337.0630     0.4630
 2321.5000   -14.8230     2.8180     3.0420  1298.7010     3.2950    92.4580  -999.2500     1.7500     0.1340  1336.0620     0.4150
 2322.0000   -15.3810     2.9160     3.5140  1298.7010     3.2950    93.9700  -999.2500     1.8350     0.1820  1335.0610     0.3910
 2322.5000   -15.2270     3.0000     3.4850  1298.7010     3.2950    95.4580  -999.2500     1.7590     0.1530  1334.0601     0.3870
 2323.0000   -15.0340     3.0850     3.4050  1298.7010     3.2950    97.0040  -999.2500     1.6540     0.1210  1333.0590     0.3980
 2323.5000   -14.8440     3.2050     3.3440  1298.7010     3.2950    96.9900  -999.2500     1.6560     0.1110  1332.0580     0.3900
 2324.0000   -14.6520     3.1790     3.2880  1298.7010     3.2680    95.6970  -999.2500     1.6560     0.1010  1331.0570     0.3830
 2324.5000   -14.5900     3.1130     3.2320  1298.7010     3.2000    89.8230  -999.2500     1.6150     0.0900  1330.0560     0.3780
 2325.0000   -14.5460     3.0330     3.1760  1298.7010     3.1310    84.0000  -999.2500     1.5150     0.0560  1329.0551     0.4270
 2325.5000   -14.5040     3.0520     3.1200  1298.7010     3.1180    78.3590  -999.2500     1.4130     0.0230  1328.0540     0.4620
 2326.0000   -14.4610     3.0760     3.0650  1298.7010     3.1180    76.1890  -999.2500     1.3330     0.0110  1327.0530     0.4970
 2326.5000   -14.4140     3.1000     3.0090  1298.7010     3.1180    74.9920  -999.2500     1.3020    -0.0010  1326.0520     0.5180
 2327.0000   -14.2640     3.1240     2.9530  1298.7010     3.1180    73.8230  -999.2500     1.2710    -0.0070  1325.0510     0.5080
 2327.5000   -14.1130     3.1480     2.8970  1298.7010     3.1180    73.5180  -999.2500     1.2400    -0.0090  1324.0500     0.4930
 2328.0000   -14.1410     3.1720     2.8440  1298.7010     3.1180    73.9010  -999.2500     1.2130    -0.0100  1323.0490     0.4770
 2328.5000   -14.4130     3.2050     2.9500  1298.7010     3.2950    75.8470  -999.2500     1.2230    -0.0110  1322.0480     0.4620
 2329.0000   -14.6950     3.1600     3.0890  1298.7010     3.2220    77.7630  -999.2500     1.2360    -0.0090  1321.0470     0.4580
 2329.5000   -15.0240     3.0600     3.0540  1298.7010     3.1360    80.7950  -999.2500     1.2490    -0.0070  1320.0460     0.4560
 2330.0000   -15.1600     3.0050     3.0000  1298.7010     3.0890    83.0330  -999.2500     1.2610    -0.0040  1319.0450     0.4450
 2330.5000   -15.0610     3.0820     2.9500  1298.7010     3.1680    84.3400  -999.2500     1.3020     0.0050  1318.0439     0.4320
 2331.0000   -14.9630     3.1700     3.0190  1298.7010     3.2590    84.5260  -999.2500     1.3470     0.0120  1317.0430     0.4190
 2331.5000   -14.8640     3.2910     3.1180  1298.7010     3.3610    83.7690  -999.2500     1.3810     0.0130  1316.0420     0.4120
 2332.0000   -14.7650     3.4940     3.1080  1298.7010     3.4930    83.1120  -999.2500     1.3860     0.0150  1315.0410     0.4570
 2332.5000   -14.6660     3.6790     3.0890  1298.7010     3.6120    84.7830  -999.2500     1.4360     0.0200  1314.0400     0.4600
 2333.0000   -14.6470     3.6270     3.3720  1298.7010     4.0790    86.4490  -999.2500     1.5510     0.0660  1313.0389     0.4210
 2333.5000   -14.7080     3.5230     3.7220  1298.7010     3.9290    88.0960  -999.2500     1.6720     0.1170  1312.0380     0.3950
 2334.0000   -14.7700     3.3950     4.0340  1298.7010     3.7290    89.4970  -999.2500     1.7550     0.1310  1311.0370     0.3770
 2334.5000   -14.8100     3.2670     4.0340  1298.7010     3.5280    88.5490  -999.2500     1.6070     0.0940  1310.0360     0.4140
 2335.0000   -14.7980     3.1390     3.5440  1298.7010     3.3280    87.6150  -999.2500     1.4730     0.0420  1309.0350     0.4410
 2335.5000   -14.7870     3.0110     3.1040  1298.7010     3.1270    87.1700  -999.2500     1.3390     0.0020  1308.0341     0.4580
 2336.0000   -14.7750     2.9500     2.5460  1298.7010     2.9190    87.9680  -999.2500     1.2750    -0.0040  1307.0330     0.4670
 2336.5000   -14.7640     3.0050     2.6370  1298.7010     2.6910    89.0600  -999.2500     1.3550     0.0070  1306.0320     0.4580
 2337.0000   -14.7530     2.9580     2.7920  1298.7010     2.8210    88.8820  -999.2500     1.4150     0.0250  1305.0310     0.4430
 2337.5000   -14.7410     2.8950     2.7460  1298.7010     2.9360    87.6710  -999.2500     1.4770     0.0430  1304.0300     0.4280
 2338.0000   -14.7300     2.8320     2.6840  1298.7010     3.0330    86.4470  -999.2500     1.4140     0.0340  1303.0291     0.4180
 2338.5000   -14.7190     2.7680     2.6220  1298.7010     2.8930    85.2240  -999.2500     1.3570     0.0180  1302.0280     0.4280
 2339.0000   -14.7080     2.6910     2.5460  1298.7010     2.7660    84.1800  -999.2500     1.3570     0.0240  1301.0270     0.4390
 2339.5000   -14.6960     2.7440     2.6120  1298.7010     2.8210    84.2040  -999.2500     1.4320     0.0380  1300.0000     0.4730
 2340.0000   -14.6850     2.8120     2.6970  1298.7010     2.8910    84.2070  -999.2500     1.4880     0.0460  1296.4680     0.5080
 2340.5000   -14.6740     2.8810     2.7830  1298.7010     2.9620    84.2020  -999.2500     1.5240     0.0530  1292.8430     0.5290
 2341.0000   -14.6630     2.9500     2.8680  1298.7010     3.0330    84.2290  -999.2500     1.4860     0.0500  1289.2170     0.5220
 2341.5000   -14.6510     3.2250     2.9530  1298.7010     3.1950    85.0650  -999.2500     1.4480     0.0370  1285.5909     0.5030
 2342.0000   -14.6400     3.5020     3.0390  1298.7010     3.4310    85.9790  -999.2500     1.3950     0.0240  1281.9659     0.4630
 2342.5000   -14.6280     3.7790     3.3190  1298.7010     3.9530    87.4930  -999.2500     1.4500     0.0170  1278.3400     0.4170
 2343.0000   -14.6200     4.0270     3.8840  1298.7010     4.4750    89.0000  -999.2500     1.5780     0.0670  1274.7150     0.3670
 2343.5000   -14.3880     4.1650     4.4480  1298.7010     4.8490    90.5710  -999.2500     1.7080     0.1100  1271.0890     0.3240
 2344.0000   -14.0240     4.3820     5.0120  1298.7010     4.6450    89.0890  -999.2500     1.8590     0.1590  1267.4630     0.3240
 2344.5000   -13.6590     4.3600     5.5770  1298.7010     4.3620    83.2570  -999.2500     1.7320     0.1200  1263.8380     0.3790
 2345.0000   -13.2930     4.3020     5.7750  1298.7010     4.0300    77.3670  -999.2500     1.5790     0.0690  1260.2120     0.4240
 2345.5000   -12.9270     4.3820     4.7200  1298.7010     3.7020    72.2460  -999.2500     1.4260     0.0220  1256.5870     0.4680
 2346.0000   -12.5600     4.5070     3.8680  1298.7010     3.3730    72.4940  -999.2500     1.2810     0.0000  1252.9611     0.5390
 2346.5000   -12.1910     4.6740     3.1280  1298.7010     4.0480    74.0800  -999.2500     1.3340    -0.0170  1249.3361     0.6210
 2347.0000   -11.8820     4.5820     3.2020  1298.7010     4.8950    75.7260  -999.2500     1.4480    -0.0170  1245.7100     0.5330
 2347.5000   -12.4560     4.4420     3.8140  1298.7010     5.5850    74.2000  -999.2500     1.5890    -0.0100  1242.0840     0.3990
 2348.0000   -13.0340     4.3030     4.6840  1298.7010     4.9900    72.2640  -999.2500     1.7470     0.0160  1238.4590     0.3010
