~VERSION INFORMATION
 VERS.                2.0:   CWLS LOG ASCII STANDARD - VERSION 2.0
 WRAP.                 NO:   ONE LINE PER DEPTH STEP
~WELL INFORMATION
#MNEM.UNIT      DATA TYPE    INFORMATION
#----------   ------------   ------------------------------
 STRT.F           14.0000:   START DEPTH
 STOP.F         3246.0000:   STOP DEPTH
 STEP.F            0.5000:   STEP LENGTH
 NULL.          -999.2500:   NO VALUE
 COMP.   LAWRENCE ALLISON:   COMPANY
 WELL. LAWRENCE "34X" #11:   WELL
 FLD .             N.P.R.:   FIELD
 LOC .      S34 T38N R78W:   LOCATION
 CNTY.            NATRONA:   COUNTY
 STAT.            WYOMING:   STATE
 CTRY. UNITED STATES OF AMERICA:   COUNTRY
 SRVC.      DRESSER ATLAS:   SERVICE COMPANY
 DATE.        02-MAY-1985:   LOGDATE
 API .     49025110530001:   API NUMBER
~CURVE INFORMATION
#MNEM.UNIT       API CODE    CURVE DESCRIPTION
#----------   ------------   ------------------------------
 DEPT.F                  :   
 CNC .DEC    42 890 03 00:   NEUTRON POROSITY
 CALD.IN     45 280 60 00:   CALIPER FROM DENSITY LOG
 CORR.G/C3   45 356 01 00:   DENSITY CORRECTION
 RHOB.G/C3   45 350 01 00:   BULK DENSITY
 GRR .GAPI   07 310 01 00:   GAMMA RAY FROM RESISTIVITY
 SPR .MV     07 010 01 00:   SPONTANEOUS POTENTIAL FROM RES.
 TENR.LBS    06 635 01 00:   TENSION FROM RESISTIVITY
 RILD.OHMM   07 120 46 00:   DEEP INDUCTION RESISTIVITY
 RILM.OHMM   07 120 44 00:   INDUCTION LOG MEDIUM RESISTIVITY
 RFOC.OHMM   07 220 04 00:   RESISTIVITY FOCUSED LOG RES.
~PARAMETER INFORMATION
#MNEM.UNIT          VALUE    DESCRIPTION
#----------   ------------   ------------------------------
 EKB .F         5099.0000:   Kelly bushing
 TD  .F         3239.0000:   Total depth
 CLNT.            A2DTECH:   Client Code
 PD  .                 GL:   Permanent Datum
 EPD .F              5087:   Elevation Permanent Datum
 LMF .                 KB:   Log Measured From
 DMF .                 KB:   Drilling Measured From
 DAPD.F                12:   Feet Above Permanent Datum
 DATE.        02-MAY-1985:   Date Logged [DD-MMM-YYYY]
 DD  .F              3239:   Depth driller
 DL  .F              3242:   Depth logger
 BLI .F              3294:   Bottom log interval
 CS1 .IN            8.625:   Casing size
 CBD1.      8.625" @ 487':   Casing driller 1
 CBL1.F               487:   Casing logger 1
 BS1 .IN            7.875:   Bit size
 BSD1.F              3239:   Depth drilled with bit1
 DFT .            KCL GEL:   Type fluid in hole
 DFD .                9.1:   Density
 DFV .                 35:   Viscosity
 DFPH.                  8:   pH
 DFL .                9.8:   Fluid loss
 MSS .           FLOWLINE:   Source of sample
 RMS .OHMM           0.27:   Rm
 MST .F                68:   Rm Meas. temp.
 RMF .OHMM           0.20:   Rmf
 MFST.F                68:   Rmf Meas. temp.
 MFSS.               MEAS:   Source Rmf.
 RMC .OHMM           0.34:   Rmc
 MCST.F                68:   Rmc Meas. temp.
 MCSS.               CALC:   Source Rmc.
 RMB .OHMM           0.15:   Rm. at BHT
 BHT .F               126:   BHT.
 TCS .HRS               3:   Time Circ. stopped
 MRT .F               126:   Maximum recorded temp.
 LUN .               6274:   Logging unit number
 LUL .               GLTE:   Logging unit location
 ENGI.       MACK/EDWARDS:   Recorded By
 WITN.             STRONG:   Witnessed by
 ORIG.           5" PRINT:   Origin of data
 UWI .     49025110260000:   Unique Well ID
 DICO. A2D TECHNOLOGIES, INC.:   Digitizing Company
~OTHER INFORMATION
~A   DEPT      CNC       CALD       CORR       RHOB        GRR        SPR       TENR       RILD       RILM       RFOC   
# ...
  851.5000  -999.2500  -999.2500  -999.2500  -999.2500    72.8714   -75.7503   -72.3504     7.7658     6.8003     7.0878
  852.0000  -999.2500  -999.2500  -999.2500  -999.2500    71.3391   -75.8775   -73.6006     7.7228     6.7154     7.0307
  852.5000  -999.2500  -999.2500  -999.2500  -999.2500    70.0298   -75.8550   -74.8865     7.7336     6.6315     6.9577
  853.0000  -999.2500  -999.2500  -999.2500  -999.2500    69.3790   -75.8325   -68.5240     7.7462     6.5466     6.7318
  853.5000  -999.2500  -999.2500  -999.2500  -999.2500    66.4185   -75.6603   -70.0814     7.7622     6.5097     6.6477
  854.0000  -999.2500  -999.2500  -999.2500  -999.2500    64.5467   -75.4880   -71.3274     7.8211     6.5654     6.7980
  854.5000  -999.2500  -999.2500  -999.2500  -999.2500    64.5815   -75.3151   -72.5734     7.9155     6.7125     6.9494
  855.0000  -999.2500  -999.2500  -999.2500  -999.2500    65.9596   -75.1381   -73.8194     8.0503     6.8686     7.2033
  855.5000  -999.2500  -999.2500  -999.2500  -999.2500    68.2332   -74.9659   -75.0653     8.1298     7.1634     7.4149
  856.0000  -999.2500  -999.2500  -999.2500  -999.2500    68.0441   -74.6440   -76.3237     8.3143     7.4250     7.6327
  856.5000  -999.2500  -999.2500  -999.2500  -999.2500    67.8537   -74.4718   -77.6097     8.4596     7.6431     7.6424
  857.0000  -999.2500  -999.2500  -999.2500  -999.2500    68.3376   -74.1499   -79.1147     8.7518     7.8134     7.7053
  857.5000  -999.2500  -999.2500  -999.2500  -999.2500    69.7164   -73.9777   -80.3606     9.0101     7.8777     7.7689
  858.0000  -999.2500  -999.2500  -999.2500  -999.2500    69.0876   -73.9551   -81.6066     9.2760     7.9425     7.8895
  858.5000  -999.2500  -999.2500  -999.2500  -999.2500    68.8898   -73.9319   -82.8526     9.6162     8.0080     7.9075
  859.0000  -999.2500  -999.2500  -999.2500  -999.2500    70.5005   -73.9046   -76.2228     9.9000     8.0763     8.0756
  859.5000  -999.2500  -999.2500  -999.2500  -999.2500    72.3263   -74.0375   -77.7802    10.1218     8.1427     8.1420
  860.0000  -999.2500  -999.2500  -999.2500  -999.2500    72.8002   -74.0094   -71.4619    10.2693     8.2667     8.2090
  860.5000  -999.2500  -999.2500  -999.2500  -999.2500    70.8287   -74.1422   -80.5836    10.2678     8.3347     8.2195
  861.0000  -999.2500  -999.2500  -999.2500  -999.2500    69.0725   -74.1141   -73.9537    10.2663     8.3453     8.3446
  861.5000  -999.2500  -999.2500  -999.2500  -999.2500    69.3351   -74.2418   -75.5112    10.2648     8.3559     8.3556
  862.0000  -999.2500  -999.2500  -999.2500  -999.2500    70.0687   -74.2186   -76.7572    10.2632     8.3666     8.3686
  862.5000  -999.2500  -999.2500  -999.2500  -999.2500    70.3050   -74.1954   -70.4387    10.1327     8.3776     8.3792
  863.0000  -999.2500  -999.2500  -999.2500  -999.2500    69.8921   -74.1682   -64.0695    10.0093     8.3301     8.3294
  863.5000  -999.2500  -999.2500  -999.2500  -999.2500    69.6943   -74.1457   -65.3664     9.9535     8.2287     8.2825
  864.0000  -999.2500  -999.2500  -999.2500  -999.2500    69.7378   -74.1232   -66.6414     9.8296     8.1797     8.2359
  864.5000  -999.2500  -999.2500  -999.2500  -999.2500    67.9816   -74.2560   -68.1698     9.5767     8.0801     8.0795
  865.0000  -999.2500  -999.2500  -999.2500  -999.2500    67.1194   -74.5273   -69.4157     9.5201     7.9767     7.9219
  865.5000  -999.2500  -999.2500  -999.2500  -999.2500    67.3795   -74.6549   -70.6617     9.3397     7.9894     7.7633
  866.0000  -999.2500  -999.2500  -999.2500  -999.2500    69.0118   -75.0888   -71.9077     9.1597     7.9420     7.6208
  866.5000  -999.2500  -999.2500  -999.2500  -999.2500    70.3683   -75.2083   -73.1536     9.0457     7.7398     7.5280
  867.0000  -999.2500  -999.2500  -999.2500  -999.2500    70.4031   -75.3356   -74.3996     8.8713     7.5881     7.4316
  867.5000  -999.2500  -999.2500  -999.2500  -999.2500    69.7663   -75.3074   -60.5143     8.7638     7.4440     7.2905
  868.0000  -999.2500  -999.2500  -999.2500  -999.2500    68.6817   -75.4403   -61.8003     8.6518     7.3487     7.1972
  868.5000  -999.2500  -999.2500  -999.2500  -999.2500    68.0361   -75.5675   -63.3204     8.4879     7.2092     7.0604
  869.0000  -999.2500  -999.2500  -999.2500  -999.2500    67.8471   -75.3897   -72.1306     8.4378     7.1191     7.0697
  869.5000  -999.2500  -999.2500  -999.2500  -999.2500    67.8906   -75.0678   -73.3766     8.3931     7.0302     7.0298
  870.0000  -999.2500  -999.2500  -999.2500  -999.2500    68.8209   -74.8852   -82.1869     8.3466     7.0392     7.0899
  870.5000  -999.2500  -999.2500  -999.2500  -999.2500    70.4761   -74.4184   -81.6927     8.2428     6.9995     7.0989
  871.0000  -999.2500  -999.2500  -999.2500  -999.2500    71.5858   -74.2462   -79.0752     8.2567     6.9601     7.1080
  871.5000  -999.2500  -999.2500  -999.2500  -999.2500    71.6206   -74.2237   -78.3605     8.2678     6.9209     7.1170
  872.0000  -999.2500  -999.2500  -999.2500  -999.2500    71.6554   -74.2012   -79.6521     8.2189     6.8820     7.1261
  872.5000  -999.2500  -999.2500  -999.2500  -999.2500    72.3618   -74.1787   -81.1639     8.2328     6.8929     7.0858
  873.0000  -999.2500  -999.2500  -999.2500  -999.2500    73.0683   -74.3069   -82.4098     8.2438     6.9017     7.0952
  873.5000  -999.2500  -999.2500  -999.2500  -999.2500    73.9986   -74.5828   -83.6556     8.2549     6.9116     7.1557
  874.0000  -999.2500  -999.2500  -999.2500  -999.2500    73.3618   -74.8597   -77.0259     8.2660     6.9677     7.1648
  874.5000  -999.2500  -999.2500  -999.2500  -999.2500    69.7592   -75.2807   -78.5833     8.2775     6.9784     7.1739
  875.0000  -999.2500  -999.2500  -999.2500  -999.2500    66.6792   -75.4135   -79.8292     8.2910     6.9873     7.1313
  875.5000  -999.2500  -999.2500  -999.2500  -999.2500    66.0781   -75.6848   -81.0892     8.3005     7.0448     7.1426
  876.0000  -999.2500  -999.2500  -999.2500  -999.2500    66.1216   -75.9617   -73.4993     8.3134     7.0538     7.1020
  876.5000  -999.2500  -999.2500  -999.2500  -999.2500    66.6042   -75.9393   -53.3100     8.3245     7.1118     7.0623
  877.0000  -999.2500  -999.2500  -999.2500  -999.2500    67.5345   -75.7671   -54.8674     8.3357     7.1209     7.0716
  877.5000  -999.2500  -999.2500  -999.2500  -999.2500    68.0171   -75.7446   -56.1134     8.3469     7.1301     7.0827
  878.0000  -999.2500  -999.2500  -999.2500  -999.2500    68.0519   -75.7215   -57.3593     8.3582     7.1413     7.0903
  878.5000  -999.2500  -999.2500  -999.2500  -999.2500    69.4300   -75.6940   -51.0410     8.3035     7.0521     7.0495
  879.0000  -999.2500  -999.2500  -999.2500  -999.2500    71.0552   -75.6715   -52.2870     8.2081     7.0102     7.0608
  879.5000  -999.2500  -999.2500  -999.2500  -999.2500    70.4038   -75.6490   -53.5552     8.1651     6.9707     7.0698
  880.0000  -999.2500  -999.2500  -999.2500  -999.2500    68.8715   -75.6265   -55.0904     8.0634     6.8383     7.0573
  880.5000  -999.2500  -999.2500  -999.2500  -999.2500    68.4498   -75.4543   -56.3363     8.0158     6.7064     6.9422
  881.0000  -999.2500  -999.2500  -999.2500  -999.2500    70.2844   -75.4318   -57.5823     7.9711     6.5316     6.9031
  881.5000  -999.2500  -999.2500  -999.2500  -999.2500    71.6625   -75.2596   -50.9523     7.8745     6.4948     6.8642
  882.0000  -999.2500  -999.2500  -999.2500  -999.2500    72.5928   -75.2206   -44.9456     7.8851     6.5503     6.7807
  882.5000  -999.2500  -999.2500  -999.2500  -999.2500    73.2992   -75.0593   -46.1916     7.8411     6.6963     6.7893
  883.0000  -999.2500  -999.2500  -999.2500  -999.2500    73.1030   -75.0368   -47.4374     7.8543     6.7048     6.8452
  883.5000  -999.2500  -999.2500  -999.2500  -999.2500    72.1837   -75.0143   -48.7141     7.8649     6.7133     6.8066
  884.0000  -999.2500  -999.2500  -999.2500  -999.2500    70.9497   -74.8421   -50.2409     7.8754     6.6755     6.8153
  884.5000  -999.2500  -999.2500  -999.2500  -999.2500    69.8651   -74.6699   -51.4868     7.9409     6.6840     6.8241
