~VERSION INFORMATION
 VERS.                2.0:   CWLS LOG ASCII STANDARD - VERSION 2.0
 WRAP.                 NO:   ONE LINE PER DEPTH STEP
~WELL INFORMATION
#MNEM.UNIT      DATA TYPE    INFORMATION
#----------   ------------   ------------------------------
 STRT.F          200.0000:   START DEPTH
 STOP.F         3050.0000:   STOP DEPTH
 STEP.F            0.5000:   STEP LENGTH
 NULL.          -999.2500:   NO VALUE
 COMP.     FENIX & SISSON:   COMPANY
 WELL. FENIX & SISSON "AX" #16-28:   WELL
 FLD .              NPR 3:   FIELD
 LOC .      S28 T39N R78W:   LOCATION
 CNTY.            NATRONA:   COUNTY
 STAT.            WYOMING:   STATE
 CTRY. UNITED STATES OF AMERICA:   COUNTRY
 SRVC.      DRESSER ATLAS:   SERVICE COMPANY
 DATE.        01-JUL-1977:   LOGDATE
 API .     49025103930000:   API NUMBER
~CURVE INFORMATION
#MNEM.UNIT       API CODE    CURVE DESCRIPTION
#----------   ------------   ------------------------------
 DEPT.F                  :   
 CALD.IN     45 280 60 00:   CALIPER FROM DENSITY LOG
 GRD .GAPI   45 310 01 00:   GAMMA RAY FROM DENSITY LOG
 CORR.G/C3   45 356 01 00:   DENSITY CORRECTION
 TEND.LBS    45 635 01 00:   TENSION FROM DENSITY LOG
 SPR .MV     07 010 01 00:   SPONTANEOUS POTENTIAL
 ILD .OHMM   07 120 46 00:   DEEP INDUCTION RESISTIVITY
 ILM .OHMM   07 120 44 00:   INDUCTION LOG MEDIUM RESISTIVITY
 SFL .OHMM   07 220 01 00:   SHALLOW FOCUSED LOG RESISTIVITY
 RHOB.G/C3   45 350 01 00:   BULK DENSITY
~PARAMETER INFORMATION
#MNEM.UNIT          VALUE    DESCRIPTION
#----------   ------------   ------------------------------
 EKB .F         5067.0000:   Kelly bushing
 EGL .F         5057.0000:   Ground level
 EDF .F         5066.0000:   Drilling floor
 EPD .F            0.0000:   Permanent datum
 TD  .F         3036.0000:   Total depth
 DATE.        01-JUL-1977:   Date logged
 CLNT.            A2DTECH:   Client Code
 SL  . 1220' FSL & 330' FWL:   Surface Location
 PD  .                 GL:   Permanent Datum
 DAPD.F                10:   Feet Above Permanent Datum
 DD  .F              3034:   Depth driller
 DL  .F              3036:   Depth logger
 BLI .F              3034:   Bottom log interval
 TLI .F               214:   Top log interval
 CS1 .IN            8.625:   Casing size
 CBD1.      8.625" @ 204':   Casing driller 1
 CBL1.F               214:   Casing logger 1
 BS1 .IN            7.875:   Bit size
 BSD1.F              3034:   Depth drilled with bit1
 DFT .                KCL:   Type fluid in hole
 DFD .                  9:   Density
 DFV .                 34:   Viscosity
 DFPH.                7.2:   pH
 DFL .                8.8:   Fluid loss
 MSS .         CIRCULATED:   Source of sample
 RMS .OHMM           .112:   Rm
 MST .F                75:   Rm Meas. temp.
 RMF .OHMM           .085:   Rmf
 MFST.F                75:   Rmf Meas. temp.
 RMC .OHMM           .141:   Rmc
 MCST.F                75:   Rmc Meas. temp.
 MFSS.               MEAS:   Source Rmf.
 MCSS.               MEAS:   Source Rmc.
 RMB .OHMM           .067:   Rm. at BHT
 BHT .F               124:   BHT.
 TCS .HRS               1:   Time Circ. stopped
 MRT .F               124:   Maximum recorded temp.
 LUN .               6134:   Logging unit number
 LUL .              GLTTE:   Logging unit location
 ENGI.              GOULD:   Recorded By
 WITN.         PETTINGILL:   Witnessed by
 ORIG.       2.5"5" PRINT:   Origin of data
 UWI .     49025103930000:   Unique Well ID
 DICO. A2D TECHNOLOGIES, INC.:   Digitizing Company
~OTHER INFORMATION
~A   DEPT     CALD         GRD      CORR       TEND        SPR        ILD        ILM        SFL       RHOB   
# ...
 2828.0000     9.2250   110.7860     0.0550   -52.2970   -69.8900     3.0540     7.9320   105.5460     2.3630
 2828.5000     9.1100   105.4670     0.0630   -52.7290   -70.1540     3.0540     7.3830    79.6170     2.4870
 2829.0000     9.1860   100.4510     0.0440   -53.1620   -70.4410     3.2510     6.0230    15.3600     2.5610
 2829.5000     9.3080    96.1680     0.0390   -53.5940   -70.7520     3.5520     6.0520    14.0230     2.5530
 2830.0000     9.2890    95.1390     0.0400   -54.0260   -71.0490     4.2430     6.0860    12.1730     2.5500
 2830.5000     9.1540    96.3990     0.0450   -54.4590   -71.3480     5.2010     6.1200    12.2990     2.5640
 2831.0000     9.1880    97.1880     0.0510   -54.8910   -71.6730     5.6660     6.2480    12.5500     2.5640
 2831.5000     9.2560    96.2000     0.0560   -55.3230   -71.8890     6.1410     6.3820    12.8010     2.5760
 2832.0000     9.1500    97.6350     0.0570   -55.7560   -71.9330     6.6020     6.4820    13.0210     2.5800
 2832.5000     9.0700    97.3920     0.0480   -56.1880   -72.0010     6.4830     6.3860    12.2830     2.5640
 2833.0000     9.1600    97.3590     0.0390   -56.5060   -72.0670     6.0960     6.3010    11.6260     2.5420
 2833.5000     9.1390    98.7250     0.0370   -56.2600   -72.1290     5.7080     6.2160    10.9690     2.5340
 2834.0000     9.0190    99.6630     0.0440   -56.0140   -72.1930     5.4950     6.1350    10.3120     2.5420
 2834.5000     9.0240   100.5780     0.0490   -55.7680   -72.2850     5.4950     6.1350     9.9760     2.5490
 2835.0000     9.2460   101.2730     0.0520   -55.5220   -72.4600     5.4950     6.1350     9.8280     2.5560
 2835.5000     9.2000   100.0770     0.0550   -55.2750   -72.6340     5.4950     6.1350     9.7070     2.5580
 2836.0000     9.1310    98.8730     0.0510   -55.0290   -72.8100     5.4950     6.1350    10.3370     2.5570
 2836.5000     9.1840    97.6940     0.0500   -54.7830   -72.9850     5.4680     6.1350    10.8700     2.5590
 2837.0000     9.3070    96.6890     0.0520   -54.5370   -73.1620     5.4190     5.9810    11.4020     2.5650
 2837.5000     9.2770    98.6130     0.0550   -54.2910   -73.3350     5.2970     5.8470    11.6630     2.5720
 2838.0000     9.2300   101.6180     0.0570   -54.0450   -73.5120     5.1040     5.7130    11.4510     2.5710
 2838.5000     9.2310   102.8570     0.0570   -53.7990   -73.6930     4.7670     5.3880    10.7630     2.5690
 2839.0000     9.2310   105.6130     0.0550   -53.5530   -73.7570     4.4290     5.0630     9.9790     2.5650
 2839.5000     9.2050   106.8440     0.0460   -53.3060   -73.5150     4.0910     4.7380     9.0260     2.5400
 2840.0000     9.1770   111.1510     0.0390   -53.0600   -73.2800     3.7540     4.4130     7.8500     2.5070
 2840.5000     9.1820   116.2040     0.0410   -52.8140   -73.0360     3.4100     4.0880     6.6740     2.4970
 2841.0000     9.2400   120.1450     0.0410   -52.5680   -72.7940     3.3800     3.9490     5.4980     2.4990
 2841.5000     9.2480   124.4590     0.0360   -52.3220   -72.5570     3.3470     4.0750     4.2500     2.4810
 2842.0000     9.1230   120.2460     0.0380   -52.0760   -72.3130     3.3470     4.4380     4.6890     2.5070
 2842.5000     9.0930   113.1230     0.0430   -51.8300   -72.2390     3.4730     4.8010     6.1790     2.5510
 2843.0000     9.2140   104.8100     0.0480   -51.5830   -72.2440     3.6780     5.1640     9.9870     2.5530
 2843.5000     9.2320   100.3720     0.0470   -51.3370   -72.2440     4.0980     5.5270    12.5570     2.5510
 2844.0000     9.1170    99.0020     0.0450   -51.0910   -72.2420     4.5180     5.8900    11.7020     2.5580
 2844.5000     9.1240    99.6580     0.0450   -50.8450   -72.2450     4.9380     6.1840    11.0380     2.5730
 2845.0000     9.2110    98.5680     0.0450   -50.5990   -72.2430     5.3580     6.4380    11.1890     2.5660
 2845.5000     9.2300    97.9270     0.0500   -50.3530   -72.2420     5.7000     6.6920    11.5600     2.5650
 2846.0000     9.1190    98.1300     0.0550   -50.1070   -72.2520     5.8400     6.9460    11.9310     2.5720
 2846.5000     9.0240    96.7850     0.0590   -49.8600   -72.2410     5.9590     7.2000    12.3020     2.5830
 2847.0000     8.9940    96.0230     0.0610   -49.6140   -72.7530     6.0770     7.4850    12.5520     2.5890
 2847.5000     8.9660    94.4780     0.0540   -49.3680   -73.4220     6.2830     7.8360    12.3480     2.5770
 2848.0000     8.9400    96.7280     0.0450   -49.1220   -74.1410     6.5750     8.2290    12.0990     2.5640
 2848.5000     8.9130    96.7290     0.0430   -48.8760   -73.7980     6.8490     8.3810    12.0990     2.5590
 2849.0000     8.8870    94.9720     0.0430   -48.6300   -73.2420     6.8590     8.2760    16.5210     2.5640
 2849.5000     8.8610    93.2100     0.0440   -48.3840   -72.6720     6.8980     7.8430    20.6030     2.5690
 2850.0000     8.8350    94.2650     0.0450   -48.1370   -72.2540     6.9370     7.4110    17.0340     2.5670
 2850.5000     8.8030    96.3120     0.0490   -47.8910   -72.2500     6.9760     6.9760    13.5080     2.5660
 2851.0000     8.7530    95.5800     0.0520   -47.6450   -72.2400     7.0480     6.9760    13.2620     2.5700
 2851.5000     8.6500    95.9220     0.0510   -47.3990   -72.2450     7.1220     7.0560    13.2620     2.5660
 2852.0000     8.6000    96.9670     0.0550   -47.1530   -72.2450     7.1950     7.2660    13.2620     2.5690
 2852.5000     8.8040    97.5190     0.0560   -46.9070   -72.2400     7.2680     7.4770    14.0300     2.5720
 2853.0000     8.8310    96.5470     0.0440   -46.6610   -72.2470     7.3410     7.6870    14.6860     2.5570
 2853.5000     8.7060    95.4230     0.0370   -46.0880   -72.2580     7.4150     7.8980    15.3430     2.5650
 2854.0000     8.6390    94.3240     0.0380   -45.4640   -72.5170     7.4880     8.0790    15.9110     2.5670
 2854.5000     8.7420    94.8190     0.0410   -44.8400   -72.7950     7.4450     7.8250    16.4030     2.5820
 2855.0000     8.7600    95.1200     0.0450   -44.2160   -73.0770     7.3710     7.6010    16.8360     2.5890
 2855.5000     8.6950    95.6220     0.0450   -43.5920   -73.3520     7.0870     7.3770    16.8360     2.5790
 2856.0000     8.6200    97.1050     0.0450   -42.9680   -73.6570     6.8340     7.1530    14.4980     2.5680
 2856.5000     8.6040    97.0860     0.0480   -42.3440   -73.8370     6.5810     6.9290    11.6630     2.5580
 2857.0000     8.7220    98.7250     0.0480   -41.7190   -73.8040     6.3280     6.7050    11.1200     2.5470
 2857.5000     8.7290   100.1480     0.0540   -41.0950   -73.9790     6.0590     6.4810    10.5140     2.5540
 2858.0000     8.5200    99.9360     0.0680   -40.4710   -74.4870     5.5560     6.1540     9.9080     2.5730
 2858.5000     8.6540   101.2900     0.0760   -39.8470   -74.9660     4.8050     5.7130     9.3570     2.5810
 2859.0000     8.7580   103.1170     0.0700   -39.2230   -75.3760     4.0960     5.2970     9.4240     2.5720
 2859.5000     8.6610   105.4920     0.0640   -38.5990   -75.4060     3.6170     4.6630     9.5680     2.5600
 2860.0000     8.5920   109.6740     0.0610   -37.9750   -75.2230     3.1630     4.0620     9.7070     2.5330
 2860.5000     8.7630   117.3410     0.0320   -37.3510   -74.8290     2.9980     3.5370     4.9220     2.4610
 2861.0000     8.8270   126.1110     0.0240   -36.7060   -74.4660     3.1240     3.5370     4.2240     2.4100
 2861.5000     8.5910   128.8750     0.0250   -37.7000   -74.1030     3.2750     4.4800     3.2270     2.3970
 2862.0000     8.6660   123.2000     0.0430   -38.7280   -73.7280     3.4270     5.4000     3.2270     2.4830
 2862.5000     8.8290   115.3870     0.0460   -39.7550   -73.3640     3.5780     6.1350    23.4280     2.5300
 2863.0000     8.6780    99.6310     0.0320   -40.7820   -73.0440     3.8890     6.4130    38.4580     2.5260
 2863.5000     8.6150    92.8330     0.0470   -41.8090   -73.0360     4.4440     6.6450    25.1510     2.5570
 2864.0000     8.7820    91.1710     0.0530   -42.8360   -73.0280     5.0130     6.8770    18.9570     2.5610
