~VERSION INFORMATION
 VERS.                2.0:   CWLS LOG ASCII STANDARD - VERSION 2.0
 WRAP.                 NO:   ONE LINE PER DEPTH STEP
~WELL INFORMATION
#MNEM.UNIT      DATA TYPE    INFORMATION
#----------   ------------   ------------------------------
 STRT.F           15.0000:   START DEPTH
 STOP.F         3245.5000:   STOP DEPTH
 STEP.F            0.5000:   STEP LENGTH
 NULL.          -999.2500:   NO VALUE
 COMP. LAWRENCE ALLISON AND ASSOCIATES:   COMPANY
 WELL. LAWRENCE ALLISON 11 X34 #3-3:   WELL
 FLD .             NPR #3:   FIELD
 LOC .       S3 T38N R78W:   LOCATION
 CNTY.            NATRONA:   COUNTY
 STAT.            WYOMING:   STATE
 CTRY. UNITED STATES OF AMERICA:   COUNTRY
 SRVC.      DRESSER ATLAS:   SERVICE COMPANY
 DATE.        23-MAY-1985:   LOGDATE
 API .     49025110530000:   API NUMBER
~CURVE INFORMATION
#MNEM.UNIT       API CODE    CURVE DESCRIPTION
#----------   ------------   ------------------------------
 DEPT.F                  :   
 SPR .MV     07 010 01 00:   SPONTANEOUS POTENTIAL
 GRR .GAPI   07 310 01 00:   GAMMA RAY FROM RESISTIVITY
 SFL .OHMM   07 220 01 00:   SHALLOW FOCUSED LOG RES.
 ILD .OHMM   07 120 46 00:   INDUCTION LOG DEEP RESISTIVITY
 ILM .OHMM   07 120 44 00:   INDUCTION LOG MEDIUM RESISTIVITY
 TENR.LBS    07 635 01 00:   TENSION
 CALR.IN     07 280 01 00:   CALIPER FROM RESISTIVITY
 RHOB.G/C3   45 350 01 00:   BULK DENSITY
 CORR.G/C3   45 356 01 00:   DENSITY CORRECTION
 CNC .DEC    42 890 03 00:   NEUTRON POROSITY SANDSTONE
~PARAMETER INFORMATION
#MNEM.UNIT          VALUE    DESCRIPTION
#----------   ------------   ------------------------------
 EKB .F         5099.0000:   Kelly bushing
 EGL .F         5087.0000:   Ground level
 EDF .F            0.0000:   Drilling floor
 EPD .F         5087.0000:   Permanent datum
 TD  .F         3240.0000:   Total depth
 DATE.         2-MAY-1985:   Date logged
 CLNT.            A2DTECH:   Client Code
 PD  .                 GL:   Permanent Datum
 DD  .F              3239:   Depth driller
 DL  .F              3242:   Depth logger
 BLI .F              3240:   Bottom log interval
 TLI .F                15:   Top log interval
 CS1 .IN            8.625:   Casing size
 CBD1.      8.625" @ 487':   Casing driller 1
 CBL1.F               487:   Casing logger 1
 BSD1.F              3239:   Depth drilled with bit1
 DFT .            KCL GEL:   Type fluid in hole
 ENGI.      MACK. EDWARDS:   Recorded By
 WITN.         MR. STRONG:   Witnessed by
 ORIG.           5" PRINT:   Origin of data
 UWI .     49025110530000:   Unique Well ID
 DICO. A2D TECHNOLOGIES, INC.:   Digitizing Company
 DAPD.IN               12:   Feet Above Permanent Datum
 BS1 .              7.875:   Bit size
 DFD .                9.1:   Density
 DFV .                 35:   Viscosity
 DFPH.                  8:   pH
 DFL .                9.8:   Fluid loss
 MSS .           FLOWLINE:   Source of sample
 RMS .OHMM            .27:   Rm
 MST .F                68:   Rm Meas. temp.
 RMF .OHMM             .2:   Rmf
 MFST.F                68:   Rmf Meas. temp.
 MFSS.               MEAS:   Source Rmf.
 RMC .OHMM            .34:   Rmc
 MCST.F                68:   Rmc Meas. temp.
 MCSS.               CALC:   Source Rmc.
 RMB .OHMM            .15:   Rm. at BHT
 BHT .F               126:   BHT.
 TCS .HRS               3:   Time Circ. stopped
 MRT .F               126:   Maximum recorded temp.
 LUN .               6274:   Logging unit number
 LUL .               GLTE:   Logging unit location
~OTHER INFORMATION
~A   DEPT      SPR        GRR        SFL        ILD        ILM       TENR       CALR       RHOB       CORR        CNC   
# ...
  651.5000   -81.2492    72.7390     6.8299     7.9137     6.6438   -60.0038  -999.2500  -999.2500  -999.2500  -999.2500
  652.0000   -80.8524    73.9295     6.8933     7.9140     6.6441   -70.0049  -999.2500  -999.2500  -999.2500  -999.2500
  652.5000   -81.2492    74.2271     6.7679     7.8417     6.6443   -60.0065  -999.2500  -999.2500  -999.2500  -999.2500
  653.0000   -81.0508    73.9295     6.7061     7.6991     6.6446   -60.0078  -999.2500  -999.2500  -999.2500  -999.2500
  653.5000   -80.6540    72.7390     6.8941     7.5588     6.2879   -70.0087  -999.2500  -999.2500  -999.2500  -999.2500
  654.0000   -80.6540    71.5486     6.8943     7.2859     6.2880   -80.0094  -999.2500  -999.2500  -999.2500  -999.2500
  654.5000   -80.4556    70.3581     6.8946     7.1532     6.0610   -70.0112  -999.2500  -999.2500  -999.2500  -999.2500
  655.0000   -80.9843    71.5486     6.7691     6.8949     5.9506   -70.0124  -999.2500  -999.2500  -999.2500  -999.2500
  655.5000   -81.0508    74.8224     6.6459     6.7693     5.7358   -70.0137  -999.2500  -999.2500  -999.2500  -999.2500
  656.0000   -81.0508    76.6081     6.4058     6.5249     5.7359   -70.0152  -999.2500  -999.2500  -999.2500  -999.2500
  656.5000   -80.6540    81.0724     6.1746     6.4061     5.5288   -60.0173  -999.2500  -999.2500  -999.2500  -999.2500
  657.0000   -81.2492    81.9652     6.0621     6.1748     5.4283   -60.0186  -999.2500  -999.2500  -999.2500  -999.2500
  657.5000   -81.4476    80.4771     5.9518     6.1750     5.3294   -60.0200  -999.2500  -999.2500  -999.2500  -999.2500
  658.0000   -81.6460    77.2033     5.8434     6.0626     5.2324   -80.0192  -999.2500  -999.2500  -999.2500  -999.2500
  658.5000   -81.8444    74.2271     5.8437     6.0628     5.2326   -70.0215  -999.2500  -999.2500  -999.2500  -999.2500
  659.0000   -82.0887    71.8462     5.8440     6.0631     5.1374   -80.0215  -999.2500  -999.2500  -999.2500  -999.2500
  659.5000   -82.2413    71.8462     5.8441     6.0634     5.0438   -70.0240  -999.2500  -999.2500  -999.2500  -999.2500
  660.0000   -82.8365    73.0367     5.8444     5.8444     5.0441   -80.0239  -999.2500  -999.2500  -999.2500  -999.2500
  660.5000   -82.4397    76.9057     5.7380     5.7380     4.9522   -70.0265  -999.2500  -999.2500  -999.2500  -999.2500
  661.0000   -82.2413    77.2033     5.5308     5.6335     4.6864   -70.0277  -999.2500  -999.2500  -999.2500  -999.2500
  661.5000   -82.2413    74.8224     5.4301     5.4302     4.6011   -70.0290  -999.2500  -999.2500  -999.2500  -999.2500
  662.0000   -82.0429    73.3343     5.3313     5.2340     4.3541   -80.0287  -999.2500  -999.2500  -999.2500  -999.2500
  662.5000   -82.0429    74.5248     5.2342     5.0451     4.2749   -70.0315  -999.2500  -999.2500  -999.2500  -999.2500
  663.0000   -81.8444    76.0129     5.0453     4.9532     4.2750   -70.0328  -999.2500  -999.2500  -999.2500  -999.2500
  663.5000   -81.4476    79.2867     4.9534     4.9535     4.4355   -70.0340  -999.2500  -999.2500  -999.2500  -999.2500
  664.0000   -81.4476    80.4771     4.9537     4.9536     4.6020   -70.0353  -999.2500  -999.2500  -999.2500  -999.2500
  664.5000   -81.0508    81.6676     4.9538     5.0459     4.7748   -60.0384  -999.2500  -999.2500  -999.2500  -999.2500
  665.0000   -81.2492    78.3938     5.3326     5.1398     4.8637   -70.0378  -999.2500  -999.2500  -999.2500  -999.2500
  665.5000   -81.0508    77.7986     5.4319     5.3328     4.8639   -70.0390  -999.2500  -999.2500  -999.2500  -999.2500
  666.0000   -80.6540    78.3938     5.5329     5.5329     4.9544   -70.0403  -999.2500  -999.2500  -999.2500  -999.2500
  666.5000   -81.0508    78.3938     5.6360     5.6360     4.9547   -70.0415  -999.2500  -999.2500  -999.2500  -999.2500
  667.0000   -81.4476    78.0962     5.5846     5.7409     5.0469   -60.0453  -999.2500  -999.2500  -999.2500  -999.2500
  667.5000   -82.2413    77.5010     5.7411     5.8478     5.0471   -70.0443  -999.2500  -999.2500  -999.2500  -999.2500
  668.0000   -82.2413    76.0129     5.7414     5.8480     5.0473   -60.0479  -999.2500  -999.2500  -999.2500  -999.2500
  668.5000   -82.6381    74.8224     5.7947     5.9569     5.1413   -60.0493  -999.2500  -999.2500  -999.2500  -999.2500
  669.0000   -82.4397    75.1200     5.7949     5.9571     5.1414   -60.0506  -999.2500  -999.2500  -999.2500  -999.2500
  669.5000   -82.2413    75.4176     5.6895     5.9573     5.1417   -70.0493  -999.2500  -999.2500  -999.2500  -999.2500
  670.0000   -82.0429    76.6081     5.7954     5.9576     5.1419   -70.0506  -999.2500  -999.2500  -999.2500  -999.2500
  670.5000   -82.2413    77.5010     5.7956     5.9578     5.1421   -60.0545  -999.2500  -999.2500  -999.2500  -999.2500
  671.0000   -82.6381    75.1200     5.7958     5.9581     5.1423   -60.0559  -999.2500  -999.2500  -999.2500  -999.2500
  671.5000   -82.4397    73.3343     5.7961     5.9583     5.1425   -60.0572  -999.2500  -999.2500  -999.2500  -999.2500
  672.0000   -82.2413    73.0367     5.8499     5.9585     5.1427   -70.0556  -999.2500  -999.2500  -999.2500  -999.2500
  672.5000   -82.4397    76.3105     5.7965     5.9587     5.1429   -60.0598  -999.2500  -999.2500  -999.2500  -999.2500
  673.0000   -82.4397    80.7748     5.7967     5.9590     5.1431   -60.0611  -999.2500  -999.2500  -999.2500  -999.2500
  673.5000   -82.2413    81.6676     5.7969     5.9592     5.3362   -60.0625  -999.2500  -999.2500  -999.2500  -999.2500
  674.0000   -82.0429    81.9652     5.7972     5.9594     5.4355   -60.0638  -999.2500  -999.2500  -999.2500  -999.2500
  674.5000   -82.0429    81.0724     5.7974     5.9596     5.5367   -60.0651  -999.2500  -999.2500  -999.2500  -999.2500
  675.0000   -82.2413    80.4771     6.0706     6.0706     5.5369   -60.0664  -999.2500  -999.2500  -999.2500  -999.2500
  675.5000   -82.1388    78.9890     6.0708     6.1836     5.4361   -60.0677  -999.2500  -999.2500  -999.2500  -999.2500
  676.0000   -82.0429    77.5010     6.0711     6.1838     5.4363   -60.0691  -999.2500  -999.2500  -999.2500  -999.2500
  676.5000   -81.8444    75.1200     5.9060     6.0713     5.2401   -60.0704  -999.2500  -999.2500  -999.2500  -999.2500
  677.0000   -81.8444    74.8224     5.7455     5.9608     5.1448   -50.0756  -999.2500  -999.2500  -999.2500  -999.2500
  677.5000   -81.6460    74.8224     5.7456     5.9610     5.1449   -60.0733  -999.2500  -999.2500  -999.2500  -999.2500
  678.0000   -81.2492    75.1200     5.6411     5.9613     5.1452   -80.0672  -999.2500  -999.2500  -999.2500  -999.2500
  678.5000   -81.2492    75.7152     5.5384     5.8527     5.0516   -50.0797  -999.2500  -999.2500  -999.2500  -999.2500
  679.0000   -81.4476    76.9057     5.5386     5.8530     5.0517   -50.0811  -999.2500  -999.2500  -999.2500  -999.2500
  679.5000   -81.2492    77.5010     5.5389     5.8532     4.9597   -60.0791  -999.2500  -999.2500  -999.2500  -999.2500
  680.0000   -81.2492    76.6081     5.5391     5.7467     4.9599   -60.0796  -999.2500  -999.2500  -999.2500  -999.2500
  680.5000   -81.8444    76.9057     5.6422     5.7470     4.9601   -60.0812  -999.2500  -999.2500  -999.2500  -999.2500
  681.0000   -81.6460    76.3105     5.6424     5.7472     4.9603   -60.0828  -999.2500  -999.2500  -999.2500  -999.2500
  681.5000   -81.6460    74.5248     5.6426     5.7474     4.9605   -60.0839  -999.2500  -999.2500  -999.2500  -999.2500
  682.0000   -82.0429    74.8224     5.5399     5.7477     4.9607   -50.0894  -999.2500  -999.2500  -999.2500  -999.2500
  682.5000   -82.0429    75.7152     5.5402     5.6431     4.9609   -50.0908  -999.2500  -999.2500  -999.2500  -999.2500
  683.0000   -82.4397    76.9057     5.5403     5.6432     4.9611   -50.0922  -999.2500  -999.2500  -999.2500  -999.2500
  683.5000   -82.6381    76.3105     5.4396     5.6434     4.9613   -50.0936  -999.2500  -999.2500  -999.2500  -999.2500
  684.0000   -82.6381    74.5248     5.4397     5.6436     4.9615   -80.0814  -999.2500  -999.2500  -999.2500  -999.2500
  684.5000   -82.6381    73.3343     5.4400     5.6439     4.9618   -50.0964  -999.2500  -999.2500  -999.2500  -999.2500
