~VERSION INFORMATION
 VERS.                2.0:   CWLS LOG ASCII STANDARD - VERSION 2.0
 WRAP.                 NO:   ONE LINE PER DEPTH STEP
~WELL INFORMATION
#MNEM.UNIT      DATA TYPE    INFORMATION
#----------   ------------   ------------------------------
 STRT.F            0.5000:   START DEPTH
 STOP.F         4128.0000:   STOP DEPTH
 STEP.F            0.5000:   STEP LENGTH
 NULL.          -999.2500:   NO VALUE
 COMP. LAWRENCE ALLISON ASSOC WEST:   COMPANY
 WELL. LAWRENCE NPR "AX" #12-33:   WELL
 FLD .      NPR - WILDCAT:   FIELD
 LOC .      S33 T39N R78W:   LOCATION
 CNTY.            NATRONA:   COUNTY
 STAT.            WYOMING:   STATE
 CTRY. UNITED STATES OF AMERICA:   COUNTRY
 SRVC.      DRESSER ATLAS:   SERVICE COMPANY
 DATE.        04-AUG-1984:   LOGDATE
 API .     49025109720000:   API NUMBER
~CURVE INFORMATION
#MNEM.UNIT       API CODE    CURVE DESCRIPTION
#----------   ------------   ------------------------------
 DEPT.F                  :   
 CORR.G/C3   45 356 01 00:   DENSITY CORRECTION
 TEND.LBS    45 635 01 00:   TENSION FROM DENSITY LOG
 RHOB.G/C3   45 350 01 00:   BULK DENSITY
 GRR .GAPI   07 310 01 00:   GAMMA RAY FROM RESISTIVITY
 SPR .MV     07 010 01 00:   SPONTANEOUS POTENTIAL
 RFOC.OHMM   07 220 04 00:   RESISTIVITY FOCUSED LOG RES.
 RILM.OHMM   07 120 44 00:   RESISTIVITY INDUCTION LOG MEDIUM
 RILD.OHMM   07 120 46 00:   RESISTIVITY INDUCTION LOG MEDIUM
 TENR.LBS    07 635 01 00:   TENSION FROM RESISTIVITY
 CALR.IN     07 280 01 00:   CALIPER FROM RESISTIVITY
 DT  .US/F   60 520 00 00:   DELTA TIME
 TENS.LBS    60 635 01 00:   TENSION FROM SONIC
 SPHI.DEC    60 890 00 00:   SONIC POROSITY
~PARAMETER INFORMATION
#MNEM.UNIT          VALUE    DESCRIPTION
#----------   ------------   ------------------------------
 EKB .F         5170.0000:   Kelly bushing
 EGL .F         5157.0000:   Ground level
 EDF .F            0.0000:   Drilling floor
 TD  .F         4121.0000:   Total depth
 DATE.        04-AUG-1984:   Date logged
 CLNT.            A2DTECH:   Client Code
 SL  . 857' FNL & 751' FWL:   Surface Location
 PD  .                 GL:   Permanent Datum
 EPD .F              5157:   Elevation Permanent Datum
 LMF .                 KB:   Log Measured From
 DMF .                 KB:   Drilling Measured From
 DAPD.F                13:   Feet Above Permanent Datum
 DD  .F              4120:   Depth driller
 DL  .F              4121:   Depth logger
 BLI .F              4119:   Bottom log interval
 CS1 .IN            8.625:   Casing size
 CBD1.      8.625" @ 625':   Casing driller 1
 CBL1.F               624:   Casing logger 1
 BS1 .IN            7.875:   Bit size
 BSD1.F              4120:   Depth drilled with bit1
 DFT .            GEL/KCL:   Type fluid in hole
 DFD .                9.1:   Density
 DFV .                 40:   Viscosity
 DFPH.                8.5:   pH
 DFL .                 11:   Fluid loss
 MSS .               TANK:   Source of sample
 RMS .OHMM           .302:   Rm
 MST .F                84:   Rm Meas. temp.
 RMF .OHMM            .22:   Rmf
 MFST.F                84:   Rmf Meas. temp.
 RMC .OHMM            .38:   Rmc
 MCST.F                84:   Rmc Meas. temp.
 MFSS.               CALC:   Source Rmf.
 MCSS.               CALC:   Source Rmc.
 RMB .OHMM            .19:   Rm. at BHT
 BHT .F               132:   BHT.
 TCS .HRS               4:   Time Circ. stopped
 MRT .F               132:   Maximum recorded temp.
 LUN .               6307:   Logging unit number
 LUL .               GLTE:   Logging unit location
 ENGI.           FAHLSING:   Recorded By
 WITN.       ROBERT SCOTT:   Witnessed by
 ORIG.           5" PRINT:   Origin of data
 UWI .     49025109720000:   Unique Well ID
 DICO. A2D TECHNOLOGIES, INC.:   Digitizing Company
~OTHER INFORMATION
~A    DEPT    CORR       TEND       RHOB         GRR       SPR       RFOC       RILM       RILD       TENR       CALR         DT       TENS       SPHI   
# ...
 2470.5000  -999.2500  -999.2500  -999.2500   119.1970   -53.2560     6.2830     6.3260     5.7520   -50.2280     8.8190  -999.2500  -999.2500  -999.2500
 2471.0000  -999.2500  -999.2500  -999.2500   119.6170   -53.2100     6.1590     6.2440     5.6050   -50.2180     8.8190  -999.2500  -999.2500  -999.2500
 2471.5000  -999.2500  -999.2500  -999.2500   116.5710   -53.1630     6.2210     6.1620     5.5160   -50.2090     8.8210  -999.2500  -999.2500  -999.2500
 2472.0000  -999.2500  -999.2500  -999.2500   113.5640   -53.1150     6.3000     6.0800     5.4650   -50.1990     8.8320  -999.2500  -999.2500  -999.2500
 2472.5000  -999.2500  -999.2500  -999.2500   110.6760   -53.0880     6.3320     5.9980     5.4650   -50.1890     8.8430  -999.2500  -999.2500  -999.2500
 2473.0000  -999.2500  -999.2500  -999.2500   110.9680   -53.1060     6.2080     5.9160     5.4650   -50.1790     8.8540  -999.2500  -999.2500  -999.2500
 2473.5000  -999.2500  -999.2500  -999.2500   111.3680   -52.4120     6.1030     5.8290     5.4650   -50.1700     8.8580  -999.2500  -999.2500  -999.2500
 2474.0000  -999.2500  -999.2500  -999.2500   110.9610   -51.5790     6.1030     5.8290     5.4650   -50.1600     8.8590  -999.2500  -999.2500  -999.2500
 2474.5000  -999.2500  -999.2500  -999.2500   106.6800   -50.7360     6.1710     5.8290     5.4650   -50.1500     8.8590  -999.2500  -999.2500  -999.2500
 2475.0000  -999.2500  -999.2500  -999.2500   102.4680   -49.9350     6.2860     5.8290     5.4680   -50.1410     8.8590  -999.2500  -999.2500  -999.2500
 2475.5000  -999.2500  -999.2500  -999.2500    98.8490   -49.6830     6.3320     5.8290     5.4110   -50.1310     8.8640  -999.2500  -999.2500  -999.2500
 2476.0000  -999.2500  -999.2500  -999.2500   100.3490   -49.6960     6.2660     5.8290     5.3220   -50.1210     8.8690  -999.2500  -999.2500  -999.2500
 2476.5000  -999.2500  -999.2500  -999.2500   104.7410   -49.6860     6.1560     5.7050     5.2320   -50.1120     8.8740  -999.2500  -999.2500  -999.2500
 2477.0000  -999.2500  -999.2500  -999.2500   107.9730   -50.2760     6.0460     5.5810     5.1430   -50.1020     8.8790  -999.2500  -999.2500  -999.2500
 2477.5000  -999.2500  -999.2500  -999.2500   109.4650   -50.9690     5.9370     5.4570     5.0540   -50.0920     8.8890  -999.2500  -999.2500  -999.2500
 2478.0000  -999.2500  -999.2500  -999.2500   109.7450   -51.6700     5.7070     5.3340     4.9640   -50.0830     8.9000  -999.2500  -999.2500  -999.2500
 2478.5000  -999.2500  -999.2500  -999.2500   109.7490   -52.3700     5.4190     5.2100     4.8660   -50.0730     8.9100  -999.2500  -999.2500  -999.2500
 2479.0000  -999.2500  -999.2500  -999.2500   110.6210   -53.0700     5.3650     5.0870     4.7360   -50.0630     8.9200  -999.2500  -999.2500  -999.2500
 2479.5000  -999.2500  -999.2500  -999.2500   112.0010   -53.7680     5.3650     4.9630     4.6060   -50.0540     8.9290  -999.2500  -999.2500  -999.2500
 2480.0000  -999.2500  -999.2500  -999.2500   113.2590   -54.4640     5.3650     4.8400     4.4770   -50.0440     8.9380  -999.2500  -999.2500  -999.2500
 2480.5000  -999.2500  -999.2500  -999.2500   112.1320   -54.8430     5.3650     4.7160     4.3470   -50.0340     8.9260  -999.2500  -999.2500  -999.2500
 2481.0000  -999.2500  -999.2500  -999.2500   110.9280   -54.6730     5.3470     4.5920     4.2170   -50.0240     8.9180  -999.2500  -999.2500  -999.2500
 2481.5000  -999.2500  -999.2500  -999.2500   109.7260   -54.5090     5.2660     4.4690     4.0870   -50.0150     8.9180  -999.2500  -999.2500  -999.2500
 2482.0000  -999.2500  -999.2500  -999.2500   108.6840   -54.3440     5.1850     4.3500     3.9570   -50.0050     8.9180  -999.2500  -999.2500  -999.2500
 2482.5000  -999.2500  -999.2500  -999.2500   110.6030   -54.1780     4.9590     4.2340     3.8270   -49.9950     8.9180  -999.2500  -999.2500  -999.2500
 2483.0000  -999.2500  -999.2500  -999.2500   113.1020   -54.0130     4.7020     4.1180     3.6980   -49.9860     8.9180  -999.2500  -999.2500  -999.2500
 2483.5000  -999.2500  -999.2500  -999.2500   115.8670   -53.8900     4.4460     3.9630     3.5680   -49.9760     8.9180  -999.2500  -999.2500  -999.2500
 2484.0000  -999.2500  -999.2500  -999.2500   118.4680   -53.6700     4.1890     3.9720     3.5150   -49.9660     8.9180  -999.2500  -999.2500  -999.2500
 2484.5000  -999.2500  -999.2500  -999.2500   117.9950   -53.6840     4.1470     3.9910     3.4770   -49.9570     8.9180  -999.2500  -999.2500  -999.2500
 2485.0000  -999.2500  -999.2500  -999.2500   117.3670   -53.6970     4.2380     4.0090     3.4390   -49.9470     8.9180  -999.2500  -999.2500  -999.2500
 2485.5000  -999.2500  -999.2500  -999.2500   116.7350   -53.3070     4.3810     4.0280     3.4000   -49.9370     8.9180  -999.2500  -999.2500  -999.2500
 2486.0000  -999.2500  -999.2500  -999.2500   116.1880   -52.8690     4.5230     4.0460     3.3870   -49.9280     8.9180  -999.2500  -999.2500  -999.2500
 2486.5000  -999.2500  -999.2500  -999.2500   117.0200   -52.4270     4.6310     4.0650     3.4680   -49.9180     8.9180  -999.2500  -999.2500  -999.2500
 2487.0000  -999.2500  -999.2500  -999.2500   117.8600   -51.9870     4.5200     4.0710     3.5630   -49.9080     8.9180  -999.2500  -999.2500  -999.2500
 2487.5000  -999.2500  -999.2500  -999.2500   118.2450   -51.5460     4.3820     4.1580     3.6590   -49.8980     8.9180  -999.2500  -999.2500  -999.2500
 2488.0000  -999.2500  -999.2500  -999.2500   116.9240   -51.4940     4.5190     4.2910     3.7540   -49.8890     8.9180  -999.2500  -999.2500  -999.2500
 2488.5000  -999.2500  -999.2500  -999.2500   115.6400   -51.9320     4.8240     4.4250     3.8500   -49.8790     8.9180  -999.2500  -999.2500  -999.2500
 2489.0000  -999.2500  -999.2500  -999.2500   114.3700   -52.3600     5.1280     4.5580     3.9450   -49.8690     8.9180  -999.2500  -999.2500  -999.2500
 2489.5000  -999.2500  -999.2500  -999.2500   113.1160   -52.6290     5.1720     4.6310     4.0240   -49.8600     8.9180  -999.2500  -999.2500  -999.2500
 2490.0000  -999.2500  -999.2500  -999.2500   112.2540   -52.3310     5.1390     4.7170     4.0840   -49.8500     8.9180  -999.2500  -999.2500  -999.2500
 2490.5000  -999.2500  -999.2500  -999.2500   112.7790   -52.3120     5.1080     4.7170     4.1440   -49.8400     8.9180  -999.2500  -999.2500  -999.2500
 2491.0000  -999.2500  -999.2500  -999.2500   114.1870   -52.7550     5.0780     4.8050     4.2040   -49.8310     8.9180  -999.2500  -999.2500  -999.2500
 2491.5000  -999.2500  -999.2500  -999.2500   116.0370   -53.1960     5.0470     4.8480     4.2640   -49.8210     8.9180  -999.2500  -999.2500  -999.2500
 2492.0000  -999.2500  -999.2500  -999.2500   117.8730   -53.6350     5.0310     4.8880     4.3240   -49.8110     8.9180  -999.2500  -999.2500  -999.2500
 2492.5000  -999.2500  -999.2500  -999.2500   118.1230   -54.0740     5.0310     4.9290     4.3830   -49.8020     8.9180  -999.2500  -999.2500  -999.2500
 2493.0000  -999.2500  -999.2500  -999.2500   118.1450   -54.4730     5.2120     4.9690     4.4430   -49.7920     8.9180  -999.2500  -999.2500  -999.2500
 2493.5000  -999.2500  -999.2500  -999.2500   118.4550   -54.4820     5.3820     5.0090     4.5030   -49.7820     8.9180  -999.2500  -999.2500  -999.2500
 2494.0000  -999.2500  -999.2500  -999.2500   120.1960   -54.4810     5.5520     5.0310     4.5930   -49.7720     8.9180  -999.2500  -999.2500  -999.2500
 2494.5000  -999.2500  -999.2500  -999.2500   123.6690   -54.4820     5.7210     5.0310     4.7600   -49.7630     8.9180  -999.2500  -999.2500  -999.2500
 2495.0000  -999.2500  -999.2500  -999.2500   127.0910   -54.4760     5.8910     5.1070     4.9280   -49.7530     8.9200  -999.2500  -999.2500  -999.2500
 2495.5000  -999.2500  -999.2500  -999.2500   129.2460   -53.9020     6.0610     5.2190     5.0960   -49.7430     8.9250  -999.2500  -999.2500  -999.2500
 2496.0000  -999.2500  -999.2500  -999.2500   123.9720   -53.2480     6.2160     5.3310     5.2630   -49.7340     8.9300  -999.2500  -999.2500  -999.2500
