~VERSION INFORMATION
 VERS.                2.0:   CWLS LOG ASCII STANDARD - VERSION 2.0
 WRAP.                 NO:   ONE LINE PER DEPTH STEP
~WELL INFORMATION
#MNEM.UNIT      DATA TYPE    INFORMATION
#----------   ------------   ------------------------------
 STRT.F          330.0000:   START DEPTH
 STOP.F         2880.0000:   STOP DEPTH
 STEP.F            0.5000:   STEP LENGTH
 NULL.          -999.2500:   NO VALUE
 COMP.   TESORO PETROLEUM:   COMPANY
 WELL. TESORO NPR "AX" #3-21:   WELL
 FLD .        TEAPOT DOME:   FIELD
 LOC .      S21 T39N R78W:   LOCATION
 CNTY.            NATRONA:   COUNTY
 STAT.            WYOMING:   STATE
 CTRY. UNITED STATES OF AMERICA:   COUNTRY
 SRVC.       SCHLUMBERGER:   SERVICE COMPANY
 DATE.        17-AUG-1972:   LOGDATE
 API .     49025102150000:   API NUMBER
~CURVE INFORMATION
#MNEM.UNIT       API CODE    CURVE DESCRIPTION
#----------   ------------   ------------------------------
 DEPT.F                  :   
 GRD .GAPI   45 310 01 00:   GAMMA RAY FROM DENSITY LOG
 CALD.IN     45 280 60 00:   CALIPER FROM DENSITY LOG
 CORR.G/C3   45 356 01 00:   DENSITY CORRECTION
 RHOB.G/C3   45 350 01 00:   BULK DENSITY
 SPR .MV     05 010 01 00:   SPONTANEOUS POTENTIAL FROM RES.
 ILD .OHMM   05 120 46 00:   INDUCTION LOG DEEP
 ASN .OHMM   05 041 16 00:   AMPLIFIED SHORT NORMAL 16"
~PARAMETER INFORMATION
#MNEM.UNIT          VALUE    DESCRIPTION
#----------   ------------   ------------------------------
 EKB .F         4985.0000:   Kelly bushing
 EGL .F         4975.0000:   Ground level
 EDF .F            0.0000:   Drilling floor
 EPD .F         4975.0000:   Permanent datum
 TD  .F         2880.0000:   Total depth
 CLNT.            A2DTECH:   Client Code
 DATE.        17-AUG-1972:   Date Logged [DD-MMM-YYYY]
 DD  .F              2875:   Depth driller
 DL  .F              2880:   Depth logger
 BLI .F              2879:   Bottom log interval
 TLI .F               330:   Top log interval
 CS1 .              10.75:   Casing size
 CBD1.       10.75" @ 327:   Casing driller 1
 CBL1.IN              330:   Casing logger 1
 BS1 .IN                9:   Bit size
 BSD1.F              2875:   Depth drilled with bit1
 DFT .           CHEM-GEL:   Type fluid in hole
 DFD .                9.3:   Density
 DFV .                 61:   Viscosity
 DFPH.                9.0:   pH
 DFL .                 66:   Fluid loss
 MSS .           FLOWLINE:   Source of sample
 RMS .OHMM           1.86:   Rm
 MST .F                76:   Rm Meas. temp.
 RMF .OHMM           1.58:   Rmf
 MFST.F                76:   Rmf Meas. temp.
 MFSS.               MEAS:   Source Rmf.
 RMB .OHMM           1.25:   Rm. at BHT
 BHT .F               113:   BHT.
 TCS .HRS               3:   Time Circ. stopped
 MRT .F               113:   Maximum recorded temp.
 LUN .               7037:   Logging unit number
 LUL .               CSPR:   Logging unit location
 ENGI.              GOLAS:   Recorded By
 WITN.                MAY:   Witnessed by
 ORIG.      1" 2.5" PRINT:   Origin of data
 UWI .     49025102150000:   Unique Well ID
 DICO. A2D TECHNOLOGIES, INC.:   Digitizing Company
~OTHER INFORMATION
~A   DEPT      GRD       CALD       CORR       RHOB        SPR          ILD        ASN 
# ...
 2195.5000   119.7669     9.7963     0.0017     2.5172   -15.9479     6.4676     7.9635
 2196.0000   116.5102     9.7963     0.0119     2.5442   -15.9391     6.4692     8.2031
 2196.5000   114.7177     9.7654    -0.0004     2.5473   -15.9302     6.4707     8.4216
 2197.0000   112.8568     9.7654     0.0105     2.5405   -15.9214     6.4958     8.6422
 2197.5000   111.6570     9.7654     0.0064     2.5413   -15.9125     6.6280     8.8072
 2198.0000   114.3048     9.7654    -0.0006     2.5314   -15.9037     6.6626     8.8328
 2198.5000   116.2869     9.7654     0.0006     2.5330   -15.8948     6.7855     8.6794
 2199.0000   116.1613     9.7654     0.0045     2.5161   -15.8860     6.8291     8.3627
 2199.5000   115.2345     9.7654     0.0066     2.5053   -15.5777     6.9429     8.2201
 2200.0000   114.9219     9.7654     0.0103     2.5100   -15.5689     6.9445     8.1491
 2200.5000   115.2593     9.7654     0.0145     2.5301   -15.2516     6.9460     8.4223
 2201.0000   116.3202     9.7654     0.0186     2.5348   -14.6527     6.8868     8.6882
 2201.5000   113.4626     9.7654     0.0218     2.5333   -14.6437     6.7947     8.9277
 2202.0000   110.8644     9.7831     0.0161     2.5411   -14.9701     6.7263     9.0478
 2202.5000   109.2115     9.7662     0.0066     2.5473   -15.5246     6.5690     8.8396
 2203.0000   110.5431     9.7664     0.0011     2.5396   -15.5150     6.4908     8.6015
 2203.5000   112.8932     9.7665    -0.0027     2.5289   -15.8063     6.3217     8.3336
 2204.0000   113.1323     9.7494    -0.0011     2.5228   -15.7245     6.1666     8.0956
 2204.5000   115.5272     9.7360     0.0068     2.5197   -15.4073     6.0116     7.9172
 2205.0000   118.0846     9.7361     0.0155     2.5260   -14.8802     6.0108     7.8284
 2205.5000   118.6915     9.7363     0.0125     2.5335   -14.5718     5.8557     7.7088
 2206.0000   118.2383     9.7364     0.0007     2.5135   -14.6706     5.8550     7.6181
 2206.5000   116.3989     9.7366     0.0023     2.5150   -14.9702     5.8542     7.5298
 2207.0000   115.0523     9.7367     0.0008     2.5171   -15.2695     5.6991     7.4964
 2207.5000   113.6782     9.7369     0.0209     2.5265   -15.4341     5.6688     7.3843
 2208.0000   110.4566     9.7679     0.0148     2.5321   -15.8683     5.5432     7.4902
 2208.5000   108.1580     9.7681     0.0009     2.5195   -16.1675     5.5424     7.6247
 2209.0000   106.7825     9.7682     0.0087     2.5196   -16.6048     5.3874     7.6552
 2209.5000   105.4070     9.7684     0.0211     2.5252   -16.4252     5.2323     7.5940
 2210.0000   107.2623     9.7685     0.0377     2.5450   -16.2857     5.1749     7.3432
 2210.5000   110.9637     9.7687     0.0300     2.5568   -15.9774     5.0144     7.0608
 2211.0000   114.2036     9.7688     0.0161     2.5391   -15.6692     4.9213     6.7899
 2211.5000   116.5204     9.7690     0.0300     2.5332   -15.3609     4.6934     6.6087
 2212.0000   118.3757     9.7691     0.0424     2.5442   -15.7895     4.6111     6.4657
 2212.5000   118.8844     9.7693     0.0316     2.5542   -15.4799     4.4560     6.4229
 2213.0000   115.6247     9.7673     0.0270     2.5478   -15.4799     4.2119     6.3483
 2213.5000   113.3220     9.7387     0.0395     2.5432   -15.7895     3.9914     6.2577
 2214.0000   112.3813     9.7080     0.0360     2.5571   -15.7895     3.8363     6.1073
 2214.5000   110.9831     9.7082     0.0179     2.5371   -15.7895     3.6812     5.9394
 2215.0000   109.6612     9.7083     0.0260     2.5464   -15.9546     3.6804     5.6046
 2215.5000   111.7677     9.7085     0.0287     2.5372   -16.0991     3.6797     5.3964
 2216.0000   117.0341     9.7086     0.0143     2.5125   -16.4087     3.5246     5.1882
 2216.5000   122.9060     9.7088     0.0049     2.4972   -16.4087     3.5239     5.0397
 2217.0000   126.4835     9.7089     0.0010     2.4802   -16.4087     3.6775     4.8613
 2217.5000   124.8248     9.7091     0.0119     2.4510   -16.0991     3.6767     4.6829
 2218.0000   120.0091     9.7092     0.0100     2.4572   -16.0991     3.6759     4.6537
 2218.5000   117.7956     9.7094     0.0213     2.4957   -15.7895     3.6751     4.6844
 2219.0000   116.5279     9.7095     0.0397     2.5204   -15.7895     3.6744     4.8045
 2219.5000   117.8414     9.7097     0.0322     2.5220   -15.7895     3.8279     4.9247
 2220.0000   124.8308     9.7098     0.0229     2.5251   -15.7895     3.8272     5.0747
 2220.5000   130.2703     9.6947     0.0167     2.5190   -15.7895     3.9807     5.1948
 2221.0000   131.4629     9.6794     0.0247     2.5313   -15.7895     3.9799     5.2552
 2221.5000   129.5236     9.6795     0.0278     2.5375   -15.7895     4.1336     5.4982
 2222.0000   128.0526     9.6797     0.0188     2.5357   -15.7895     4.2871     5.6764
 2222.5000   126.4537     9.6798     0.0054     2.5111   -15.7895     4.4407     5.7350
 2223.0000   123.6864     9.6800    -0.0009     2.5004   -15.7895     4.5942     5.7656
 2223.5000   121.3496     9.6801     0.0084     2.4930   -15.7895     4.5934     5.7664
 2224.0000   120.6583     9.6803     0.0028     2.5028   -15.7895     4.8004     5.7672
 2224.5000   120.4523     9.6804    -0.0062     2.5016   -15.7895     4.9594     5.7978
 2225.0000   120.4615     9.6806    -0.0053     2.4946   -15.7895     5.0540     5.9105
 2225.5000   120.2902     9.6807    -0.0030     2.4999   -15.7895     5.2076     6.1146
 2226.0000   121.4048     9.6809    -0.0030     2.5024   -15.7895     5.2068     6.2758
 2226.5000   123.2600     9.6810    -0.0014     2.4993   -15.7895     5.3603     6.4884
 2227.0000   124.6538     9.6503     0.0063     2.5095   -16.0991     5.5139     6.6936
 2227.5000   126.5090     9.6505     0.0125     2.5262   -16.0991     5.5131     7.0816
 2228.0000   124.6720     9.6506     0.0249     2.5388   -16.0991     5.6666     7.3647
 2228.5000   120.0657     9.6508     0.0403     2.5590   -16.0991     5.8202     7.5615
 2229.0000   118.2287     9.6509     0.0481     2.5734   -16.0991     5.8193     7.7001
 2229.5000   116.8532     9.6202     0.0188     2.5262   -16.0991     5.9729     7.8073
 2230.0000   115.4777     9.6204     0.0049     2.5057   -15.7895     5.9721     7.8955
 2230.5000   117.3330     9.6205     0.0065     2.5092   -15.7895     6.1258     7.9860
 2231.0000   120.1113     9.6207     0.0143     2.5176   -15.7895     6.1249     8.0166
 2231.5000   121.0435     9.5900     0.0144     2.5297   -15.7895     6.1242     8.1367
 2232.0000   119.2065     9.5901     0.0174     2.5305   -15.7895     6.1234     8.2568
 2232.5000   118.2925     9.5903     0.0175     2.5360   -15.7895     6.2770     8.3770
 2233.0000   118.7632     9.5904     0.0005     2.5415   -15.7895     6.2762     8.4971
 2233.5000   122.4756     9.5906    -0.0010     2.5122   -15.7895     6.2755     8.5277
 2234.0000   124.8281     9.5907    -0.0010     2.5102   -15.7895     6.4362     8.6478
 2234.5000   127.1793     9.5909    -0.0026     2.5168   -15.7605     6.7620     8.7978
 2235.0000   129.4537     9.5602    -0.0041     2.5106   -15.4799     7.2352     9.1866
 2235.5000   130.3477     9.5603    -0.0006     2.5199   -15.4799     7.6846     9.8142
 2236.0000   130.2953     9.5605     0.0070     2.5354   -15.4799     8.0268     9.9643
 2236.5000   128.7626     9.5606     0.0100     2.5446   -15.1703     8.2771     9.9949
 2237.0000   125.9670     9.5608     0.0118     2.5323   -15.1703     8.4703     9.9658
 2237.5000   123.7306     9.5609     0.0147     2.5262   -15.2735     8.5842     9.9665
 2238.0000   123.0082     9.5611     0.0169     2.5185   -15.4799     8.1234     9.9673
 2238.5000   125.5651     9.5613     0.0209     2.5093   -15.6079     7.3907     9.9680
 2239.0000   126.2572     9.5615     0.0154     2.5016   -15.7895     6.8230     9.9687
 2239.5000   126.5523     9.5616     0.0092     2.5063   -15.7895     6.4205     9.8501
 2240.0000   128.8929     9.5618     0.0056     2.5283   -15.9548     6.2654     8.6866
 2240.5000   129.5153     9.5619     0.0056     2.5202   -16.0991     6.1103     8.5082
