~VERSION INFORMATION
 VERS.                2.0:   CWLS LOG ASCII STANDARD - VERSION 2.0
 WRAP.                 NO:   ONE LINE PER DEPTH STEP
~WELL INFORMATION
#MNEM.UNIT      DATA TYPE    INFORMATION
#----------   ------------   ------------------------------
 STRT.F            0.0000:   START DEPTH
 STOP.F         1077.0000:   STOP DEPTH
 STEP.F            0.5000:   STEP LENGTH
 NULL.          -999.2500:   NO VALUE
 COMP.         JOHN BROWN:   COMPANY
 WELL.       JOHN X #66-2:   WELL
 FLD .                NPR:   FIELD
 LOC .       S2 T38N R78W:   LOCATION
 CNTY.            NATRONA:   COUNTY
 STAT.            WYOMING:   STATE
 CTRY. UNITED STATES OF AMERICA:   COUNTRY
 SRVC.     ATLAS WIRELINE:   SERVICE COMPANY
 DATE.        04-DEC-1991:   LOGDATE
 API .     49025224820000:   API NUMBER
~CURVE INFORMATION
#MNEM.UNIT       API CODE    CURVE DESCRIPTION
#----------   ------------   ------------------------------
 DEPT.F                  :   
 TENR.LBS    07 635 01 00:   TENSION
 RILD.OHMM   07 120 46 00:   INDUCTION LOG DEEP RESISTIVITY
 RILM.OHMM   07 120 44 00:   INDUCTION LOG MEDIUM RESISTIVITY
 GRR .GAPI   07 310 01 00:   GAMMA RAY FROM RESISTIVITY
~PARAMETER INFORMATION
#MNEM.UNIT          VALUE    DESCRIPTION
#----------   ------------   ------------------------------
 EKB .F         5189.0000:   Kelly bushing
 EGL .F         5179.0000:   Ground level
 EDF .F         5188.0000:   Drilling floor
 EPD .F         5179.0000:   Permanent datum
 TD  .F         1072.0000:   Total depth
 DATE.        04-DEC-1991:   Date logged
 CLNT.            A2DTECH:   Client Code
 SL  . 1893' FSL & 1937' FEL:   Surface Location
 PD  .                 GL:   Permanent Datum
 LMF .                 KB:   Log Measured From
 DMF .                 KB:   Drilling Measured From
 DAPD.F                10:   Feet Above Permanent Datum
 DD  .F              1072:   Depth driller
 DL  .F              1073:   Depth logger
 BLI .F              1071:   Bottom log interval
 CS1 .IN            9.625:   Casing size
 CBD1.       9.625" @ 40':   Casing driller 1
 CBL1.F                50:   Casing logger 1
 BS1 .IN            7.875:   Bit size
 BSD1.F              1072:   Depth drilled with bit1
 DFT .                AIR:   Type fluid in hole
 LUN .            HL 6387:   Logging unit number
 LUL .             CASPER:   Logging unit location
 WITN.        GARY STRONG:   Witnessed by
 ORIG.         2.5" PRINT:   Origin of data
 UWI .     49025224820000:   Unique Well ID
 DICO. A2D TECHNOLOGIES, INC.:   Digitizing Company
~OTHER INFORMATION
~A    DEPT    TENR       RILD       RILM         GRR  
# ...
  730.0000   -32.9960     7.1810     7.4210   135.7270
  730.5000   -32.9500     7.1800     7.3980   133.1060
  731.0000   -32.9050     7.1800     7.3750   133.6040
  731.5000   -32.8590     7.1810     7.3520   135.3330
  732.0000   -32.8140     7.1810     7.3290   136.8820
  732.5000   -32.7680     7.1800     7.3060   134.3310
  733.0000   -32.7230     7.1800     7.2830   129.7880
  733.5000   -32.6770     7.1800     7.2600   129.8060
  734.0000   -32.6320     7.1800     7.2360   132.4610
  734.5000   -32.5860     7.1800     7.2140   135.9600
  735.0000   -32.5410     7.1820     7.1900   138.4310
  735.5000   -32.4950     7.1560     7.1680   139.1240
  736.0000   -32.4500     7.1060     7.1460   139.5160
  736.5000   -32.4040     7.0600     7.1230   139.4740
  737.0000   -32.3590     7.0130     7.1010   140.9280
  737.5000   -32.3130     6.9660     7.0790   143.1880
  738.0000   -32.2680     6.9190     7.0560   142.2700
  738.5000   -32.2220     6.8730     7.0340   135.9730
  739.0000   -32.1770     6.8260     7.0120   135.0420
  739.5000   -32.1310     6.7800     6.9900   137.5600
  740.0000   -32.0860     6.7320     6.9670   140.1650
  740.5000   -32.0400     6.6780     6.9450   143.1240
  741.0000   -31.9950     6.6710     6.9230   142.4160
  741.5000   -31.9490     6.6560     6.9010   142.5740
  742.0000   -31.9040     6.6410     6.8780   145.3860
  742.5000   -31.8580     6.6260     6.8560   146.0380
  743.0000   -31.8130     6.6110     6.8340   141.5610
  743.5000   -31.7670     6.5960     6.8110   139.8470
  744.0000   -31.7210     6.5810     6.7460   139.7760
  744.5000   -31.6760     6.5650     6.6370   137.4630
  745.0000   -31.6300     6.4170     6.5280   133.5400
  745.5000   -31.5850     6.1430     6.4190   131.4770
  746.0000   -31.5390     5.8690     6.2110   131.7700
  746.5000   -31.4940     5.5950     5.9900   133.1860
  747.0000   -31.4480     5.4050     5.8820   138.7280
  747.5000   -31.4030     5.2840     5.6730   141.6660
  748.0000   -31.3570     5.0880     5.5710   139.8620
  748.5000   -31.3120     5.1490     5.4710   138.8750
  749.0000   -31.2660     5.3140     5.5700   140.9800
  749.5000   -31.2210     5.4780     5.6720   147.6140
  750.0000   -31.1750     5.6420     5.7740   152.2670
  750.5000   -31.1300     5.8070     5.8770   145.4950
  751.0000   -31.0840     5.9710     5.9790   143.6540
  751.5000   -31.0390     6.1350     6.0810   142.0040
  752.0000   -30.9930     6.3250     6.1830   140.8250
  752.5000   -30.9480     6.3130     6.2850   139.6220
  753.0000   -30.9020     6.2990     6.3870   138.1470
  753.5000   -30.8570     6.2860     6.4400   135.6230
  754.0000   -30.8110     6.2720     6.4400   134.2010
  754.5000   -30.7660     6.2580     6.4400   136.1640
  755.0000   -30.7200     6.2440     6.4400   139.5960
  755.5000   -30.6750     6.2310     6.4400   140.5100
  756.0000   -30.6290     6.2170     6.4400   138.6010
  756.5000   -30.5840     6.1510     6.2470   136.2990
  757.0000   -30.5380     6.0410     6.0430   135.5660
  757.5000   -30.4930     5.9310     5.8390   136.8250
  758.0000   -30.4470     5.8210     5.6350   138.2500
  758.5000   -30.4020     5.6290     5.4310   139.4290
  759.0000   -30.3560     5.3820     5.2270   139.6740
  759.5000   -30.3100     5.1350     5.0230   139.9440
  760.0000   -30.2650     4.8880     4.8180   140.1160
  760.5000   -30.2190     4.6410     4.6140   140.5350
  761.0000   -30.1740     4.3940     4.4100   141.7270
  761.5000   -30.1280     4.0200     4.2060   140.8420
  762.0000   -30.0830     4.0860     3.9470   139.8870
  762.5000   -30.0370     4.2240     4.2660   131.5870
  763.0000   -29.9920     4.3620     4.5950   129.4040
  763.5000   -29.9460     4.5540     4.8930   128.5930
  764.0000   -29.9010     4.7670     5.1270   130.6740
  764.5000   -29.8550     5.0280     5.3720   133.9130
  765.0000   -29.8100     5.3810     5.5630   136.0860
  765.5000   -29.7640     5.7330     5.7640   136.9350
  766.0000   -29.7190     5.8820     5.9640   137.9580
  766.5000   -29.6730     5.9920     6.1650   139.4620
  767.0000   -29.6280     6.0850     6.3250   143.7900
  767.5000   -29.5820     6.1780     6.4590   147.2240
  768.0000   -29.5370     6.2710     6.5710   146.9000
  768.5000   -29.4910     6.3640     6.6780   142.9190
  769.0000   -29.4460     6.4570     6.6980   139.5770
  769.5000   -29.4000     6.5490     6.7170   138.3400
  770.0000   -29.3550     6.6420     6.7360   137.4140
  770.5000   -29.3090     6.7350     6.7540   136.3440
  771.0000   -29.2640     6.8170     6.7730   135.5780
  771.5000   -29.2180     6.8740     6.7920   134.9890
  772.0000   -29.1730     6.9300     6.8110   138.1580
  772.5000   -29.1270     6.9870     6.8300   142.0090
  773.0000   -29.0820     7.0440     6.8490   141.9800
  773.5000   -29.0360     7.1000     6.8680   138.1570
  774.0000   -28.9900     7.1800     6.8870   137.8940
  774.5000   -28.9450     7.1720     6.9060   139.7740
  775.0000   -28.8990     7.1580     6.9250   140.7930
  775.5000   -28.8540     7.1440     6.9430   138.8510
  776.0000   -28.8080     7.1290     6.9620   137.2190
  776.5000   -28.7630     7.1150     6.9810   135.4230
  777.0000   -28.7170     7.1010     7.0000   134.7860
  777.5000   -28.6720     7.0870     7.0190   138.0740
  778.0000   -28.6260     7.0730     7.0470   139.7150
  778.5000   -28.5810     7.0600     7.0340   140.0240
  779.0000   -28.5350     6.9960     6.9700   140.3320
  779.5000   -28.4900     6.8820     6.9060   143.7090
  780.0000   -28.4440     6.7690     6.8430   146.3730
  780.5000   -28.3990     6.6550     6.7160   146.0650
  781.0000   -28.3530     6.5580     6.4590   145.9240
  781.5000   -28.3080     6.2330     6.2020   144.9100
  782.0000   -28.2620     5.9470     5.9450   143.2160
  782.5000   -28.2170     5.4670     5.6870   141.9490
  783.0000   -28.1710     4.8190     5.4300   142.9020
  783.5000   -28.1260     4.6150     5.2760   143.8290
  784.0000   -28.0800     4.1050     4.7150   142.8680
  784.5000   -28.0350     3.5950     4.1570   140.9700
  785.0000   -27.9890     3.0850     3.5990   139.1610
  785.5000   -27.9440     2.6010     3.0400   137.3760
  786.0000   -27.8980     2.4080     2.6170   135.5010
  786.5000   -27.8530     2.2240     2.2910   134.8300
  787.0000   -27.8070     2.1020     2.0930   135.2330
  787.5000   -27.7620     2.1350     2.0930   135.6730
  788.0000   -27.7160     2.1700     2.1700   135.5990
  788.5000   -27.6710     2.2960     2.3760   140.9930
  789.0000   -27.6250     2.5380     2.6850   147.4000
  789.5000   -27.5790     2.9400     2.9000   148.1290
  790.0000   -27.5340     3.4790     3.4980   148.3160
  790.5000   -27.4880     4.0170     4.0190   148.5340
  791.0000   -27.4430     4.5630     4.5400   148.6310
  791.5000   -27.3970     5.0150     5.3720   150.2410
  792.0000   -27.3520     5.4710     5.2760   154.7090
  792.5000   -27.3060     5.4710     5.3480   153.6630
  793.0000   -27.2610     5.4710     5.4200   152.6190
  793.5000   -27.2150     5.4710     5.4920   151.2100
  794.0000   -27.1700     5.4710     5.5630   151.2310
  794.5000   -27.1240     5.4710     5.6730   151.0230
  795.0000   -27.0790     5.4710     5.5090   149.3240
  795.5000   -27.0330     5.1730     5.1620   144.7510
  796.0000   -26.9880     4.7370     4.8160   140.7580
  796.5000   -26.9420     4.3010     4.4700   140.9310
  797.0000   -26.8970     4.0120     4.1680   146.8330
  797.5000   -26.8510     3.8570     3.9470   149.2260
  798.0000   -26.8060     3.7010     3.8070   146.6970
  798.5000   -26.7600     3.5400     3.8380   145.4290
  799.0000   -26.7150     3.6770     3.9650   145.0410
  799.5000   -26.6690     3.8190     4.1200   144.1450
  800.0000   -26.6240     4.0270     4.2440   146.0690
  800.5000   -26.5780     4.2800     4.5760   149.9250
  801.0000   -26.5330     4.5330     4.8540   153.4750
  801.5000   -26.4870     4.7860     5.1310   157.2010
  802.0000   -26.4420     5.0390     5.4080   158.8140
  802.5000   -26.3960     5.2930     5.6860   155.2120
