~VERSION INFORMATION
 VERS.                2.0:   CWLS LOG ASCII STANDARD - VERSION 2.0
 WRAP.                 NO:   ONE LINE PER DEPTH STEP
~WELL INFORMATION
#MNEM.UNIT      DATA TYPE    INFORMATION
#----------   ------------   ------------------------------
 STRT.F            9.0000:   START DEPTH
 STOP.F         2876.0000:   STOP DEPTH
 STEP.F            0.5000:   STEP LENGTH
 NULL.          -999.2500:   NO VALUE
 COMP.    FENIX & SCISSON:   COMPANY
 WELL. FENIX & SCISSON "AX" #82-29:   WELL
 FLD .        TEAPOT DOME:   FIELD
 LOC .      S29 T39N R78W:   LOCATION
 CNTY.            NATRONA:   COUNTY
 STAT.            WYOMING:   STATE
 CTRY. UNITED STATES OF AMERICA:   COUNTRY
 SRVC.           BIRDWELL:   SERVICE COMPANY
 DATE.        12-JAN-1980:   LOGDATE
 API .     49025107980000:   API NUMBER
~CURVE INFORMATION
#MNEM.UNIT       API CODE    CURVE DESCRIPTION
#----------   ------------   ------------------------------
 DEPT.F                  :   
 GRD .GAPI   45 310 01 00:   GAMMA RAY FROM DENSITY LOG
 CALD.IN     45 280 60 00:   CALIPER FROM DENSITY LOG
 CORR.G/C3   45 356 01 00:   DENSITY CORRECTION
 RHOB.G/C3   45 350 01 00:   BULK DENSITY
 SPR .MV     07 010 01 00:   SPONTANEOUS POTENTIAL
 ILD .OHMM   07 120 46 00:   DEEP INDUCTION RESISTIVITY
 SN  .OHMM   07 220 01 00:   SHALLOW FOCUSED LOG RESISTIVITY
~PARAMETER INFORMATION
#MNEM.UNIT          VALUE    DESCRIPTION
#----------   ------------   ------------------------------
 EKB .F         4985.0000:   Kelly bushing
 EGL .F         4973.0000:   Ground level
 EDF .F         4982.0000:   Drilling floor
 TD  .F         2876.0000:   Total depth
 CLNT.            A2DTECH:   Client Code
 SL  . 1821' FEL & 414' FEL:   Surface Location
 DATE.        12-JAN-1980:   Date Logged [DD-MMM-YYYY]
 DD  .F              2870:   Depth driller
 DL  .F              2876:   Depth logger
 BLI .F              2876:   Bottom log interval
 TLI .F               320:   Top log interval
 CS1 .IN            8.625:   Casing size
 CBD1.      8.625" @ 280':   Casing driller 1
 CBL1.IN              320:   Casing logger 1
 BS1 .IN            7.875:   Bit size
 BSD1.F              2870:   Depth drilled with bit1
 DFT .            GEL MUD:   Type fluid in hole
 DFD .                8.7:   Density
 DFV .                 53:   Viscosity
 DFPH.               10.5:   pH
 DFL .               15.4:   Fluid loss
 MSS .            MUD PIT:   Source of sample
 RMS .OHMM            1.8:   Rm
 MST .F                50:   Rm Meas. temp.
 RMF .OHMM            1.4:   Rmf
 MFST.F                60:   Rmf Meas. temp.
 MFSS.               MEAS:   Source Rmf.
 RMC .OHMM            1.9:   Rmc
 MCST.F                60:   Rmc Meas. temp.
 MCSS.               MEAS:   Source Rmc.
 RMB .OHMM           0.65:   Rm. at BHT
 BHT .F               138:   BHT.
 TCS .HRS              11:   Time Circ. stopped
 MRT .F               138:   Maximum recorded temp.
 LUN .               3029:   Logging unit number
 LUL .             CASPEL:   Logging unit location
 ENGI.           T. VOLFF:   Recorded By
 WITN.          MR. AMEND:   Witnessed by
 ORIG.         2.5" PRINT:   Origin of data
 UWI .     49025107980000:   Unique Well ID
 DICO. A2D TECHNOLOGIES,INC.:   Digitizing Company
 PD  .                 GL:   Permanent Datum
 EPD .F              4973:   Elevation Permanent Datum
 LMF .                 DF:   Log Measured From
 DMF .                 KB:   Drilling Measured From
 DAPD.F                 9:   Feet Above Permanent Datum
~OTHER INFORMATION
~A    DEPT      GRD      CALD       CORR       RHOB        SPR        ILD         SN   
# ...
 2329.5000   118.0706    10.4153     0.0011     2.5537   -15.8537     9.0208     9.3642
 2330.0000   117.7678    10.4152     0.0043     2.5575   -15.7623     9.0202     9.2270
 2330.5000   117.4649    10.4150     0.0056     2.5529   -14.5259     9.0196     9.0917
 2331.0000   119.3028    10.4148     0.0055     2.5483   -14.3293     9.0189     8.7104
 2331.5000   121.1820    10.3844     0.0044     2.5483   -16.5842     8.9599     8.3452
 2332.0000   124.2999    10.3842     0.0083     2.5482   -18.0003     8.8921     8.1430
 2332.5000   126.0396    10.3538     0.0143     2.5512   -18.7730     8.8204     8.1430
 2333.0000   124.5135    10.3233     0.0203     2.5542   -18.5976     8.6450     8.1430
 2333.5000   125.6542    10.2929     0.0232     2.5588   -16.7683     8.5240     8.1430
 2334.0000   127.6313    10.2624     0.0231     2.5633   -16.6889     8.4048     8.0295
 2334.5000   128.8038    10.2309     0.0198     2.5510   -17.6829     8.1719     7.9176
 2335.0000   125.8713    10.1681     0.0077     2.5609   -17.0732     8.0575     7.6983
 2335.5000   126.4740    10.1408     0.0116     2.5632   -16.1585     7.7252     7.5910
 2336.0000   130.0527    10.1406     0.0196     2.5536   -15.5488     7.5111     7.4852
 2336.5000   132.0459    10.1405     0.0165     2.5397   -14.3201     7.2012     7.4852
 2337.0000   132.7957    10.1296     0.0103     2.5379   -14.3935     7.1937     7.4852
 2337.5000   133.7161    10.1099     0.0072     2.5443   -15.8916     7.0876     7.6983
 2338.0000   129.7435    10.1097     0.0071     2.5415   -15.5797     7.1175     8.1430
 2338.5000   131.2756    10.1095     0.0070     2.5385   -14.3293     7.5586     8.4933
 2339.0000   134.6425    10.1094     0.0069     2.5354   -15.6372     8.0861     8.8625
 2339.5000   134.3394    10.1092     0.0068     2.5445   -16.6738     8.4393     9.1110
 2340.0000   139.2356    10.1091     0.0066     2.5414   -17.3780     8.6853     9.2572
 2340.5000   140.7676    10.1089     0.0065     2.5337   -17.9878     9.0070     9.3949
 2341.0000   140.7707    10.1088     0.0064     2.5230   -17.3719     9.0711     9.3705
 2341.5000   140.7737    10.1086     0.0063     2.5229   -16.4236     9.2617     9.3705
 2342.0000   140.7768    10.1085     0.0062     2.5254   -15.8537     9.2610     9.3705
 2342.5000   140.3519    10.1083    -0.0060     2.5318   -17.0732     9.1314     9.3705
 2343.0000   136.6222    10.1082    -0.0091     2.5350   -18.2927     9.1308     9.3705
 2343.5000   122.0623    10.1080    -0.0058     2.5350   -18.2927     9.0031     9.2398
 2344.0000   121.2166    10.1079     0.0032     2.5364   -17.0732     9.0025     9.2398
 2344.5000   121.9910    10.1077     0.0088     2.5403   -15.5488     8.8765     9.2398
 2345.0000   118.3283    10.1076     0.0124     2.5516   -15.8537     8.7524     9.2398
 2345.5000   120.1866    10.1075     0.0155     2.5531   -16.4649     8.7518     9.2398
 2346.0000   121.9715    10.1073     0.0175     2.5423   -17.0732     8.7512     9.1110
 2346.5000   120.9272    10.1071     0.0118     2.5347   -17.0732     8.7647     9.1110
 2347.0000   121.5418    10.1069     0.0052     2.5377   -17.0732     8.8947     9.1110
 2347.5000   122.2376    10.1068     0.0004     2.5453   -16.6312     9.0267     9.2398
 2348.0000   121.2419    10.0763    -0.0041     2.5467   -15.8537     9.1606     9.5030
 2348.5000   120.6333    10.0762    -0.0073     2.5467   -15.5488     9.3834     9.6388
 2349.0000   122.7769    10.0457     0.0017     2.5464   -15.6678     9.3826     9.7823
 2349.5000   122.7799    10.0456     0.0077     2.5447   -15.9894     9.5144     9.9118
 2350.0000   123.0887    10.0455     0.0045     2.5401   -16.4634     9.5138     9.8888
 2350.5000   126.8708    10.0434    -0.0016     2.5341   -16.3961     9.4396     9.7438
 2351.0000   125.3665    10.0149    -0.0048     2.5275   -15.8537     9.3799     9.6373
 2351.5000   120.8298    10.0147    -0.0049     2.5266   -15.5488     9.1199     9.4604
 2352.0000   117.8049    10.0146    -0.0019     2.5275   -16.0891     8.9923     9.1917
 2352.5000   114.6133    10.0144     0.0010     2.5281   -17.4768     8.9917     9.0570
 2353.0000   111.8822    10.0143     0.0009     2.5326   -18.4441     8.7425     8.9244
 2353.5000   110.6708    10.0141     0.0038     2.5372   -18.5976     8.5002     8.7934
 2354.0000   109.1555    10.0139     0.0107     2.5463   -17.9878     8.3813     8.7352
 2354.5000   109.0643    10.0138     0.0138     2.5539   -17.0732     8.0356     8.7352
 2355.0000   114.3315    10.0136     0.0143     2.5569   -16.7683     8.0350     8.7352
 2355.5000   114.3622     9.9832     0.0125     2.5447   -16.7683     8.0345     8.7352
 2356.0000   111.9049     9.9830     0.0046     2.5278   -16.7683     8.0339     8.7352
 2356.5000   112.0843     9.9526    -0.0059     2.5263   -16.1585     8.0333     8.7352
 2357.0000   115.5651     9.9221    -0.0060     2.5301   -15.8537     8.0327     8.8587
 2357.5000   114.3537     9.9220    -0.0031     2.5380   -15.5488     8.0322     8.8587
 2358.0000   121.4832     9.8915     0.0028     2.5509   -14.9390     8.0317     8.8587
 2358.5000   123.7851     9.8914     0.0118     2.5583   -15.2751     8.0311     8.7352
 2359.0000   122.2522     9.8912     0.0148     2.5508   -15.9017     7.9757     8.6134
 2359.5000   121.6663     9.8849     0.0146     2.5445   -16.8329     7.9182     8.4757
 2360.0000   127.5283     9.8606     0.0115     2.5484   -17.1545     7.9175     8.2351
 2360.5000   130.5049     9.8605     0.0023     2.5520   -17.4760     7.9170     8.1145
 2361.0000   129.6623     9.8603     0.0022     2.5525   -17.6829     7.8062     7.8841
 2361.5000   125.0297     9.8602     0.0087     2.5520   -17.5514     7.5899     7.6983
 2362.0000   122.9065     9.8600     0.0141     2.5580   -17.0732     7.0756     7.5480
 2362.5000   119.8714     9.8422     0.0189     2.5626   -16.7683     6.8795     7.3808
 2363.0000   118.9636     9.8294     0.0260     2.5656   -16.7683     6.8790     7.2779
 2363.5000   118.3605     9.8292     0.0290     2.5641   -18.2927     6.9757     7.2779
 2364.0000   114.7175     9.8291     0.0305     2.5563   -18.9024     6.9752     7.2779
 2364.5000   113.4990     9.7986     0.0272     2.5457   -18.2927     6.8776     7.2779
 2365.0000   116.6005     9.7985     0.0208     2.5474   -17.3780     6.8772     7.3808
 2365.5000   119.3727     9.7680     0.0134     2.5502   -17.0732     6.8767     7.3808
 2366.0000   119.9024     9.7679     0.0133     2.5490   -17.0732     6.7804     7.3808
 2366.5000   118.5681     9.7677     0.0101     2.5426   -17.0732     6.7799     7.2779
 2367.0000   118.0876     9.7373     0.0070     2.5373   -17.6942     6.7795     6.9777
 2367.5000   119.1008     9.7305     0.0039     2.5333   -17.9878     6.7790     6.7845
 2368.0000   119.0083     9.6764     0.0038     2.5333   -17.6382     6.7333     6.5966
 2368.5000   121.0559     9.6658     0.0037     2.5349   -17.3165     6.6340     6.6039
 2369.0000   124.1616     9.6458     0.0035     2.5393   -16.8381     6.3187     6.8931
 2369.5000   125.0753     9.6456     0.0034     2.5423   -15.7585     6.0581     7.1948
 2370.0000   121.4599     9.6454     0.0064     2.5392   -15.8537     5.8082     7.3019
 2370.5000   119.9445     9.6453     0.0056     2.5255   -16.7203     5.8078     7.4106
 2371.0000   119.0371     9.6451     0.0062     2.5224   -17.0732     5.9725     7.5208
 2371.5000   117.5218     9.6450     0.0030     2.5254   -16.7490     6.4962     7.8269
 2372.0000   116.6144     9.6448     0.0102     2.5315   -16.2112     8.0159     8.4683
 2372.5000   116.2791     9.6144     0.0237     2.5392   -19.2073     9.6177     9.9243
 2373.0000   124.2220     9.6142     0.0361     2.5500   -22.2561    11.2400    13.1303
 2373.5000   128.7857     9.6141     0.0342     2.5512   -23.1707    13.3404    15.9760
 2374.0000   130.6139     9.5836     0.0025     2.5357   -22.8659    15.1812    18.9077
 2374.5000   127.7165     9.5532    -0.0007     2.5206   -22.5610    17.0345    19.7212
