~VERSION INFORMATION
 VERS.                2.0:   CWLS LOG ASCII STANDARD - VERSION 2.0
 WRAP.                 NO:   ONE LINE PER DEPTH STEP
~WELL INFORMATION
#MNEM.UNIT      DATA TYPE    INFORMATION
#----------   ------------   ------------------------------
 STRT.F           40.0000:   START DEPTH
 STOP.F         3032.5000:   STOP DEPTH
 STEP.F            0.5000:   STEP LENGTH
 NULL.          -999.2500:   NO VALUE
 COMP.   TESORO PETROLEUM:   COMPANY
 WELL. TESORO NPR 3 "AX" #51-15:   WELL
 FLD .        TEAPOT DOME:   FIELD
 LOC .      S15 T38N R78W:   LOCATION
 CNTY.            NATRONA:   COUNTY
 STAT.            WYOMING:   STATE
 CTRY. UNITED STATES OF AMERICA:   COUNTRY
 SRVC.       SCHLUMBERGER:   SERVICE COMPANY
 DATE.        21-JUL-1969:   LOGDATE
 API .     49025100240000:   API NUMBER
~CURVE INFORMATION
#MNEM.UNIT       API CODE    CURVE DESCRIPTION
#----------   ------------   ------------------------------
 DEPT.F                  :   
 CALD.IN     45 280 60 00:   CALIPER FROM DENSITY LOG
 GRD .GAPI   45 310 01 00:   GAMMA RAY FROM DENSITY LOG
 RHOB.G/C3   45 350 01 00:   BULK DENSITY
 CORR.G/C3   45 356 01 00:   DENSITY CORRECTION
 GR  .GAPI   35 310 01 00:   GAMMA RAY FROM GAMMA RAY LOG
 SPR .MV     05 010 01 00:   SPONTANEOUS POTENTIAL
 ASN .OHMM   05 041 16 00:   AMPLIFIED SHORT NORMAL 16"
 ILD .OHMM   05 120 46 00:   DEEP INDUCTION RESISTIVITY
~PARAMETER INFORMATION
#MNEM.UNIT          VALUE    DESCRIPTION
#----------   ------------   ------------------------------
 EKB .F         5235.0000:   Kelly bushing
 EGL .F         5222.0000:   Ground level
 EDF .F            0.0000:   Drilling floor
 TD  .F         3027.0000:   Total depth
 DATE.        21-JUL-1969:   Date logged
 CLNT.            A2DTECH:   Client Code
 SL  . 2000' FEL & 660' FNL:   Surface Location
 PD  .                 GL:   Permanent Datum
 EPD .F              5222:   Elevation Permanent Datum
 LMF .                 KB:   Log Measured From
 DMF .                 KB:   Drilling Measured From
 DAPD.F                13:   Feet Above Permanent Datum
 DD  .F              3027:   Depth driller
 DL  .F              3025:   Depth logger
 BLI .F              3024:   Bottom log interval
 TLI .F              2604:   Top log interval
 CS1 .IN            10.75:   Casing size
 CBD1.      10.75" @ 622':   Casing driller 1
 BS1 .IN                9:   Bit size
 BSD1.F              3027:   Depth drilled with bit1
 DFT .          FRESH/GEL:   Type fluid in hole
 DFD .                9.7:   Density
 DFV .                 65:   Viscosity
 DFPH.                9.5:   pH
 DFL .                  7:   Fluid loss
 MSS .           FLOWLINE:   Source of sample
 RMS .OHMM           2.48:   Rm
 MST .F                80:   Rm Meas. temp.
 RMF .OHMM           2.80:   Rmf
 MFST.F                80:   Rmf Meas. temp.
 MFSS.               MEAS:   Source Rmf.
 RMB .OHMM           2.20:   Rm. at BHT
 BHT .F               106:   BHT.
 TCS .HRS               1:   Time Circ. stopped
 MRT .F               106:   Maximum recorded temp.
 LUN .               4507:   Logging unit number
 LUL .               CSPR:   Logging unit location
 ENGI.           CHAMPLIN:   Recorded By
 WITN.                MAY:   Witnessed by
 ORIG.           5" PRINT:   Origin of data
 UWI .     49025100240000:   Unique Well ID
 DICO. A2D TECHNOLOGIES, INC.:   Digitizing Company
~OTHER INFORMATION
~A   DEPT     CALD        GRD       RHOB       CORR         GR        SPR        ASN          ILD 
# ...
 2753.5000     9.0450   125.8180     2.6040     0.0530  -999.2500   -24.1290    10.6840     7.3810
 2754.0000     9.0460   129.6980     2.5940     0.0430  -999.2500   -24.2050    10.2360     7.0840
 2754.5000     9.0470   129.3360     2.5980     0.0380  -999.2500   -24.2950    10.2230     7.0410
 2755.0000     9.0480   125.8260     2.5730     0.0430  -999.2500   -24.1960    10.2070     7.1610
 2755.5000     9.0490   105.2660     2.5470     0.0490  -999.2500   -24.0510    10.1980     7.5110
 2756.0000     9.0500   106.5910     2.5700     0.0470  -999.2500   -23.9060    10.4490     7.8450
 2756.5000     9.0520   112.1940     2.5850     0.0430  -999.2500   -23.7650    11.1040     8.3430
 2757.0000     9.0530   113.6020     2.5800     0.0400  -999.2500   -23.6190    11.7440     8.8390
 2757.5000     9.0540   110.4320     2.5820     0.0390  -999.2500   -23.4780    12.3740     9.4190
 2758.0000     9.0550   102.5300     2.5940     0.0420  -999.2500   -23.3340    13.0200     9.9980
 2758.5000     9.0560    90.9520     2.5850     0.0480  -999.2500   -23.1850    13.6830    10.4860
 2759.0000     9.0570    90.6770     2.5890     0.0450  -999.2500   -23.1380    14.0010    10.7670
 2759.5000     9.0580    90.1490     2.5920     0.0370  -999.2500   -23.3540    13.7620    11.0450
 2760.0000     9.0590    90.1640     2.5790     0.0300  -999.2500   -23.5390    13.6010    11.3240
 2760.5000     9.0600    90.5350     2.5760     0.0230  -999.2500   -23.7380    13.4090    11.2930
 2761.0000     9.0610    92.4590     2.5800     0.0180  -999.2500   -23.9280    13.5730    11.1130
 2761.5000     9.0630    93.0900     2.5690     0.0140  -999.2500   -24.1220    13.7470    10.9490
 2762.0000     9.0640    91.9630     2.5580     0.0100  -999.2500   -24.3160    13.9710    10.7820
 2762.5000     9.0650    90.6470     2.5730     0.0050  -999.2500   -24.5060    13.9870    10.6140
 2763.0000     9.0660    90.0490     2.5840     0.0030  -999.2500   -24.7050    13.9540    10.4470
 2763.5000     9.0670    89.8950     2.5750     0.0120  -999.2500   -24.8940    13.5700    10.2800
 2764.0000     9.0680    92.1330     2.5680     0.0150  -999.2500   -25.0760    13.2560    10.1140
 2764.5000     9.0690    96.3520     2.5820     0.0140  -999.2500   -24.9890    12.9040     9.9390
 2765.0000     9.0700   101.0700     2.5820     0.0130  -999.2500   -24.8800    12.7950     9.8510
 2765.5000     9.0710   103.4940     2.5830     0.0130  -999.2500   -24.7640    12.7880     9.9460
 2766.0000     9.0730   100.6420     2.5580     0.0160  -999.2500   -24.6550    13.0220    10.0360
 2766.5000     9.0790    92.8760     2.5680     0.0200  -999.2500   -24.5420    13.7900    10.1330
 2767.0000     9.0850    93.3930     2.5950     0.0230  -999.2500   -24.4310    14.0000    10.2260
 2767.5000     9.0900    93.2030     2.5970     0.0280  -999.2500   -24.3190    13.9870    10.3210
 2768.0000     9.0960    96.9900     2.5860     0.0300  -999.2500   -24.2070    13.9860    10.4150
 2768.5000     9.1020   100.7480     2.5880     0.0400  -999.2500   -24.0970    13.9920    10.5080
 2769.0000     9.1070   102.1420     2.5960     0.0140  -999.2500   -23.9780    13.9790    10.6030
 2769.5000     9.1130    99.0780     2.6030     0.0120  -999.2500   -23.8850    14.0610    10.6970
 2770.0000     9.1180    95.6570     2.6100     0.0210  -999.2500   -23.8300    14.2060    10.7910
 2770.5000     9.1240    92.7000     2.6140     0.0250  -999.2500   -23.7630    14.3360    10.8880
 2771.0000     9.1300    93.8970     2.6160     0.0220  -999.2500   -23.7030    14.4760    10.9720
 2771.5000     9.1350    95.1190     2.6190     0.0190  -999.2500   -23.6380    14.5970    11.0310
 2772.0000     9.1410    96.8340     2.6100     0.0210  -999.2500   -23.5750    14.7580    10.8370
 2772.5000     9.1470    98.3900     2.5980     0.0260  -999.2500   -23.5340    14.6010    10.5810
 2773.0000     9.1520    96.3730     2.6070     0.0260  -999.2500   -23.6780    14.2710    10.3970
 2773.5000     9.1500    92.8810     2.6260     0.0250  -999.2500   -23.8170    13.9860    10.1760
 2774.0000     9.1470    91.1720     2.6490     0.0270  -999.2500   -23.9670    13.6990    10.0450
 2774.5000     9.1440    91.8680     2.6280     0.0370  -999.2500   -24.1000    13.3720     9.8720
 2775.0000     9.1410    98.4120     2.6050     0.0450  -999.2500   -24.2630    13.1810     9.8780
 2775.5000     9.1390    99.2960     2.5910     0.0540  -999.2500   -24.2200    13.2000     9.9480
 2776.0000     9.1360    98.6110     2.5800     0.0400  -999.2500   -24.0340    13.2590    10.0140
 2776.5000     9.1330    97.5170     2.5830     0.0260  -999.2500   -23.8690    13.5260    10.0700
 2777.0000     9.1300    96.6320     2.5900     0.0120  -999.2500   -23.7040    13.7850    10.1430
 2777.5000     9.1270    95.3810     2.5970     0.0130  -999.2500   -23.5320    14.0530    10.1850
 2778.0000     9.1250    95.6190     2.6050     0.0170  -999.2500   -23.5190    14.3150    10.3610
 2778.5000     9.1220    97.5990     2.6060     0.0210  -999.2500   -23.5170    14.5830    10.6140
 2779.0000     9.1190    98.7670     2.6100     0.0250  -999.2500   -23.5200    14.8420    10.8430
 2779.5000     9.1160    99.1370     2.6240     0.0280  -999.2500   -23.5180    15.1110    11.0720
 2780.0000     9.1130    98.2880     2.6380     0.0280  -999.2500   -23.5190    15.1790    11.3150
 2780.5000     9.1100    94.7400     2.6180     0.0250  -999.2500   -23.5180    15.2150    11.4180
 2781.0000     9.1080    96.9690     2.6110     0.0240  -999.2500   -23.5180    15.2950    11.4020
 2781.5000     9.1050    99.3790     2.6220     0.0480  -999.2500   -23.5170    15.3620    11.4190
 2782.0000     9.1020    97.3310     2.6150     0.0190  -999.2500   -23.5200    15.5080    11.3880
 2782.5000     9.0990    90.8090     2.6090     0.0240  -999.2500   -23.5150    15.8620    11.6140
 2783.0000     9.0960    92.6170     2.6390     0.0360  -999.2500   -23.5530    16.1920    12.0140
 2783.5000     9.0930    92.8870     2.6550     0.0500  -999.2500   -23.6150    16.5050    12.3610
 2784.0000     9.0910    91.4440     2.6590     0.0640  -999.2500   -23.6690    16.9060    12.7690
 2784.5000     9.0880    89.9510     2.6690     0.0740  -999.2500   -23.7250    17.6760    13.0130
 2785.0000     9.0850    84.2960     2.6350     0.0670  -999.2500   -23.7820    18.4960    12.9910
 2785.5000     9.0820    81.3640     2.6140     0.0640  -999.2500   -23.8350    18.9910    12.8940
 2786.0000     9.0790    81.1000     2.6200     0.0690  -999.2500   -23.8940    18.8490    12.5640
 2786.5000     9.0770    83.7920     2.6290     0.0700  -999.2500   -23.9140    18.1030    12.2550
 2787.0000     9.0730    87.0750     2.6370     0.0570  -999.2500   -23.9060    17.3670    11.9310
 2787.5000     9.0750    90.3290     2.6420     0.0440  -999.2500   -23.8340    16.6430    11.6210
 2788.0000     9.0810    90.8640     2.6230     0.0370  -999.2500   -23.7640    15.8480    11.2930
 2788.5000     9.0860    88.4990     2.6070     0.0450  -999.2500   -23.6900    15.6690    10.9880
 2789.0000     9.0910    88.6400     2.5910     0.0440  -999.2500   -23.6200    15.5330    10.6440
 2789.5000     9.0970    88.2210     2.5940     0.0250  -999.2500   -23.5470    15.4370    10.6010
 2790.0000     9.1020    87.1500     2.5990     0.0150  -999.2500   -23.4760    15.1990    10.3910
 2790.5000     9.1080    86.0900     2.5940     0.0160  -999.2500   -23.4030    14.7390    10.2070
 2791.0000     9.1130    89.1170     2.5830     0.0110  -999.2500   -23.3330    14.1920     9.9900
 2791.5000     9.1190    91.5370     2.5800     0.0080  -999.2500   -23.2590    13.4440     9.7740
 2792.0000     9.1240    93.9350     2.5910     0.0060  -999.2500   -23.1880    12.6210     9.1480
 2792.5000     9.1300    91.2980     2.6000     0.0130  -999.2500   -23.1350    11.8040     8.5750
 2793.0000     9.1350    88.0970     2.5950     0.0390  -999.2500   -23.2260    11.0550     7.9780
 2793.5000     9.1410    89.8150     2.5840     0.0550  -999.2500   -23.3140    10.3410     7.3840
