~VERSION INFORMATION
 VERS.                2.0:   CWLS LOG ASCII STANDARD - VERSION 2.0
 WRAP.                 NO:   ONE LINE PER DEPTH STEP
~WELL INFORMATION
#MNEM.UNIT      DATA TYPE    INFORMATION
#----------   ------------   ------------------------------
 STRT.F          180.0000:   START DEPTH
 STOP.F         3044.0000:   STOP DEPTH
 STEP.F            0.5000:   STEP LENGTH
 NULL.          -999.2500:   NO VALUE
 COMP.    FENIX & SCISSON:   COMPANY
 WELL.   FENIX "A" #55-29:   WELL
 FLD .           N P R #3:   FIELD
 LOC .      S29 T39N R78W:   LOCATION
 CNTY.            NATRONA:   COUNTY
 STAT.            WYOMING:   STATE
 CTRY. UNITED STATES OF AMERICA:   COUNTRY
 SRVC.              WELEX:   SERVICE COMPANY
 DATE.        21-JUL-1977:   LOGDATE
 API .     49025104020000:   API NUMBER
~CURVE INFORMATION
#MNEM.UNIT       API CODE    CURVE DESCRIPTION
#----------   ------------   ------------------------------
 DEPT.F                  :   
 CALD.IN     45 280 60 00:   CALIPER FROM DENSITY LOG
 RHOB.G/C3   45 350 01 00:   BULK DENSITY
 CORR.G/C3   45 356 01 00:   DENSITY CORRECTION
 GRD .GAPI   45 310 01 00:   GAMMA RAY FROM DENSITY LOG
 SPR .MV     07 010 01 00:   SPONTANEOUS POTENTIAL
 ILD .OHMM   07 120 46 00:   DEEP INDUCTION RESISTIVITY
 ILM .OHMM   07 120 44 00:   INDUCTION LOG MEDIUM RESISTIVITY
 SGRD.OHMM   07 220 05 00:   SHALLOW SHORT GUARD RESISTIVITY
~PARAMETER INFORMATION
#MNEM.UNIT          VALUE    DESCRIPTION
#----------   ------------   ------------------------------
 EKB .F         4995.0000:   Kelly bushing
 EGL .F         4985.0000:   Ground level
 EDF .F            0.0000:   Drilling floor
 EPD .F         4985.0000:   Permanent datum
 TD  .F         3045.0000:   Total depth
 DATE.        21-JUL-1977:   Date logged
 CLNT.            A2DTECH:   Client Code
 SL  . 2310' FSL & 2310' FEL:   Surface Location
 PD  .                 GL:   Permanent Datum
 DD  .F              3045:   Depth driller
 DL  .F              3045:   Depth logger
 BLI .F              3043:   Bottom log interval
 CS1 .IN            8.625:   Casing size
 CBD1.      8.625" @ 230':   Casing driller 1
 CBL1.F               216:   Casing logger 1
 BS1 .IN            7.875:   Bit size
 DFT .            KCL-MUD:   Type fluid in hole
 DFD .                8.8:   Density
 DFV .                 45:   Viscosity
 DFPH.                7.5:   pH
 DFL .                8.4:   Fluid loss
 MSS .           FLOWLINE:   Source of sample
 RMS .OHMM            .45:   Rm
 MST .F                86:   Rm Meas. temp.
 RMF .OHMM            .33:   Rmf
 MFST.F                86:   Rmf Meas. temp.
 RMC .OHMM            .72:   Rmc
 MCST.F                86:   Rmc Meas. temp.
 MFSS.               MEAS:   Source Rmf.
 RMB .OHMM            .30:   Rm. at BHT
 BHT .F               127:   BHT.
 TCS .HRS             2.5:   Time Circ. stopped
 MRT .F               127:   Maximum recorded temp.
 LUN .               8611:   Logging unit number
 LUL .             CASPER:   Logging unit location
 ENGI.            C. DOAK:   Recorded By
 WITN.      W. PETTINGILL:   Witnessed by
 ORIG.           5" PRINT:   Origin of data
 UWI .     49025104020000:   Unique Well ID
 DICO. A2D TECHNOLOGIES, INC.:   Digitizing Company
 DAPD.                 10:   Feet Above Permanent Datum
 BSD1.               3045:   Depth drilled with bit1
 MCSS.               MEAS:   Source Rmc.
 LMF .                 KB:   Log Measured From
 DMF .                 KB:   Drilling Measured From
 TLI .                200:   Top log interval
~OTHER INFORMATION
~A   DEPT       CALD     RHOB       CORR         GRD       SPR        ILD        ILM       SGRD   
# ...
 1719.0000     8.7430     2.5210     0.0940   111.4670   -67.9810     8.3020     8.6900    12.2690
 1719.5000     8.6440     2.5150     0.0910   114.3210   -67.9670     8.1450     8.6410    12.0990
 1720.0000     8.5890     2.5100     0.0850   114.2640   -67.9530     7.9890     8.5910    11.9300
 1720.5000     8.5710     2.5150     0.0800   113.7280   -67.9390     7.8320     8.5290    11.7600
 1721.0000     8.5530     2.5170     0.0750   113.2000   -67.9250     7.6760     8.5410    11.6470
 1721.5000     8.5350     2.5120     0.0710   112.6370   -67.9100     7.5710     8.5570    11.8260
 1722.0000     8.5200     2.5010     0.0710   111.1080   -67.8960     7.5710     8.5730    11.9710
 1722.5000     8.5200     2.4950     0.0700   109.5450   -67.8820     7.5710     8.5900    12.0210
 1723.0000     8.5400     2.4960     0.0700   107.8730   -67.8680     7.5710     8.6860    12.4290
 1723.5000     8.5770     2.4970     0.0700   105.6770   -67.8540     7.4910     8.6500    12.8380
 1724.0000     8.5430     2.4880     0.0690   103.3830   -67.8400     7.3790     8.5990    13.1200
 1724.5000     8.5020     2.4830     0.0690   102.9340   -67.8250     7.2680     8.5480    12.5820
 1725.0000     8.5100     2.4810     0.0720   104.9010   -67.8240     7.1560     8.4970    12.0960
 1725.5000     8.5210     2.4770     0.0760   108.0750   -67.8810     7.1000     8.4460    11.6470
 1726.0000     8.5320     2.4680     0.0800   109.6040   -67.9350     7.1000     8.3950    11.6950
 1726.5000     8.5420     2.4640     0.0840   112.5340   -67.9890     7.1000     8.3440    11.7540
 1727.0000     8.5490     2.4640     0.0880   115.7230   -68.0430     7.1000     8.2970    11.6550
 1727.5000     8.5560     2.4670     0.0930   118.4340   -68.0970     7.1000     8.3970    11.4350
 1728.0000     8.5630     2.4720     0.0930   118.3590   -68.1510     7.1000     8.4230    11.4740
 1728.5000     8.5710     2.4770     0.0930   115.6280   -68.2050     7.1000     8.4500    11.5550
 1729.0000     8.5780     2.4840     0.0940   112.9090   -68.2590     7.1000     8.4760    11.6360
 1729.5000     8.5660     2.4910     0.0940   110.1130   -68.3140     7.1000     8.5030    11.9890
 1730.0000     8.5460     2.4880     0.0950   108.8100   -68.3680     7.1000     8.5290    13.1200
 1730.5000     8.5270     2.4860     0.0940   109.1660   -68.4220     7.1000     8.5550    12.6650
 1731.0000     8.5070     2.4920     0.0940   110.5870   -68.4760     7.1000     8.5820    11.6720
 1731.5000     8.4870     2.5000     0.0940   111.6470   -68.5300     7.1000     8.6080    11.1250
 1732.0000     8.4830     2.5070     0.0930   110.4370   -68.5840     7.1000     8.6350    11.9710
 1732.5000     8.4860     2.5120     0.0930   109.2380   -68.6650     7.1000     8.6610    11.9460
 1733.0000     8.4900     2.5070     0.0930   109.0610   -68.7820     7.1000     8.6860    11.9160
 1733.5000     8.4940     2.5010     0.0920   109.4150   -68.8990     7.1350     8.9290    11.8850
 1734.0000     8.4970     2.4950     0.0890   107.6330   -69.0150     7.2820     9.1610    11.8620
 1734.5000     8.5030     2.4850     0.0860   104.0150   -69.1320     7.4300     9.3860    13.8620
 1735.0000     8.5160     2.4740     0.0830   103.0850   -69.2490     7.5770     9.6100    13.3560
 1735.5000     8.5290     2.4620     0.0800   102.5800   -69.3650     7.7250     9.7560    12.8820
 1736.0000     8.5410     2.4500     0.0770   103.0020   -69.4820     7.9220     9.8520    14.2560
 1736.5000     8.5540     2.4370     0.0770   103.6820   -69.5990     8.1500     9.9480    15.0540
 1737.0000     8.5630     2.4330     0.0770   104.3710   -69.7150     8.3770    10.0720    13.8620
 1737.5000     8.5690     2.4330     0.0790   105.0720   -69.8320     8.6050    10.1510    14.5120
 1738.0000     8.5760     2.4380     0.0810   105.2650   -69.9480     8.8330    10.3840    13.1590
 1738.5000     8.5820     2.4430     0.0850   104.6010   -70.0650     9.0610    10.7360    12.8820
 1739.0000     8.5890     2.4600     0.0880   104.1720   -70.1820     9.2890    11.0880    13.4000
 1739.5000     8.5950     2.4830     0.0920   104.5210   -70.2980     9.5200    11.4400    15.2140
 1740.0000     8.6020     2.5060     0.0930   106.6740   -70.4150     9.6200    11.7920    16.4990
 1740.5000     8.6110     2.5220     0.0930   110.3040   -70.5320     9.7730    12.0820    15.3510
 1741.0000     8.6150     2.5370     0.0930   113.8950   -70.6480     9.7100    12.0030    14.7480
 1741.5000     8.5890     2.5450     0.0940   117.4920   -70.7670     9.5070    11.5450    14.2950
 1742.0000     8.5640     2.5370     0.0940   121.1500   -70.7850     9.3050    11.0870    13.8430
 1742.5000     8.5380     2.5170     0.0940   121.9100   -70.7740     9.1020    10.6290    13.7360
 1743.0000     8.5130     2.5030     0.0940   121.0260   -70.7620     8.8990    10.1710    13.9890
 1743.5000     8.4880     2.5040     0.0950   119.2740   -70.7500     8.6970     9.9660    14.4420
 1744.0000     8.4620     2.5050     0.0940   117.2700   -70.7380     8.4940    10.4340    14.8960
 1744.5000     8.4420     2.5080     0.0940   116.0960   -70.7260     8.2920    10.3240    15.1920
 1745.0000     8.4500     2.5130     0.0930   115.9890   -70.7140     8.0890    10.1220    15.0850
 1745.5000     8.4580     2.5150     0.0920   115.6800   -70.7020     7.8870     9.9200    14.3210
 1746.0000     8.4650     2.5150     0.0910   115.2490   -70.6900     7.7140     9.7180    14.1180
 1746.5000     8.4730     2.5130     0.0900   113.3550   -70.6780     7.7370     9.5160    13.9900
 1747.0000     8.4800     2.5070     0.0890   108.4860   -70.6670     7.7600     9.3140    13.4730
 1747.5000     8.4860     2.5040     0.0890   105.3980   -70.6550     7.7830     9.1770    13.0010
 1748.0000     8.4920     2.5010     0.0850   105.6990   -70.6430     7.8050     9.4150    13.3170
 1748.5000     8.4980     2.4940     0.0800   110.3450   -70.6310     7.8280     9.6960    13.9900
 1749.0000     8.5040     2.4880     0.0750   112.6860   -70.6210     7.8530     9.8760    13.8610
 1749.5000     8.5100     2.4890     0.0750   111.5750   -70.6110     7.8080     9.8430    13.7360
 1750.0000     8.5160     2.4860     0.0740   111.9000   -70.5560     7.7570     9.7380    13.8990
 1750.5000     8.5220     2.4800     0.0730   114.0070   -70.4130     7.7070     9.6330    14.0550
 1751.0000     8.5280     2.4740     0.0760   113.7320   -70.4210     7.6560     9.5270    14.2480
 1751.5000     8.5340     2.4700     0.0790   113.6860   -70.4370     7.6060     9.4100    13.8640
 1752.0000     8.5400     2.4760     0.0820   114.7520   -70.4540     7.4110     9.2620    13.1040
 1752.5000     8.5430     2.4830     0.0850   115.7870   -70.4710     6.8450     8.8980    12.8820
 1753.0000     8.5470     2.4910     0.0870   116.8250   -70.4880     6.6170     8.5050    12.9660
 1753.5000     8.5500     2.4910     0.0900   117.7380   -70.5040     6.3660     8.1110    13.0570
 1754.0000     8.5540     2.4880     0.0910   118.3010   -70.5210     6.1150     7.0920    13.1200
 1754.5000     8.5570     2.4900     0.0920   115.4890   -70.5380     5.8650     6.4790    10.9720
 1755.0000     8.5600     2.4890     0.0920   111.6540   -70.5540     5.6140     6.7100     7.0930
 1755.5000     8.5630     2.4870     0.0930   107.8420   -70.5710     5.4620     6.9610     4.9060
 1756.0000     8.5650     2.4850     0.0940   104.0490   -70.5880     5.3640     7.2320    11.8620
 1756.5000     8.5670     2.4730     0.0940   103.0060   -70.6040     5.2650     7.2320    11.6170
 1757.0000     8.5690     2.4610     0.0950   105.8980   -70.6210     5.1990     6.6410    11.1500
 1757.5000     8.5720     2.4560     0.0930   108.7620   -70.6380     5.2580     6.1960    10.9680
 1758.0000     8.5740     2.4720     0.0910   109.0670   -70.6540     5.3100     5.9660     6.3610
 1758.5000     8.5760     2.4750     0.0890   107.9810   -70.6710     5.4200     5.9660     6.8450
 1759.0000     8.5790     2.4660     0.0880   106.9200   -70.6880     5.5300     6.9260     9.7170
