~VERSION INFORMATION
 VERS.                2.0:   CWLS LOG ASCII STANDARD - VERSION 2.0
 WRAP.                 NO:   ONE LINE PER DEPTH STEP
~WELL INFORMATION
#MNEM.UNIT      DATA TYPE    INFORMATION
#----------   ------------   ------------------------------
 STRT.F           36.0000:   START DEPTH
 STOP.F         3014.5000:   STOP DEPTH
 STEP.F            0.5000:   STEP LENGTH
 NULL.          -999.2500:   NO VALUE
 COMP.    TESRO PETROLEUM:   COMPANY
 WELL. TESORO N.P.R. "A" #6-21:   WELL
 FLD .             TEAPOT:   FIELD
 LOC .      S21 T39N R78W:   LOCATION
 CNTY.            NATRONA:   COUNTY
 STAT.            WYOMING:   STATE
 CTRY. UNITED STATES OF AMERICA:   COUNTRY
 SRVC.              WELEX:   SERVICE COMPANY
 DATE.        16-JUL-1968:   LOGDATE
 API .     49025100180000:   API NUMBER
~CURVE INFORMATION
#MNEM.UNIT       API CODE    CURVE DESCRIPTION
#----------   ------------   ------------------------------
 DEPT.F                  :   
 SPR .MV     05 010 01 00:   SPONTANEOUS POTENTIAL FROM RES.
 ASN .OHMM   05 041 18 00:   AMPLIFIED SHORT NORMAL 18"
 IL  .OHMM   05 120 00 00:   INDUCTION LOG
 GRD .GAPI   45 310 01 00:   GAMMA RAY FROM DENSITY LOG
 CALD.IN     45 280 60 00:   CALIPER FROM DENSITY LOG
 GDEN.CPS    45 350 30 00:   GAMMA DENS
~PARAMETER INFORMATION
#MNEM.UNIT          VALUE    DESCRIPTION
#----------   ------------   ------------------------------
 EKB .F         5002.0000:   Kelly bushing
 EGL .F         4991.0000:   Ground level
 EDF .F         5001.0000:   Drilling floor
 TD  .F         3025.0000:   Total depth
 DATE.        16-JUL-1968:   Date logged
 CLNT.            A2DTECH:   Client Code
 PD  .                 GL:   Permanent Datum
 EPD .F              4991:   Elevation Permanent Datum
 LMF .                 KB:   Log Measured From
 DMF .                 KB:   Drilling Measured From
 DD  .F              3025:   Depth driller
 DL  .F              3019:   Depth logger
 BLI .F              3014:   Bottom log interval
 TLI .F              2670:   Top log interval
 CS1 .IN            10.75:   Casing size
 CBD1.      10.75" @ 325':   Casing driller 1
 CBL1.F               325:   Casing logger 1
 BS1 .IN                9:   Bit size
 BSD1.F              3025:   Depth drilled with bit1
 DFT .     WATER BASE MUD:   Type fluid in hole
 DFD .                9.7:   Density
 DFV .                 60:   Viscosity
 DFL .                6.4:   Fluid loss
 MSS .              CIRC.:   Source of sample
 RMS .OHMM            2.2:   Rm
 MST .F                84:   Rm Meas. temp.
 RMF .OHMM            1.6:   Rmf
 MFST.F                70:   Rmf Meas. temp.
 RMC .OHMM            3.3:   Rmc
 MCST.F                68:   Rmc Meas. temp.
 MFSS.               MEAS:   Source Rmf.
 RMB .OHMM           1.55:   Rm. at BHT
 BHT .F               120:   BHT.
 MRT .F               120:   Maximum recorded temp.
 LUN .               6869:   Logging unit number
 LUL .                 NC:   Logging unit location
 ENGI.          H. STEITZ:   Recorded By
 WITN.                MAY:   Witnessed by
 ORIG.           5" PRINT:   Origin of data
 UWI .     49025100180000:   Unique Well ID
 DICO. A2D TECHNOLOGIES, INC.:   Digitizing Company
~OTHER INFORMATION
~A   DEPT      SPR        ASN           IL      GRD       CALD       GDEN   
# ...
 1284.0000   -32.6470     9.8550     8.6010  -999.2500  -999.2500  -999.2500
 1284.5000   -32.6010     9.8900     8.5760  -999.2500  -999.2500  -999.2500
 1285.0000   -32.4810     9.9250     8.5510  -999.2500  -999.2500  -999.2500
 1285.5000   -32.3640     9.9600     8.5260  -999.2500  -999.2500  -999.2500
 1286.0000   -32.2460    10.0140     8.5000  -999.2500  -999.2500  -999.2500
 1286.5000   -32.1280    10.3210     8.4750  -999.2500  -999.2500  -999.2500
 1287.0000   -32.0100    10.2080     8.4490  -999.2500  -999.2500  -999.2500
 1287.5000   -31.8850    10.3040     8.4210  -999.2500  -999.2500  -999.2500
 1288.0000   -32.0120    10.5690     8.5220  -999.2500  -999.2500  -999.2500
 1288.5000   -32.2500    10.8300     8.6810  -999.2500  -999.2500  -999.2500
 1289.0000   -32.4890    11.0270     8.8410  -999.2500  -999.2500  -999.2500
 1289.5000   -32.7310    11.2150     9.0010  -999.2500  -999.2500  -999.2500
 1290.0000   -32.9800    11.1040     9.1610  -999.2500  -999.2500  -999.2500
 1290.5000   -32.8690    10.8070     9.3210  -999.2500  -999.2500  -999.2500
 1291.0000   -32.6380    10.9840     9.4820  -999.2500  -999.2500  -999.2500
 1291.5000   -32.4100    11.6510     9.6430  -999.2500  -999.2500  -999.2500
 1292.0000   -32.3920    11.6780     9.7980  -999.2500  -999.2500  -999.2500
 1292.5000   -32.8280    11.5260     9.5870  -999.2500  -999.2500  -999.2500
 1293.0000   -32.5190    11.3690     9.3490  -999.2500  -999.2500  -999.2500
 1293.5000   -32.5320    11.2100     9.1120  -999.2500  -999.2500  -999.2500
 1294.0000   -33.0100    11.0510     8.8840  -999.2500  -999.2500  -999.2500
 1294.5000   -32.8160    10.8920     8.8170  -999.2500  -999.2500  -999.2500
 1295.0000   -32.5900    10.7340     8.7690  -999.2500  -999.2500  -999.2500
 1295.5000   -32.3620    10.6020     8.6900  -999.2500  -999.2500  -999.2500
 1296.0000   -32.1310    10.6480     8.6130  -999.2500  -999.2500  -999.2500
 1296.5000   -32.1410    10.6980     8.7330  -999.2500  -999.2500  -999.2500
 1297.0000   -32.2830    10.7480     8.8720  -999.2500  -999.2500  -999.2500
 1297.5000   -32.4230    10.7970     9.0130  -999.2500  -999.2500  -999.2500
 1298.0000   -32.4880    10.8790     9.1550  -999.2500  -999.2500  -999.2500
 1298.5000   -32.5380    10.9620     9.2940  -999.2500  -999.2500  -999.2500
 1299.0000   -32.5880    11.0450     9.3120  -999.2500  -999.2500  -999.2500
 1299.5000   -32.6410    11.0940     9.2670  -999.2500  -999.2500  -999.2500
 1300.0000   -32.6100    11.0370     9.2140  -999.2500  -999.2500  -999.2500
 1300.5000   -32.5620    10.9820     9.1620  -999.2500  -999.2500  -999.2500
 1301.0000   -32.5150    10.9270     9.1090  -999.2500  -999.2500  -999.2500
 1301.5000   -32.4690    10.8730     9.0570  -999.2500  -999.2500  -999.2500
 1302.0000   -32.5050    10.8190     9.0090  -999.2500  -999.2500  -999.2500
 1302.5000   -32.7040    10.8300     9.1070  -999.2500  -999.2500  -999.2500
 1303.0000   -32.8980    10.9630     9.2260  -999.2500  -999.2500  -999.2500
 1303.5000   -33.1870    11.0960     9.3450  -999.2500  -999.2500  -999.2500
 1304.0000   -33.0670    11.2290     9.4640  -999.2500  -999.2500  -999.2500
 1304.5000   -32.9080    11.3650     9.5840  -999.2500  -999.2500  -999.2500
 1305.0000   -32.7450    11.4460     9.7030  -999.2500  -999.2500  -999.2500
 1305.5000   -32.5820    11.5100     9.8100  -999.2500  -999.2500  -999.2500
 1306.0000   -32.4200    11.5740     9.8120  -999.2500  -999.2500  -999.2500
 1306.5000   -32.2550    11.5510     9.8110  -999.2500  -999.2500  -999.2500
 1307.0000   -32.3220    11.4490     9.8080  -999.2500  -999.2500  -999.2500
 1307.5000   -32.4590    11.3480     9.7020  -999.2500  -999.2500  -999.2500
 1308.0000   -32.5960    11.2460     9.5870  -999.2500  -999.2500  -999.2500
 1308.5000   -32.7310    11.1450     9.4730  -999.2500  -999.2500  -999.2500
 1309.0000   -32.8210    11.0430     9.3580  -999.2500  -999.2500  -999.2500
 1309.5000   -32.7060    10.9370     9.2430  -999.2500  -999.2500  -999.2500
 1310.0000   -32.5920    10.9080     9.1290  -999.2500  -999.2500  -999.2500
 1310.5000   -32.4760    10.9070     9.1140  -999.2500  -999.2500  -999.2500
 1311.0000   -32.4550    10.9060     9.1020  -999.2500  -999.2500  -999.2500
 1311.5000   -32.6020    10.9070     9.0780  -999.2500  -999.2500  -999.2500
 1312.0000   -32.7460    10.8950     9.0540  -999.2500  -999.2500  -999.2500
 1312.5000   -32.8900    10.8740     9.0310  -999.2500  -999.2500  -999.2500
 1313.0000   -33.0340    10.8520     9.0550  -999.2500  -999.2500  -999.2500
 1313.5000   -33.1790    10.8290     9.1950  -999.2500  -999.2500  -999.2500
 1314.0000   -33.2260    10.8020     9.3290  -999.2500  -999.2500  -999.2500
 1314.5000   -32.9700    11.1010     9.4650  -999.2500  -999.2500  -999.2500
 1315.0000   -32.7060    11.4560     9.5140  -999.2500  -999.2500  -999.2500
 1315.5000   -32.4440    11.3280     9.4120  -999.2500  -999.2500  -999.2500
 1316.0000   -32.2760    11.1300     9.2570  -999.2500  -999.2500  -999.2500
 1316.5000   -32.4220    11.1650     9.2480  -999.2500  -999.2500  -999.2500
 1317.0000   -32.5620    11.2080     9.3770  -999.2500  -999.2500  -999.2500
 1317.5000   -32.7010    11.1230     9.5090  -999.2500  -999.2500  -999.2500
 1318.0000   -32.8400    11.0130     9.3570  -999.2500  -999.2500  -999.2500
 1318.5000   -32.9800    11.0520     9.3160  -999.2500  -999.2500  -999.2500
 1319.0000   -33.0210    11.2080     9.3620  -999.2500  -999.2500  -999.2500
 1319.5000   -32.9750    11.3580     9.4120  -999.2500  -999.2500  -999.2500
 1320.0000   -32.9290    11.5020     9.4640  -999.2500  -999.2500  -999.2500
 1320.5000   -32.8820    11.4170     9.5120  -999.2500  -999.2500  -999.2500
 1321.0000   -32.8320    11.2770     9.5160  -999.2500  -999.2500  -999.2500
 1321.5000   -33.0650    11.1370     9.3840  -999.2500  -999.2500  -999.2500
 1322.0000   -33.1060    10.9960     9.1920  -999.2500  -999.2500  -999.2500
 1322.5000   -33.1510    10.8550     9.0000  -999.2500  -999.2500  -999.2500
 1323.0000   -33.1940    10.7170     8.8070  -999.2500  -999.2500  -999.2500
 1323.5000   -33.0810    10.8520     8.6140  -999.2500  -999.2500  -999.2500
 1324.0000   -32.8710    11.0070     8.4300  -999.2500  -999.2500  -999.2500
 1324.5000   -32.6890    11.0830     8.6270  -999.2500  -999.2500  -999.2500
 1325.0000   -32.5090    11.0140     8.8470  -999.2500  -999.2500  -999.2500
 1325.5000   -32.3300    10.9450     9.0680  -999.2500  -999.2500  -999.2500
 1326.0000   -32.1500    10.9660     9.2880  -999.2500  -999.2500  -999.2500
 1326.5000   -32.1050    11.1130     9.5070  -999.2500  -999.2500  -999.2500
 1327.0000   -32.2320    11.2580     9.6930  -999.2500  -999.2500  -999.2500
 1327.5000   -32.3590    11.4020     9.4160  -999.2500  -999.2500  -999.2500
 1328.0000   -32.4850    11.4930     9.1300  -999.2500  -999.2500  -999.2500
 1328.5000   -32.6110    11.2410     9.1140  -999.2500  -999.2500  -999.2500
 1329.0000   -32.5760    11.0000     9.1130  -999.2500  -999.2500  -999.2500
 1329.5000   -32.1220    10.7590     9.1150  -999.2500  -999.2500  -999.2500
 1330.0000   -31.6740    10.6040     8.9890  -999.2500  -999.2500  -999.2500
 1330.5000   -31.7300    10.6010     8.7690  -999.2500  -999.2500  -999.2500
 1331.0000   -31.8550    10.5870     8.5480  -999.2500  -999.2500  -999.2500
 1331.5000   -31.9810    10.5730     8.4380  -999.2500  -999.2500  -999.2500
 1332.0000   -32.1070    10.5580     8.5040  -999.2500  -999.2500  -999.2500
 1332.5000   -32.2330    10.5440     8.6360  -999.2500  -999.2500  -999.2500
 1333.0000   -32.3580    10.5290     8.7680  -999.2500  -999.2500  -999.2500
 1333.5000   -32.4390    10.5150     8.9030  -999.2500  -999.2500  -999.2500
 1334.0000   -32.2770    10.5250     8.8360  -999.2500  -999.2500  -999.2500
 1334.5000   -32.1210    10.5580     8.7080  -999.2500  -999.2500  -999.2500
 1335.0000   -31.9660    10.5900     8.5910  -999.2500  -999.2500  -999.2500
 1335.5000   -31.8110    10.6230     8.5330  -999.2500  -999.2500  -999.2500
