~VERSION INFORMATION
 VERS.                2.0:   CWLS LOG ASCII STANDARD - VERSION 2.0
 WRAP.                 NO:   ONE LINE PER DEPTH STEP
~WELL INFORMATION
#MNEM.UNIT      DATA TYPE    INFORMATION
#----------   ------------   ------------------------------
 STRT.F            0.0000:   START DEPTH
 STOP.F          619.0000:   STOP DEPTH
 STEP.F            0.5000:   STEP LENGTH
 NULL.          -999.2500:   NO VALUE
 COMP.       FLUOR DANIEL:   COMPANY
 WELL.      FLUOR X #52-3:   WELL
 FLD .                NPR:   FIELD
 LOC .       S3 T38N R78W:   LOCATION
 CNTY.            NATRONA:   COUNTY
 STAT.            WYOMING:   STATE
 CTRY. UNITED STATES OF AMERICA:   COUNTRY
 SRVC.     ATLAS WIRELINE:   SERVICE COMPANY
 DATE.        18-AUG-1994:   LOGDATE
 API .     49025226460000:   API NUMBER
~CURVE INFORMATION
#MNEM.UNIT       API CODE    CURVE DESCRIPTION
#----------   ------------   ------------------------------
 DEPT.F                  :   
 GRR .GAPI   07 310 01 00:   GAMMA RAY FROM RESISTIVITY
 TENR.LBS    07 635 01 00:   TENSION
 RILD.OHMM   07 120 46 00:   INDUCTION LOG DEEP RESISTIVITY
 RILM.OHMM   07 120 44 00:   INDUCTION LOG MEDIUM RESISTIVITY
~PARAMETER INFORMATION
#MNEM.UNIT          VALUE    DESCRIPTION
#----------   ------------   ------------------------------
 EKB .F         5131.0000:   Kelly bushing
 EGL .F         5121.0000:   Ground level
 EDF .F         5130.0000:   Drilling floor
 EPD .F         5121.0000:   Permanent datum
 TD  .F          611.0000:   Total depth
 DATE.        18-AUG-1994:   Date logged
 CLNT.            A2DTECH:   Client Code
 SL  . 699' FNL & 2048' FEL:   Surface Location
 PD  .                 GL:   Permanent Datum
 LMF .                 KB:   Log Measured From
 DMF .                 KB:   Drilling Measured From
 DAPD.F                10:   Feet Above Permanent Datum
 DD  .F               580:   Depth driller
 DL  .F               611:   Depth logger
 BLI .F               609:   Bottom log interval
 CS1 .IN            9.625:   Casing size
 CBD1.       9.625" @ 54':   Casing driller 1
 CBL1.F                56:   Casing logger 1
 BS1 .IN             8.75:   Bit size
 BSD1.F               580:   Depth drilled with bit1
 DFT .                AIR:   Type fluid in hole
 LUN .            HL 6530:   Logging unit number
 LUL .             CASPER:   Logging unit location
 WITN.        GARY STRONG:   Witnessed by
 ORIG.           5" PRINT:   Origin of data
 UWI .     49025226460000:   Unique Well ID
 DICO. A2D TECHNOLOGIES, INC.:   Digitizing Company
~OTHER INFORMATION
~A    DEPT      GRR      TENR       RILD       RILM   
# ...
  438.0000    89.9360   -11.5350    22.2990    22.4300
  438.5000    90.8160   -11.0270    22.1570    22.2900
  439.0000    91.3490   -10.5190    22.0330    22.1510
  439.5000    90.3500   -10.0100    21.9670    22.0480
  440.0000    88.8600    -9.5020    21.9020    22.0480
  440.5000    87.3950    -8.9940    21.8440    22.0480
  441.0000    89.7450    -8.4850    22.0270    22.0480
  441.5000    92.4790    -7.9770    22.2540    22.0480
  442.0000    92.4400    -7.4690    22.2050    22.0520
  442.5000    89.7900    -6.9600    22.1240    21.8300
  443.0000    90.2560    -6.4520    22.0430    21.6500
  443.5000    92.7120    -5.9440    21.9620    21.4700
  444.0000    95.0470    -5.4350    21.8440    21.2440
  444.5000    96.5920    -4.9270    21.9060    21.4600
  445.0000    96.5840    -4.4190    22.0170    21.7490
  445.5000    95.2880    -3.9100    22.1280    22.0380
  446.0000    93.2190    -3.4020    22.2540    22.2540
  446.5000    91.3430    -2.8930    21.9870    21.7630
  447.0000    91.3890    -2.3850    21.6770    21.2990
  447.5000    91.9880    -1.8770    21.3680    20.8360
  448.0000    92.5920    -1.3680    21.0590    20.3720
  448.5000    93.4910    -0.8600    20.7500    20.0180
  449.0000    94.9080    -0.3520    20.4410    19.8290
  449.5000    94.6380     0.1570    20.1320    19.6410
  450.0000    92.2390     0.6650    19.8230    19.4520
  450.5000    88.2650     1.1730    19.5140    19.2330
  451.0000    88.3180     1.6820    19.2050    18.9850
  451.5000    88.7120     2.1900    18.8960    18.6720
  452.0000    90.5640     2.6980    18.4300    18.2480
  452.5000    96.4220     3.2070    17.9200    17.8240
  453.0000   100.8830     3.7150    17.4110    17.3990
  453.5000   103.0150     4.2230    16.9020    16.9750
  454.0000   103.0170     4.7320    16.8440    16.8440
  454.5000   104.2000     5.2400    16.8440    16.8440
  455.0000   106.4710     5.7480    16.8440    16.8440
  455.5000   107.3720     6.2570    16.8440    16.8440
  456.0000   104.7010     6.7650    16.6870    16.8440
  456.5000   101.8950     6.0050    16.4240    16.5210
  457.0000    99.8800     3.5430    16.1370    16.1270
  457.5000   102.5000     1.0800    15.7770    15.7330
  458.0000   105.8590    -1.3820    15.4170    15.3390
  458.5000   107.3340    -1.7930    15.0580    14.9440
  459.0000   107.1760     1.9010    14.6980    14.5500
  459.5000   106.5760     5.5950    14.3380    14.1560
  460.0000   104.3740     7.3010    13.9790    13.7610
  460.5000   100.7370     7.7060    13.6190    13.3670
  461.0000    97.3290     8.1110    13.3540    13.1820
  461.5000    95.7340     8.5170    13.1790    13.1070
  462.0000    96.4670     8.9220    13.0160    13.0320
  462.5000    97.8740     9.3270    12.8520    12.9570
  463.0000    98.9720     9.7320    12.7390    12.8810
  463.5000    99.8980    10.1370    12.7130    12.8060
  464.0000   100.1110    10.5420    12.6870    12.7310
  464.5000    98.0810    10.9470    12.6610    12.6560
  465.0000    97.2970    11.3520    12.6350    12.6220
  465.5000   100.4110    11.7570    12.6090    12.6080
  466.0000   103.3290    12.1630    12.5830    12.5940
  466.5000   103.8750    12.5680    12.5570    12.5800
  467.0000   103.2710    12.9730    12.5310    12.5660
  467.5000   103.9840    13.3780    12.5050    12.5520
  468.0000   104.1050    13.7830    12.4790    12.5390
  468.5000   103.8990    14.1880    12.4530    12.5250
  469.0000   104.0440    14.5930    12.4270    12.5110
  469.5000   108.0650    14.9980    12.3980    12.4970
  470.0000   109.2290    15.4030    12.4240    12.4830
  470.5000   109.4390    15.8080    12.4580    12.4690
  471.0000   106.3340    16.2140    12.4930    12.4550
  471.5000   103.3470    16.6190    12.5140    12.4410
  472.0000   103.0670    17.0240    12.4160    12.4280
  472.5000   104.2760    17.4290    12.3460    12.4140
  473.0000   105.5060    17.8340    12.2770    12.4000
  473.5000   106.7360    18.2390    12.2070    12.3380
  474.0000   108.7700    18.6440    12.1380    12.2700
  474.5000   111.1150    19.0490    12.0680    12.2030
  475.0000   113.4670    19.4540    11.9980    12.1350
  475.5000   113.9170    19.8590    11.9290    12.0670
  476.0000   112.9170    20.2650    11.8590    12.0000
  476.5000   111.9270    20.6700    11.7890    11.9320
  477.0000   110.9320    21.0750    11.7250    11.8650
  477.5000   109.9130    21.4800    11.7050    11.7970
  478.0000   109.1330    21.8850    11.6850    11.7270
  478.5000   108.3420    22.2900    11.6650    11.7630
  479.0000   107.7430    22.6950    11.6460    11.8000
  479.5000   107.5130    23.1000    11.6260    11.8380
  480.0000   108.9990    23.5050    11.6060    11.8750
  480.5000   113.4540    23.9110    11.5860    11.9130
  481.0000   114.2550    24.3160    11.5670    11.9460
  481.5000   111.2310    24.7210    11.5470    11.8870
  482.0000   110.5800    25.1260    11.5270    11.8340
  482.5000   116.3010    25.5310    11.5000    11.7800
  483.0000   121.8300    25.9360    11.4420    11.7270
  483.5000   121.7470    26.3410    11.3840    11.6730
  484.0000   118.5610    26.7460    11.3260    11.6200
  484.5000   114.9480    27.1510    11.2680    11.5660
  485.0000   113.0460    27.5560    11.2110    11.5130
  485.5000   114.8030    27.9620    11.1700    11.4590
  486.0000   116.6510    28.3670    11.1360    11.4050
  486.5000   114.0360    28.7720    11.1020    11.3220
  487.0000   111.0670    29.1770    11.0680    11.2160
  487.5000   108.3080    29.5820    11.0340    11.1100
  488.0000   108.5360    29.9870    11.0000    11.0040
  488.5000   112.3390    30.3920    10.9050    10.8870
  489.0000   116.9920    30.7970    10.7340    10.7430
  489.5000   120.2730    31.2020    10.5630    10.5830
  490.0000   119.3310    31.6080    10.3920    10.4230
  490.5000   119.0840    32.0130    10.2210    10.2630
  491.0000   119.9600    32.4180    10.0500    10.0610
  491.5000   120.7440    32.8230     9.8530     9.8310
  492.0000   120.5540    33.2280     9.5810     9.6010
  492.5000   120.3430    33.6330     9.3090     9.3710
  493.0000   120.1360    34.0380     8.9440     9.1260
  493.5000   119.8120    34.4430     8.3630     8.6130
  494.0000   118.8500    34.8480     7.6640     7.8940
  494.5000   117.8940    35.2530     6.9650     7.1540
  495.0000   118.4920    35.6590     6.2670     6.4150
  495.5000   127.0140    36.0640     5.5680     5.6760
  496.0000   138.9620    36.4690     5.0380     5.3980
  496.5000   151.3320    36.8740     5.1560     5.3760
  497.0000   155.5640    37.2790     5.3840     5.5790
  497.5000   152.1320    37.6840     5.6130     6.0530
  498.0000   139.5950    38.0890     5.8420     6.7180
  498.5000   131.3870    38.4940     6.0660     7.3830
  499.0000   126.1590    38.8990     6.8950     8.0470
  499.5000   121.7900    39.3040     7.7060     8.7120
  500.0000   119.6550    39.7100     8.5180     9.1380
  500.5000   120.3290    40.1150     9.5600     9.5310
  501.0000   122.8490    40.5200     9.5350     9.9230
  501.5000   124.3490    40.9250     9.4720    10.0140
  502.0000   125.0270    41.3300     9.6320    10.0140
  502.5000   125.6850    41.7350     9.8970    10.0990
  503.0000   126.3430    42.1400    10.1630    10.2910
  503.5000   126.3760    42.5450    10.3420    10.4840
  504.0000   125.5420    42.9500    10.4320    10.6770
  504.5000   122.1040    43.3560    10.5420    10.8690
  505.0000   119.8790    43.7610    10.6870    11.0620
  505.5000   122.2380    44.1660    10.8320    11.2550
  506.0000   125.1060    44.5710    10.9760    11.4470
  506.5000   125.2310    44.9760    11.1210    11.6060
  507.0000   124.1250    45.3810    11.2660    11.7480
  507.5000   123.6020    45.7860    11.4110    11.8910
  508.0000   123.6920    46.1910    11.5550    12.0330
  508.5000   119.8760    46.5960    11.7000    12.1750
  509.0000   117.8650    47.0010    11.8170    12.2990
  509.5000   115.7660    47.3790    11.9270    12.3640
  510.0000   113.9890    48.0240    12.0370    12.4280
  510.5000   115.3570    48.6270    12.1480    12.4930
