~VERSION INFORMATION
 VERS.                2.0:   CWLS LOG ASCII STANDARD - VERSION 2.0
 WRAP.                 NO:   ONE LINE PER DEPTH STEP
~WELL INFORMATION
#MNEM.UNIT      DATA TYPE    INFORMATION
#----------   ------------   ------------------------------
 STRT.F          200.0000:   START DEPTH
 STOP.F         3248.0000:   STOP DEPTH
 STEP.F            0.5000:   STEP LENGTH
 NULL.          -999.2500:   NO VALUE
 COMP.    FENIX & SCISSON:   COMPANY
 WELL.   FENIX "AX" #28-3:   WELL
 FLD .              NPR-3:   FIELD
 LOC .       S3 T38N R78W:   LOCATION
 CNTY.            NATRONA:   COUNTY
 STAT.            WYOMING:   STATE
 CTRY. UNITED STATES OF AMERICA:   COUNTRY
 SRVC.              WELEX:   SERVICE COMPANY
 DATE.        30-JUN-1977:   LOGDATE
 API .     49025104200000:   API NUMBER
~CURVE INFORMATION
#MNEM.UNIT       API CODE    CURVE DESCRIPTION
#----------   ------------   ------------------------------
 DEPT.F                  :   
 CALD.IN     45 280 60 00:   CALIPER FROM DENSITY LOG
 GRD .GAPI   45 310 01 00:   GAMMA RAY FROM DENSITY LOG
 RHOB.G/C3   45 350 01 00:   BULK DENSITY
 CORR.G/C3   45 356 01 00:   DENSITY CORRECTION
 SPR .MV     07 010 01 00:   SPONTANEOUS POTENTIAL
 ILD .OHMM   07 120 46 00:   DEEP INDUCTION RESISTIVITY
 ILM .OHMM   07 120 44 00:   INDUCTION LOG MEDIUM RESISTIVITY
 SGRD.OHMM   07 220 05 00:   SHALLOW SHORT GUARD RESISTIVITY
~PARAMETER INFORMATION
#MNEM.UNIT          VALUE    DESCRIPTION
#----------   ------------   ------------------------------
 EKB .F         4969.0000:   Kelly bushing
 EGL .F         4959.0000:   Ground level
 TD  .F         3250.0000:   Total depth
 CLNT.            A2DTECH:   Client Code
 SL  . 500' FSL & 800' FWL:   Surface Location
 PD  .                 GL:   Permanent Datum
 EPD .F              4959:   Elevation Permanent Datum
 LMF .                 KB:   Log Measured From
 DMF .                 KB:   Drilling Measured From
 DAPD.F                10:   Feet Above Permanent Datum
 DATE.        30-JUN-1977:   Date Logged [DD-MMM-YYYY]
 DD  .F              3250:   Depth driller
 DL  .F              3250:   Depth logger
 BLI .F              3248:   Bottom log interval
 TLI .F               200:   Top log interval
 CS1 .IN            8.625:   Casing size
 CBD1.      8.625" @ 217':   Casing driller 1
 CBL1.F               225:   Casing logger 1
 BS1 .IN            7.875:   Bit size
 BSD1.F              3250:   Depth drilled with bit1
 DFT .                KCL:   Type fluid in hole
 DFD .                8.9:   Density
 RMS .OHMM           1.76:   Rm
 MST .F                63:   Rm Meas. temp.
 TCS .HRS             2.5:   Time Circ. stopped
 MRT .F                68:   Maximum recorded temp.
 LUN .               8611:   Logging unit number
 ENGI.         G. BENTSEN:   Recorded By
 WITN.         PETTINGILL:   Witnessed by
 ORIG.         2.5" PRINT:   Origin of data
 UWI .     49025104200000:   Unique Well ID
 DICO. A2D TECHNOLOGIES, INC.:   Digitizing Company
 DFV .                 30:   Viscosity
 DFPH.                  7:   pH
 DFL .                 10:   Fluid loss
 MSS .                PIT:   Source of sample
 RMF .OHMM           1.09:   Rmf
 MFST.F                68:   Rmf Meas. temp.
 MFSS.               MEAS:   Source Rmf.
 RMC .OHMM           2.01:   Rmc
 MCST.F                68:   Rmc Meas. temp.
 MCSS.               MEAS:   Source Rmc.
 RMB .OHMM           1.01:   Rm. at BHT
 BHT .F               118:   BHT.
 LUL .             CASPER:   Logging unit location
~OTHER INFORMATION
~A   DEPT       CALD       GRD        RHOB      CORR       SPR        ILD        ILM       SGRD   
# ...
 1779.5000     8.4104   112.2351     2.5180     0.0115   -57.5524     8.2053     9.1320    11.1838
 1780.0000     8.4094   114.9796     2.5005     0.0115   -57.5516     8.2064     9.1339    11.1853
 1780.5000     8.4083   116.4761     2.5142     0.0120   -57.5509     8.2075     9.1357    11.1161
 1781.0000     8.4073   117.9277     2.5203     0.0129   -57.5501     8.2086     9.1375    10.8859
 1781.5000     8.3769   117.9136     2.5233     0.0129   -57.6573     8.0977     9.1393    10.8877
 1782.0000     8.3758   115.4921     2.5279     0.0144   -57.5487     8.0988     9.1412    10.8891
 1782.5000     8.3748   113.6730     2.5325     0.0143   -57.5479     7.9895     9.1430    10.8906
 1783.0000     8.3814   112.4564     2.5355     0.0158   -57.5472     7.8816     9.1449    10.5975
 1783.5000     8.3728   111.8421     2.5385     0.0188   -57.5465     7.8828     9.1306    10.5989
 1784.0000     8.3719   111.0075     2.5354     0.0203   -57.5457     7.8838     8.9008    10.3137
 1784.5000     8.3708   110.4502     2.5293     0.0203   -57.5448     7.8849     8.6615    10.3150
 1785.0000     8.3698   109.8929     2.5247     0.0218   -57.5441     7.8860     8.6280    10.3164
 1785.5000     8.3981   109.3356     2.5246     0.0217   -57.5434     7.9312     8.5468    10.3179
 1786.0000     8.3971   108.7709     2.5353     0.0217   -57.8378     7.9972     8.6670    10.3193
 1786.5000     8.3961   108.1566     2.5384     0.0201   -57.8370     7.9983     8.8457    10.4985
 1787.0000     8.3950   108.1446     2.5417     0.0186   -58.1312     7.9994     9.1600    10.6544
 1787.5000     8.3940   108.2332     2.5461     0.0155   -58.1305     8.0007     9.5829    10.8125
 1788.0000     8.3930   109.3260     2.5434     0.0139   -58.4248     8.0018    10.2277    10.9730
 1788.5000     8.3920   106.9036     2.5303     0.0139   -58.4240     8.0028     9.6832    11.0588
 1789.0000     8.3909   108.3294     2.5287     0.0137   -58.4317     8.1145     9.4227    11.1473
 1789.5000     8.3899   110.6326     2.5255     0.0123   -58.7176     8.1156     9.2961    11.2148
 1790.0000     8.3889   111.0859     2.5368     0.0125   -58.7511     8.1167     9.2982    11.5280
 1790.5000     8.3879   110.8896     2.5442     0.0140   -59.0111     8.1178     9.3000    11.5295
 1791.0000     8.3868   110.4598     2.5390     0.0167   -59.0103     8.1189     9.1751    11.3741
 1791.5000     8.3858   111.0504     2.5328     0.0163   -59.0096     8.1200     9.1724    11.2207
 1792.0000     8.4140   111.2853     2.5330     0.0146   -59.0088     8.1211     9.0422    11.2222
 1792.5000     8.4128   112.5000     2.5456     0.0136   -59.0081     8.1418     9.0556    11.2237
 1793.0000     8.4118   112.8193     2.5487     0.0135   -59.0074     8.3494     9.0575    11.2253
 1793.5000     8.4108   113.1225     2.5525     0.0150   -58.8811     8.3506     9.1845    11.2268
 1794.0000     8.4098   114.9397     2.5589     0.0165   -58.7109     8.3517     9.1864    11.2625
 1794.5000     8.4088   114.5880     2.5645     0.0180   -58.7102     8.3529     9.3153    11.3849
 1795.0000     8.4078   112.7689     2.5470     0.0171   -58.7094     8.3540     9.3172    11.4414
 1795.5000     8.4068   112.7571     2.5439     0.0133   -58.7086     8.3551     9.3191    11.5451
 1796.0000     8.4058   112.7453     2.5439     0.0133   -58.4129     8.3563     9.3211    11.4713
 1796.5000     8.4048   113.3373     2.5423     0.0117   -58.1171     8.3577     9.1959    11.3911
 1797.0000     8.4038   113.9277     2.5377     0.0086   -57.8214     8.3588     9.1981    11.2376
 1797.5000     8.4028   113.9146     2.5346     0.0071   -57.8207     8.3599     9.0745    11.3945
 1798.0000     8.4018   114.5052     2.5407     0.0070   -57.8200     8.3610     9.2018    11.5532
 1798.5000     8.4007   115.0964     2.5453     0.0101   -57.8193     8.3621     9.2036    11.5548
 1799.0000     8.3997   115.0839     2.5468     0.0115   -57.8186     8.2492     9.2055    11.3990
 1799.5000     8.3987   113.8673     2.5498     0.0130   -57.8178     8.2503     9.2073    11.4005
 1800.0000     8.3967   112.6506     2.5467     0.0145   -57.8171     8.3655     9.2091    11.2468
 1800.5000     8.3901   110.1686     2.5168     0.0165   -57.8164     8.3083     8.8382    11.4028
 1801.0000     8.3835   108.4096     2.5043     0.0145   -57.8156     8.2536     8.9611    11.3141
 1801.5000     8.3768   109.0009     2.4977     0.0129   -57.8149     8.3689     8.9617    11.5618
 1802.0000     8.3702   108.9880     2.4976     0.0129   -57.8142     8.3916     9.0861    11.5626
 1802.5000     8.3633   108.3735     2.4976     0.0098   -57.8134     8.6042     9.2123    11.6525
 1803.0000     8.3623   108.3615     2.5000     0.0083   -57.8908     8.6387     9.2130    11.8857
 1803.5000     8.3613   108.3494     2.5068     0.0067   -58.1070     8.7255     9.2136    11.9440
 1804.0000     8.3602   107.7349     2.5144     0.0113   -58.1062     8.8473     9.2142    11.8871
 1804.5000     8.3592   106.8493     2.5190     0.0128   -58.1055     8.7979     9.2148    12.0521
 1805.0000     8.3582   106.5060     2.5221     0.0128   -58.1511     8.7291     9.3428    11.8889
 1805.5000     8.3572   105.8916     2.5251     0.0127   -58.3907     8.7303     9.3435    11.7278
 1806.0000     8.3645   105.8772     2.5266     0.0127   -58.3892     8.7315     9.4733    11.8905
 1806.5000     8.3845   105.2630     2.5312     0.0127   -58.0928     8.7329     9.4739    12.2217
 1807.0000     8.3833   105.2512     2.5404     0.0127   -58.0914     8.8548     9.6449    12.3912
 1807.5000     8.3823   104.6371     2.5465     0.0142   -57.7949     9.1025     9.7389    12.3920
 1808.0000     8.3957   104.0229     2.5526     0.0157   -57.7935     9.1037     9.8742    12.4020
 1808.5000     8.4095   103.4088     2.5603     0.0177   -57.4970     9.1049    10.0114    12.5648
 1809.0000     8.4083   103.3970     2.5617     0.0187   -57.2006     9.2320    10.0121    12.3704
 1809.5000     8.4073   103.9880     2.5587     0.0165   -57.1991     9.2333     9.9415    12.1954
 1810.0000     8.4063   105.1807     2.5571     0.0156   -57.1976     9.1086     9.8006    11.8968
 1810.5000     8.4053   106.4036     2.5556     0.0156   -57.2370     9.1098     9.6102    12.2284
 1811.0000     8.4043   107.6863     2.5506     0.0179   -57.4898     9.1111     9.7437    12.1223
 1811.5000     8.4325   109.9647     2.5494     0.0186   -57.4882     8.9881     9.8791    11.6785
 1812.0000     8.4315   110.5554     2.5565     0.0186   -57.7819     8.9746     9.2244    11.6445
 1812.5000     8.4305   110.5422     2.5592     0.0185   -57.8662     8.8478     9.0993    11.8133
 1813.0000     8.4295   109.9277     2.5573     0.0170   -58.0740     8.7229     9.0999    11.6594
 1813.5000     8.4285   110.1264     2.5502     0.0154   -58.1809     8.4824     9.1005    11.3379
 1814.0000     8.4275   110.7469     2.5509     0.0139   -58.3661     8.3626     9.1011    10.8146
 1814.5000     8.4265   111.9698     2.5485     0.0123   -58.3643     8.1712     8.9776    10.6680
 1815.0000     8.4254   112.2892     2.5396     0.0123   -58.3628     8.0171     8.9782    10.6689
 1815.5000     8.4244   113.2109     2.5309     0.0092   -58.6563     7.9039     8.9789    10.3811
 1816.0000     8.4234   114.6723     2.5232     0.0061   -58.6549     7.7922     8.8442    10.3818
 1816.5000     8.4224   114.6606     2.5171     0.0061   -58.6531     7.7391     8.6000    10.6710
 1817.0000     8.4213   115.4336     2.5125     0.0061   -58.3567     7.7402     8.3625    10.6717
 1817.5000     8.4203   114.6371     2.5186     0.0061   -58.3552     7.7414     8.2712    10.6859
 1818.0000     8.4193   112.2157     2.5247     0.0077   -58.3538     7.6367     8.2718    10.3846
 1818.5000     8.4183   110.3967     2.5247     0.0091   -58.3523     7.6379     8.2724    10.2439
 1819.0000     8.4171   110.9874     2.5247     0.0093   -58.3509     7.6389     8.1601    10.3860
 1819.5000     8.4161   112.1804     2.5247     0.0108   -58.0544     7.6400     8.1608    10.3867
