~VERSION INFORMATION
 VERS.                2.0:   CWLS LOG ASCII STANDARD - VERSION 2.0
 WRAP.                 NO:   ONE LINE PER DEPTH STEP
~WELL INFORMATION
#MNEM.UNIT      DATA TYPE    INFORMATION
#----------   ------------   ------------------------------
 STRT.F          200.0000:   START DEPTH
 STOP.F         3038.0000:   STOP DEPTH
 STEP.F            0.5000:   STEP LENGTH
 NULL.          -999.2500:   NO VALUE
 COMP.    FENIX & SCISSON:   COMPANY
 WELL. FENIX NPR 3 "A" #63-28:   WELL
 FLD .            WILDCAT:   FIELD
 LOC .      S28 T39N R78W:   LOCATION
 CNTY.            NATRONA:   COUNTY
 STAT.            WYOMING:   STATE
 CTRY. UNITED STATES OF AMERICA:   COUNTRY
 SRVC.              WELEX:   SERVICE COMPANY
 DATE.        29-MAY-1977:   LOGDATE
 API .     49025103740000:   API NUMBER
~CURVE INFORMATION
#MNEM.UNIT       API CODE    CURVE DESCRIPTION
#----------   ------------   ------------------------------
 DEPT.F                  :   
 SPR .MV     07 010 01 00:   SPONTANEOUS POTENTIAL
 ILM .OHMM   07 120 44 00:   INDUCTION LOG MEDIUM RESISTIVITY
 ILD .OHMM   07 120 46 00:   DEEP INDUCTION RESISTIVITY
 SGRD.OHMM   07 220 05 00:   SHALLOW SHORT GUARD RESISTIVITY
 GRD .GAPI   45 310 01 00:   GAMMA RAY FROM DENSITY LOG
 CALD.IN     45 280 60 00:   CALIPER FROM DENSITY LOG
 RHOB.G/C3   45 350 01 00:   BULK DENSITY
 CORR.G/C3   45 356 01 00:   DENSITY CORRECTION
~PARAMETER INFORMATION
#MNEM.UNIT          VALUE    DESCRIPTION
#----------   ------------   ------------------------------
 EKB .F         5040.0000:   Kelly bushing
 EGL .F         5029.0000:   Ground level
 EDF .F            0.0000:   Drilling floor
 EPD .F         5029.0000:   Permanent datum
 TD  .F         3040.0000:   Total depth
 DATE.        29-MAY-1977:   Date logged
 CLNT.            A2DTECH:   Client Code
 SL  . 1650' FNL & 1650' FEL:   Surface Location
 PD  .                 GL:   Permanent Datum
 LMF .                 KB:   Log Measured From
 DMF .                 KB:   Drilling Measured From
 DD  .F              3040:   Depth driller
 DL  .F              3038:   Depth logger
 BLI .F              3036:   Bottom log interval
 TLI .F               200:   Top log interval
 CS1 .IN            8.625:   Casing size
 BSD1.F              3040:   Depth drilled with bit1
 DFT .            KCL MUD:   Type fluid in hole
 ORIG.     2.5", 5" PRINT:   Origin of data
 UWI .     49025103740000:   Unique Well ID
 DICO. A2D TECHNOLOGIES, INC.:   Digitizing Company
 DAPD.                 11:   Feet Above Permanent Datum
 CBD1.      8.625" @ 220':   Casing driller 1
 BS1 .              7.875:   Bit size
 DFD .                8.7:   Density
 MRT .                108:   Maximum recorded temp.
 ENGI.            C. DOAK:   Recorded By
 WITN.      W. PETTINGILL:   Witnessed by
~OTHER INFORMATION
~A   DEPT      SPR        ILM          ILD     SGRD         GRD        CALD       RHOB      CORR  
  200.0000  -999.2500  -999.2500     6.2520  -999.2500    72.4810     8.5000     1.9510    -0.4170
  200.5000  -999.2500  -999.2500     6.0780  -999.2500    69.3800     8.4990     1.9600    -0.4130
  201.0000  -999.2500  -999.2500     6.0490  -999.2500    70.1550     8.4970     1.9650    -0.4170
  201.5000  -999.2500  -999.2500     6.0120  -999.2500    69.5740     8.4960     1.9580    -0.4230
  202.0000  -999.2500  -999.2500     6.0360  -999.2500    70.4460     8.4940     1.9490    -0.4290
  202.5000  -999.2500  -999.2500     5.9710  -999.2500    71.4150     8.4920     1.9420    -0.4330
  203.0000  -999.2500  -999.2500     6.0520  -999.2500    72.4810     8.4910     1.9480    -0.4300
  203.5000  -999.2500  -999.2500     6.2130  -999.2500    72.5690     8.4970     1.9490    -0.4300
  204.0000  -999.2500  -999.2500     6.3740  -999.2500    72.2750     8.4890     1.9430    -0.4390
  204.5000  -999.2500  -999.2500     6.5720  -999.2500    72.0920     8.4870     1.9340    -0.4480
  205.0000  -999.2500  -999.2500     6.8550  -999.2500    71.9180     8.4860     1.9260    -0.4590
  205.5000  -999.2500  -999.2500     7.1110  -999.2500    71.6660     8.4840     1.9190    -0.4620
  206.0000  -999.2500  -999.2500     7.2740  -999.2500    72.2330     8.4820     1.9260    -0.4550
  206.5000  -999.2500  -999.2500     7.3770  -999.2500    73.2520     8.4810     1.9340    -0.4490
  207.0000  -999.2500  -999.2500     7.3490  -999.2500    74.2560     8.4790     1.9290    -0.4510
  207.5000  -999.2500  -999.2500     7.2430  -999.2500    75.1440     8.4780     1.9190    -0.4560
  208.0000  -999.2500  -999.2500     6.7590  -999.2500    76.2410     8.4760     1.9110    -0.4610
  208.5000  -999.2500  -999.2500     6.2320  -999.2500    75.1970     8.4750     1.9010    -0.4660
  209.0000  -999.2500  -999.2500     5.8630  -999.2500    73.7610     8.4730     1.9010    -0.4720
  209.5000  -999.2500  -999.2500     5.7560  -999.2500    72.2680     8.4720     1.9090    -0.4690
  210.0000  -999.2500  -999.2500     5.8630  -999.2500    70.8410     8.4700     1.9160    -0.4610
  210.5000  -999.2500  -999.2500     5.8980  -999.2500    69.3930     8.4690     1.9340    -0.4540
  211.0000  -999.2500  -999.2500     5.9360  -999.2500    67.8560     8.4670     1.9510    -0.4490
  211.5000  -999.2500  -999.2500     5.9710  -999.2500    66.9350     8.4660     1.9590    -0.4460
  212.0000  -999.2500  -999.2500     6.5500  -999.2500    67.5880     8.4640     1.9710    -0.4410
  212.5000  -999.2500  -999.2500     7.3240  -999.2500    68.6400     8.4630     1.9860    -0.4300
  213.0000  -999.2500  -999.2500     8.6800  -999.2500    69.5480     8.4610     2.0010    -0.4150
  213.5000  -999.2500  -999.2500     9.9460  -999.2500    70.8330     8.4650     2.0010    -0.4000
  214.0000  -999.2500  -999.2500    12.8800  -999.2500    70.9370     8.4710     1.9950    -0.3780
  214.5000  -999.2500  -999.2500    51.1150  -999.2500    71.3060     8.4760     1.9890    -0.3540
  215.0000  -999.2500  1909.5480   664.1500  -999.2500    71.5130     8.4800     2.0150    -0.3300
  215.5000  -999.2500  1918.1219  1954.5640  -999.2500    71.7360     8.4880     2.0050    -0.3100
  216.0000  -999.2500  1926.6970  1946.5530  -999.2500    71.9060     8.4880     2.0920    -0.2630
  216.5000  -999.2500  1950.8781  1937.6520  -999.2500    74.0660     8.4970     2.1270    -0.2000
  217.0000  -999.2500  1941.7020  1928.7510  -999.2500    75.9290     8.5230     2.1710    -0.1430
  217.5000  -999.2500  1954.5640  1918.9600  -999.2500    78.1570     8.7770     2.2120    -0.0850
  218.0000  -999.2500  1764.1000   488.1080  -999.2500    82.9200     9.0240     2.2540    -0.1010
  218.5000  -999.2500  1383.1720     4.7450  -999.2500    87.6450     9.4170     2.2760     0.1270
  219.0000   -66.2270   795.5320     1.9190     5.1080    87.5550     9.8950     2.2710     0.0920
  219.5000   -69.0510    58.3580     0.7230     5.6040    87.2910    10.3560     2.2970     0.0840
  220.0000   -70.5540     2.8890     0.3970     5.9740    87.2290    10.8220     2.3320     0.0670
  220.5000   -71.2770     3.9010     0.3330     6.2510    88.1420    11.3100     2.3520     0.0610
  221.0000   -71.8190     5.2020     0.2750     6.6210    89.8260    11.3670     2.3540     0.0610
  221.5000   -72.5480     5.7030     0.2580     7.1770    90.1430    11.4900     2.3600     0.0550
  222.0000   -72.9680     5.3480     0.3890     7.1660    89.5800    11.6730     2.3650     0.0460
  222.5000   -73.1820     5.5970     0.6000     7.1460    89.0120    12.4100     2.3500     0.0370
  223.0000   -73.3960     5.9530     0.8910     7.1260    88.5440    12.6380     2.3560     0.0270
  223.5000   -73.6100     6.4860     3.2570     7.1050    88.0770    12.9950     2.3790     0.0250
  224.0000   -73.8160     6.3460     4.9190     7.0850    89.4910    13.1720     2.3990     0.0340
  224.5000   -73.8330     6.0650     6.2370     7.0640    90.8190    13.3190     2.4200     0.0420
  225.0000   -74.1240     5.7560     6.7510     7.0460    92.4980    13.4860     2.4290     0.0500
  225.5000   -74.4270     5.7560     7.1740     5.9030    92.1080    13.5050     2.4380     0.0540
  226.0000   -74.7300     5.9350     7.3840     5.8630    91.4960    13.5980     2.4380     0.0520
  226.5000   -75.0320     6.0980     7.5940     7.1770    90.8130    13.6940     2.4360     0.0510
  227.0000   -75.3340     6.2610     7.8050     6.8040    90.1810    13.7380     2.4340     0.0540
  227.5000   -75.4800     6.3100     8.0140     6.7290    89.5490    13.7510     2.4320     0.0600
  228.0000   -75.5900     6.3100     7.6660     7.1770    88.8080    13.7780     2.4290     0.0650
  228.5000   -75.6990     6.3100     7.2620     6.6680    89.1250    13.8090     2.4260     0.0690
  229.0000   -75.8080     6.3100     6.8580     7.3100    90.1570    13.8490     2.4210     0.0730
  229.5000   -75.9160     6.3100     6.4540     7.4120    91.0000    13.9020     2.4130     0.0770
  230.0000   -75.9770     5.7300     6.2520     7.5840    92.5930    13.9620     2.3880     0.0800
  230.5000   -76.2330     5.6430     6.2520     7.2120    93.9460    14.1210     2.3730     0.0850
  231.0000   -76.6370     5.5480     6.2520     6.4690    95.5900    14.3020     2.3540     0.0820
  231.5000   -77.0380     5.6080     6.2520     5.6510    95.7000    14.7040     2.3370     0.0740
  232.0000   -77.3240     5.6740     6.0100     6.1280    95.2640    13.2910     2.3290     0.0660
  232.5000   -77.1300     5.7400     5.7900     7.3770    94.7590    12.7480     2.3520     0.0590
  233.0000   -76.9470     5.8060     5.5480     7.2610    94.2920    12.4190     2.3710     0.0510
  233.5000   -76.7660     5.8720     5.3890     7.0960    93.7760    12.1860     2.3910     0.0460
  234.0000   -76.5830     5.9380     5.1960     6.9810    93.4440    12.1010     2.4000     0.0480
  234.5000   -76.3990     5.9710     5.0020     7.1770    93.2540    12.0790     2.3880     0.0510
  235.0000   -76.4280     5.5040     4.7890     7.1770    92.4970    12.0490     2.3790     0.0540
  235.5000   -76.4920     5.1550     4.6510     6.9180    91.8630    12.0120     2.3680     0.0570
  236.0000   -76.5580     4.5650     4.4630     6.0520    91.1970    11.9890     2.3570     0.0610
  236.5000   -76.6240     4.0220     4.3690     4.9560    90.2980    11.9960     2.3490     0.0630
  237.0000   -76.6890     4.2350     4.4090     3.8770    89.6350    12.0250     2.3470     0.0560
  237.5000   -76.7480     4.4090     4.4500     3.8770    89.0430    12.0310     2.3460     0.0450
  238.0000   -76.9560     4.9440     4.5240     6.4250    88.8740    12.0840     2.3730     0.0330
  238.5000   -77.1770     5.4970     4.6590     7.6540    90.8150    12.1450     2.3940     0.0260
  239.0000   -77.4000     5.3970     4.9100     7.2550    92.4600    12.0910     2.4140     0.0310
  239.5000   -77.6210     5.6110     5.2380     6.9180    93.3980    11.9870     2.4200     0.0350
  240.0000   -77.6690     6.2520     5.5670     7.0550    91.4410    11.9110     2.4260     0.0390
