~VERSION INFORMATION
 VERS.                2.0:   CWLS LOG ASCII STANDARD - VERSION 2.0
 WRAP.                 NO:   ONE LINE PER DEPTH STEP
~WELL INFORMATION
#MNEM.UNIT      DATA TYPE    INFORMATION
#----------   ------------   ------------------------------
 STRT.F            2.0000:   START DEPTH
 STOP.F         3008.0000:   STOP DEPTH
 STEP.F            0.5000:   STEP LENGTH
 NULL.          -999.2500:   NO VALUE
 COMP.       FLUOR DANIEL:   COMPANY
 WELL.   FLUOR "X" #25-23:   WELL
 FLD .          N.P.R. #3:   FIELD
 LOC .      S23 T38N R78W:   LOCATION
 CNTY.            NATRONA:   COUNTY
 STAT.            WYOMING:   STATE
 CTRY. UNITED STATES OF AMERICA:   COUNTRY
 SRVC.      WESTERN ATLAS:   SERVICE COMPANY
 DATE.        21-APR-1995:   LOGDATE
 API .     49025227090000:   API NUMBER
~CURVE INFORMATION
#MNEM.UNIT       API CODE    CURVE DESCRIPTION
#----------   ------------   ------------------------------
 DEPT.F                  :   
 GRR .GAPI   07 310 01 00:   GAMMA RAY FROM RESISTIVITY
 TENR.LBS    07 635 01 00:   TENSION FROM RESISTIVITY
 RILD.OHMM   07 120 46 00:   RESISTIVITY INDUCTION LOG DEEP
 RILM.OHMM   07 120 44 00:   RESISTIVITY INDUCTION LOG MEDIUM
~PARAMETER INFORMATION
#MNEM.UNIT          VALUE    DESCRIPTION
#----------   ------------   ------------------------------
 EKB .F         5285.0000:   Kelly bushing
 EGL .F         5275.0000:   Ground level
 EDF .F         5284.0000:   Drilling floor
 TD  .F         3000.0000:   Total depth
 CLNT.            A2DTECH:   Client Code
 SL  . 2343' FSL & 1264' FWL:   Surface Location
 PD  .                 GL:   Permanent Datum
 EPD .F              5275:   Elevation Permanent Datum
 DMF .                 KB:   Drilling Measured From
 DAPD.                 10:   Feet Above Permanent Datum
 DATE.        21-APR-1995:   Date Logged [DD-MMM-YYYY]
 DD  .F              3000:   Depth driller
 DL  .F              3000:   Depth logger
 BLI .F              2999:   Bottom log interval
 TLI .F                 0:   Top log interval
 CS1 .IN            9.625:   Casing size
 CBD1.       9.625" @ 53':   Casing driller 1
 CBL1.F                53:   Casing logger 1
 BS1 .IN             6.25:   Bit size
 BSD1.F              3000:   Depth drilled with bit1
 DFT .                OIL:   Type fluid in hole
 MRT .F               114:   Maximum recorded temp.
 LUN .            HL 6530:   Logging unit number
 LUL .             CASPER:   Logging unit location
 ENGI.        VERN RAUTIO:   Recorded By
 WITN.        GARY STRONG:   Witnessed by
 ORIG.         2.5" PRINT:   Origin of data
 UWI .     49025227090000:   Unique Well ID
 DICO. A2D TECHNOLOGIES,INC.:   Digitizing Company
 LMF .                 KB:   Log Measured From
~OTHER INFORMATION
~A    DEPT      GRR      TENR       RILD       RILM   
# ...
 2922.0000   163.5427   124.5012     4.7022     4.6745
 2922.5000   161.4617   125.0001     4.5754     4.6726
 2923.0000   160.8559   125.5133     4.5742     4.6707
 2923.5000   158.4749   126.0264     4.5115     4.6057
 2924.0000   153.7271   126.5396     4.5718     4.5419
 2924.5000   148.9792   127.1454     4.5706     4.5402
 2925.0000   145.9569   127.6260     4.5849     4.5384
 2925.5000   144.7023   128.1069     4.6938     4.6622
 2926.0000   143.7152   128.5925     4.7852     4.8021
 2926.5000   139.5459   129.1056     4.9522     4.9453
 2927.0000   131.8762   129.6188     5.2262     5.2103
 2927.5000   130.2860   130.1319     5.3683     5.3884
 2928.0000   136.4473   130.6451     5.5895     5.5488
 2928.5000   146.4923   131.2316     5.6643     5.6208
 2929.0000   146.4782   131.7125     5.8183     5.7728
 2929.5000   144.0972   132.1931     5.8274     5.9286
 2930.0000   138.7175   132.6980     5.9750     5.9263
 2930.5000   139.7128   133.2112     5.9732     6.0867
 2931.0000   143.4631   139.1465     5.9716     6.1753
 2931.5000   143.2586   148.9004     6.0130     6.2822
 2932.0000   140.3310   149.5000     6.1322     6.5056
 2932.5000   134.2407   149.9807     6.1303     6.4151
 2933.0000   133.1084   150.4615     6.1288     6.3703
 2933.5000   136.2849   150.9531     6.1272     6.2381
 2934.0000   140.4128   154.1086     6.1256     6.0691
 2934.5000   143.3572   166.5666     6.1239     5.9851
 2935.0000   147.4851   152.4927     6.1223     6.0644
 2935.5000   146.6924   153.1057     6.1206     6.2285
 2936.0000   142.0278   168.2491     6.1885     6.3970
 2936.5000   140.9339   168.7299     6.2853     6.4973
 2937.0000   144.8970   169.2105     6.4558     6.5676
 2937.5000   146.2278   169.7214     6.4541     6.6881
 2938.0000   144.6402   170.2346     6.5404     6.8297
 2938.5000   137.9117   170.7478     6.6279     7.0331
 2939.0000   131.9804   171.2610     6.6259     6.7362
 2939.5000   129.0077   171.8547     6.3519     6.3785
 2940.0000   125.4433   172.3355     6.1057     6.2056
 2940.5000   127.2550   172.8161     5.9978     6.0374
 2941.0000   130.3676   173.3138     5.9076     5.8737
 2941.5000   137.3403   173.8270     5.7790     5.8713
 2942.0000   143.7300   174.3402     5.6994     5.8689
 2942.5000   143.2297   174.8534     5.6979     5.8666
 2943.0000   140.1437   175.4603     5.7743     5.9377
 2943.5000   139.5386   175.9412     5.9312     6.0227
 2944.0000   141.2996   176.4218     6.0105     5.9389
 2944.5000   143.6524   176.9061     5.9146     5.7002
 2945.0000   142.4548   162.7205     5.6001     5.5457
 2945.5000   140.6655   163.2698     5.4213     5.3954
 2946.0000   139.4680   169.9447     5.2167     5.2425
 2946.5000   144.4859   178.9589     5.0691     4.9703
 2947.0000   145.3569   179.5466     4.8220     4.8197
 2947.5000   142.7165   165.3647     4.7651     4.7044
 2948.0000   139.7317   165.8453     4.8288     4.8316
 2948.5000   140.0427   181.0117     4.8935     4.9314
 2949.0000   143.5182   181.5249     5.0265     5.0961
 2949.5000   144.6875   182.0381     5.1632     5.1636
 2950.0000   145.2663   182.5513     5.1735     5.2321
 2950.5000   142.8841   183.1522     5.2496     5.2299
 2951.0000   142.8700   183.6331     5.3008     5.3714
 2951.5000   144.7705   184.1137     5.3663     5.3692
 2952.0000   146.5165   184.6040     5.4848     5.3671
 2952.5000   148.5155   185.1172     5.5911     5.4622
 2953.0000   151.8109   185.6304     5.6657     5.6173
 2953.5000   155.2219   200.8064     5.7416     5.7769
 2954.0000   156.3876   216.0834     5.7400     5.8120
 2954.5000   155.1901   216.5642     5.7385     5.9688
 2955.0000   152.8091   202.3460     5.7369     5.9665
 2955.5000   152.2033   203.0883     5.8137     6.0455
 2956.0000   151.0057   201.6140     5.8915     6.1256
 2956.5000   150.3589   189.1616     5.8896     6.1231
 2957.0000   148.3187   189.7361     5.9759     6.2889
 2957.5000   144.4339   197.9473     6.0481     6.3126
 2958.0000   141.2699   220.1696     6.2125     6.4566
 2958.5000   140.8728   220.6505     6.2107     6.4535
 2959.0000   142.7361   221.1311     6.2091     6.1935
 2959.5000   147.9412   221.6275     6.0415     6.0257
 2960.0000   150.8857   222.1407     6.0291     5.9423
 2960.5000   150.2798   222.6540     5.9572     6.1031
 2961.0000   147.3071   223.1672     6.0913     6.2683
 2961.5000   146.1095   223.7753     6.2369     6.3594
 2962.0000   147.3453   224.2561     6.3693     6.4693
 2962.5000   148.5702   224.7367     6.5421     6.6620
 2963.0000   149.6175   225.2198     6.7200     6.8607
 2963.5000   145.3424   225.7332     6.9027     7.1136
 2964.0000   143.3689   226.2464     7.0904     7.1600
 2964.5000   147.2012   226.7596     7.1853     7.3536
 2965.0000   152.5126   227.2727     7.1833     7.3503
 2965.5000   153.6819   227.8618     7.1814     7.3475
 2966.0000   151.8926   228.3424     7.1491     7.3446
 2966.5000   150.6950   228.8232     7.0809     7.1455
 2967.0000   150.6435   229.3256     6.9826     7.0298
 2967.5000   150.0740   229.8388     6.7035     6.7381
 2968.0000   148.7257   230.3519     6.4349     6.5140
 2968.5000   148.2717   230.8651     6.1771     6.1517
 2969.0000   153.4457   231.4671     6.0104     5.7220
 2969.5000   154.7485   231.9480     5.6920     5.2909
 2970.0000   154.1394   232.4288     5.5384     5.2889
 2970.5000   150.5750   232.9180     5.4478     5.2868
 2971.0000   147.0106   233.4311     5.3874     5.2848
 2971.5000   143.4462   233.9443     5.5342     5.4278
 2972.0000   140.4734   234.4575     5.7613     5.5990
 2972.5000   139.8676   235.0728     6.0806     5.7658
 2973.0000   141.3971   235.5536     6.1622     6.0420
 2973.5000   145.6915   250.6970     6.1604     6.1214
 2974.0000   148.2125   265.8406     6.1588     6.0366
 2974.5000   148.7112   266.3490     5.9926     5.7156
 2975.0000   139.1982   266.8622     5.8180     5.5607
 2975.5000  -999.2500   267.3753     5.4951     5.2654
 2976.0000  -999.2500   267.8886     5.1521     5.0538
 2976.5000  -999.2500   268.4848     4.9522     4.7125
 2977.0000  -999.2500   268.9654     4.9830     4.3340
 2977.5000  -999.2500   269.4462     4.5810     4.2190
 2978.0000  -999.2500   284.6041     4.3212     4.1741
 2978.5000  -999.2500   285.1173     4.2046     4.2293
 2979.0000  -999.2500   285.6305     4.1469     4.2276
 2979.5000  -999.2500   279.3246     4.2024     4.3416
 2980.0000  -999.2500   271.9942     4.2625     4.3991
 2980.5000  -999.2500   272.5710     4.3156     4.4575
 2981.0000  -999.2500   273.0519     4.3889     4.5780
 2981.5000  -999.2500   273.5338     4.4318     4.7018
 2982.0000  -999.2500   274.0469     4.4864     4.6999
 2982.5000  -999.2500   274.5602     4.5508     4.6980
 2983.0000  -999.2500   275.0733     4.5494     4.6961
 2983.5000  -999.2500   275.5865     4.5482     4.6047
 2984.0000  -999.2500   276.1767     4.5470     4.5669
 2984.5000  -999.2500   276.6573     4.5459     4.4427
 2985.0000  -999.2500   291.8009     4.4232     4.4410
 2985.5000  -999.2500   292.3021     4.4220     4.4392
 2986.0000  -999.2500   292.8152     4.3468     4.3189
 2986.5000  -999.2500   293.3284     4.3015     4.3165
 2987.0000  -999.2500   293.8416     4.3003     4.2574
 2987.5000  -999.2500   294.4451     4.2726     4.3384
 2988.0000  -999.2500   294.9257     4.2980     4.5096
 2988.5000  -999.2500   295.4065     4.4148     4.6377
 2989.0000  -999.2500   310.5572     4.5347     4.6025
 2989.5000  -999.2500   311.0703  -999.2500     4.5826
 2990.0000  -999.2500   311.5836  -999.2500     4.5628
 2990.5000  -999.2500   312.0967  -999.2500     4.5430
 2991.0000  -999.2500   312.6099  -999.2500     4.5231
 2991.5000  -999.2500   313.1941  -999.2500     4.5033
 2992.0000  -999.2500   313.6749  -999.2500  -999.2500
 2992.5000  -999.2500   314.1555  -999.2500  -999.2500
 2993.0000  -999.2500   314.6627  -999.2500  -999.2500
 2993.5000  -999.2500   315.1759  -999.2500  -999.2500
 2994.0000  -999.2500   315.6891  -999.2500  -999.2500
 2994.5000  -999.2500   316.2023  -999.2500  -999.2500
