~VERSION INFORMATION
 VERS.                2.0:   CWLS LOG ASCII STANDARD - VERSION 2.0
 WRAP.                 NO:   ONE LINE PER DEPTH STEP
~WELL INFORMATION
#MNEM.UNIT      DATA TYPE    INFORMATION
#----------   ------------   ------------------------------
 STRT.F          176.0000:   START DEPTH
 STOP.F         3380.0000:   STOP DEPTH
 STEP.F            0.5000:   STEP LENGTH
 NULL.          -999.2500:   NO VALUE
 COMP.    PENIX & SCISSON:   COMPANY
 WELL.  FENIX "AX" #85-15:   WELL
 FLD .             NPR #3:   FIELD
 LOC .      S15 T38N R78W:   LOCATION
 CNTY.            NATRONA:   COUNTY
 STAT.            WYOMING:   STATE
 CTRY. UNITED STATES OF AMERICA:   COUNTRY
 SRVC.       SCHLUMBERGER:   SERVICE COMPANY
 DATE.        28-APR-1981:   LOGDATE
 API .     49025108700000:   API NUMBER
~CURVE INFORMATION
#MNEM.UNIT       API CODE    CURVE DESCRIPTION
#----------   ------------   ------------------------------
 DEPT.F                  :   
 TEND.LBS    45 635 01 00:   TENSION FROM DENSITY LOG
 CALD.IN     45 280 60 00:   CALIPER FROM DENSITY LOG
 CORR.G/C3   45 356 01 00:   DENSITY CORRECTION
 GRD .GAPI   45 310 01 00:   GAMMA RAY FROM DENSITY LOG
 RHOB.G/C3   45 350 01 00:   BULK DENSITY
 SFL .OHMM   07 220 01 00:   SHALLOW FOCUSED LOG RESISTIVITY
 ILD .OHMM   07 120 46 00:   INDUCTIONLOG DEEP RESISTIVITY
 ILM .OHMM   07 120 44 00:   INDUCTION LOG MEDIUM RESISTIVITY
 TENR.LBS    07 635 01 00:   TENSION FROM RESISTIVITY
 SPR .MV     07 010 01 00:   SPONTANEOUS POTENTIAL
~PARAMETER INFORMATION
#MNEM.UNIT          VALUE    DESCRIPTION
#----------   ------------   ------------------------------
 EKB .F         5259.0000:   Kelly bushing
 EGL .F         5249.0000:   Ground level
 EDF .F            0.0000:   Drilling floor
 TD  .F         3333.0000:   Total depth
 DATE.        28-APR-1981:   Date logged
 CLNT.            A2DTECH:   Client Code
 SL  . 1927' FSL & 140' FEL:   Surface Location
 PD  .                 GL:   Permanent Datum
 DD  .F              3333:   Depth driller
 DL  .F              3382:   Depth logger
 BLI .F              3376:   Bottom log interval
 TLI .F               182:   Top log interval
 CS1 .IN            8.625:   Casing size
 CBD1.      8.625" @ 181':   Casing driller 1
 CBL1.F               182:   Casing logger 1
 BS1 .IN            7.875:   Bit size
 BSD1.F              3333:   Depth drilled with bit1
 DFT .                GEL:   Type fluid in hole
 DFD .                8.7:   Density
 DFV .                 35:   Viscosity
 DFPH.                9.5:   pH
 DFL .                  7:   Fluid loss
 MSS .               TANK:   Source of sample
 RMS .OHMM           1.79:   Rm
 MST .F                58:   Rm Meas. temp.
 RMF .OHMM           1.43:   Rmf
 MFST.F                58:   Rmf Meas. temp.
 MFSS.               MEAS:   Source Rmf.
 RMB .OHMM            .93:   Rm. at BHT
 BHT .F               112:   BHT.
 TCS .HRS             800:   Time Circ. stopped
 TLAB.HRS             200:   Time logger at bottom
 MRT .F               112:   Maximum recorded temp.
 LUN .               8039:   Logging unit number
 LUL .               CAPR:   Logging unit location
 ENGI.           HARRINER:   Recorded By
 WITN.              SCOTT:   Witnessed by
 ORIG.           5" PRINT:   Origin of data
 UWI .     49025108700000:   Unique Well ID
 DICO. A2D TECHNOLOGIES, INC.:   Digitizing Company
 EPD .               5249:   Elevation Permanent Datum
 LMF .                 KB:   Log Measured From
 DMF .                 KB:   Drilling Measured From
 DAPD.                 10:   Feet Above Permanent Datum
~OTHER INFORMATION
~A   DEPT     TEND       CALD       CORR         GRD      RHOB        SFL        ILD        ILM       TENR        SPR   
# ...
 3325.0000  1841.5840     7.9310     0.0200   124.7720     2.4830     3.9380     3.2160     3.1020  1839.1040   -16.0530
 3325.5000  1841.5840     7.9290     0.0180   126.9340     2.4750     3.7210     3.2970     3.2020  1840.3690   -16.1230
 3326.0000  1841.5840     7.9280     0.0170   129.9630     2.4710     3.4570     3.3990     3.3140  1841.6350   -16.2050
 3326.5000  1841.5840     7.9270     0.0150   128.7350     2.4830     3.6800     3.5010     3.4260  1842.9010   -16.2740
 3327.0000  1841.5840     7.9260     0.0130   125.2840     2.4960     4.2660     3.6030     3.5380  1844.1660   -16.3130
 3327.5000  1841.5840     7.9250     0.0110   122.6170     2.5020     4.8760     3.7040     3.6490  1845.4320   -16.0200
 3328.0000  1841.5840     7.9240     0.0100   122.0210     2.5000     4.8760     3.8060     3.7610  1846.6970   -15.7640
 3328.5000  1841.5840     7.9220     0.0130   121.1480     2.4980     4.8760     3.9080     3.8730  1847.9630   -15.4970
 3329.0000  1841.5840     7.9210     0.0150   120.9130     2.4970     4.8760     3.9960     3.9240  1849.2280   -15.2310
 3329.5000  1841.5840     7.9200     0.0150   120.8810     2.4970     4.9580     3.9960     3.9240  1850.4940   -15.2610
 3330.0000  1841.5840     7.9190     0.0150   122.2380     2.5130     5.0560     3.9960     3.9240  1851.7590   -15.4190
 3330.5000  1841.5840     7.9180     0.0150   122.6070     2.5140     4.9650     3.9120     3.8230  1853.0250   -15.5700
 3331.0000  1841.5840     7.9160     0.0140   127.1310     2.5100     4.7600     3.7950     3.7240  1854.2900   -15.7170
 3331.5000  1841.5840     7.9150     0.0110   133.1340     2.5020     4.5350     3.6780     3.6250  1855.5560   -15.8730
 3332.0000  1841.5840     7.9140     0.0110   134.4560     2.4970     4.3100     3.5600     3.5260  1856.8210   -15.9580
 3332.5000  1841.5840     7.9130     0.0170   131.3410     2.4900     4.0840     3.4430     3.4270  1858.0870   -15.9350
 3333.0000  1841.5840     7.9120     0.0180   128.3900     2.5000     3.8590     3.3350     3.3280  1859.3521   -15.9450
 3333.5000  1841.5840     7.9110     0.0130   126.0700     2.5050     3.7850     3.3490     3.2160  1860.6180   -16.0120
 3334.0000  1841.5840     7.9090     0.0080   124.7760     2.5040     3.7850     3.4050     3.2160  1861.8831   -16.4980
 3334.5000  1841.5840     7.9080     0.0040   123.7450     2.4970     3.9630     3.4610     3.2750  1863.1490   -16.7280
 3335.0000  1841.5840     7.9070     0.0000   123.1780     2.5000     4.1330     3.5170     3.3350  1864.4150   -17.0330
 3335.5000  1841.5840     7.9060     0.0080  -999.2500     2.5080     4.3020     3.5730     3.4070  1865.6801   -17.1330
 3336.0000  1841.5840     7.9050     0.0130  -999.2500     2.5130     4.4710     3.6290     3.4790  1866.4050   -17.1240
 3336.5000  1841.5840     7.9030     0.0120  -999.2500     2.5040     4.6400     3.6840     3.5500  1863.8480   -17.1000
 3337.0000  1841.5840     7.9010     0.0090  -999.2500     2.4960     4.8090     3.7400     3.6220  1861.3521   -16.9850
 3337.5000  1841.5840     7.9180     0.0070  -999.2500     2.4860     4.9200     3.7850     3.7170  1858.8560   -16.8720
 3338.0000  1841.5840     7.9420     0.0100  -999.2500     2.4820     4.8450     3.7850     3.7170  1856.3590   -16.7560
 3338.5000  1841.5840     7.9120     0.0180  -999.2500     2.4860     4.6940     3.7550     3.6830  1853.8630   -16.6420
 3339.0000  1841.5840     7.8880     0.0250  -999.2500     2.4900     4.5430     3.7040     3.6260  1851.3669   -16.5290
 3339.5000  1841.5840     7.8610     0.0310  -999.2500     2.4940     4.3920     3.6530     3.5690  1848.8710   -16.4030
 3340.0000  1841.5840     7.8350     0.0280  -999.2500     2.4970     4.2960     3.6030     3.5130  1846.3750   -16.3460
 3340.5000  1841.5840     7.8100     0.0250  -999.2500     2.4980     4.2960     3.5520     3.4560  1843.8781   -16.3950
 3341.0000  1841.5840     7.7840     0.0250  -999.2500     2.4880     4.3700     3.5010     3.3950  1841.3820   -16.4310
 3341.5000  1841.5840     7.7580     0.0280  -999.2500     2.4780     4.5360     3.4500     3.3950  1838.8860   -16.4700
 3342.0000  1841.5840     7.7320     0.0310  -999.2500     2.4690     4.4540     3.4000     3.3160  1836.3900   -16.5090
 3342.5000  1841.5840     7.7070     0.0330  -999.2500     2.4580     4.3000     3.3490     3.2580  1833.8929   -16.5480
 3343.0000  1841.5840     7.6810     0.0380  -999.2500     2.4580     4.1340     3.2750     3.2010  1831.3970   -16.5870
 3343.5000  1841.5840     7.6530     0.0440  -999.2500     2.4550     3.9680     3.1840     3.1430  1828.9010   -16.6260
 3344.0000  1841.5840     7.6330     0.0470  -999.2500     2.4600     3.8020     3.1210     3.0860  1826.4050   -16.6650
 3344.5000  1841.5840     7.5970     0.0550  -999.2500     2.4670     3.6500     3.0570     3.0290  1823.9091   -16.7050
 3345.0000  1841.5840     7.5860     0.0690  -999.2500     2.4750     3.6790     2.9940     2.9710  1821.4120   -16.7330
 3345.5000  1841.5840     7.5900     0.0830  -999.2500     2.4830     3.7170     2.9310     2.9140  1818.9160   -16.7300
 3346.0000  1841.5840     7.5600     0.0910  -999.2500     2.4880     3.7170     2.8680     2.8560  1816.4200   -16.7330
 3346.5000  1836.4390     7.5140     0.0910  -999.2500     2.4660     3.5880     2.8050     2.7990  1813.9240   -16.6420
 3347.0000  1830.6880     7.4260     0.0950  -999.2500     2.4420     3.4520     2.7330     2.7330  1811.4280   -16.5570
 3347.5000  1824.9370     7.3580     0.1030  -999.2500     2.4180     3.3170     2.7330     2.7100  1808.9310   -16.4570
 3348.0000  1819.1860     7.1970     0.1130  -999.2500     2.3920     3.1580     2.7330     2.6830  1806.4351   -16.2700
 3348.5000  1813.4351     6.9440     0.1230  -999.2500     2.3790     3.1580     2.7170     2.6560  1803.9390   -15.9060
 3349.0000  1807.6840     6.7960     0.1330  -999.2500     2.3820     3.2480     2.6970     2.6360  1801.4430   -15.9630
 3349.5000  1801.9330     6.7350     0.1430  -999.2500     2.3840     3.3350     2.6780     2.6280  1798.9460   -15.9390
 3350.0000  1796.1820     6.6960     0.1540  -999.2500     2.3860     3.3350     2.6590     2.6100  1796.4500   -15.9460
 3350.5000  1790.4310  -999.2500     0.1600  -999.2500  -999.2500     3.2200     2.6400     2.5920  1793.9540   -15.9540
 3351.0000  1784.6801  -999.2500  -999.2500  -999.2500  -999.2500     3.1020     2.6200     2.5740  1791.4580   -16.0770
 3351.5000  1778.9301  -999.2500  -999.2500  -999.2500  -999.2500     3.1020     2.6010     2.5560  1788.9620   -16.2090
 3352.0000  1773.1790  -999.2500  -999.2500  -999.2500  -999.2500     3.1680     2.5820     2.5380  1787.8190   -16.3440
 3352.5000  1767.4280  -999.2500  -999.2500  -999.2500  -999.2500     3.2160     2.5630     2.5200  1787.8190   -16.4760
 3353.0000  1762.3760  -999.2500  -999.2500  -999.2500  -999.2500     3.1690     2.5440     2.5020  1787.8190   -16.6100
 3353.5000  1762.3760  -999.2500  -999.2500  -999.2500  -999.2500     3.0770     2.5240     2.4520  1787.8190   -16.7420
 3354.0000  1762.3760  -999.2500  -999.2500  -999.2500  -999.2500     2.9910     2.5050     2.4340  1787.8190   -16.8760
 3354.5000  1762.3760  -999.2500  -999.2500  -999.2500  -999.2500     2.9910     2.4860     2.4140  1787.8190   -17.0090
 3355.0000  1762.3760  -999.2500  -999.2500  -999.2500  -999.2500     3.0460     2.4670     2.3940  1787.8190   -17.1210
 3355.5000  1762.3760  -999.2500  -999.2500  -999.2500  -999.2500     3.1020     2.4520     2.3740  1787.8190   -17.1250
 3356.0000  1762.3760  -999.2500  -999.2500  -999.2500  -999.2500     2.9290     2.4520     2.3540  1787.8190   -17.1270
 3356.5000  1762.3760  -999.2500  -999.2500  -999.2500  -999.2500     2.7160     2.4080     2.3340  1787.8190   -17.1250
 3357.0000  1762.3760  -999.2500  -999.2500  -999.2500  -999.2500     2.4960     2.4080     2.3220  1787.8190   -17.1270
 3357.5000  1762.3760  -999.2500  -999.2500  -999.2500  -999.2500     2.4520     2.5340     2.3220  1787.8190   -17.1150
 3358.0000  1762.3760  -999.2500  -999.2500  -999.2500  -999.2500     2.5600     2.6810     2.4520  1787.8190   -17.0730
