~VERSION INFORMATION
 VERS.                2.0:   CWLS LOG ASCII STANDARD - VERSION 2.0
 WRAP.                 NO:   ONE LINE PER DEPTH STEP
~WELL INFORMATION
#MNEM.UNIT      DATA TYPE    INFORMATION
#----------   ------------   ------------------------------
 STRT.F            0.0000:   START DEPTH
 STOP.F         4152.0000:   STOP DEPTH
 STEP.F            0.5000:   STEP LENGTH
 NULL.          -999.2500:   NO VALUE
 COMP. LAWRENCE ALLISON & ASSOCIATES:   COMPANY
 WELL. LAWRENCE "X" #28-27:   WELL
 FLD .             NPR #3:   FIELD
 LOC .      S27 T39N R78W:   LOCATION
 CNTY.            NATRONA:   COUNTY
 STAT.            WYOMING:   STATE
 CTRY. UNITED STATES OF AMERICA:   COUNTRY
 SRVC.      DRESSER ATLAS:   SERVICE COMPANY
 DATE.        26-FEB-1984:   LOGDATE
 API .     49025109630000:   API NUMBER
~CURVE INFORMATION
#MNEM.UNIT       API CODE    CURVE DESCRIPTION
#----------   ------------   ------------------------------
 DEPT.F                  :   
 GRR .GAPI   07 310 01 00:   GAMMA RAY FROM RES.
 TENR.LBS    07 635 01 00:   TENSION FROM RES.
 SPR .MV     07 010 01 00:   SPONTANEOUS POTENTIAL
 RILD.OHMM   07 120 46 00:   RESISTIVITY INDUCTION LOG DEEP
 RILM.OHMM   07 120 44 00:   RESISTIIVTY INDUCTION LOG MEDIUM
 RFOC.OHMM   07 220 04 00:   RESISTIVITY FOCUSED LOG
 DT  .US/F   60 520 00 00:   DELTA TIME
 TENS.LBS    60 635 01 00:   TENSION FROM SONIC
 CALD.IN     45 280 60 00:   CALIPER FROM DENSITY LOG
 TEND.LBS    45 635 01 00:   TENSION FORM DENSITY LOG
 CNC .DEC    42 890 03 00:   NEUTRON POROSITY SANDSTONE
 CORR.G/C3   45 356 01 00:   DENSITY CORRECTION
 DENS.G/C3   45 350 01 00:   DENSITY
~PARAMETER INFORMATION
#MNEM.UNIT          VALUE    DESCRIPTION
#----------   ------------   ------------------------------
 EKB .F         5088.0000:   Kelly bushing
 EGL .F         5078.0000:   Ground level
 EDF .F            0.0000:   Drilling floor
 TD  .F         4154.0000:   Total depth
 CLNT.            A2DTECH:   Client Code
 SL  . 250' FSL & 810' FWL:   Surface Location
 PD  .                 GL:   Permanent Datum
 EPD .F              5078:   Elevation Permanent Datum
 LMF .                 KB:   Log Measured From
 DMF .                 KB:   Drilling Measured From
 DAPD.F                10:   Feet Above Permanent Datum
 DATE.        26-FEB-1984:   Date Logged [DD-MMM-YYYY]
 DD  .F              4154:   Depth driller
 DL  .F              4148:   Depth logger
 BLI .F              4146:   Bottom log interval
 TLI .F                 0:   Top log interval
 CS1 .IN            8.625:   Casing size
 CBD1.      8.625" @ 537':   Casing driller 1
 CBL1.F               540:   Casing logger 1
 BS1 .IN            7.875:   Bit size
 BSD1.F              4154:   Depth drilled with bit1
 DFT .            GEL KCL:   Type fluid in hole
 DFD .                  9:   Density
 DFV .                 45:   Viscosity
 DFPH.                  8:   pH
 DFL .                 14:   Fluid loss
 MSS .           FLOWLINE:   Source of sample
 RMS .OHMM          0.595:   Rm
 MST .F                60:   Rm Meas. temp.
 RMF .OHMM          0.446:   Rmf
 MFST.F                60:   Rmf Meas. temp.
 MFSS.               CALC:   Source Rmf.
 RMC .OHMM          0.744:   Rmc
 MCST.F                60:   Rmc Meas. temp.
 MCSS.               CALC:   Source Rmc.
 RMB .OHMM           0.26:   Rm. at BHT
 BHT .F               138:   BHT.
 TCS .HRS               4:   Time Circ. stopped
 MRT .F               138:   Maximum recorded temp.
 LUN .               6307:   Logging unit number
 LUL .               GLTE:   Logging unit location
 ENGI.           FAHLSING:   Recorded By
 WITN.           JENNINGS:   Witnessed by
 ORIG.      1" 2.5" PRINT:   Origin of data
 UWI .     49025109630000:   Unique Well ID
 DICO. A2D TECHNOLOGIES, INC.:   Digitizing Company
~OTHER INFORMATION
~A    DEPT       GRR     TENR        SPR       RILD       RILM       RFOC         DT       TENS       CALD       TEND        CNC       CORR       DENS   
# ...
 3640.0000   150.1807   -16.3086   -25.4565     1.5383     1.5903     1.6028    97.4303   -20.5882     8.1170   -45.1808     0.2981     0.0356     2.2769
 3640.5000   166.0552   -16.8638   -25.6964     1.5279     1.5694     1.5188   102.5371   -20.6618     8.1169   -30.4977     0.2970     0.0600     2.2174
 3641.0000   174.1988   -17.4557   -25.8175     1.5711     1.5734     1.5153   105.0495   -20.7353     8.1169   -31.0241     0.2922     0.0659     2.2227
 3641.5000   166.2385   -18.0473   -26.2470     1.6374     1.7044     1.4998   105.7434   -20.8088     8.1169   -31.5451     0.2644     0.0160     2.2650
 3642.0000   142.5448   -18.6391   -26.8214     1.7623     1.8383     1.5213   103.6761   -20.8823     8.1169   -31.9641     0.2553     0.0123     2.3706
 3642.5000   133.5957   -19.3033   -28.5865     1.8710     2.0637     1.5855    98.7294   -20.9559     8.1169   -32.3831     0.2361     0.0312     2.4490
 3643.0000   133.6326   -19.8478   -29.1626     1.9865     2.1799     1.6978    96.0990   -21.0294     8.1169   -32.8314     0.2337     0.0583     2.4666
 3643.5000   137.6927   -20.4143   -29.5476     2.1552     2.3039     2.2443    94.6364   -21.1029     8.1169   -33.2831     0.2393     0.0261     2.4821
 3644.0000   144.5758   -21.0059   -30.1746     2.2462     2.4066     2.6622    93.2732   -21.1765     8.1169   -33.7349     0.2456     0.0036     2.5167
 3644.5000   150.5489   -18.4411   -30.8813     2.3131     2.4666     2.8662    92.0515   -21.2500     8.1169   -34.2685     0.2481     0.0014     2.5413
 3645.0000   150.8778    -7.3965   -30.8621     2.3746     2.3693     2.8511    90.7007   -21.3235     8.1169   -34.6875     0.2493     0.0257     2.5472
 3645.5000   148.1814    -8.0499   -30.2470     2.3627     2.3381     2.8528    90.2447   -21.3971     8.1169   -35.1065     0.2493     0.0226     2.5352
 3646.0000   148.3035    -8.5799   -29.8530     2.3133     2.2763     2.4917    91.5559   -21.4706     8.1169   -35.5422     0.2506     0.0137     2.5292
 3646.5000   150.1987    -9.1716   -29.1846     2.2524     2.2103     2.3611    93.4506   -21.5441     8.1169   -35.9940     0.2589     0.0108     2.5307
 3647.0000   152.3957    -9.7632   -28.3950     2.1930     2.0841     2.3624    94.9078   -21.6176     8.1169   -36.4457     0.2681     0.0138     2.5304
 3647.5000   155.5154   -10.3550   -28.0783     2.0713     1.9651     2.3637    95.4890   -21.6912     8.1169   -36.8976     0.2731     0.0099     2.5187
 3648.0000   157.3448   -10.9467   -27.7615     1.9531     1.8847     2.3018    96.2802   -21.7647     8.1169   -37.4109     0.2819     0.0147     2.5048
 3648.5000   156.7790   -11.5892   -27.7411     1.8417     1.7855     2.1227    97.0824   -21.8382     8.1169   -37.8298     0.2848     0.0799     2.5001
 3649.0000   155.5308   -12.1301   -27.3293     1.7673     1.7383     1.9051    98.7517   -21.9118     8.1169   -38.2530     0.2795     0.1748     2.4766
 3649.5000   154.0703   -12.7218   -27.1042     1.7207     1.7390     1.8549   102.3382   -21.9853     8.1169   -38.7049     0.2765     0.1345     2.4555
 3650.0000   150.2994    -8.3723   -27.3778     1.7216     1.7397     1.8731   103.7954   -22.0588     8.1169   -39.1567     0.2741     0.0895     2.4510
 3650.5000   146.7478     0.8876   -27.6577     1.7462     1.7404     1.9477   103.3524   -22.1324     8.1169   -39.4579     0.2743     0.0655     2.4544
 3651.0000   146.1796     0.2959   -27.6371     1.7711     1.7651     1.9619   102.5962   -22.2059     8.1169   -39.7591     0.2759     0.0626     2.4624
 3651.5000   148.6318    -0.3358   -28.2132     1.7721     1.7899     1.9364   102.4730   -22.2794     8.1169   -40.0603     0.2771     0.0656     2.4668
 3652.0000   148.5192    -0.8875   -28.1905     1.7732     1.7906     1.8600   102.3941   -22.3529     8.1169   -40.3614     0.2723     0.0575     2.4723
 3652.5000   147.0162    -1.4792   -28.6308     1.7741     1.7913     1.8662   102.1748   -22.4303     8.1169   -40.6626     0.2669     0.0433     2.4783
 3653.0000   145.1328    -2.0711   -28.7440     1.7750     1.7920     1.9134   101.5881   -23.2759     8.1169   -41.0094     0.2613     0.0178     2.4828
 3653.5000   142.7706    -2.6627   -28.7223     1.7703     1.6980     1.9818   100.6839   -24.1681     8.1169   -41.2945     0.2537     0.0088     2.4844
 3654.0000   145.1988    -3.3305   -28.7024     1.7099     1.6086     2.0782    98.8038   -25.0603     8.1169   -41.5795     0.2607     0.0059     2.4795
 3654.5000   158.2494    -3.8753   -28.6815     1.5945     1.4831     2.0793    97.5629   -25.9525     8.1169   -41.8675     0.2723     0.0059     2.4615
 3655.0000   169.1986    -4.4379   -28.6607     1.4501     1.4224     1.9920    97.2116   -26.8447     8.1169   -42.1686     0.2814     0.0134     2.4513
 3655.5000   186.5323    -5.0297   -28.6361     1.3553     1.3628     1.7145    98.9456   -27.7370     8.1169   -38.7553     0.2965     0.0412     2.4384
 3656.0000   210.6534    -5.6213   -28.6170     1.3153     1.3057     1.4388    99.9648   -28.6292     8.1169   -27.6595     0.2989     0.0670     2.4755
 3656.5000   221.9526    -6.3255   -28.5979     1.2623     1.2280     1.3491    99.8066   -29.5214     8.1169   -28.0121     0.2927     0.0675     2.4951
 3657.0000   236.4367    -6.8701   -27.9404     1.2340     1.1954     1.3137    99.5212   -30.4136     8.1169   -28.3721     0.2796     0.0424     2.4906
 3657.5000   238.8649    -7.4146   -27.3661     1.2348     1.2289     1.3144    99.5182   -31.3058     8.1169   -28.6572     0.2832     0.0244     2.4243
 3658.0000   204.6848    -7.9882   -27.3452     1.2524     1.2834     1.3969   100.3907   -32.1980     8.1169   -28.9422     0.2838     0.0125     2.4017
 3658.5000   192.8286    -8.5799   -28.5117     1.2703     1.3653     1.6228   101.1179   -33.0902     8.1170   -29.2273     0.2742     0.0065     2.4141
 3659.0000   159.4841   -16.3378   -29.0878     1.3305     1.4588     1.8838   101.5532   -33.9824     8.1169   -29.5181     0.2712     0.0066     2.4386
 3659.5000   145.3275   -24.6580   -29.9615     1.4057     1.5303     1.8946   100.7787   -34.8746     8.1244   -29.8193     0.2718     0.0107     2.4425
 3660.0000   143.2269   -39.9408   -29.6429     1.4594     1.5309     1.8763   100.1946   -35.7669     8.1352   -30.1205     0.2724     0.0084     2.4395
 3660.5000   143.2764   -40.5399   -29.2124     1.5197     1.5315     1.8520   100.0847   -36.6591     8.1453   -30.4217     0.2724    -0.0052     2.4365
 3661.0000   143.9082   -43.2914   -28.4107     1.5205     1.4865     1.8279   100.5192   -37.5513     8.1566   -30.7229     0.2732    -0.0111     2.4335
 3661.5000   144.5400   -56.5088   -27.7921     1.4591     1.4514     1.8290   100.9545   -38.4570     8.1571   -31.0801     0.2751    -0.0080     2.4337
 3662.0000   145.7725   -57.1007   -27.1777     1.4218     1.4522     1.8053   101.3897   -38.5294     8.1574   -31.3651     0.3013    -0.0020     2.4369
 3662.5000   146.5817   -57.7830   -27.1330     1.4227     1.4331     1.7819   102.3176   -38.6029     8.1572   -31.6502     0.3219     0.0297     2.4472
 3663.0000   147.6050   -43.4910   -26.5417     1.4236     1.4143     1.7351   102.8871   -38.6765     8.1573   -31.9354     0.3273     0.0479     2.4556
 3663.5000   149.4789   -44.0829   -26.0932     1.4438     1.4149     1.6889   102.9869   -38.7500     8.1573   -32.2290     0.3144     0.0619     2.4503
 3664.0000   148.9130   -44.6745   -25.3058     1.4446     1.4209     1.6410   102.9835   -38.8235     8.1573   -32.5302     0.2906     0.0812     2.4217
 3664.5000   145.9457   -45.2662   -24.9891     1.4453     1.4642     1.6159   102.8348   -38.8971     8.1573   -37.1364     0.2881     0.1819     2.3599
 3665.0000   143.2626   -37.9674   -24.9699     1.4720     1.5372     1.6247   102.8321   -38.9706     8.1573   -48.1927     0.2884     0.1880     2.3659
 3665.5000   138.4052   -31.6567   -24.9921     1.4966     1.6238     1.7399   102.7610   -39.0441     8.1573   -48.4940     0.2713     0.1640     2.4168
