~VERSION INFORMATION
 VERS.                2.0:   CWLS LOG ASCII STANDARD - VERSION 2.0
 WRAP.                 NO:   ONE LINE PER DEPTH STEP
~WELL INFORMATION
#MNEM.UNIT      DATA TYPE    INFORMATION
#----------   ------------   ------------------------------
 STRT.F           10.0000:   START DEPTH
 STOP.F         5812.0000:   STOP DEPTH
 STEP.F            0.5000:   STEP LENGTH
 NULL.          -999.2500:   NO VALUE
 COMP. LAWRENCE - ALLSISON:   COMPANY
 WELL. LAWRENCE "X" #11-11:   WELL
 FLD .              NPR 3:   FIELD
 LOC .      S11 T38N R78W:   LOCATION
 CNTY.            NATRONA:   COUNTY
 STAT.            WYOMING:   STATE
 CTRY. UNITED STATES OF AMERICA:   COUNTRY
 SRVC.      DRESSER ATLAS:   SERVICE COMPANY
 DATE.        12-NOV-1982:   LOGDATE
 API .     49025109160000:   API NUMBER
~CURVE INFORMATION
#MNEM.UNIT       API CODE    CURVE DESCRIPTION
#----------   ------------   ------------------------------
 DEPT.F                  :   
 TEND.LBS    45 635 01 00:   TENSION FROM DENSITY LOG
 CALD.IN     45 280 60 00:   CALIPER FROM DENSITY LOG
 CORR.G/C3   45 356 01 00:   DENSITY CORRECTION
 RHOB.G/C3   45 350 01 00:   BULK DENSITY
 CN  .DEC    42 890 03 00:   COMPENSATED NEUTRON POROSITY SANDSTONE
 AC  .US/F   60 520 00 00:   ACOUSTIC
 TENS.LBS    60 635 01 00:   TENSION FROM SONIC
 GRR .GAPI   11 310 01 00:   GAMMA RAY FROM RESISTIVITY
 RD  .OHMM   11 220 10 00:   RESISTIVITY DEEP
 RMLL.OHMM   11 270 04 00:   RESISTIVITY MICROLATEROLOG
 RS  .OHMM   11 220 09 00:   RESISTIVITY SHALLOW
 SPR .MV     11 010 01 00:   SPONTANEOUS POTENTIAL FROM RESISTIVITY
 TENR.LBS    11 635 01 00:   TENSION FROM RESISTIVITY
~PARAMETER INFORMATION
#MNEM.UNIT          VALUE    DESCRIPTION
#----------   ------------   ------------------------------
 EKB .F         5160.0000:   Kelly bushing
 EGL .F         5150.0000:   Ground level
 EDF .F            0.0000:   Drilling floor
 TD  .F         5800.0000:   Total depth
 CLNT.            A2DTECH:   Client Code
 SL  . 660' FNL & 660' FWL:   Surface Location
 PD  .                 GL:   Permanent Datum
 EPD .F              5150:   Elevation Permanent Datum
 LMF .                 KB:   Log Measured From
 DMF .                 KB:   Drilling Measured From
 DAPD.F                10:   Feet Above Permanent Datum
 DATE.        12-NOV-1982:   Date Logged [DD-MMM-YYYY]
 DD  .F              5800:   Depth driller
 DL  .F              5795:   Depth logger
 BLI .F              5702:   Bottom log interval
 TLI .F                 0:   Top log interval
 CS1 .IN            9.625:   Casing size
 CBD1.      9.625" @ 664':   Casing driller 1
 CBL1.F               660:   Casing logger 1
 BS1 .IN             8.75:   Bit size
 BSD1.F              5800:   Depth drilled with bit1
 DFT .                KCL:   Type fluid in hole
 DFD .                8.6:   Density
 DFV .                 45:   Viscosity
 DFPH.                8.5:   pH
 DFL .                7.8:   Fluid loss
 MSS .           FLOWLINE:   Source of sample
 RMS .OHMM           0.32:   Rm
 MST .F                92:   Rm Meas. temp.
 RMF .OHMM           0.26:   Rmf
 MFST.F                90:   Rmf Meas. temp.
 MFSS.               MEAS:   Source Rmf.
 RMB .OHMM           0.19:   Rm. at BHT
 BHT .F               160:   BHT.
 TCS .HRS               3:   Time Circ. stopped
 MRT .F               160:   Maximum recorded temp.
 LUN .               6270:   Logging unit number
 LUL .              WLSTN:   Logging unit location
 ENGI.            QUICKEL:   Recorded By
 WITN.             STRONG:   Witnessed by
 ORIG.        2" 5" PRINT:   Origin of data
 UWI .     49025109160000:   Unique Well ID
 DICO. A2D TECHNIOLOGIES,INC.:   Digitizing Company
 RMC .OHMM           0.40:   Rmc
 MCST.F                92:   Rmc Meas. temp.
 MCSS.               CALC:   Source Rmc.
~OTHER INFORMATION
~A  DEPTH     TEND       CALD       CORR       RHOB         CN         AC       TENS        GRR         RD       RMLL         RS        SPR       TENR
# ...
 3026.0000   -91.4396     9.6069     0.0624     2.2763     0.2298    84.5185   -74.8932    44.9632    12.5177     7.3745     9.5613   -39.3796   -91.5385
 3026.5000   -87.6000     9.6073     0.0453     2.2778     0.2365    84.5225   -74.6360    49.1996    12.1802     7.7999     9.4334   -39.5176   -91.3923
 3027.0000   -83.7604     9.5927     0.0142     2.2755     0.2562    84.5266   -74.3788    53.1356    11.8515     7.9067     9.3712   -39.4975   -91.2461
 3027.5000   -79.9208     9.5930     0.0021     2.2733     0.2599    84.5306   -74.1367    57.0872    11.6136     7.9105     9.2469   -39.7817   -91.0998
 3028.0000   -76.0812     9.6084    -0.0039     2.2703     0.2524    84.4582   -73.8739    58.0047    11.3003     7.9142     9.1860   -39.9158   -90.9536
 3028.5000   -68.4934     9.6088     0.0021     2.2702     0.2397    84.3868   -73.6073    58.3452    11.0722     8.0286     9.1274   -40.3502   -90.8074
 3029.0000   -57.1576     9.6092     0.0066     2.2717     0.2379    84.5428   -73.3483    59.2783    10.9244     8.0884     9.0054   -40.7805   -90.6612
 3029.5000   -53.1749     9.6095     0.0051     2.2747     0.2403    84.7733   -73.0855    62.3134    10.8525     8.1486     8.9471   -41.2149   -90.8145
 3030.0000   -45.2314     9.6099    -0.0059     2.2786     0.2463    84.9283   -72.8228    66.8501    10.7824     7.9292     8.9524   -41.4991   -94.1338
 3030.5000   -41.8677     9.6252    -0.0100     2.2868     0.2454    84.8568   -72.0244    67.7751    10.6395     7.8235     8.8934   -41.4830   -97.7161
 3031.0000   -41.7762     9.6256     0.0020     2.2928     0.2385    84.7110   -68.5435    66.0135    10.4977     7.8274     8.8358   -41.3168   -97.5699
 3031.5000   -64.1735     9.6260     0.0110     2.2973     0.2306    84.4131   -68.2461    65.4444    10.4298     7.9456     8.7786   -41.1505  -101.2253
 3032.0000   -86.5707     9.6264     0.0260     2.2950     0.2342    84.0398   -67.9888    66.4145    10.3511     8.0563     8.8453   -41.2846   -93.5124
 3032.5000   -93.9984     9.6117     0.0380     2.2905     0.2414    83.6665   -67.7317    70.3761    10.2241     8.0601     8.8495   -41.4189   -89.6011
 3033.0000   -90.1359     9.6121     0.0350     2.2867     0.2468    83.4442   -71.2925    84.7687    10.0877     7.9518     8.6704   -41.5527   -85.6899
 3033.5000   -63.8075     9.6125     0.0255     2.2852     0.2453    82.9199   -70.9710    94.1102    10.0936     7.8459     8.5544   -41.2137   -85.5422
 3034.0000   -33.7310     9.6129     0.0049     2.2897     0.2378    82.3202   -70.7139    96.8370    10.0272     8.0716     8.6803   -40.7658   -89.1625
 3034.5000   -29.8913     9.6133     0.0154     2.3040     0.2330    81.7960   -72.9354    88.7691     9.9624     8.3028     8.8049   -40.4494   -88.9797
 3035.0000   -33.9205     9.6137     0.0259     2.3183     0.2326    81.2717   -73.9490    78.2907    10.0379     8.6599     8.9337   -39.9828   -92.5986
 3035.5000   -40.9528     9.6290     0.0379     2.3258     0.2339    80.8054   -73.6862    74.4109    10.1128     8.8464     9.0635   -39.5163   -92.4524
 3036.0000   -48.3575     9.6443     0.0439     2.3265     0.2347    80.0462   -73.3745    74.4745    10.1882     8.7893     9.1951   -39.1999   -92.3061
 3036.5000   -52.0142     9.6446     0.0377     2.3250     0.2299    79.9254   -65.6099    72.9639    10.1932     8.6690     9.2639   -38.8835   -92.1599
 3037.0000   -55.6708     9.6450     0.0213     2.3273     0.2275    80.4588   -54.0914    70.4862    10.1272     8.6164     9.2683   -38.7173   -95.7831
 3037.5000   -55.5564     9.6454     0.0243     2.3288     0.2305    80.9911   -50.0805    65.2463    10.1332     8.6815     9.1443   -38.7012   -91.8675
 3038.0000   -59.2359     9.6607     0.0498     2.3257     0.2383    81.3725   -55.5878    60.1733    10.0665     8.9302     9.2126   -38.6847   -87.9518
 3038.5000   -66.6407     9.6761     0.0664     2.3212     0.2371    81.4520   -57.1379    58.0953    10.0015     9.1859     9.2170   -38.6650   -87.7734
 3039.0000   -77.7707     9.6764     0.0618     2.3197     0.2289    81.3806   -60.5702    59.3367    10.0773     9.3837     9.2215   -38.6489   -91.4288
 3039.5000   -81.4280     9.6768     0.0498     2.3189     0.2274    81.3091   -64.0765    59.3689     9.9428     9.5856     9.2260   -38.7870   -91.2460
 3040.0000   -81.3343     9.6771     0.0253     2.3261     0.2328    81.1623   -63.8095    60.0016     9.9475     9.7920     9.3609   -38.9170   -91.0999
 3040.5000   -77.4925     9.7074     0.0196     2.3407     0.2337    81.0134   -63.5511    60.0338    10.0217     9.9336     9.4309   -39.6517   -90.9536
 3041.0000   -62.3894     9.7377     0.0316     2.3543     0.2262    80.5294   -63.2883    59.4653    10.0965    10.3609     9.6348   -40.2362   -87.0424
 3041.5000   -39.8091     9.7680     0.0376     2.3693     0.2045    77.2510   -62.9737    58.8206    10.4600    11.3542    10.3355   -40.6706   -86.8962
 3042.0000   -17.2289     9.7982     0.0361     2.4152     0.1629    72.9531   -62.7627    56.5346    13.4431    14.6463    11.9708   -41.1051   -86.7470
 3042.5000     1.6032     9.8584     0.0316     2.4776     0.1358    66.9949   -62.5000    49.3596    18.0133    22.7345    16.1635   -41.7090   -86.5671
 3043.0000     5.4429     9.8887     0.0210     2.5138     0.1244    64.1311   -66.0202    40.9833    22.5152    33.3179    20.9304   -42.5995   -86.4209
 3043.5000     9.2825     9.9190     0.0105     2.5196     0.1343    63.3794   -61.9449    36.2107    23.8150    55.3260    24.0738   -43.4551   -86.2747
 3044.0000     5.6258     9.9791     0.0375     2.4332     0.1701    73.6486   -61.7117    37.4440    21.1688    32.2121    22.5335   -43.5931   -93.6952
 3044.5000    -1.7804    10.0244     0.0766     2.3678     0.2134    78.4074   -61.4489    46.4852    15.2725    16.4375    14.6900   -43.8733   -85.9823
 3045.0000    -9.1837    10.0696     0.0721     2.3136     0.2745    84.1473   -61.1861    51.9227    13.1114    10.4740    10.5904   -44.0074   -85.8360
 3045.5000   -12.8403    10.1148     0.0555     2.2941     0.2724    84.7551   -60.9162    60.9700     9.9925     9.1208     9.2808   -44.1415   -85.6898
 3046.0000   -12.7260    10.1600     0.0299     2.2865     0.2586    84.2092   -60.6607    62.1982     9.3697     8.6923     8.4217   -43.9752   -85.5422
 3046.5000    -5.1382    10.2201     0.0359     2.3146     0.2585    82.9014   -64.1555    61.9291     9.0813     8.6363     8.3081   -43.9591   -81.0281
 3047.0000     2.4496    10.2815     0.0436     2.3534     0.2649    82.2012   -63.8889    62.8702     8.9611     8.6405     8.2552   -43.9431   -77.6846
 3047.5000    10.0373    10.3405     0.0584     2.3767     0.2694    82.4327   -63.6261    64.7041     8.3629     8.2355     8.0320   -44.0771   -73.7732
 3048.0000    13.8769    10.4007     0.0554     2.3872     0.2663    82.8141   -63.9659    67.7393     7.7505     7.7405     7.3909   -44.2112   -77.4286
 3048.5000     2.7240    10.4309     0.0403     2.3872     0.2489    83.0446   -66.8804    71.0747     7.1332     6.8347     6.9423   -44.7917   -81.0475
 3049.0000   -12.1770    10.4462     0.0162     2.3880     0.2458    83.2751   -66.5916    69.9057     6.8918     6.6047     6.6633   -45.5263   -77.0997
 3049.5000   -19.5840    10.4466     0.0012     2.3903     0.2504    83.3546   -66.3288    68.4363     6.9440     6.7468     6.6672   -46.4111   -73.1884
 3050.0000   -19.4903    10.4469    -0.0094     2.3965     0.2627    83.5851   -69.7984    68.1682     7.0446     6.8921     6.8114   -47.4461   -61.7470
 3050.5000   -15.6484    10.4473    -0.0019     2.3992     0.2786    83.6646   -73.3396    69.4035     6.9982     6.7057     6.6729   -48.0346   -61.6675
 3051.0000   -11.7882    10.4327     0.0041     2.3932     0.2855    83.8196   -69.2666    69.7330     6.8565     6.5698     6.4021   -48.3210   -65.3614
 3051.5000   -11.6967    10.4332     0.0071     2.3902     0.2789    83.6727   -65.2576    69.7622     6.5785     6.3921     6.1423   -48.9085   -65.2859
