~VERSION INFORMATION
 VERS.                2.0:   CWLS LOG ASCII STANDARD - VERSION 2.0
 WRAP.                 NO:   ONE LINE PER DEPTH STEP
~WELL INFORMATION
#MNEM.UNIT      DATA TYPE    INFORMATION
#----------   ------------   ------------------------------
 STRT.F           46.0000:   START DEPTH
 STOP.F         2736.5000:   STOP DEPTH
 STEP.F            0.5000:   STEP LENGTH
 NULL.          -999.2500:   NO VALUE
 COMP.          INTEX OIL:   COMPANY
 WELL. INTEX NPR 3 "AX" #72-20:   WELL
 FLD .             TEAPOT:   FIELD
 LOC .      S20 T39N R78W:   LOCATION
 CNTY.            NATRONA:   COUNTY
 STAT.            WYOMING:   STATE
 CTRY. UNITED STATES OF AMERICA:   COUNTRY
 SRVC.       SCHLUMBERGER:   SERVICE COMPANY
 DATE.        11-MAY-1966:   LOGDATE
 API .     49025095110000:   API NUMBER
~CURVE INFORMATION
#MNEM.UNIT       API CODE    CURVE DESCRIPTION
#----------   ------------   ------------------------------
 DEPT.F                  :   
 SPR .MV     05 010 01 00:   SPONTANEOUS POTENTIAL FROM RES.
 ILD .OHMM   05 120 46 00:   INDUCTION LOG DEEP
 ASN .OHMM   05 041 16 00:   AMPLIFIED SHORT NORMAL 16"
 CALD.IN     45 280 60 00:   CALIPER FROM DENSITY LOG
 CORR.G/C3   45 356 01 00:   DENSITY CORRECTION
 RHOB.G/C3   45 350 01 00:   BULK DENSITY
 GRD .GAPI   45 310 01 00:   GAMMA RAY FROM DENSITY LOG
~PARAMETER INFORMATION
#MNEM.UNIT          VALUE    DESCRIPTION
#----------   ------------   ------------------------------
 EKB .F         5042.3000:   Kelly bushing
 EGL .F         5032.0000:   Ground level
 EDF .F            0.0000:   Drilling floor
 EPD .F         5032.0000:   Permanent datum
 TD  .F         2740.0000:   Total depth
 DATE.        11-MAY-1966:   Date logged
 CLNT.            A2DTECH:   Client Code
 DAPD.F              10.3:   Feet Above Permanent Datum
 DD  .F              2740:   Depth driller
 DL  .F              2737:   Depth logger
 BLI .F              2736:   Bottom log interval
 TLI .F                88:   Top log interval
 CS1 .IN            10.75:   Casing size
 CBD1.       10.75" @ 24':   Casing driller 1
 BS1 .IN            7.875:   Bit size
 BSD1.F              2740:   Depth drilled with bit1
 DFT .           OIL EMUL:   Type fluid in hole
 DFD .                9.8:   Density
 DFV .                 58:   Viscosity
 MSS .         CIRCULATED:   Source of sample
 RMS .OHMM           3.04:   Rm
 MST .F                54:   Rm Meas. temp.
 RMF .OHMM           1.95:   Rmf
 MFST.F                55:   Rmf Meas. temp.
 MFSS.                 FR:   Source Rmf.
 RMB .OHMM           1.64:   Rm. at BHT
 BHT .F               100:   BHT.
 TCS .HRS               4:   Time Circ. stopped
 MRT .F               100:   Maximum recorded temp.
 LUN .               4507:   Logging unit number
 LUL .               CSPR:   Logging unit location
 ENGI.               HAUG:   Recorded By
 WITN.             TUTTLE:   Witnessed by
 ORIG.        2" 5" PRINT:   Origin of data
 UWI .     49025095110000:   Unique Well ID
 DICO. A2D TECHNOLOGIES, INC.:   Digitizing Company
~OTHER INFORMATION
~A   DEPT      SPR        ILD        ASN       CALD       CORR       RHOB         GRD  
# ...
 2503.0000   -25.1980     5.0290     7.1300     7.8690     0.0480     2.4760   135.5740
 2503.5000   -25.1980     5.1100     7.1380     7.8880     0.0420     2.4680   137.1800
 2504.0000   -25.1980     5.1900     7.1330     7.9090     0.0520     2.4780   138.5950
 2504.5000   -25.1970     5.3510     7.1820     7.9310     0.0610     2.4940   137.5590
 2505.0000   -25.2010     5.5430     7.2510     7.9480     0.0710     2.5000   138.9970
 2505.5000   -25.1930     5.7320     7.7800     7.9510     0.0690     2.4970   139.9220
 2506.0000   -25.2000     5.9220     8.4200     7.9530     0.0620     2.4890   138.9210
 2506.5000   -24.9850     6.1140     9.1430     7.9540     0.0550     2.4790   133.6230
 2507.0000   -24.7100     6.2980     9.5340     7.9560     0.0500     2.4770   126.5530
 2507.5000   -24.4440     6.5010     9.6850     7.9580     0.0490     2.4790   119.5080
 2508.0000   -24.7120     6.5600     9.6020     7.9600     0.0540     2.4970   119.1400
 2508.5000   -25.0510     6.4900     9.5160     7.9620     0.0570     2.5000   119.4740
 2509.0000   -25.2160     6.4380     9.4520     7.9640     0.0630     2.5030   119.8230
 2509.5000   -25.1920     6.3810     9.1160     7.9660     0.0590     2.5010   122.5620
 2510.0000   -25.2000     6.3240     8.8020     7.9670     0.0500     2.4920   127.6550
 2510.5000   -25.1980     6.2690     8.5690     7.9690     0.0400     2.4810   133.3530
 2511.0000   -25.1970     6.2120     8.6560     7.9710     0.0400     2.4780   131.9180
 2511.5000   -25.1980     6.1560     8.9190     7.9730     0.0400     2.4860   129.7210
 2512.0000   -25.1970     6.1000     9.1600     7.9750     0.0370     2.4790   127.8970
 2512.5000   -25.1980     6.0400     9.4110     7.9770     0.0220     2.4510   127.3750
 2513.0000   -25.1970     6.0010     9.5070     7.9790     0.0260     2.4360   128.8570
 2513.5000   -25.1960     5.9270     9.0560     7.9800     0.0300     2.4430   131.4510
 2514.0000   -25.2020     5.8080     8.6690     7.9820     0.0340     2.4580   134.0000
 2514.5000   -25.1410     5.7040     8.2180     7.9840     0.0380     2.4700   135.9500
 2515.0000   -24.9430     5.5970     8.0530     7.9860     0.0360     2.4680   134.3160
 2515.5000   -24.7480     5.4890     7.8800     7.9880     0.0310     2.4710   133.6570
 2516.0000   -24.5500     5.3830     7.7350     7.9900     0.0260     2.4720   135.0960
 2516.5000   -24.3540     5.2760     7.6380     7.9910     0.0190     2.4640   139.1670
 2517.0000   -24.1480     5.1690     7.6140     7.9930     0.0130     2.4550   140.2270
 2517.5000   -24.0600     5.0620     7.7400     7.9950     0.0070     2.4460   138.0280
 2518.0000   -24.2380     4.9570     7.8860     7.9970     0.0180     2.4520   136.4190
 2518.5000   -24.4160     4.8460     7.7070     7.9990     0.0270     2.4620   137.3440
 2519.0000   -24.5910     4.7440     7.3840     8.0010     0.0380     2.4740   140.3560
 2519.5000   -24.7830     4.6300     7.1390     8.0020     0.0350     2.4760   143.7250
 2520.0000   -24.7610     4.6610     6.9900     8.0040     0.0280     2.4680   146.0710
 2520.5000   -24.7160     4.7110     6.8420     8.0060     0.0240     2.4610   147.9380
 2521.0000   -24.6650     4.7650     6.7090     8.0080     0.0300     2.4540   148.8290
 2521.5000   -24.6210     4.8150     6.7180     8.0100     0.0260     2.4490   147.6930
 2522.0000   -24.5730     4.8670     6.7820     8.0120     0.0210     2.4540   146.9080
 2522.5000   -24.5260     4.9180     6.8720     8.0140     0.0210     2.4640   143.9880
 2523.0000   -24.4790     4.9700     6.9550     8.0150     0.0240     2.4660   138.1690
 2523.5000   -24.4330     5.0090     7.0550     8.0170     0.0170     2.4640   135.9580
 2524.0000   -24.3850     5.0090     7.1200     8.0190     0.0130     2.4680   139.2350
 2524.5000   -24.3380     5.0100     7.3320     8.0210     0.0210     2.4950   141.8440
 2525.0000   -24.2920     5.0090     7.4570     8.0230     0.0340     2.4990   142.3530
 2525.5000   -24.2450     5.0100     7.5820     8.0240     0.0290     2.4870   142.6280
 2526.0000   -24.1970     5.0100     7.6330     8.0270     0.0140     2.4810   139.0890
 2526.5000   -24.1510     5.0100     7.5930     8.0210     0.0210     2.4840   133.2930
 2527.0000   -24.1030     5.0100     7.5660     8.0030     0.0350     2.5040   130.7720
 2527.5000   -24.0570     5.0100     7.4240     7.9850     0.0490     2.4950   130.3710
 2528.0000   -24.0140     5.0100     7.2350     7.9680     0.0630     2.5050   132.1060
 2528.5000   -24.0430     5.0100     7.0400     7.9500     0.0760     2.5300   134.7430
 2529.0000   -24.0770     5.0100     6.9220     7.9320     0.0790     2.5260   134.1530
 2529.5000   -24.1140     5.0100     6.9900     7.9140     0.0800     2.5200   133.4150
 2530.0000   -24.1480     5.0100     7.0880     7.8970     0.0740     2.5140   132.4020
 2530.5000   -24.1840     5.0100     7.1940     7.8780     0.0730     2.5200   132.5850
 2531.0000   -24.2190     5.0100     7.2400     7.8660     0.0820     2.5250   134.5480
 2531.5000   -24.2540     5.0100     7.1820     7.8600     0.0730     2.5100   136.5280
 2532.0000   -24.2890     5.0100     7.2410     7.8530     0.0550     2.4790   136.1430
 2532.5000   -24.3250     5.0100     7.3460     7.8460     0.0450     2.4530   135.6050
 2533.0000   -24.3590     5.0100     7.4340     7.8390     0.0380     2.4440   134.9020
 2533.5000   -24.3940     5.0100     7.3980     7.8320     0.0320     2.4380   134.3590
 2534.0000   -24.3810     5.0100     7.2960     7.8250     0.0360     2.4350   133.9010
 2534.5000   -24.3450     5.0100     7.1900     7.8180     0.0440     2.4530   135.5730
 2535.0000   -24.3110     5.0100     7.1270     7.8110     0.0510     2.4590   137.1270
 2535.5000   -24.2780     5.0100     7.1350     7.8030     0.0410     2.4470   139.3500
 2536.0000   -24.2430     5.0100     7.1980     7.7970     0.0330     2.4450   142.9050
 2536.5000   -24.2090     5.0100     7.3000     7.7920     0.0390     2.4550   145.1370
 2537.0000   -24.1760     5.0100     7.3310     7.8310     0.0350     2.4560   143.8390
 2537.5000   -24.1420     5.0090     7.3270     7.8800     0.0190     2.4450   141.7990
 2538.0000   -24.1080     5.0100     7.3280     7.9280     0.0180     2.4500   138.8510
 2538.5000   -24.0730     5.0090     7.3270     7.9770     0.0300     2.4580   138.0770
 2539.0000   -24.0410     5.0070     7.3260     7.9900     0.0420     2.4840   139.0380
 2539.5000   -24.0090     4.9590     7.3000     7.9900     0.0370     2.4770   140.4550
 2540.0000   -24.0100     4.9010     7.2620     7.9910     0.0340     2.4710   138.7890
 2540.5000   -24.0160     4.8430     7.2410     7.9920     0.0360     2.4680   136.0420
 2541.0000   -24.1450     4.7860     7.1450     7.9920     0.0380     2.4770   133.1340
 2541.5000   -24.2600     4.7280     7.1070     7.9930     0.0400     2.4870   132.0030
 2542.0000   -24.3930     4.6710     7.0470     7.9940     0.0430     2.4760   132.3420
 2542.5000   -24.3780     4.6140     6.9680     7.9950     0.0400     2.4750   132.5220
 2543.0000   -24.3520     4.5560     6.8350     7.9960     0.0370     2.4700   133.6420
 2543.5000   -24.3200     4.4990     6.7090     7.9970     0.0330     2.4640   134.9390
 2544.0000   -24.2930     4.4410     6.6280     7.9980     0.0330     2.4610   137.0930
 2544.5000   -24.2630     4.3840     6.5800     7.9990     0.0350     2.4660   140.4790
 2545.0000   -24.2340     4.3270     6.5310     8.0000     0.0350     2.4620   145.2360
 2545.5000   -24.2050     4.2670     6.4660     8.0010     0.0320     2.4500   144.6480
 2546.0000   -24.1760     4.2390     6.3850     8.0020     0.0290     2.4550   143.7420
 2546.5000   -24.1470     4.2910     6.2960     8.0020     0.0300     2.4670   143.7980
 2547.0000   -24.1180     4.3420     6.2890     8.0030     0.0330     2.4700   147.1350
 2547.5000   -24.0890     4.3960     6.3370     8.0040     0.0340     2.4530   149.4520
 2548.0000   -24.0600     4.4480     6.3790     8.0050     0.0250     2.4410   150.1150
