~VERSION INFORMATION
 VERS.                2.0:   CWLS LOG ASCII STANDARD - VERSION 2.0
 WRAP.                 NO:   ONE LINE PER DEPTH STEP
~WELL INFORMATION
#MNEM.UNIT      DATA TYPE    INFORMATION
#----------   ------------   ------------------------------
 STRT.F         2299.0000:   START DEPTH
 STOP.F         3387.5000:   STOP DEPTH
 STEP.F            0.5000:   STEP LENGTH
 NULL.          -999.2500:   NO VALUE
 COMP. LAWRENCE ALLISON AND ASSOCIATES:   COMPANY
 WELL. 		  62-AX-3:   WELL
 FLD .                NPR:   FIELD
 LOC .       S3 T38N R78W:   LOCATION
 CNTY.            NATRONA:   COUNTY
 STAT.            WYOMING:   STATE
 CTRY. UNITED STATES OF AMERICA:   COUNTRY
 SRVC.      DRESSER ATLAS:   SERVICE COMPANY
 DATE.        14-JUN-1985:   LOGDATE
 API .     49025110330000:   API NUMBER
~CURVE INFORMATION
#MNEM.UNIT       API CODE    CURVE DESCRIPTION
#----------   ------------   ------------------------------
 DEPT.F                  :   
 NPHI.DEC    42 890 01 00:   NEUTRON POROSITY
 TEND.LBS    45 635 01 00:   TENSION
 RHOB.G/C3   45 350 01 00:   BULK DENSITY
 CORR.DEC    45 356 01 00:   CORRECTION
~PARAMETER INFORMATION
#MNEM.UNIT          VALUE    DESCRIPTION
#----------   ------------   ------------------------------
 EKB .F         5160.0000:   Kelly bushing
 EGL .F         5148.0000:   Ground level
 EDF .F            0.0000:   Drilling floor
 EPD .F         5148.0000:   Permanent datum
 TD  .F         3380.0000:   Total depth
 DATE.        14-JUN-1985:   Date logged
 CLNT.            A2DTECH:   Client Code
 PD  .                 GL:   Permanent Datum
 LMF .                 KB:   Log Measured From
 DMF .                 KB:   Drilling Measured From
 DL  .F              3380:   Depth logger
 BLI .F              3378:   Bottom log interval
 CS1 .IN            8.625:   Casing size
 CBD1.      8.625" @ 603':   Casing driller 1
 DFT .        KCL POLYMER:   Type fluid in hole
 ENGI.               MACK:   Recorded By
 WITN.             STRONG:   Witnessed by
 ORIG.       2.5"5" PRINT:   Origin of data
 UWI .     49025110330000:   Unique Well ID
 DICO. A2D TECHNOLOGIES, INC.:   Digitizing Company
 DAPD.F                12:   Feet Above Permanent Datum
 BS1 .IN            7.875:   Bit size
 DFD .                8.9:   Density
 DFV .                 46:   Viscosity
 DFPH.                8.5:   pH
 DFL .                9.6:   Fluid loss
 MSS .           FLOWLINE:   Source of sample
 RMS .OHMM           0.38:   Rm
 MST .F                74:   Rm Meas. temp.
 RMF .OHMM           0.29:   Rmf
 MFST.F                74:   Rmf Meas. temp.
 MFSS.               MEAS:   Source Rmf.
 RMC .OHMM           0.23:   Rmc
 MCST.F               120:   Rmc Meas. temp.
 MCSS.               MEAS:   Source Rmc.
 RMB .OHMM           0.23:   Rm. at BHT
 BHT .F               120:   BHT.
 TCS .                  8:   Time Circ. stopped
 MRT .                122:   Maximum recorded temp.
 LUN .            HL-6274:   Logging unit number
 LUL .               GLTE:   Logging unit location
~OTHER INFORMATION
~A     DEPTH         CORR         NPHI         RHOB         TEND
# ...
   2733.0000       0.0180       0.1836       2.5240       0.2276
   2733.5000       0.0070       0.1733       2.5270       0.2377
   2734.0000      -0.0030       0.1744       2.5230       0.2478
   2734.5000       0.0020       0.1845       2.5130       0.2438
   2735.0000       0.0110       0.1938       2.5010       0.2232
   2735.5000       0.0160       0.1998       2.4880       0.2026
   2736.0000       0.0130       0.1979       2.4690       0.1820
   2736.5000       0.0030       0.1952       2.4540       0.1623
   2737.0000      -0.0070       0.1936       2.4500       0.1639
   2737.5000      -0.0150       0.1936       2.4510       0.1941
   2738.0000      -0.0150       0.2049       2.4540       0.2243
   2738.5000      -0.0130       0.2187       2.4550       0.2391
   2739.0000      -0.0110       0.2229       2.4540       0.2279
   2739.5000      -0.0110       0.2240       2.4520       0.2230
   2740.0000      -0.0110       0.2173       2.4500       0.2223
   2740.5000      -0.0110       0.2170       2.4480       0.2215
   2741.0000      -0.0110       0.2193       2.4510       0.2208
   2741.5000      -0.0090       0.2238       2.4550       0.2201
   2742.0000      -0.0060       0.2274       2.4550       0.2194
   2742.5000      -0.0100       0.2264       2.4520       0.2186
   2743.0000      -0.0130       0.2216       2.4490       0.2179
   2743.5000      -0.0080       0.2121       2.4510       0.2172
   2744.0000       0.0000       0.1958       2.4600       0.2164
   2744.5000       0.0040       0.1988       2.4660       0.2157
   2745.0000      -0.0140       0.2045       2.4610       0.2150
   2745.5000      -0.0150       0.2155       2.4520       0.2142
   2746.0000      -0.0110       0.2215       2.4470       0.2135
   2746.5000      -0.0010       0.2166       2.4450       0.2197
   2747.0000      -0.0060       0.2103       2.4430       0.2260
   2747.5000      -0.0130       0.2093       2.4360       0.2323
   2748.0000      -0.0110       0.2177       2.4320       0.2386
   2748.5000      -0.0080       0.2209       2.4370       0.2418
   2749.0000      -0.0010       0.2230       2.4480       0.2359
   2749.5000       0.0060       0.2251       2.4570       0.2300
   2750.0000       0.0140       0.2253       2.4530       0.2234
   2750.5000       0.0110       0.2186       2.4460       0.2331
   2751.0000       0.0030       0.2107       2.4430       0.2439
   2751.5000      -0.0100       0.2076       2.4510       0.2546
   2752.0000      -0.0110       0.2100       2.4700       0.2654
   2752.5000      -0.0100       0.2190       2.4840       0.2675
   2753.0000      -0.0100       0.2228       2.4770       0.2477
   2753.5000      -0.0080       0.2207       2.4590       0.2334
   2754.0000      -0.0070       0.2170       2.4400       0.2334
   2754.5000       0.0020       0.2172       2.4310       0.2334
   2755.0000      -0.0030       0.2223       2.4320       0.2277
   2755.5000      -0.0080       0.2216       2.4400       0.2153
   2756.0000      -0.0100       0.2222       2.4450       0.2036
   2756.5000      -0.0110       0.2248       2.4410       0.1664
   2757.0000      -0.0130       0.2302       2.4360       0.1646
   2757.5000      -0.0170       0.2316       2.4280       0.1811
   2758.0000      -0.0160       0.2334       2.4260       0.1976
   2758.5000       0.0010       0.2378       2.4250       0.1952
   2759.0000       0.0110       0.2366       2.4240       0.1820
   2759.5000       0.0180       0.2335       2.4190       0.1688
   2760.0000       0.0140       0.2238       2.4070       0.1683
   2760.5000       0.0150       0.2217       2.3900       0.1753
   2761.0000       0.0170       0.2216       2.3760       0.1824
   2761.5000       0.0110       0.2192       2.3700       0.1757
   2762.0000       0.0040       0.2099       2.3710       0.1658
   2762.5000      -0.0040       0.1991       2.3820       0.1747
   2763.0000      -0.0080       0.1952       2.3970       0.1882
   2763.5000      -0.0090       0.1943       2.4210       0.2060
   2764.0000      -0.0060       0.2057       2.4340       0.2122
   2764.5000       0.0090       0.2140       2.4260       0.1968
   2765.0000       0.0050       0.2179       2.4150       0.1828
   2765.5000       0.0020       0.2229       2.4120       0.1805
   2766.0000      -0.0010       0.2265       2.4150       0.1781
   2766.5000      -0.0030       0.2240       2.4200       0.1758
   2767.0000       0.0010       0.2192       2.4200       0.1734
   2767.5000       0.0020       0.2170       2.4260       0.1710
   2768.0000       0.0020       0.2187       2.4340       0.1687
   2768.5000       0.0000       0.2211       2.4430       0.1663
   2769.0000      -0.0060       0.2210       2.4500       0.1639
   2769.5000      -0.0130       0.2177       2.4570       0.1795
   2770.0000      -0.0190       0.2146       2.4640       0.1960
   2770.5000      -0.0240       0.2152       2.4690       0.2036
   2771.0000      -0.0150       0.2217       2.4710       0.2036
   2771.5000      -0.0050       0.2271       2.4810       0.2036
   2772.0000       0.0020       0.2318       2.4920       0.2076
   2772.5000       0.0050       0.2312       2.5070       0.2135
   2773.0000       0.0090       0.2296       2.5200       0.2121
   2773.5000       0.0230       0.2278       2.5290       0.2105
   2774.0000       0.0410       0.2280       2.5350       0.2090
   2774.5000       0.0330       0.2325       2.5320       0.2074
   2775.0000       0.0190       0.2327       2.5240       0.2059
   2775.5000       0.0060       0.2251       2.5140       0.2044
   2776.0000       0.0090       0.2215       2.5020       0.1914
   2776.5000       0.0120       0.2205       2.4820       0.1666
   2777.0000       0.0140       0.2126       2.4610       0.1659
   2777.5000       0.0170       0.2066       2.4400       0.1907
   2778.0000       0.0190       0.2098       2.4260       0.2154
   2778.5000       0.0080       0.2188       2.4260       0.2240
   2779.0000      -0.0060       0.2329       2.4370       0.2249
   2779.5000      -0.0080       0.2358       2.4520       0.2258
   2780.0000      -0.0110       0.2321       2.4630       0.2266
   2780.5000      -0.0060       0.2345       2.4660       0.2275
   2781.0000       0.0020       0.2402       2.4660       0.2284
   2781.5000       0.0090       0.2404       2.4700       0.2292
   2782.0000       0.0040       0.2298       2.4740       0.2301
   2782.5000       0.0000       0.2198       2.4760       0.2310
   2783.0000       0.0070       0.2156       2.4740       0.2318
   2783.5000       0.0160       0.2143       2.4710       0.2327
   2784.0000       0.0020       0.2359       2.4660       0.2327
   2784.5000      -0.0150       0.2283       2.4610       0.2296
   2785.0000      -0.0180       0.2205       2.4640       0.2265
   2785.5000      -0.0080       0.2183       2.4730       0.2234
   2786.0000       0.0020       0.2262       2.4770       0.2203
   2786.5000       0.0030       0.2320       2.4800       0.2172
   2787.0000       0.0040       0.2302       2.4840       0.2141
   2787.5000       0.0070       0.2259       2.4900       0.2146
   2788.0000       0.0190       0.2243       2.4940       0.2159
   2788.5000       0.0240       0.2258       2.4960       0.2172
   2789.0000       0.0170       0.2263       2.4980       0.2185
   2789.5000      -0.0090       0.2227       2.5020       0.2198
   2790.0000      -0.0240       0.2154       2.5050       0.2211
   2790.5000      -0.0080       0.1967       2.5210       0.2224
   2791.0000       0.0050       0.1858       2.5400       0.2229
   2791.5000       0.0080       0.1731       2.5560       0.2196
   2792.0000       0.0110       0.1698       2.5590       0.2163
   2792.5000       0.0130       0.1697       2.5560       0.2130
   2793.0000       0.0160       0.1681       2.5530       0.2097
   2793.5000       0.0030       0.1645       2.5490       0.2064
   2794.0000      -0.0020       0.1569       2.5480       0.2052
   2794.5000       0.0020       0.1548       2.5470       0.2162
