~VERSION INFORMATION
 VERS.                2.0:   CWLS LOG ASCII STANDARD - VERSION 2.0
 WRAP.                 NO:   ONE LINE PER DEPTH STEP
~WELL INFORMATION
#MNEM.UNIT      DATA TYPE    INFORMATION
#----------   ------------   ------------------------------
 STRT.F            0.0000:   START DEPTH
 STOP.F         4134.5000:   STOP DEPTH
 STEP.F            0.5000:   STEP LENGTH
 NULL.          -999.2500:   NO VALUE
 COMP. LAWRENCE ALLISON & ASSOCIATES:   COMPANY
 WELL. LAWRENCE NPR 3 "X" #72-10:   WELL
 FLD .            WILDCAT:   FIELD
 LOC .      S10 T38N R78W:   LOCATION
 CNTY.            NATRONA:   COUNTY
 STAT.            WYOMING:   STATE
 CTRY. UNITED STATES OF AMERICA:   COUNTRY
 SRVC.      DRESSER ATLAS:   SERVICE COMPANY
 DATE.        29-JUL-1983:   LOGDATE
 API .     49025109390000:   API NUMBER
~CURVE INFORMATION
#MNEM.UNIT       API CODE    CURVE DESCRIPTION
#----------   ------------   ------------------------------
 DEPT.F                  :   
 CALD.IN     45 280 60 00:   CALIPER FROM DENSITY LOG
 DEN .G/C3   45 350 01 00:   BULK DENSITY
 CORR.G/C3   45 356 01 00:   DENSITY CORRECTION
 TEND.LBS    45 635 01 00:   TENSION FROM DENSITY LOG
 NPHI.DEC    42 890 03 00:   NEUTRON POROSITY SANDSTONE
 GRD .GAPI   45 310 01 00:   GAMMA RAY FROM DENSITY LOG
 SPR .MV     07 010 01 00:   SPONTANEOUS POTENTIAL
 RILD.OHMM   07 120 46 00:   DEEP INDUCTION RESISTIVITY
 RILM.OHMM   07 120 44 00:   INDUCTION LOG MEDIUM RESISTIVITY
 RFOC.OHMM   07 220 04 00:   RESISTIVITY FOCUSED LOG RES.
 TENR.LBS    07 635 01 00:   TENSION FROM RESISTIVITY
 AC  .US/F   60 250 00 00:   ACCOUSTIC
 TENS.LBS    60 635 01 00:   TENSION FROM SONIC
 GRR .GAPI   07 310 01 00:   GAMMA RAY FROM RESISTIVITY
~PARAMETER INFORMATION
#MNEM.UNIT          VALUE    DESCRIPTION
#----------   ------------   ------------------------------
 EKB .F         5182.0000:   Kelly bushing
 EGL .F         5172.0000:   Ground level
 EDF .F            0.0000:   Drilling floor
 TD  .F         4139.0000:   Total depth
 DATE.        29-JUL-1983:   Date logged
 CLNT.            A2DTECH:   Client Code
 SL  . 900' FNL & 900' FEL:   Surface Location
 PD  .                 GL:   Permanent Datum
 EPD .F              5172:   Elevation Permanent Datum
 LMF .                 KB:   Log Measured From
 DMF .                 KB:   Drilling Measured From
 DAPD.F                10:   Feet Above Permanent Datum
 DD  .F              4139:   Depth driller
 DL  .F              4134:   Depth logger
 BLI .F              4132:   Bottom log interval
 CS1 .IN            9.625:   Casing size
 CBD1.      9.625" @ 476':   Casing driller 1
 BS1 .IN            7.875:   Bit size
 BSD1.F              4139:   Depth drilled with bit1
 DFT .               LSND:   Type fluid in hole
 DFD .                6.6:   Density
 DFV .                 41:   Viscosity
 DFPH.                8.5:   pH
 DFL .                 10:   Fluid loss
 MSS .           FLOWLINE:   Source of sample
 RMS .OHMM            .27:   Rm
 MST .F                91:   Rm Meas. temp.
 RMF .OHMM            .19:   Rmf
 MFST.F                87:   Rmf Meas. temp.
 RMC .OHMM            .34:   Rmc
 MCST.F                87:   Rmc Meas. temp.
 MFSS.               MEAS:   Source Rmf.
 MCSS.               CALC:   Source Rmc.
 RMB .OHMM            .19:   Rm. at BHT
 BHT .F               130:   BHT.
 TCS .HRS               3:   Time Circ. stopped
 MRT .F               130:   Maximum recorded temp.
 LUN .               6274:   Logging unit number
 LUL .               GLTF:   Logging unit location
 ENGI.             RAUTIC:   Recorded By
 WITN.             STRONG:   Witnessed by
 ORIG.           5" PRINT:   Origin of data
 UWI .     49025109390000:   Unique Well ID
 DICO. A2D TECHNOLOGIES, INC.:   Digitizing Company
~OTHER INFORMATION
~A    DEPT    CALD        DEN       CORR       TEND       NPHI        GRD        SPR       RILD       RILM       RFOC       TENR         AC       TENS         GRR  
# ...
 1445.5000     8.6690     2.5500     0.0350   -54.3560     0.2860   101.8980   -55.3850     7.9750     7.3610     8.1340   -56.9950  -999.2500  -999.2500   101.7510
 1446.0000     8.6740     2.5510     0.0450   -45.3120     0.2920   101.2070   -55.4320     8.0140     7.3880     8.0530   -56.6110  -999.2500  -999.2500   101.6040
 1446.5000     8.6790     2.5500     0.0500   -36.2670     0.2830   100.4160   -55.4790     8.0130     7.4140     7.9730   -56.2280  -999.2500  -999.2500   100.2100
 1447.0000     8.6840     2.5500     0.0280   -33.5830     0.2730    98.3030   -55.5260     8.0130     7.4450     7.9400   -55.8440  -999.2500  -999.2500    99.5550
 1447.5000     8.6980     2.5550     0.0080   -35.6930     0.2630    94.3950   -55.5730     8.0110     7.3870     8.0880   -55.4610  -999.2500  -999.2500    99.3630
 1448.0000     8.7430     2.5650    -0.0040   -37.7120     0.2590    93.5140   -55.6200     8.0140     7.5190     8.1620   -55.0780  -999.2500  -999.2500    97.9830
 1448.5000     8.7880     2.5760    -0.0160   -29.1410     0.2620    93.4230   -55.6660     8.0880     7.6540     8.3290   -54.6940  -999.2500  -999.2500    95.9650
 1449.0000     8.8330     2.5700     0.0040   -19.0110     0.2670    95.9070   -55.7150     8.0880     7.6050     8.5270   -54.3110  -999.2500  -999.2500    93.9430
 1449.5000     8.8770     2.5550     0.0270    -8.8810     0.2710   101.0940   -55.7280     8.0140     7.4990     8.7260   -53.9270  -999.2500  -999.2500    94.2140
 1450.0000     8.9220     2.5400     0.0210   -11.7860     0.2720   106.2200   -55.7290     7.8400     7.3930     8.8660   -53.5440  -999.2500  -999.2500    97.1260
 1450.5000     8.9670     2.5240     0.0160   -25.4520     0.2730   111.5050   -55.7290     7.7830     7.2870     8.5160   -53.1600  -999.2500  -999.2500    99.9620
 1451.0000     8.9970     2.5180     0.0230   -39.1190     0.2770   113.0370   -55.7280     7.7260     7.1810     8.1270   -52.8940  -999.2500  -999.2500   102.2870
 1451.5000     8.9240     2.5200     0.0400   -52.7860     0.2900   112.0530   -55.7280     7.6700     7.0750     7.7960   -52.8940  -999.2500  -999.2500   100.9870
 1452.0000     8.8500     2.5260     0.0640   -66.4530     0.2930   110.3590   -55.7280     7.5660     6.9890     7.6540   -52.8940  -999.2500  -999.2500    99.5520
 1452.5000     8.7760     2.5320     0.0670   -70.9600     0.2930   108.5060   -55.7280     7.4420     7.0540     7.5840   -52.8940  -999.2500  -999.2500   101.3280
 1453.0000     8.7190     2.5370     0.0640   -67.8070     0.2880   103.3450   -55.7280     7.3100     7.1180     7.5140   -52.8940  -999.2500  -999.2500   104.1410
 1453.5000     8.6940     2.5370     0.0600   -64.6540     0.2760    97.8820   -55.7280     7.3100     7.1830     7.5140   -52.8940  -999.2500  -999.2500   104.3470
 1454.0000     8.6690     2.5360     0.0490   -61.5010     0.2630    92.5050   -55.7280     7.3770     7.2480     7.5840   -52.8940  -999.2500  -999.2500   101.2770
 1454.5000     8.6680     2.5360     0.0360   -58.3480     0.2560    89.8200   -55.7280     7.3770     7.3120     7.9060   -52.8940  -999.2500  -999.2500    96.9220
 1455.0000     8.6690     2.5400     0.0260   -59.8720     0.2530    99.0040   -55.7280     7.6280     7.3770     8.2380   -52.8940  -999.2500  -999.2500    90.8580
 1455.5000     8.6690     2.5420     0.0290   -63.5410     0.2540   108.6610   -55.7290     7.8960     7.4450     8.5690   -52.8940  -999.2500  -999.2500    89.8930
 1456.0000     8.6690     2.5420     0.0310   -67.2100     0.2570   116.6940   -55.7290     8.1630     7.3490     8.7850   -54.8470  -999.2500  -999.2500    95.4930
 1456.5000     8.6690     2.5450     0.0340   -70.8790     0.2590   121.3970   -55.7280     8.3900     7.2200     8.5130   -57.8840  -999.2500  -999.2500   101.5730
 1457.0000     8.6690     2.5490     0.0380   -74.5480     0.2610   119.1280   -55.7150     8.2170     7.1110     8.2570   -57.8840  -999.2500  -999.2500   103.8900
 1457.5000     8.6690     2.5540     0.0420   -78.2170     0.2620   114.5120   -55.6350     8.0810     7.3600     7.8930   -57.8840  -999.2500  -999.2500    98.6940
 1458.0000     8.6690     2.5580     0.0470   -81.8860     0.2700   109.8970   -55.5560     7.9400     7.5760     7.9400   -57.8840  -999.2500  -999.2500    94.9130
 1458.5000     8.6690     2.5600     0.0520   -85.5550     0.2730   105.1090   -55.4770     7.9400     7.7920     8.1720   -57.8840  -999.2500  -999.2500    92.9930
 1459.0000     8.6690     2.5570     0.0520   -89.2240     0.2700   103.9180   -55.3980     7.9760     8.0140     8.3800   -57.8840  -999.2500  -999.2500    93.3610
 1459.5000     8.6690     2.5550     0.0500   -92.8930     0.2600   104.0220   -55.3200     8.1840     8.0330     8.4680   -57.8840  -999.2500  -999.2500    95.5120
 1460.0000     8.6620     2.5570     0.0590   -96.5630     0.2500   103.5630   -55.2410     8.3140     8.0520     8.4760   -57.8840  -999.2500  -999.2500    97.6710
 1460.5000     8.6540     2.5610     0.0730   -95.1050     0.2470   101.1140   -55.1610     8.3900     8.0720     8.4960   -57.8840  -999.2500  -999.2500    99.1050
 1461.0000     8.6460     2.5610     0.0830   -90.0600     0.2540   103.0710   -55.1330     8.3900     8.0880     8.5170   -57.8840  -999.2500  -999.2500   100.4970
 1461.5000     8.6390     2.5560     0.0640   -85.0150     0.2510   106.5140   -55.1660     8.3900     8.0040     8.5380   -57.8840  -999.2500  -999.2500   101.8770
 1462.0000     8.6310     2.5520     0.0520   -79.9700     0.2480   109.6550   -55.2430     8.3140     7.9190     8.5460   -57.8840  -999.2500  -999.2500   103.2500
 1462.5000     8.6230     2.5540     0.0420   -74.9250     0.2570   107.2490   -55.3190     8.3140     7.8680     8.4640   -57.8840  -999.2500  -999.2500   102.9150
 1463.0000     8.6160     2.5550     0.0320   -69.8800     0.2750   104.0670   -55.3960     8.3140     7.9020     8.3260   -57.8840  -999.2500  -999.2500   100.2970
 1463.5000     8.6080     2.5540     0.0370   -64.8350     0.2720   103.1570   -55.4740     8.2380     7.9310     8.1620   -57.8840  -999.2500  -999.2500    95.3000
 1464.0000     8.6000     2.5570     0.0430   -59.7900     0.2640   102.4290   -55.5800     8.2380     7.9600     8.4310   -57.8840  -999.2500  -999.2500    94.0170
 1464.5000     8.5920     2.5590     0.0490   -54.7450     0.2490   101.0290   -55.7830     8.2450     7.9890     8.6250   -57.8840  -999.2500  -999.2500    92.6770
 1465.0000     8.5890     2.5550     0.0520   -49.7000     0.2360   100.9810   -55.9820     8.2800     8.0180     8.6250   -57.8840  -999.2500  -999.2500    91.4440
 1465.5000     8.5890     2.5530     0.0450   -44.6550     0.2380   100.9860   -56.1830     8.3140     8.0470     8.6250   -57.8840  -999.2500  -999.2500    91.6820
 1466.0000     8.5890     2.5550     0.0380   -39.6100     0.2440   100.4720   -56.3460     8.3900     8.0760     8.6250   -57.8840  -999.2500  -999.2500    93.2540
 1466.5000     8.5890     2.5590     0.0310   -34.5650     0.2490    99.1810   -56.1390     8.3900     8.1050     8.6250   -57.8840  -999.2500  -999.2500    94.4380
 1467.0000     8.5890     2.5620     0.0290   -29.5200     0.2510    99.7900   -55.5440     8.3850     8.1340     8.6250   -57.8840  -999.2500  -999.2500    94.2820
 1467.5000     8.5890     2.5640     0.0320   -24.4760     0.2520   100.7200   -55.6890     8.3610     8.1620     8.7050   -57.8840  -999.2500  -999.2500    95.7800
 1468.0000     8.5890     2.5660     0.0380   -19.4310     0.2560   101.6570   -55.7340     8.3370     8.0840     8.7030   -57.8840  -999.2500  -999.2500    97.3140
 1468.5000     8.5890     2.5580     0.0590   -14.3860     0.2610   101.0050   -55.7620     8.3140     8.0090     8.7050   -57.7900  -999.2500  -999.2500    95.6340
 1469.0000     8.5890     2.5490     0.0630   -20.1150     0.2630   100.0580   -55.7970     8.1620     7.9340     8.7040   -57.4110  -999.2500  -999.2500    90.9230
 1469.5000     8.5890     2.5400     0.0510   -35.6370     0.2540    99.9900   -55.8330     8.0140     7.8590     8.7050   -57.0310  -999.2500  -999.2500    90.0090
