~VERSION INFORMATION
 VERS.                2.0:   CWLS LOG ASCII STANDARD - VERSION 2.0
 WRAP.                 NO:   ONE LINE PER DEPTH STEP
~WELL INFORMATION
#MNEM.UNIT      DATA TYPE    INFORMATION
#----------   ------------   ------------------------------
 STRT.F           50.5000:   START DEPTH
 STOP.F         5694.0000:   STOP DEPTH
 STEP.F            0.5000:   STEP LENGTH
 NULL.          -999.2500:   NO VALUE
 COMP. LAWRENCE ALLISON AND ASSOCIATES WEST:   COMPANY
 WELL. LAWRENCE "TX" #57-28:   WELL
 FLD .        TEAPOT DOME:   FIELD
 LOC .      S28 T39N R78W:   LOCATION
 CNTY.            NATRONA:   COUNTY
 STAT.            WYOMING:   STATE
 CTRY. UNITED STATES OF AMERICA:   COUNTRY
 SRVC.       SCHLUMBERGER:   SERVICE COMPANY
 DATE.        26-FEB-1982:   LOGDATE
 API .     49025108850000:   API NUMBER
~CURVE INFORMATION
#MNEM.UNIT       API CODE    CURVE DESCRIPTION
#----------   ------------   ------------------------------
 DEPT.F                  :   
 GRR .GAPI   11 310 01 00:   GAMMA RAY FROM RES.
 CALD.IN     45 280 60 00:   CALIPER FROM DENSITY LOG
 TEND.LBS    45 635 01 00:   TENSION FORM DENSITY LOG
 CORR.G/C3   45 356 01 00:   DENSITY CORRECTION
 RHOB.G/C3   45 350 01 00:   BULK DENSITY
 NPHI.DEC    42 890 03 00:   NEUTRON POROSITY SANDSTONE
 TENR.LBS    06 635 01 00:   TENSION FROM RESISTIVITY
 SPR .MV     11 010 01 00:   SPONTANEOUS POTENTIAL FROM RES.
 LLS .OHMM   11 220 09 00:   LATEROLOG LOG SHALLOW
 LLD .OHMM   11 220 10 00:   LATEROLOG DEEP
 MSFL.OHMM   11 270 04 00:   MICRO SPHERICALLY FOCUSED
~PARAMETER INFORMATION
#MNEM.UNIT          VALUE    DESCRIPTION
#----------   ------------   ------------------------------
 EKB .F         5101.0000:   Kelly bushing
 EGL .F         5091.0000:   Ground level
 EDF .F            0.0000:   Drilling floor
 TD  .F         3248.0000:   Total depth
 CLNT.            A2DTECH:   Client Code
 SL  . 950' FSL & 2100' FEL:   Surface Location
 PD  .                 GL:   Permanent Datum
 EPD .F              5091:   Elevation Permanent Datum
 LMF .                 KB:   Log Measured From
 DMF .                 KB:   Drilling Measured From
 DAPD.F                10:   Feet Above Permanent Datum
 DATE.        26-FEB-1982:   Date Logged [DD-MMM-YYYY]
 DD  .F              3243:   Depth driller
 DL  .F              3248:   Depth logger
 BLI .F              3216:   Bottom log interval
 TLI .F                 0:   Top log interval
 CS1 .IN            9.625:   Casing size
 CBD1.      9.625" @ 401':   Casing driller 1
 CBL1.F               401:   Casing logger 1
 BS1 .IN            7.875:   Bit size
 BSD1.F              3243:   Depth drilled with bit1
 DFT .           CHEM GEL:   Type fluid in hole
 DFD .                8.9:   Density
 DFV .                 55:   Viscosity
 DFPH.                9.5:   pH
 DFL .                 10:   Fluid loss
 MSS .            MUD PIT:   Source of sample
 RMS .OHMM           1.82:   Rm
 MST .F                76:   Rm Meas. temp.
 RMF .OHMM           1.64:   Rmf
 MFST.F                75:   Rmf Meas. temp.
 MFSS.               MEAS:   Source Rmf.
 RMB .OHMM           1.15:   Rm. at BHT
 BHT .F               120:   BHT.
 TCS .HRS            1330:   Time Circ. stopped
 TLAB.HRS            1715:   Time logger at bottom
 MRT .F               120:   Maximum recorded temp.
 LUN .               8043:   Logging unit number
 LUL .               CSPR:   Logging unit location
 ENGI.             TAYLOR:   Recorded By
 WITN.       FIVAS/STRONG:   Witnessed by
 ORIG.      1" 2.5" PRINT:   Origin of data
 UWI .     49025108850000:   Unique Well ID
 DICO. A2D TECHNOLOGIES, INC.:   Digitizing Company
~OTHER INFORMATION
~A   DEPT       GRR      CALD       TEND       CORR       RHOB       NPHI       TENR        SPR        LLS        LLD       MSFL   
# ...
 2887.0000   118.0065     9.7775  1199.1870    -0.0009     2.5234     0.2742  1180.0000   -80.1107     8.1741     7.5492     9.7619
 2887.5000   116.2323     9.7770  1199.1870     0.0013     2.5188     0.2709  1180.0000   -79.8165     8.5244     7.8372    10.7502
 2888.0000   114.3886     9.7765  1199.1870     0.0058     2.5111     0.2644  1180.0000   -79.5223     8.7478     8.1772    11.5146
 2888.5000   114.3016     9.7761  1209.9819     0.0087     2.5111     0.2575  1179.9844   -79.2281     8.7412     8.4531    11.6679
 2889.0000   118.6279     9.7755  1221.5898     0.0117     2.5171     0.2487  1179.9879   -78.9339     8.6880     8.5666    11.1754
 2889.5000   121.1659     9.7751  1233.1979     0.0116     2.5231     0.2344  1179.9852   -78.9480     8.6092     8.4442    11.0229
 2890.0000   122.8673     9.8056  1239.8374     0.0054     2.5276     0.2284  1179.9742   -78.7970     8.7219     8.5577    11.0563
 2890.5000   120.6466     9.8359  1239.8374     0.0010     2.5139     0.2229  1179.9546   -78.6667     8.9606     8.8018    11.4951
 2891.0000   117.8105     9.8355  1239.8374     0.0062     2.5181     0.2229  1179.9160   -78.6804     9.2059     9.2283    12.3653
 2891.5000   116.4296     9.8659  1239.8374     0.0105     2.5366     0.2242  1179.8700   -78.3853     9.7231     9.5468    13.6439
 2892.0000   120.3632     9.8654  1239.8374     0.0063     2.5441     0.2228  1179.8296   -78.3978     9.9892     9.5408    12.9728
 2892.5000   121.5682     9.8650  1239.8374    -0.0024     2.5289     0.2188  1180.0000   -78.1036     9.2721     8.9230    12.2645
 2893.0000   122.7732     9.8645  1239.8374    -0.0068     2.5197     0.2238  1191.0667   -78.1162     8.1376     7.7099    11.9211
 2893.5000   123.3689     9.8816  1239.8374    -0.0069     2.5192     0.2289  1208.1333   -78.1284     8.5608     6.9226    11.2702
 2894.0000   125.3459     9.8635  1239.8374    -0.0009     2.5257     0.2352  1216.5333   -77.8326     8.7958     6.5455     9.7543
 2894.5000   132.1686     9.8322  1239.8374     0.0021     2.5273     0.2456  1205.1555   -77.8471     8.7893     6.6337     8.9422
 2895.0000   136.6155     9.8009  1239.8374     0.0051     2.5225     0.2542  1193.7778   -77.8616     8.7835     6.9117     8.5230
 2895.5000   139.1643     9.7387  1239.8374     0.0114     2.5179     0.2621  1182.4000   -77.8733     8.9000     7.3193     8.9056
 2896.0000   131.0219     9.7037  1239.8374     0.0170     2.5197     0.2652  1180.0000   -77.8849     8.8936     7.7344    10.1400
 2896.5000   122.0549     9.6690  1239.8374     0.0104     2.5263     0.2627  1180.0000   -77.8965     8.8875     7.9275    11.0674
 2897.0000   123.2600     9.6343  1239.8374     0.0057     2.5299     0.2575  1180.0000   -77.9083     8.8813     7.7714    10.6093
 2897.5000   125.6845     9.6273  1239.8374     0.0025     2.5268     0.2455  1180.0000   -77.9205     8.8752     7.7014    10.3122
 2898.0000   126.2805     9.6265  1239.8374     0.0032     2.5222     0.2364  1180.0000   -77.9327     8.8678     7.8038    10.3054
 2898.5000   126.8832     9.6124  1239.8374     0.0047     2.5222     0.2290  1180.0000   -77.9450     8.8620     7.7997    10.6710
 2899.0000   128.0801     9.6120  1239.8374     0.0091     2.5251     0.2273  1180.0000   -77.8186     8.8562     8.0149    10.8127
 2899.5000   127.9260     9.6115  1239.8374     0.0106     2.5281     0.2261  1180.0000   -77.3578     8.8504     8.2360    10.9563
 2900.0000   124.9971     9.6111  1239.8374     0.0105     2.5311     0.2246  1180.0000   -77.3702     9.0926     8.4632    10.9490
 2900.5000   120.7114     9.6415  1239.8374     0.0090     2.5358     0.2234  1180.0000   -77.7567     9.9610     9.0064    11.1243
 2901.0000   113.3770     9.6720  1239.8374     0.0128     2.5401     0.2204  1180.0000   -77.3952    12.0195    10.9318    11.9789
 2901.5000    98.7254     9.6511  1239.8374     0.0194     2.5401     0.2174  1180.0000   -76.9492    14.9102    13.5391    14.0279
 2902.0000    92.9002     9.5685  1239.8374     0.0125     2.5303     0.2115  1180.0000   -76.5009    16.7220    17.8584    17.5772
 2902.5000    84.6910     9.2600  1239.8374     0.0035     2.5119     0.2074  1190.2222   -75.8385    17.4816    19.6690    19.6526
 2903.0000    78.7972     9.0527  1239.8374     0.0036     2.5126     0.1989  1201.6000   -75.5119    17.5863    20.7802    19.1611
 2903.5000    76.2117     9.0523  1239.8374     0.0162     2.5186     0.1882  1212.9778   -75.0551    17.3312    21.3535    17.2076
 2904.0000    73.3170     9.0518  1239.8374     0.0312     2.5134     0.1908  1215.1000   -74.4098    16.8473    19.9912    15.3926
 2904.5000    69.9539     9.0514  1239.8374     0.0346     2.4836     0.1991  1202.3000   -74.1183    15.9302    18.1258    10.7309
 2905.0000    71.7658     9.0509  1239.8374     0.0357     2.4554     0.2137  1189.5000   -73.8226    15.0489    16.9925    10.2873
 2905.5000    73.5777     9.0505  1239.8374     0.0334     2.4403     0.2162  1182.9333   -73.2232    15.3036    17.4127     9.1706
 2906.0000    74.7798     9.0500  1239.8374     0.0279     2.4202     0.2101  1194.3112   -72.9299    15.8651    17.9180     8.8219
 2906.5000    76.5917     9.0495  1239.8374     0.0205     2.4047     0.2026  1205.6888   -72.3073    16.2589    18.2706     9.9284
 2907.0000    71.9715     9.0491  1239.8374     0.0099     2.3970     0.1989  1217.0667   -72.0356    16.0172    17.7597    11.5308
 2907.5000    67.7238     9.0485  1234.6110     0.0097     2.3864     0.1980  1204.8000   -71.9598    15.5649    16.5610    12.1056
 2908.0000    64.7396     9.0481  1219.5873     0.0143     2.3818     0.2027  1184.3199   -71.6330    15.1254    15.8776    11.5050
 2908.5000    62.2185     9.0477  1204.6553     0.0140     2.3770     0.2066  1180.0000   -71.3062    14.9023    16.5719    11.3812
 2909.0000    60.5773     9.0472  1206.0702     0.0107     2.3570     0.2073  1180.0000   -70.8646    14.9268    17.2759    11.7494
 2909.5000    58.7958     9.0468  1217.6420     0.0032     2.3603     0.2047  1180.0000   -70.8762    15.2907    17.7773    12.5836
 2910.0000    56.3394     9.0463  1229.2476     0.0021     2.3751     0.1943  1184.0000   -70.8878    15.8772    18.2929    13.8555
 2910.5000    53.2733     9.0458  1239.6956     0.0066     2.3823     0.1834  1198.6285   -70.5936    17.2820    19.2123    14.0453
 2911.0000    50.2071     9.0454  1239.7509     0.0095     2.3877     0.1801  1213.2572   -70.6052    22.1355    24.1510    14.5821
 2911.5000    48.8693     9.0449  1239.7897     0.0050     2.3952     0.1718  1216.0571   -70.3110    29.1596    40.4093    20.6199
 2912.0000    46.7813     9.0752  1239.8374    -0.0071     2.4103     0.1521  1208.7428   -70.3242   113.5463    57.4664    52.9557
 2912.5000    43.5210     9.0748  1239.8374    -0.0072     2.4467     0.1298  1201.4286   -70.1261   196.1926   115.1659   114.1072
 2913.0000    40.5040     9.0744  1239.8374    -0.0072     2.4983     0.0926  1194.1143   -70.0428   215.9216   128.2683   164.9638
 2913.5000    40.0558     9.0739  1236.2369    -0.0057     2.5548     0.0582  1186.8000   -69.7516   215.7089   126.1533   186.3363
 2914.0000    42.1673     9.0735  1221.3705    -0.0039     2.5777     0.0436  1180.0000   -69.7632   212.5365   120.9399   232.4080
 2914.5000    46.4182     9.0730  1206.5040    -0.0008     2.5850     0.0363  1183.6533   -69.7748   203.6982   115.9420   314.9888
 2915.0000    50.6691     9.0725  1205.0587     0.0030     2.5892     0.0345  1187.0667   -69.7864   191.7570   109.5407   620.5045
 2915.5000    54.3103     9.0721  1216.6215     0.0132     2.5898     0.0346  1190.5106   -69.7982   162.6924    94.6524  1035.1768
 2916.0000    59.2196     9.0716  1228.1843     0.0287     2.5875     0.0382  1193.9065   -69.5038   108.1275    58.3879   964.6165
 2916.5000    62.4419     9.1020  1239.8374     0.0346     2.5769     0.0447  1197.3120   -69.4428    71.3549    41.8068   410.1025
 2917.0000    61.6064     9.0706  1239.8374     0.0467     2.5602     0.0598  1200.7275   -68.8103    46.8426    29.4953    82.7180
