~VERSION INFORMATION
 VERS.                2.0:   CWLS LOG ASCII STANDARD - VERSION 2.0
 WRAP.                 NO:   ONE LINE PER DEPTH STEP
~WELL INFORMATION
#MNEM.UNIT      DATA TYPE    INFORMATION
#----------   ------------   ------------------------------
 STRT.F           57.0000:   START DEPTH
 STOP.F         5817.0000:   STOP DEPTH
 STEP.F            0.5000:   STEP LENGTH
 NULL.          -999.2500:   NO VALUE
 COMP. DEPARTMENT OF ENERGY:   COMPANY
 WELL. DEPARTMENT NPR 371 "X" #1-4:   WELL
 FLD .              NPR-3:   FIELD
 LOC .       S4 T38N R78W:   LOCATION
 CNTY.            NATRONA:   COUNTY
 STAT.            WYOMING:   STATE
 CTRY. UNITED STATES OF AMERICA:   COUNTRY
 SRVC.       SCHLUMBERGER:   SERVICE COMPANY
 DATE.        25-AUG-2002:   LOGDATE
 API .     49025230480000:   API NUMBER
~CURVE INFORMATION
#MNEM.UNIT       API CODE    CURVE DESCRIPTION
#----------   ------------   ------------------------------
 DEPT.F                  :   
 HCAL.IN     07 280 01 00:   HRLT CALIPER
 RLA1.OHMM   06 120 01 00:   HRLT RESISTIVITY 1
 RLA2.OHMM   06 120 02 00:   HRLT RESISTIVITY 2
 RLA3.OHMM   06 120 03 00:   HRLT RESISTIVITY 3
 RXOZ.OHMM   06 270 04 00:   STAN RES. MICROCFL RESISTIVITY
 TENR.LBS    06 635 01 00:   TENSION FROM RESITIVITY
 GRR .GAPI   07 310 01 00:   GAMMA RAY FROM RESISTIVITY
 SPHI.DEC    60 890 22 00:   SONIC POROSITY SANDSTONE
 DT  .US/F   60 520 00 00:   DELTA TIME
 TENS.LBS    60 635 01 00:   TENSION FROM SONIC
 RT  .OHMM   06 120 00 00:   HRLT TRUE RESISTIVITY
~PARAMETER INFORMATION
#MNEM.UNIT          VALUE    DESCRIPTION
#----------   ------------   ------------------------------
 EKB .F         5196.0000:   Kelly bushing
 EGL .F         5186.0000:   Ground level
 EDF .F         5194.0000:   Drilling floor
 TD  .F         5803.0000:   Total depth
 CLNT.            A2DTECH:   Client Code
 SL  . 794' FEL & 333' FNL:   Surface Location
 PD  .                 GL:   Permanent Datum
 EPD .F              5186:   Elevation Permanent Datum
 LMF .                 KB:   Log Measured From
 DMF .                 KB:   Drilling Measured From
 DAPD.F                10:   Feet Above Permanent Datum
 DATE.        25-AUG-2002:   Date Logged [DD-MMM-YYYY]
 DD  .F              5800:   Depth driller
 DL  .F              5803:   Depth logger
 BLI .F              5803:   Bottom log interval
 TLI .F               656:   Top log interval
 CS1 .IN            9.625:   Casing size
 CBD1.      9.625" @ 660':   Casing driller 1
 CBL1.F               656:   Casing logger 1
 BS1 .IN            8.750:   Bit size
 BSD1.F              5800:   Depth drilled with bit1
 DFT .           GEL CHEM:   Type fluid in hole
 DFD .                  9:   Density
 DFV .                 36:   Viscosity
 DFPH.                8.5:   pH
 DFL .                7.6:   Fluid loss
 MSS .           FLOWLINE:   Source of sample
 RMS .OHMM          0.846:   Rm
 MST .F                90:   Rm Meas. temp.
 RMF .OHMM          0.670:   Rmf
 MFST.F                90:   Rmf Meas. temp.
 MFSS.               MEAS:   Source Rmf.
 RMC .OHMM          1.075:   Rmc
 MCST.F                90:   Rmc Meas. temp.
 MCSS.               CALC:   Source Rmc.
 TCS .HRS            0300:   Time Circ. stopped
 TLAB.HRS            0915:   Time logger at bottom
 MRT .F               156:   Maximum recorded temp.
 LUN .               2211:   Logging unit number
 LUL .             CASPER:   Logging unit location
 ENGI.        J.L. FLORES:   Recorded By
 WITN.        STEVE HARDY:   Witnessed by
 ORIG.        2" 5" PRINT:   Origin of data
 UWI .     49025230480000:   Unique Well ID
 DICO. A2D TECHNOLOGIES, INC.:   Digitizing Company
~OTHER INFORMATION
~A   DEPT     HCAL       RLA1       RLA2       RLA3       RXOZ       TENR         GRR      SPHI         DT       TENS         RT   
# ...
 2039.5000     9.6985    11.5727    11.9323    12.2877     9.7648  1550.0000   127.5746  -999.2500    92.9891  1153.3148    12.4036
 2040.0000     9.6983    11.4136    11.9308    12.1176     9.8998  1600.0000   131.6478  -999.2500    92.9960  1153.6239    12.2318
 2040.5000     9.6982    11.4136    11.9290    12.1169     9.6263  1550.0000   130.2804  -999.2500    93.2948  1153.9156    12.1551
 2041.0000     9.6980    11.4136    11.9272    12.1160     9.2322  1550.0000   130.9668  -999.2500    93.5984  1154.2657    12.0637
 2041.5000     9.6979    11.2535    11.7617    11.7840     9.2301  1565.1458   130.9668  -999.2500    93.5998  1154.5511    12.0637
 2042.0000     9.6977    10.7984    11.2813    11.3818     9.0979  1610.0002   130.9668  -999.2500    93.6012  1169.8795    12.0637
 2042.5000     9.6975    10.2875    10.9717    11.0699     8.3726  1662.6808   123.7160  -999.2500    93.7541  1155.1205    11.4929
 2043.0000     9.6974    10.0759    11.1231    11.3018     8.3707  1665.3987   130.7402  -999.2500    93.9065  1155.4216    10.9490
 2043.5000     9.6972    10.9490    11.5135    11.7807     8.6045  1617.0288   132.7794  -999.2500    94.3611  1170.8239    10.7984
 2044.0000     9.6971    11.2566    11.9177    11.9444     9.3492  1620.2899   128.2477  -999.2500    94.5892  1171.0845    11.4136
 2044.5000     9.6819    11.4929    11.9987    12.0316     9.7451  1622.4999   129.3807  -999.2500    94.8172  1171.3944    12.1475
 2045.0000     9.6666    11.4929    12.0806    12.1095     9.8785  1625.1810   130.7402  -999.2500    94.8190  1171.6868    12.1475
 2045.5000     9.6363    11.2566    12.0855    12.1926     9.8767  1627.8982   131.1934  -999.2500    94.6690  1172.0363    12.0637
 2046.0000     9.6362    11.1017    12.2458    12.1076     9.8062  1630.0723   129.1541  -999.2500    94.3683  1172.2893    12.2320
 2046.5000     9.6360    11.1789    11.5837    11.7759     9.6025  1632.7902   127.3414  -999.2500    94.2945  1168.7245    11.9805
 2047.0000     9.6359    11.4136    11.7441    12.1060     9.4680  1635.0001   125.5287  -999.2500    94.0697  1157.8313    11.5727
 2047.5000     9.6357    11.4929    12.0718    12.2742     9.6653  1637.6813   123.7160  -999.2500    93.8442  1158.1885    12.0637
 2048.0000     9.6205    11.4929    11.7406    12.0207    10.0041  1640.3984   123.2628  -999.2500    93.6194  1173.5339    12.0637
 2048.5000     9.6053    11.4136    11.3393    11.7725     9.8644  1592.0293   130.7402  -999.2500    93.7719  1173.7952    11.3348
 2049.0000     9.6051    10.7984    11.1048    11.4499     9.7940  1595.2896   137.3343  -999.2500    94.0758  1174.0964    11.1017
 2049.5000     9.6351    10.3589    10.7998    11.2135     9.5902  1544.1379   137.3219  -999.2500    94.2283  1174.3976    11.0251
 2050.0000     9.6953    10.2163    10.6499    10.9821     9.2129  1499.6349   132.7803  -999.2500    94.3053  1189.7704    10.7984
 2050.5000     9.7403    10.2145    10.6479    10.8289     8.9461  1505.1289   131.1818  -999.2500    94.3067  1189.9097    10.7239
 2051.0000     9.8156    10.3554    10.4995    10.6778     8.9461  1510.6229   131.1707  -999.2500    94.5317  1159.9238    11.0251
 2051.5000     9.8456     9.9321    10.2820    10.3843     8.4632  1515.0188   137.0507  -999.2500    94.4562  1160.0950    10.2851
 2052.0000     9.8756     9.7936    10.4235    10.5272     8.2317  1520.5128   136.3585  -999.2500    94.6073  1160.2660    10.3589
 2052.5000     9.8301     9.9288    10.4943    10.6726     8.4632  1524.9991   136.3486  -999.2500    94.7583  1160.4030    10.5764
 2053.0000     9.7696    10.1352    10.4923    10.6705     8.8228  1530.4027   135.2033  -999.2500    94.9094  1160.5422    10.7239
 2053.5000     9.7091    10.1333    10.4184    10.5217     9.3262  1535.8967   132.0211  -999.2500    94.7583  1160.7109    10.5034
 2054.0000     9.7089    10.0619    10.4892    10.6669     9.3220  1540.2925   128.1568  -999.2500    94.6073  1160.8479    10.3589
 2054.5000     9.7540     9.9216    10.6335    10.6649     9.1977  1545.7865   128.1469  -999.2500    94.3807  1161.0190    10.5034
 2055.0000     9.7538     9.9201    10.5581    10.6633     9.1977  1550.1824   127.9079  -999.2500    94.3051  1161.1560    10.5764
 2055.5000     9.7385    10.0569    10.6298    10.6613     9.2617  1555.6764   124.4967  -999.2500    94.0030  1161.2953    10.6499
 2056.0000     9.7082    10.0550    10.7761    10.8832     9.5223  1560.0723   127.4324  -999.2500    93.7764  1161.4640    10.6499
 2056.5000     9.6929    10.1937    10.9243    10.9577     9.7918  1565.5692   138.5227  -999.2500    93.6254  1161.6010    10.9490
 2057.0000     9.6927    10.0513    10.9222    11.1085     9.9269  1570.0010   141.0052  -999.2500    93.3988  1161.7721    11.1017
 2057.5000     9.6925    10.0497    10.8452    10.9536     9.7225  1575.4591   140.9928  -999.2500    93.2477  1161.9091    11.1017
 2058.0000     9.6923    10.0478    10.7683    10.8007     9.7225  1580.9531   140.9829  -999.2500    93.0967  1163.0522    10.9490
 2058.5000     9.7072    10.1864    10.9169    10.9498     9.9960  1585.3489   136.2121  -999.2500    93.0211  1177.2773    10.8735
 2059.0000     9.7221    10.4706    10.9907    11.1010    10.0655  1590.8429   133.4819  -999.2500    93.0211  1177.4097    11.1017
 2059.5000     9.7521    10.6150    11.0654    11.0218     9.9269  1595.2388   132.1113  -999.2500    93.0211  1177.5853    11.2566
 2060.0000     9.7670    10.4670    10.6130    10.7934     9.7901  1600.7328   134.2764  -999.2500    92.9456  1172.6854    10.9762
 2060.5000     9.8120    10.1791    10.6110    10.7173     9.8583  1605.1287   134.8187  -999.2500    92.7946  1162.8011    10.6637
 2061.0000     9.8269    10.2483    10.6845    10.9400     9.8583  1510.4648   135.2719  -999.2500    92.6435  1162.9519    10.6809
 2061.5000     9.8720    10.4619    10.9058    11.0910     9.9960  1515.1162   140.4834  -999.2500    92.5680  1163.1071    10.8439
 2062.0000     9.8718    10.9033    11.5244    11.6401    10.0655  1520.9297   137.3112  -999.2500    92.6435  1163.2781    11.4981
 2062.5000     9.8867    11.0537    11.7650    11.8828    10.4207  1525.0001   131.6465  -999.2500    92.6435  1163.4036    12.3193
 2063.0000     9.9016    10.9753    11.5205    11.5558    10.3487  1530.2324   125.9819  -999.2500    92.4924  1163.5542    12.2501
 2063.5000     9.8787    10.6002    11.1267    11.0830    10.1356  1585.0010   123.4894     0.2976    92.3414  1163.7048    11.6049
 2064.0000     9.8710    10.3086    11.0479    11.0052     9.4565  1539.5353   123.4894     0.2952    91.8804  1163.8555    10.9937
 2064.5000     9.8708    10.4508    11.3560    11.3907     9.9269  1545.3486   124.8489     0.2940    91.8127  1179.0663    11.4786
 2065.0000     9.8254    10.3051    11.4337    11.5479    10.2061  1550.0001   127.3414     0.2952    92.1903  1179.2284    12.0644
 2065.5000     9.8177     9.3512     9.5475    10.0514     8.7013  1555.8135   131.6465  -999.2500    92.3414  1179.3676    11.5245
 2066.0000     9.8100     8.6640     9.0944     9.2476     7.6801  1509.3029   140.5966  -999.2500    92.2659  1179.5364     9.1088
 2066.5000     9.8022     9.4784    10.2998    10.4746     8.0622  1515.1163   150.0000  -999.2500    92.4989  1179.6687     9.1839
 2067.0000     9.7870    10.1565    11.0366    11.1471     9.0710  1520.9298   150.0000  -999.2500    93.2477  1179.8193    11.3192
 2067.5000     9.7641    10.2966    10.8828    10.9916     9.7929  1525.5812   149.7734  -999.2500    93.7764  1179.9700    11.4163
 2068.0000     9.7489    10.2943    11.0329    10.9895     9.7225  1580.2325   142.4093  -999.2500    93.7009  1165.0580    11.2739
 2068.5000     9.7487    10.2927    11.0308    11.0643     9.8583  1585.0011   134.1390  -999.2500    93.5499  1165.2291    11.2069
 2069.0000     9.7334    10.2908    11.0287    11.2170     9.9960  1539.5353   134.3656  -999.2500    93.3988  1165.3660    11.2254
 2069.5000     9.7181    10.3607    11.0270    11.2145    10.0655  1595.3488   136.8580  -999.2500    93.6254  1165.5121    11.2432
