~VERSION INFORMATION
 VERS.                2.0:   CWLS LOG ASCII STANDARD - VERSION 2.0
 WRAP.                 NO:   ONE LINE PER DEPTH STEP
~WELL INFORMATION
#MNEM.UNIT      DATA TYPE    INFORMATION
#----------   ------------   ------------------------------
 STRT.F         2200.0000:   START DEPTH
 STOP.F         3200.0000:   STOP DEPTH
 STEP.F            0.5000:   STEP LENGTH
 NULL.          -999.2500:   NO VALUE
 COMP.   LAWRENCE ALLISON:   COMPANY
 WELL. LAWRENCE "X" #18-34:   WELL
 FLD .          NPR NO. 3:   FIELD
 LOC .      S34 T39N R78W:   LOCATION
 CNTY.            NATRONA:   COUNTY
 STAT.            WYOMING:   STATE
 CTRY. UNITED STATES OF AMERICA:   COUNTRY
 SRVC.      DRESSER ATLAS:   SERVICE COMPANY
 DATE.        14-MAY-1986:   LOGDATE
 API .     49025110720000:   API NUMBER
~CURVE INFORMATION
#MNEM.UNIT       API CODE    CURVE DESCRIPTION
#----------   ------------   ------------------------------
 DEPT.F                  :   
 CALD.IN     45 280 60 00:   CALIPER FROM DENSITY LOG
 GRD .GAPI   45 310 01 00:   GAMMA RAY FROM DENSITY LOG
 TEND.LBS    45 635 01 00:   TENSION FORM DENSITY LOG
 CORR.G/C3   45 356 01 00:   DENSITY CORRECTION
 DEN .G/C3   45 350 01 00:   BULK DENSITY
 CNC .DEC    42 890 03 00:   NEUTRON POROSITY SANDSTONE
~PARAMETER INFORMATION
#MNEM.UNIT          VALUE    DESCRIPTION
#----------   ------------   ------------------------------
 EKB .F         5192.0000:   Kelly bushing
 EGL .F         5181.0000:   Ground level
 EDF .F         5189.0000:   Drilling floor
 TD  .F         3195.0000:   Total depth
 CLNT.            A2DTECH:   Client Code
 SL  . 722' FWL & 239' FSL:   Surface Location
 PD  .                 GL:   Permanent Datum
 EPD .F              5181:   Elevation Permanent Datum
 LMF .                 KB:   Log Measured From
 DMF .                 KB:   Drilling Measured From
 DAPD.F                11:   Feet Above Permanent Datum
 DATE.        14-MAY-1986:   Date Logged [DD-MMM-YYYY]
 DD  .F              3195:   Depth driller
 DL  .F              3194:   Depth logger
 BLI .F              3192:   Bottom log interval
 TLI .F                 0:   Top log interval
 CS1 .IN            8.625:   Casing size
 CBD1.      8.625" @ 601':   Casing driller 1
 CBL1.F               596:   Casing logger 1
 BS1 .IN            7.875:   Bit size
 BSD1.F              3195:   Depth drilled with bit1
 DFT .        POLYMER-KCL:   Type fluid in hole
 DFD .                  9:   Density
 DFV .                 35:   Viscosity
 DFPH.                9.5:   pH
 DFL .               16.2:   Fluid loss
 MSS .           FLOWLINE:   Source of sample
 RMS .OHMM          0.378:   Rm
 MST .F                65:   Rm Meas. temp.
 RMF .OHMM          0.306:   Rmf
 MFST.F                65:   Rmf Meas. temp.
 MFSS.               MEAS:   Source Rmf.
 RMC .OHMM          0.472:   Rmc
 MCST.F                65:   Rmc Meas. temp.
 MCSS.               CALC:   Source Rmc.
 RMB .OHMM          0.208:   Rm. at BHT
 BHT .F               118:   BHT.
 TCS .HRS               3:   Time Circ. stopped
 MRT .F               118:   Maximum recorded temp.
 LUN .            HL-6274:   Logging unit number
 LUL .           GILLETTE:   Logging unit location
 ENGI.             RAUTIO:   Recorded By
 WITN.             STRONG:   Witnessed by
 ORIG.           5" PRINT:   Origin of data
 UWI .     49025110720000:   Unique Well ID
 DICO. A2D TECHNOLOGIES, INC.:   Digitizing Company
~OTHER INFORMATION
~A  DEPT        CALD      GRD        TEND        CORR        DEN        CNC 
# ...
 2824.0000     8.8434    98.5092   -44.0094     0.0990     2.5970     0.2131
 2824.5000     8.8584   100.9137   -51.1628     0.1383     2.5977     0.2221
 2825.0000     8.8884   103.6199   -58.3164     0.1216     2.5930     0.2315
 2825.5000     8.9184   106.1008   -57.8597     0.0808     2.5841     0.2370
 2826.0000     8.9484   106.9206   -57.4945     0.0300     2.5750     0.2367
 2826.5000     8.9784   104.1947   -49.6104     0.0021     2.5735     0.2400
 2827.0000     8.9330   102.6777   -41.7264    -0.0040     2.5765     0.2461
 2827.5000     8.9178   104.1772   -41.3535     0.0171     2.5817     0.2497
 2828.0000     8.9025   106.2800   -33.3857     0.0458     2.5840     0.2458
 2828.5000     8.8873   108.3829   -33.0203     0.0412     2.5740     0.2373
 2829.0000     8.8872   109.8866   -40.2651     0.0200     2.5626     0.2310
 2829.5000     8.8870   109.2274   -39.8085    -0.0027     2.5530     0.2301
 2830.0000     8.8869   107.1477   -39.4432     0.0068     2.5605     0.2358
 2830.5000     8.8867   108.0439   -46.6881     0.0259     2.5703     0.2371
 2831.0000     8.8866   110.4484   -46.2314     0.0047     2.5710     0.2331
 2831.5000     8.8864   111.6485   -53.3850    -0.0149     2.5663     0.2265
 2832.0000     8.8862   110.4314   -53.0075    -0.0044     2.5627     0.2180
 2832.5000     8.8861   108.6107   -52.5631     0.0091     2.5642     0.2138
 2833.0000     8.8709   107.0936   -44.6789     0.0015     2.5673     0.2108
 2833.5000     8.8556   105.8782   -44.3138    -0.0078     2.5731     0.2087
 2834.0000     8.8404   104.6628   -43.9484    -0.0008     2.5807     0.2099
 2834.5000     8.8403   102.8441   -43.5832     0.0075     2.5852     0.2145
 2835.0000     8.8552    99.5171   -50.7519    -0.0047     2.5746     0.2163
 2835.5000     8.8701    98.3016   -57.8948    -0.0138     2.5670     0.2187
 2836.0000     8.8700    98.2926   -57.5188     0.0073     2.5625     0.2224
 2836.5000     8.8547    96.1703   -57.0683     0.0163     2.5655     0.2305
 2837.0000     8.8546    97.9715   -49.1842     0.0238     2.5747     0.2263
 2837.5000     8.8544   100.0743   -41.3002     0.0284     2.5805     0.2218
 2838.0000     8.8543    98.5573   -33.4160     0.0419     2.5842     0.2091
 2838.5000     8.8541    95.8335   -33.0508     0.0388     2.5880     0.1928
 2839.0000     8.8540    93.7132   -32.6855     0.0252     2.5917     0.1888
 2839.5000     8.8538    93.1011   -32.3201     0.0145     2.5910     0.1879
 2840.0000     8.8537    92.4887   -31.9549     0.0024     2.5872     0.1883
 2840.5000     8.8535    94.2880   -31.5789    -0.0022     2.5819     0.1895
 2841.0000     8.8534    94.5830   -31.1330     0.0023     2.5763     0.1931
 2841.5000     8.8683    93.3654   -30.7676     0.0146     2.5690     0.1971
 2842.0000     8.8682    92.1500   -30.4024    -0.0008     2.5645     0.2007
 2842.5000     8.8831    93.9512   -30.0371    -0.0114     2.5614     0.2031
 2843.0000     8.8830    97.5624   -29.6719    -0.0084     2.5637     0.2086
 2843.5000     8.8677   100.2685   -29.3065     0.0187     2.5682     0.2164
 2844.0000     8.8675    97.9258   -36.4662     0.0109     2.5681     0.2170
 2844.5000     8.8674    95.1206   -36.0902    -0.0146     2.5681     0.2128
 2845.0000     8.8522    92.3969   -35.7143    -0.0162     2.5719     0.2131
 2845.5000     8.8369    89.6739   -35.2728     0.0110     2.5696     0.2101
 2846.0000     8.8368    93.2850   -34.9077     0.0291     2.5560     0.2113
 2846.5000     8.8216    99.1438   -42.1524     0.0139     2.5462     0.2174
 2847.0000     8.8214   104.1250   -41.6959     0.0124     2.5451     0.2295
 2847.5000     8.8213   105.6245   -41.3305     0.0184     2.5474     0.2401
 2848.0000     8.8060   106.8224   -40.9653     0.0123     2.5487     0.2425
 2848.5000     8.8059   109.2269   -40.6000     0.0319     2.5513     0.2404
 2849.0000     8.8057   113.4414   -40.2256     0.0409     2.5620     0.2408
 2849.5000     8.8206   124.5940   -39.7781     0.0544     2.5664     0.2459
 2850.0000     8.8205   136.6516   -47.0228     0.0740     2.5611     0.2537
 2850.5000     8.8204   142.1106   -44.6068     0.0906     2.5528     0.2589
 2851.0000     8.8206   140.5534   -40.8543     0.1072     2.5422     0.2652
 2851.5000     8.8209   136.6231   -38.5543     0.1086     2.5460     0.2736
 2852.0000     8.8211   138.3051   -38.2639     0.0995     2.5467     0.2940
 2852.5000     8.8213   144.6989   -37.9699     0.0647     2.5406     0.3100
 2853.0000     8.8214   154.7327   -45.1294     0.0314     2.5328     0.3324
 2853.5000     8.8216   173.7343   -52.3579     0.0329     2.5127     0.3539
 2854.0000     8.8217   199.6669   -59.5863     0.0406     2.4584     0.3717
 2854.5000     8.8219   213.5470   -66.8874     0.0585     2.4192     0.3847
 2855.0000     8.8069   221.0863   -59.0056     0.0554     2.4018     0.3672
 2855.5000     8.7900   213.2395   -51.1965     0.0463     2.4010     0.3571
 2856.0000     8.7620   203.2818   -43.3835     0.0493     2.4048     0.3597
 2856.5000     8.7923   177.6377   -43.0244     0.0674     2.3498     0.3533
 2857.0000     8.8377   172.8082   -42.7340     0.1157     2.1597     0.3391
 2857.5000     9.3205   168.2804   -49.9626     0.1791     2.0458     0.3213
 2858.0000    11.4172   155.0045   -49.6721     0.1941     2.0000     0.2974
 2858.5000    11.0101   133.5330   -49.3819     0.1488     2.0000     0.2869
 2859.0000     8.5517   109.7491   -49.0977    -0.0084     2.1294     0.2767
 2859.5000     8.5670   104.9196   -48.7969    -0.0598     2.3406     0.2676
 2860.0000     8.5671   100.6935   -48.4382    -0.0145     2.5261     0.2612
 2860.5000     8.5673    99.1830   -55.7391     0.0293     2.5774     0.2647
 2861.0000     8.5523   100.9893   -55.3763     0.0504     2.5645     0.2673
 2861.5000     8.5374   101.8914   -47.5671     0.0687     2.5464     0.2688
 2862.0000     8.5225   103.1596   -47.2768     0.0850     2.5238     0.2676
 2862.5000     8.5226   105.5047   -46.9864     0.0593     2.5094     0.2591
 2863.0000     8.5228   105.2002   -46.2360     0.0192     2.5064     0.2445
 2863.5000     8.5229    99.7674   -38.8143     0.0063     2.5222     0.2333
 2864.0000     8.5080    90.7147   -38.5240     0.0108     2.5552     0.2048
 2864.5000     8.5082    82.8687   -38.2336     0.0183     2.5961     0.1594
 2865.0000     8.5083    79.2458   -37.9433     0.0032     2.6119     0.1461
 2865.5000     8.5235    75.3213   -37.6529    -0.0059     2.6179     0.1439
 2866.0000     8.5237    77.1277   -37.3627    -0.0075     2.6126     0.1445
 2866.5000     8.5389    79.8397   -37.0722     0.0095     2.6104     0.1473
 2867.0000     8.5391    81.3458   -44.3008     0.0362     2.6096     0.1582
 2867.5000     8.5543    81.0405   -43.9377     0.0483     2.6096     0.1682
 2868.0000     8.5695    84.0542   -51.2389     0.0588     2.6118     0.1842
 2868.5000     8.5697    89.1795   -50.8759     0.0648     2.6126     0.1955
 2869.0000     8.5849    94.6747   -50.5856     0.0617     2.6125     0.2076
 2869.5000     8.6002    96.4135   -50.2952     0.0526     2.6065     0.2067
 2870.0000     8.6154    91.2816   -50.0000     0.0420     2.6005     0.1909
 2870.5000     8.6004    87.6588   -42.1231     0.0404     2.5944     0.1842
 2871.0000     8.5855    84.3376   -41.8328     0.0283     2.5838     0.1824
 2871.5000     8.5857    81.9214   -41.5424     0.0116     2.5684     0.1861
 2872.0000     8.5859    83.4268   -41.2521    -0.0322     2.5491     0.2009
 2872.5000     8.5860    87.2208   -33.4429    -0.0534     2.5453     0.2115
 2873.0000     8.5861    95.1850   -33.1525    -0.0519     2.5483     0.2233
 2873.5000     8.5863    99.7070   -32.8571    -0.0429     2.5513     0.2215
 2874.0000     8.6015   100.3081   -32.4994    -0.0194     2.5604     0.2170
 2874.5000     8.5866    96.9862   -32.2089     0.0159     2.5664     0.2127
 2875.0000     8.5867    93.6650   -31.9185     0.0415     2.5671     0.2142
 2875.5000     8.5869    92.7571   -24.1095     0.0309     2.5625     0.2218
