~VERSION INFORMATION
 VERS.                2.0:   CWLS LOG ASCII STANDARD - VERSION 2.0
 WRAP.                 NO:   ONE LINE PER DEPTH STEP
~WELL INFORMATION
#MNEM.UNIT      DATA TYPE    INFORMATION
#----------   ------------   ------------------------------
 STRT.F           60.0000:   START DEPTH
 STOP.F         3178.0000:   STOP DEPTH
 STEP.F            0.5000:   STEP LENGTH
 NULL.          -999.2500:   NO VALUE
 COMP. LAWRENCE-ALLISON & ASSOSCIATES:   COMPANY
 WELL. LAWRENCE "AX" #46-21:   WELL
 FLD .             NPR #3:   FIELD
 LOC .      S21 T39N R78W:   LOCATION
 CNTY.            NATRONA:   COUNTY
 STAT.            WYOMING:   STATE
 CTRY. UNITED STATES OF AMERICA:   COUNTRY
 SRVC.       SCHLUMBERGER:   SERVICE COMPANY
 DATE.        03-JUN-1982:   LOGDATE
 API .     49025108890000:   API NUMBER
~CURVE INFORMATION
#MNEM.UNIT       API CODE    CURVE DESCRIPTION
#----------   ------------   ------------------------------
 DEPT.F                  :   
 TEND.LBS    45 635 01 00:   TENSION FORM DENSITY LOG
 CALD.IN     45 280 60 00:   CALIPER FROM DENSITY LOG
 CORR.G/C3   45 356 01 00:   DENSITY CORRECTION
 RHOB.G/C3   45 350 01 00:   BULK DENSITY
 NPHI.DEC    42 890 03 00:   NEUTRON POROSITY SANDSTONE
 GRR .GAPI   07 310 01 00:   GAMMA RAY FROM RESISTIVITY
 SPR .MV     07 010 01 00:   SPONTANEOUS POTENTIAL
 SFL .OHMM   07 220 01 00:   SHALLOW FOCUSED LOG RESISTIVITY
 ILD .OHMM   07 120 46 00:   DEEP INDUCTION RESISTIVITY
 ILM .OHMM   07 120 44 00:   INDUCTION LOG MEDIUM RESISTIVITY
 TENR.LBS    07 635 01 00:   TENSION FROM RESISTIVITY
~PARAMETER INFORMATION
#MNEM.UNIT          VALUE    DESCRIPTION
#----------   ------------   ------------------------------
 EKB .F         5008.0000:   Kelly bushing
 EGL .F         4998.0000:   Ground level
 EDF .F         5007.0000:   Drilling floor
 TD  .F         3230.0000:   Total depth
 CLNT.            A2DTECH:   Client Code
 SL  . 1864' FSL & 2484' FWL:   Surface Location
 PD  .                 GL:   Permanent Datum
 EPD .F              4998:   Elevation Permanent Datum
 LMF .                 KB:   Log Measured From
 DMF .                 KB:   Drilling Measured From
 DAPD.F                10:   Feet Above Permanent Datum
 DATE.        03-JUN-1982:   Date Logged [DD-MMM-YYYY]
 DD  .F              3230:   Depth driller
 DL  .F              3200:   Depth logger
 BLI .F              3190:   Bottom log interval
 TLI .F               475:   Top log interval
 CS1 .IN            9.625:   Casing size
 CBD1.      9.625" @ 465':   Casing driller 1
 CBL1.F               475:   Casing logger 1
 BS1 .IN             8.75:   Bit size
 BSD1.F              3230:   Depth drilled with bit1
 DFT .   FORM WATER / AIR:   Type fluid in hole
 TCS .HRS            1530:   Time Circ. stopped
 TLAB.HRS            1900:   Time logger at bottom
 MRT .F               135:   Maximum recorded temp.
 LUN .               8035:   Logging unit number
 LUL .               CSPR:   Logging unit location
 ENGI.              PENNY:   Recorded By
 WITN.           JENNINGS:   Witnessed by
 ORIG.      2.5" 5" PRINT:   Origin of data
 UWI .     49025108890000:   Unique Well ID
 DICO. A2D TECHNOLOGIES, INC.:   Digitizing Company
~OTHER INFORMATION
~A   DEPT     TEND       CALD       CORR       RHOB       NPHI        GRR        SPR        SFL        ILD        ILM       TENR   
# ...
 2439.0000  1720.1798     9.0130     0.0297     2.5708     0.2561   130.2894   -94.3242     6.9839     6.3121     6.3832  1771.2137
 2439.5000  1718.0867     9.0141     0.0335     2.5858     0.2802   130.9932   -94.3118     6.9671     6.3117     6.5285  1787.8788
 2440.0000  1715.8943     8.9999     0.0381     2.6129     0.2852   126.0000   -94.3017     6.7894     6.4905     7.0015  1787.8788
 2440.5000  1713.9015     8.9862     0.0337     2.6468     0.2643   104.4002   -93.9886     6.6943     6.6743     7.6145  1787.8788
 2441.0000  1711.8083     8.9871     0.0202     2.6754     0.2220    83.6803   -93.6755     7.3747     6.7679     8.2811  1787.8788
 2441.5000  1724.4954     8.9879     0.0135     2.6814     0.1796    69.2035   -93.3621    14.3449     6.7674     8.2817  1787.8788
 2442.0000  1722.1570     9.0184     0.0362     2.6852     0.1292    67.1485   -93.0485    16.8314     6.7669     8.1658  1787.8788
 2442.5000  1720.4785     9.0932     0.0717     2.6791     0.1238    78.7619   -92.7348    17.0662     6.7665     7.8074  1787.8788
 2443.0000  1732.9292     9.1386     0.0883     2.6460     0.1375    91.0411   -92.6141    15.0468     6.7660     7.4658  1787.8788
 2443.5000  1731.2405     9.1543     0.0651     2.6104     0.1736   100.7276   -92.4106    10.7575     6.7654     7.1711  1787.8788
 2444.0000  1728.9208     9.1401     0.0313     2.5768     0.2047   109.3273   -92.4000     7.8687     6.6709     6.9639  1771.7296
 2444.5000  1726.9171     9.1116     0.0178     2.5749     0.2464   116.4847   -92.3878     7.1318     6.6705     6.8127  1757.5758
 2445.0000  1739.9102     9.0829     0.0140     2.5771     0.2607   119.5536   -92.0747     6.8468     6.6701     6.8133  1757.5758
 2445.5000  1737.8179     9.0246     0.0120     2.5779     0.2634   119.7719   -92.0646     6.7790     6.7636     6.9096  1757.5758
 2446.0000  1720.4032     8.9810     0.0174     2.5802     0.2553   116.7182   -92.0545     6.9225     6.7631     7.0074  1757.5758
 2446.5000  1718.3995     8.9523     0.0242     2.5832     0.2480   115.9219   -92.0439     7.3697     6.7627     7.1065  1757.5758
 2447.0000  1716.5923     8.9384     0.0288     2.5863     0.2400   117.4600   -92.0333     7.7925     6.7622     7.1069  1757.5758
 2447.5000  1714.4995     8.9244     0.0334     2.5893     0.2432   120.1937   -92.0227     8.2394     6.8570     7.1074  1757.5758
 2448.0000  1712.4065     8.9255     0.0365     2.5856     0.2480   122.0184   -92.3172     7.7904     6.8565     7.1079  1757.5758
 2448.5000  1710.3143     8.9264     0.0246     2.5743     0.2494   122.0096   -92.3046     7.4695     6.8560     7.1084  1757.5758
 2449.0000  1707.8773     8.9420     0.0164     2.5586     0.2455   121.1223   -92.2920     7.5871     6.8555     7.1089  1757.5758
 2449.5000  1705.8726     8.9727     0.0112     2.5571     0.2408   122.8121   -92.2820     7.8124     6.9517     7.1094  1757.5758
 2450.0000  1689.4221     8.9883     0.0083     2.5605     0.2380   125.2273   -92.5758     8.0443     6.9513     7.1100  1757.5758
 2450.5000  1689.8083     9.0480     0.0068     2.5631     0.2555   127.0523   -92.8679     8.2326     7.0488     7.1105  1727.2727
 2451.0000  1690.1414     9.0485     0.0070     2.5656     0.2624   126.8167   -92.8578     8.2314     7.1477     7.2110  1727.2727
 2451.5000  1690.4744     9.0492     0.0110     2.5710     0.2650   126.6114   -93.1507     8.1159     7.2479     7.2115  1727.2727
 2452.0000  1690.8074     9.0646     0.0177     2.5748     0.2632   127.5281   -93.2162     7.8911     7.3924     7.3135  1727.2727
 2452.5000  1691.1404     9.0652     0.0185     2.5734     0.2617   127.9892   -93.4336     7.6726     7.5618     7.4170  1727.2727
 2453.0000  1691.4734     9.0657     0.0171     2.5705     0.2548   127.5411   -93.4212     7.5651     7.8811     7.5522  1741.9093
 2453.5000  1690.4332     9.0663     0.0172     2.5690     0.2476   124.2764   -93.2384     7.5764     8.3344     7.7781  1757.5758
 2454.0000  1688.3013     9.0669     0.0180     2.5714     0.2398   117.7364   -92.7923     8.0341     8.9380     8.1801  1757.5758
 2454.5000  1686.5470     9.0526     0.0196     2.5692     0.2302   110.7730   -92.4792     8.6721     9.4521     8.7739  1757.5758
 2455.0000  1684.5249     9.0533     0.0197     2.5663     0.2289   108.1742   -92.1661     9.2905     9.8614     9.0232  1757.5758
 2455.5000  1697.5850     9.0390     0.0186     2.5634     0.2268   107.3780   -92.1560     9.6506    10.0143     9.2796  1757.5758
 2456.0000  1695.6654     9.0397     0.0113     2.5665     0.2240   107.8240   -92.1455     9.9965    10.1353     9.4108  1757.5758
 2456.5000  1708.6694     9.0403     0.0038     2.5719     0.2212   110.3171   -92.1348    10.1357     9.9460     9.5439  1757.5758
 2457.0000  1706.7264     9.0408     0.0008     2.5697     0.2203   113.5054   -92.1242     9.8548     9.6567     9.3972  1757.5758
 2457.5000  1719.6125     9.0415    -0.0014     2.5638     0.2247   118.5119   -92.1136     9.5819     9.1753     9.0988  1757.5758
 2458.0000  1717.7880     9.0569     0.0010     2.5578     0.2357   122.1548   -92.1030     9.1872     8.5656     8.6628  1760.2307
 2458.5000  1731.0992     9.0575     0.0055     2.5602     0.2429   124.9194   -92.0905     8.5403     7.8751     8.1380  1787.8788
 2459.0000  1728.8494     9.0728     0.0079     2.5746     0.2511   127.2288   -92.0804     8.0215     7.4458     7.7366  1787.8788
 2459.5000  1726.8511     9.0882     0.0042     2.5777     0.2615   128.7505   -92.0704     7.5512     7.2397     7.4243  1787.8788
 2460.0000  1724.6481     9.1341    -0.0033     2.5695     0.2633   129.4535   -91.7572     7.3421     7.0394     7.2201  1787.8788
 2460.5000  1723.0197     9.1634    -0.0070     2.5433     0.2620   126.7948   -91.7351     7.3411     6.9410     7.0216  1787.8788
 2461.0000  1721.0760     9.1491    -0.0055     2.5433     0.2596   125.5894   -91.4333     7.3401     6.9406     6.9246  1757.5758
 2461.5000  1719.1328     9.1054     0.0017     2.5481     0.2563   126.2944   -91.3476     7.2329     6.9401     6.9209  1775.1882
 2462.0000  1717.1898     9.0910     0.0120     2.5526     0.2572   126.7554   -91.1091     7.1213     6.9396     6.8294  1787.8788
 2462.5000  1715.0503     9.0769     0.0188     2.5549     0.2601   127.2164   -90.7955     6.9381     6.9390     6.8299  1787.8788
 2463.0000  1713.3035     9.0775     0.0219     2.5557     0.2622   126.7684   -90.7849     6.8409     6.9385     6.8304  1787.8788
 2463.5000  1711.3605     9.0782     0.0182     2.5558     0.2589   125.8361   -90.4695     6.7450     6.9381     6.8308  1787.8788
 2464.0000  1709.0710     9.0638     0.0137     2.5537     0.2553   123.9939   -90.4595     6.7972     6.8412     6.8313  1787.8788
 2464.5000  1707.4740     9.0350     0.0062     2.5447     0.2508   123.1515   -90.1464     7.2310     6.8407     6.8319  1787.8788
 2465.0000  1705.5306     9.0355     0.0048     2.5396     0.2469   124.3712   -90.1363     7.5396     6.7358     6.7375  1787.8788
 2465.5000  1703.5638     8.9917     0.0132     2.5427     0.2480   126.2872   -90.1258     7.6447     6.6321     6.7380  1787.8788
 2466.0000  1701.3610     8.9775     0.0223     2.5593     0.2525   126.1121   -90.1152     7.3299     6.5580     6.6449  1787.8788
 2466.5000  1699.9452     8.9485     0.0276     2.5804     0.2557   124.0898   -89.8015     6.8197     6.4664     6.6382  1782.5831
 2467.0000  1712.8475     8.9343     0.0201     2.5805     0.2587   124.0963   -89.7909     6.4297     6.4198     6.5371  1757.5758
 2467.5000  1719.4880     8.9200     0.0103     2.5658     0.2604   125.0119   -89.7803     6.0855     6.2870     6.4376  1757.5758
 2468.0000  1723.7666     8.9207     0.0112     2.5536     0.2598   125.5030   -89.7677     6.1419     6.1992     6.3396  1757.5758
 2468.5000  1736.7637     8.9213     0.0135     2.5477     0.2582   121.3289   -89.4546     6.3682     6.1126     6.2858  1757.5758
 2469.0000  1734.8281     8.9219     0.0121     2.5418     0.2564   118.0318   -89.4446     6.5490     6.1122     6.1991  1757.5758
