~VERSION INFORMATION
 VERS.                2.0:   CWLS LOG ASCII STANDARD - VERSION 2.0
 WRAP.                 NO:   ONE LINE PER DEPTH STEP
~WELL INFORMATION
#MNEM.UNIT      DATA TYPE    INFORMATION
#----------   ------------   ------------------------------
 STRT.F           81.0000:   START DEPTH
 STOP.F          910.0000:   STOP DEPTH
 STEP.F            0.5000:   STEP LENGTH
 NULL.          -999.2500:   NO VALUE
 COMP.         U. S. NAVY:   COMPANY
 WELL. US NAVY NPR 3 "S" #37-35:   WELL
 FLD .             TEAPOT:   FIELD
 LOC .      S35 T39N R78W:   LOCATION
 CNTY.            NATRONA:   COUNTY
 STAT.            WYOMING:   STATE
 CTRY. UNITED STATES OF AMERICA:   COUNTRY
 SRVC.       SCHLUMBERGER:   SERVICE COMPANY
 DATE.        22-JUL-1963:   LOGDATE
 API .     49025065040000:   API NUMBER
~CURVE INFORMATION
#MNEM.UNIT       API CODE    CURVE DESCRIPTION
#----------   ------------   ------------------------------
 DEPT.F                  :   
 SPR .MV     05 010 01 00:   SPONTANEOUS POTENTIAL FROM RES.
 ASN .OHMM   05 041 16 00:   AMPLIFIED SHORT NORMAL 16"
 ILD .OHMM   05 120 46 00:   INDUCTION LOG DEEP
~PARAMETER INFORMATION
#MNEM.UNIT          VALUE    DESCRIPTION
#----------   ------------   ------------------------------
 EKB .F         5113.0000:   Kelly bushing
 EGL .F         5108.0000:   Ground level
 TD  .F          900.0000:   Total depth
 DATE.        22-JUL-1963:   Date logged
 CLNT.            A2DTECH:   Client Code
 PD  .                 GL:   Permanent Datum
 EPD .F              5108:   Elevation Permanent Datum
 LMF .                 KB:   Log Measured From
 DMF .                 KB:   Drilling Measured From
 DAPD.F                 5:   Feet Above Permanent Datum
 DD  .F               900:   Depth driller
 DL  .F               900:   Depth logger
 BLI .F               899:   Bottom log interval
 TLI .F                81:   Top log interval
 BS1 .IN            7.875:   Bit size
 BSD1.F               900:   Depth drilled with bit1
 DFT .                GEL:   Type fluid in hole
 DFD .                9.6:   Density
 DFV .                 67:   Viscosity
 DFPH.                  9:   pH
 DFL .                4.8:   Fluid loss
 MSS .           FLOWLINE:   Source of sample
 RMS .OHMM            3.4:   Rm
 MST .F                77:   Rm Meas. temp.
 RMF .OHMM            3.3:   Rmf
 MFST.F                77:   Rmf Meas. temp.
 RMC .OHMM            3.8:   Rmc
 MCST.F                77:   Rmc Meas. temp.
 MFSS.                 FP:   Source Rmf.
 TCS .HRS               1:   Time Circ. stopped
 LUN .               2523:   Logging unit number
 LUL .               CSPR:   Logging unit location
 ENGI.            GIFFORD:   Recorded By
 WITN.          JORGENSON:   Witnessed by
 ORIG.           5" PRINT:   Origin of data
 UWI .     49025065040000:   Unique Well ID
 DICO. A2D TECHNOLOGIES, INC.:   Digitizing Company
~OTHER INFORMATION
~A   DEPT      SPR        ASN        ILD   
# ...
  445.0000   -46.7810    10.3350     9.0770
  445.5000   -45.1590     9.7900     8.1230
  446.0000   -44.4230     9.2740     7.1600
  446.5000   -44.2020     8.7750     6.8310
  447.0000   -43.9840     8.4520     6.8010
  447.5000   -43.7680     8.1330     6.7690
  448.0000   -43.5530     7.9130     6.7390
  448.5000   -43.3570     7.7170     6.7090
  449.0000   -43.3530     7.5440     6.6800
  449.5000   -43.3530     7.6040     6.6500
  450.0000   -43.3530     7.6770     6.6270
  450.5000   -43.3530     7.7500     6.6860
  451.0000   -43.3530     7.8230     6.7440
  451.5000   -43.3530     7.8950     6.8010
  452.0000   -43.3530     7.9460     6.8580
  452.5000   -43.3460     7.8520     6.9160
  453.0000   -43.2960     7.7590     6.9730
  453.5000   -43.2450     7.6660     7.0300
  454.0000   -43.1950     7.5740     7.0860
  454.5000   -43.1450     7.5020     7.1210
  455.0000   -43.0950     7.6010     7.1210
  455.5000   -43.0450     7.7020     7.1210
  456.0000   -42.9960     7.8030     7.1210
  456.5000   -42.9600     7.9040     7.1220
  457.0000   -42.9810     7.9190     7.1210
  457.5000   -43.0010     7.9270     7.1210
  458.0000   -43.0210     7.9340     7.1210
  458.5000   -43.0410     7.9010     7.1230
  459.0000   -43.0610     7.8270     7.0660
  459.5000   -43.0810     7.7530     6.9890
  460.0000   -43.1010     7.6800     6.9120
  460.5000   -43.1210     7.6060     6.8340
  461.0000   -43.1410     7.5310     6.7570
  461.5000   -43.1620     7.4800     6.7320
  462.0000   -43.1850     7.4230     6.7820
  462.5000   -43.2080     7.4510     6.8310
  463.0000   -43.2310     7.6060     6.8800
  463.5000   -43.2530     7.9280     6.9300
  464.0000   -43.2760     8.5880     6.9800
  464.5000   -43.2980     9.7460     7.0290
  465.0000   -43.3200     9.9500     7.0790
  465.5000   -43.3430     9.3080     7.1280
  466.0000   -43.2450     8.6760     7.1780
  466.5000   -42.9820     8.0310     7.2270
  467.0000   -42.7220     7.9040     7.2770
  467.5000   -42.4600     8.0370     7.3320
  468.0000   -42.2010     8.1720     7.4250
  468.5000   -42.2780     8.3070     7.5180
  469.0000   -42.4090     8.4410     7.6120
  469.5000   -42.5420     8.5670     7.7050
  470.0000   -42.6740     8.6120     7.7990
  470.5000   -42.8060     8.6590     7.8180
  471.0000   -42.9380     8.7080     7.8190
  471.5000   -43.0710     8.7550     7.8210
  472.0000   -43.2030     8.7130     7.7330
  472.5000   -43.3340     8.6500     7.6310
  473.0000   -43.4640     8.5380     7.5280
  473.5000   -43.4550     8.4270     7.4250
  474.0000   -43.1800     8.3150     7.3220
  474.5000   -42.9100     8.2040     7.2190
  475.0000   -42.6400     8.0930     7.1150
  475.5000   -42.3690     7.9820     7.0120
  476.0000   -42.0990     7.8720     6.9440
  476.5000   -41.8280     7.7990     7.0250
  477.0000   -41.5750     7.8510     7.0560
  477.5000   -41.6360     7.9070     7.0820
  478.0000   -41.7910     7.9620     7.1080
  478.5000   -41.9450     7.9720     7.1330
  479.0000   -42.0980     7.8990     7.1590
  479.5000   -42.2500     7.8260     7.1850
  480.0000   -42.3350     7.7970     7.2100
  480.5000   -42.2240     7.8660     7.2360
  481.0000   -42.1190     7.9460     7.2620
  481.5000   -42.0140     8.0260     7.2880
  482.0000   -41.9970     8.0250     7.3130
  482.5000   -42.0560     8.0370     7.3390
  483.0000   -42.1140     8.0060     7.3650
  483.5000   -42.1730     7.9710     7.3900
  484.0000   -42.2320     7.9360     7.4160
  484.5000   -42.2900     7.9360     7.4420
  485.0000   -42.3470     8.0320     7.4680
  485.5000   -42.4620     8.1330     7.4940
  486.0000   -42.5860     8.2330     7.5170
  486.5000   -42.7140     8.3340     7.4360
  487.0000   -42.6360     8.4360     7.3500
  487.5000   -42.4500     8.4600     7.2630
  488.0000   -42.2630     8.2880     7.1770
  488.5000   -42.0750     8.0840     7.0900
  489.0000   -41.8880     7.8780     7.0030
  489.5000   -41.7030     7.6640     6.9170
  490.0000   -41.6010     7.5320     6.8300
  490.5000   -41.7440     7.4230     6.7430
  491.0000   -41.8790     7.3150     6.6570
  491.5000   -42.0140     7.2420     6.5700
  492.0000   -42.1490     7.2650     6.4840
  492.5000   -42.2850     7.3280     6.4230
  493.0000   -42.4210     7.4290     6.4240
  493.5000   -42.5490     7.5390     6.4240
  494.0000   -42.3660     7.5210     6.4240
  494.5000   -42.1650     7.4070     6.4240
  495.0000   -41.9640     7.2900     6.4240
  495.5000   -41.7640     7.1740     6.4240
  496.0000   -41.5630     7.0990     6.4240
  496.5000   -41.3810     7.0900     6.4240
  497.0000   -41.5330     7.0860     6.4220
  497.5000   -41.6940     7.1080     6.4840
  498.0000   -41.8550     7.1570     6.5530
  498.5000   -42.0140     7.3140     6.6240
  499.0000   -42.1590     7.4670     6.6950
  499.5000   -42.1160     7.6210     6.7650
  500.0000   -42.0210     7.7090     6.8360
  500.5000   -41.9260     7.7520     6.9060
  501.0000   -41.8320     7.7940     6.9770
  501.5000   -41.7370     7.8370     7.0470
  502.0000   -41.6420     7.8810     7.1180
  502.5000   -41.5470     7.9260     7.1880
  503.0000   -41.4530     7.9580     7.2580
  503.5000   -41.3990     7.9170     7.3080
  504.0000   -41.6180     7.8410     7.2150
  504.5000   -41.8380     7.7650     7.1210
  505.0000   -42.0600     7.6890     7.0270
  505.5000   -42.0410     7.6130     6.9340
  506.0000   -41.8240     7.5360     6.8400
  506.5000   -41.6080     7.4600     6.7450
  507.0000   -41.3910     7.3850     6.7250
  507.5000   -41.1730     7.3950     6.7580
  508.0000   -40.9590     7.4260     6.8590
  508.5000   -40.8060     7.4190     6.9590
  509.0000   -41.0420     7.3830     7.0590
  509.5000   -41.2730     7.4990     7.1590
  510.0000   -41.5020     7.6370     7.2590
  510.5000   -41.7320     7.8310     7.3590
  511.0000   -41.9600     8.0270     7.4600
  511.5000   -42.0780     8.2230     7.5560
  512.0000   -42.1930     8.4200     7.7300
  512.5000   -42.3070     8.6070     7.7780
  513.0000   -42.4230     8.6770     7.8350
  513.5000   -42.5420     8.6970     7.8960
  514.0000   -42.4120     8.5800     7.8220
  514.5000   -42.2360     8.3960     7.6670
  515.0000   -42.0570     8.2120     7.5120
  515.5000   -41.8790     8.0290     7.3570
  516.0000   -41.7000     7.8450     7.2010
  516.5000   -41.5210     7.6610     7.0460
  517.0000   -41.3420     7.4770     6.8910
  517.5000   -41.1810     7.3060     6.7350
  518.0000   -41.3080     7.3140     6.5720
  518.5000   -41.4420     7.3770     6.6230
  519.0000   -41.5750     7.4380     6.7680
  519.5000   -41.7070     7.5000     6.9160
  520.0000   -41.8400     7.5850     7.0640
  520.5000   -41.9720     7.6860     7.2110
  521.0000   -42.1060     7.7850     7.3230
  521.5000   -42.2400     7.8850     7.3450
  522.0000   -42.3440     7.9380     7.3730
  522.5000   -42.0070     7.9390     7.4020
  523.0000   -41.6580     7.9570     7.4300
  523.5000   -41.7840     8.0320     7.4590
  524.0000   -42.0850     8.1060     7.4870
  524.5000   -42.3530     8.1790     7.5150
  525.0000   -42.0180     8.2520     7.5430
  525.5000   -41.6400     8.3260     7.5710
  526.0000   -41.4790     8.3970     7.5990
  526.5000   -42.0180     8.4380     7.5970
  527.0000   -42.1940     8.4430     7.5100
  527.5000   -41.6540     8.4480     7.4270
  528.0000   -41.1070     8.4520     7.3440
  528.5000   -41.0090     8.4370     7.2600
  529.0000   -41.1150     8.3220     7.1770
  529.5000   -41.2210     8.1830     7.0940
  530.0000   -41.3270     8.0440     7.0100
  530.5000   -41.4340     7.9050     6.9270
  531.0000   -41.5410     7.7650     6.8440
  531.5000   -41.6470     7.7590     6.7600
  532.0000   -41.7540     7.7750     6.6770
  532.5000   -41.8610     7.8000     6.5950
  533.0000   -41.9670     7.7910     6.5220
  533.5000   -42.0730     7.7760     6.5240
  534.0000   -42.1670     7.7620     6.5490
  534.5000   -42.0830     7.7480     6.5930
  535.0000   -41.9810     7.7370     6.6360
  535.5000   -41.8790     7.7770     6.6790
