~VERSION INFORMATION
 VERS.                2.0:   CWLS LOG ASCII STANDARD - VERSION 2.0
 WRAP.                 NO:   ONE LINE PER DEPTH STEP
~WELL INFORMATION
#MNEM.UNIT      DATA TYPE    INFORMATION
#----------   ------------   ------------------------------
 STRT.F           31.5000:   START DEPTH
 STOP.F         4204.0000:   STOP DEPTH
 STEP.F            0.5000:   STEP LENGTH
 NULL.          -999.2500:   NO VALUE
 COMP.   LAWRENCE ALLISON:   COMPANY
 WELL. LAWRENCE 3 "X" #32-10:   WELL
 FLD .                NPR:   FIELD
 LOC .      S10 T38N R78W:   LOCATION
 CNTY.            NATRONA:   COUNTY
 STAT.            WYOMING:   STATE
 CTRY. UNITED STATES OF AMERICA:   COUNTRY
 SRVC.      DRESSER ATLAS:   SERVICE COMPANY
 DATE.        05-NOV-1983:   LOGDATE
 API .     49025109460000:   API NUMBER
~CURVE INFORMATION
#MNEM.UNIT       API CODE    CURVE DESCRIPTION
#----------   ------------   ------------------------------
 DEPT.F                  :   
 CALD.IN     45 280 60 00:   CALIPER FROM DENSITY LOG
 CNC .DEC    42 890 01 00:   NEUTRON POROSITY LIMESTONE
 CORR.G/C3   45 356 01 00:   DENSITY CORRECTION
 TEND.LBS    45 635 01 00:   TENSION FORM DENSITY LOG
 RHOB.G/C3   45 350 01 00:   BULK DENSITY
 DT  .US/F   60 520 00 00:   DELTA TIME
 TENS.LBS    60 635 01 00:   TENSION FROM SONIC
 GRR .GAPI   07 310 01 00:   GAMMA RAY FROM RESISTIVITY
 TENR.LBS    06 635 01 00:   TENSION FROM RESISTIVITY
 RFOC.OHMM   07 220 04 00:   RESISTIVITY FOCUSED LOG RES.
 RILM.OHMM   07 120 44 00:   INDUCTION LOG MEDIUM RESISTIVITY
 RILD.OHMM   07 120 46 00:   DEEP INDUCTION RESISTIVITY
 SPR .MV     07 010 01 00:   SPONTANEOUS POTENTIAL
~PARAMETER INFORMATION
#MNEM.UNIT          VALUE    DESCRIPTION
#----------   ------------   ------------------------------
 EKB .F         5237.0000:   Kelly bushing
 EGL .F         5227.0000:   Ground level
 TD  .F         4202.0000:   Total depth
 CLNT.            A2DTECH:   Client Code
 SL  . 1871' FWL & 1152' FNL:   Surface Location
 PD  .                 GL:   Permanent Datum
 EPD .F              5227:   Elevation Permanent Datum
 LMF .                 KB:   Log Measured From
 DMF .                 KB:   Drilling Measured From
 DAPD.F                10:   Feet Above Permanent Datum
 DATE.        05-NOV-1983:   Date Logged [DD-MMM-YYYY]
 DD  .F              4200:   Depth driller
 DL  .F              4202:   Depth logger
 BLI .F              4200:   Bottom log interval
 TLI .F                30:   Top log interval
 CS1 .IN            8.625:   Casing size
 CBD1.      8.625" @ 545':   Casing driller 1
 CBL1.F               545:   Casing logger 1
 BS1 .IN            7.875:   Bit size
 BSD1.F              4200:   Depth drilled with bit1
 DFT .            GEL KCL:   Type fluid in hole
 DFD .                8.9:   Density
 DFV .                 42:   Viscosity
 DFPH.                8.5:   pH
 DFL .               12.4:   Fluid loss
 MSS .           FLOWLINE:   Source of sample
 RMS .OHMM           0.43:   Rm
 MST .F                97:   Rm Meas. temp.
 RMF .OHMM           0.42:   Rmf
 MFST.F                74:   Rmf Meas. temp.
 MFSS.               MEAS:   Source Rmf.
 RMC .OHMM           0.53:   Rmc
 MCST.F                97:   Rmc Meas. temp.
 MCSS.               CALC:   Source Rmc.
 RMB .OHMM           0.32:   Rm. at BHT
 BHT .F               131:   BHT.
 TCS .HRS               3:   Time Circ. stopped
 MRT .F               131:   Maximum recorded temp.
 LUN .               6307:   Logging unit number
 LUL .               GLTE:   Logging unit location
 ENGI.            DEYOUNG:   Recorded By
 WITN.             STRONG:   Witnessed by
 ORIG.        2" 5" PRINT:   Origin of data
 UWI .     49025109460000:   Unique Well ID
 DICO. A2D TECHNOLOGIES, INC.:   Digitizing Company
~OTHER INFORMATION
~A   DEPT     CALD        CNC       CORR       TEND       RHOB         DT       TENS         GRR      TENR       RFOC       RILM       RILD        SPR   
# ...
 3463.5000     8.8036     0.2896     0.0398   -39.7372     2.4605    92.6549   -17.8886   163.8826   -39.5026     4.1411     3.5744     3.2609   -26.4313
 3464.0000     8.8036     0.2770     0.0492   -40.0038     2.4614    92.5074   -17.8886   164.6518   -39.8527     4.1440     3.6552     3.3572   -26.5627
 3464.5000     8.8036     0.2767     0.0370   -37.1222     2.4652    92.3599   -17.8886   163.9150   -40.2028     4.1843     3.7394     3.4354   -26.6942
 3465.0000     8.8036     0.2804     0.0218   -31.2255     2.4724    92.1559   -17.8886   161.5215   -40.5726     4.3912     3.8469     3.5590   -26.6702
 3465.5000     8.8036     0.3063     0.0127   -31.5562     2.4776    92.0008   -17.8886   159.1280   -40.5163     4.4882     3.9328     3.6420   -26.9523
 3466.0000     8.8036     0.3211     0.0452   -32.0184     2.4807    91.8456   -17.8886   160.5849   -40.3429     4.5231     4.0490     3.6930   -27.2349
 3466.5000     8.8036     0.3186     0.0606   -35.2407     2.4846    91.6224   -17.8886   164.4355   -40.1701     4.4315     4.1393     3.7752   -27.3143
 3467.0000     8.8036     0.3103     0.0638   -38.5517     2.4893    91.3274   -23.7537   165.2047   -39.9980     4.3409     4.1432     3.8320   -27.3467
 3467.5000     8.8036     0.2999     0.0486   -38.8290     2.4939    91.0324   -23.7537   163.4136   -39.8258     4.4064     4.0890     3.8623   -27.3275
 3468.0000     8.8036     0.2953     0.0257   -42.1879     2.4871    90.8850   -23.7537   160.8696   -39.6537     4.4406     4.0072     3.8928   -27.6048
 3468.5000     8.8036     0.2956     0.0166   -42.4707     2.4840    90.5900   -23.7537   158.3255   -39.4816     4.5068     3.8720     3.8684   -27.7410
 3469.0000     8.8036     0.2993     0.0214   -42.7427     2.4810    90.4425   -23.7537   157.1369   -39.3094     4.5099     3.7413     3.7900   -27.8677
 3469.5000     8.8037     0.2977     0.0246   -43.0707     2.4795    90.1475   -23.7537   158.0566   -39.1373     4.5131     3.5848     3.6848   -28.3052
 3470.0000     8.8021     0.2936     0.0186   -43.2974     2.4749    90.0000   -23.7537   160.6331   -38.9652     4.4224     3.3971     3.5127   -28.2812
 3470.5000     8.7999     0.2916     0.0233   -43.6041     2.4620    90.0000   -23.7537   162.4565   -38.7930     4.2122     3.1913     3.3934   -28.2621
 3471.0000     8.7976     0.2956     0.0496   -43.8930     2.4374    90.0000   -23.7537   164.9277   -38.6209     3.9839     3.0191     3.2092   -28.0923
 3471.5000     8.7953     0.3107     0.0636   -44.1294     2.4175    90.1556   -23.7537   169.9251   -38.4488     3.6374     2.8163     2.8078   -27.6214
 3472.0000     8.7930     0.3227     0.0407   -44.4067     2.3930    90.6370   -22.7106   179.8764   -38.2766     3.2515     2.6644     2.5272   -27.1504
 3472.5000     8.7907     0.3200     0.0239   -44.6842     2.3738    91.6925   -18.7027   186.8247   -38.1045     2.9066     2.3825     2.2745   -26.5211
 3473.0000     8.7884     0.3151     0.0133   -44.9615     2.3654    92.7480   -17.8886   190.1586   -37.9324     2.8673     2.1914     2.0472   -25.7560
 3473.5000     8.7862     0.3259     0.0027   -45.2708     2.3609    93.4309   -17.8886   191.3840   -37.7602     2.8901     1.9595     1.8425   -24.9797
 3474.0000     8.7839     0.3376    -0.0064   -45.5376     2.3524    93.7334   -17.8886   195.0190   -37.5881     2.8516     1.8538     1.7926   -24.3582
 3474.5000     8.7816     0.3308    -0.0160   -42.0651     2.3494    94.2376   -17.8886   199.7083   -37.4160     2.7122     1.8040     1.8870   -23.4354
 3475.0000     8.7793     0.3370    -0.0384   -39.9075     2.3518    95.2607   -17.8886   201.9879   -37.2439     2.4310     1.8640     2.0466   -22.6633
 3475.5000     8.7770     0.3103     0.0048   -37.1032     2.3602    97.1988   -17.8886   202.7616   -37.0717     2.0662     2.0814     2.2859   -21.8911
 3476.0000     8.7747     0.2831     0.0233   -37.4259     2.4709    98.2596   -17.8886   196.7632   -36.8996     2.0823     2.2671     2.5080   -20.8177
 3476.5000     8.7725     0.2752     0.0342   -34.5443     2.4817    97.8592   -17.8886   183.8868   -36.7275     2.4334     2.4695     2.7324   -20.0456
 3477.0000     8.7702     0.2733     0.0451   -34.8536     2.4787    96.1947   -17.8886   165.6297   -36.5553     3.1168     2.6336     2.8938   -20.7794
 3477.5000     8.7679     0.2752     0.0562   -35.1442     2.4818    93.3923   -17.8886   157.5178   -36.4754     3.9643     2.7890     3.0431   -21.8145
 3478.0000     8.7656     0.2792     0.0623   -32.3293     2.4926    91.0324   -17.8886   150.1589   -36.4754     4.9018     2.9743     3.2001   -22.7108
 3478.5000     8.7633     0.2894     0.0302   -26.4326     2.4704    88.9676   -17.8886   147.7647   -36.4754     4.8707     3.1057     3.3180   -23.7341
 3479.0000     8.7668     0.3078     0.0103   -23.6178     2.4366    87.9351   -17.8886   149.7483   -36.4754     4.5422     3.2200     3.3442   -23.7101
 3479.5000     8.7707     0.3158     0.0028   -20.8320     2.4228    87.9351   -17.8886   155.6424   -36.4754     3.9473     3.2467     3.3469   -23.2392
 3480.0000     8.7746     0.3103     0.0137   -21.1094     2.4344    89.2625   -17.8886   159.8799   -36.4754     3.4792     3.2719     3.3259   -23.0694
 3480.5000     8.7785     0.3029     0.0184   -21.3867     2.4575    92.2124   -17.8886   157.4447   -36.4754     3.2217     3.2756     3.1684   -23.0503
 3481.0000     8.7824     0.2777     0.0293   -21.6917     2.4768    94.4357   -17.8886   153.2590   -36.4754     3.3396     3.0989     2.9964   -23.6335
 3481.5000     8.7863     0.2728     0.0402   -18.8598     2.4852    94.7198   -17.8886   152.5621   -36.4754     4.0871     2.7907     2.8138   -24.6686
 3482.0000     8.7902     0.2707     0.0526   -19.1878     2.4884    93.3950   -12.0235   153.7927   -36.4754     4.6265     2.6402     2.6052   -25.4073
 3482.5000     8.7942     0.2999     0.0574   -16.3061     2.4884    91.8327   -12.0235   157.7290   -36.4754     4.5972     2.4869     2.3782   -25.2327
 3483.0000     8.7980     0.3211     0.0345   -16.6102     2.4823    91.1441   -12.0235   161.5960   -36.4754     4.4098     2.3270     2.2019   -24.9124
 3483.5000     8.8021     0.3402     0.0131   -16.9061     2.4480    90.7375   -12.0235   168.4647   -36.4754     4.0262     2.1671     2.1271   -24.2862
 3484.0000     8.7920     0.3461     0.0010   -14.0832     2.3818    90.8397   -12.0235   181.9167   -36.4754     3.1925     2.0416     2.0841   -23.1988
 3484.5000     8.7718     0.3430     0.0134   -13.5592     2.3596    92.1806   -12.0235   221.3673   -36.4754     2.3424     2.0149     2.0420   -22.2899
 3485.0000     8.7514     0.3252     0.0489   -11.5428     2.3581    95.7151   -12.0235   218.9800   -36.4754     2.1236     2.1044     2.0596   -21.6683
 3485.5000     8.7311     0.2744     0.0536   -14.9579     2.3950   102.9083   -12.0235   204.2119   -36.4754     2.2644     2.2922     2.1193   -21.0468
 3486.0000     8.7108     0.2757     0.0368   -15.2246     2.4703   104.6174   -12.0235   178.6916   -36.4754     2.7606     2.5863     2.1973   -21.6300
 3486.5000     8.6903     0.2834     0.0075   -15.4699     2.4949   104.7493   -12.0235   154.8852   -36.4754     3.5725     2.9805     2.4109   -22.2133
 3487.0000     8.6823     0.2772     0.0018   -15.7473     2.4873    98.8496   -12.0235   149.9359   -36.4754     4.3203     3.1786     2.6829   -23.2484
 3487.5000     8.6822     0.2714     0.0004   -16.0469     2.4835    92.8024   -12.0235   151.0107   -36.4754     4.4686     3.3425     2.9229   -23.9822
 3488.0000     8.6822     0.2671    -0.0010   -16.3020     2.4835    91.3274   -12.3581   156.7543   -36.4754     4.2871     3.4419     3.2070   -24.5655
 3488.5000     8.6822     0.2653     0.0004   -16.5794     2.4851    90.8850   -17.8886   163.7026   -36.4754     4.1414     3.5457     3.5688   -24.8479
 3489.0000     8.6822     0.2659     0.0069   -16.8567     2.4867    91.7699   -17.8886   169.4461   -36.4754     4.0290     3.7264     3.8607   -24.6777
