~VERSION INFORMATION
 VERS.                2.0:   CWLS LOG ASCII STANDARD - VERSION 2.0
 WRAP.                 NO:   ONE LINE PER DEPTH STEP
~WELL INFORMATION
#MNEM.UNIT      DATA TYPE    INFORMATION
#----------   ------------   ------------------------------
 STRT.F          208.0000:   START DEPTH
 STOP.F         2950.0000:   STOP DEPTH
 STEP.F            0.5000:   STEP LENGTH
 NULL.          -999.2500:   NO VALUE
 COMP.    FENIX & SCISSON:   COMPANY
 WELL.     FENIX A #56-28:   WELL
 FLD .                NPR:   FIELD
 LOC .      S28 T39N R78W:   LOCATION
 CNTY.            NATRONA:   COUNTY
 STAT.            WYOMING:   STATE
 CTRY. UNITED STATES OF AMERICA:   COUNTRY
 SRVC.              WELEX:   SERVICE COMPANY
 DATE.        20-AUG-1977:   LOGDATE
 API .     49025104140000:   API NUMBER
~CURVE INFORMATION
#MNEM.UNIT       API CODE    CURVE DESCRIPTION
#----------   ------------   ------------------------------
 DEPT.F                  :   
 SPR .MV     07 010 01 00:   SPONTANEOUS POTENTIAL
 RILM.OHMM   07 120 44 00:   INDUCTION LOG MEDIUM RESISTIVITY
 RILD.OHMM   07 120 46 00:   INDUCTION LOG DEEP RESISTIVITY
 SGRD.OHMM   07 220 05 00:   SHALLOW GUARD LOG RESISTIVITY
 CALD.IN     45 280 60 00:   CALIPER FROM DENSITY LOG
 DCOR.G/C3   45 356 01 00:   DENSITY CORRECTION
 GRD .GAPI   45 310 01 00:   GAMMA RAY FROM DENSITY LOG
 RHOB.G/C3   45 350 01 00:   BULK DENSITY
~PARAMETER INFORMATION
#MNEM.UNIT          VALUE    DESCRIPTION
#----------   ------------   ------------------------------
 EKB .F         5088.0000:   Kelly bushing
 EGL .F         5078.0000:   Ground level
 EDF .F            0.0000:   Drilling floor
 EPD .F         5078.0000:   Permanent datum
 TD  .F         2960.0000:   Total depth
 DATE.        20-AUG-1977:   Date logged
 CLNT.            A2DTECH:   Client Code
 SL  . 1650' FSL & 2310' FEL:   Surface Location
 PD  .                 GL:   Permanent Datum
 LMF .                 KB:   Log Measured From
 DMF .                 KB:   Drilling Measured From
 DAPD.F                10:   Feet Above Permanent Datum
 DD  .F              2960:   Depth driller
 DL  .F              2952:   Depth logger
 BLI .F              2950:   Bottom log interval
 TLI .F               210:   Top log interval
 CS1 .IN            8.625:   Casing size
 CBD1.      8.625" @ 215':   Casing driller 1
 CBL1.F               218:   Casing logger 1
 BS1 .IN            7.875:   Bit size
 BSD1.F              2960:   Depth drilled with bit1
 DFT .            KCL MUD:   Type fluid in hole
 DFD .                8.9:   Density
 DFV .                 60:   Viscosity
 DFPH.                 11:   pH
 DFL .                7.2:   Fluid loss
 MSS .           FLOWLINE:   Source of sample
 RMS .OHMM            .78:   Rm
 MST .F                81:   Rm Meas. temp.
 RMF .OHMM            .46:   Rmf
 MFST.F                81:   Rmf Meas. temp.
 RMC .OHMM           1.66:   Rmc
 MCST.F                81:   Rmc Meas. temp.
 MFSS.               CALC:   Source Rmf.
 MCSS.               CALC:   Source Rmc.
 RMB .OHMM            .56:   Rm. at BHT
 BHT .F               112:   BHT.
 TCS .HRS             2.5:   Time Circ. stopped
 MRT .F               112:   Maximum recorded temp.
 LUN .               8611:   Logging unit number
 LUL .             CASPER:   Logging unit location
 ENGI.             C DOAK:   Recorded By
 WITN.       B HARRINGTON:   Witnessed by
 ORIG.           5" PRINT:   Origin of data
 UWI .     49025104140000:   Unique Well ID
 DICO. A2D TECHNOLOGIES, INC.:   Digitizing Company
~OTHER INFORMATION
~A   DEPT      SPR       RILM       RILD       SGRD         CALD     DCOR        GRD       RHOB   
# ...
 2395.0000   -74.4830     6.4830     5.9690     9.4740     8.7410     0.0100   137.3040     2.4970
 2395.5000   -74.5150     6.2510     5.9000     9.2330     8.7430     0.0080   135.3010     2.4890
 2396.0000   -74.5470     6.1570     5.8310     9.0280     8.7450     0.0070   134.5330     2.4830
 2396.5000   -74.5790     6.0810     5.7620     8.9160     8.7430     0.0060   134.0980     2.4800
 2397.0000   -74.6060     6.0060     5.6940     8.8140     8.7390     0.0040   133.6930     2.4770
 2397.5000   -74.5710     5.8910     5.6250     8.1910     8.7340     0.0030   134.5040     2.4740
 2398.0000   -74.5370     5.9250     5.5760     7.0110     8.7300     0.0010   135.3880     2.4760
 2398.5000   -74.5030     5.9940     5.6390     8.5260     8.7250     0.0030   135.5430     2.4830
 2399.0000   -74.4690     6.0640     5.6880     9.3120     8.7200     0.0080   133.7400     2.4940
 2399.5000   -74.4350     6.1330     5.7360     9.2730     8.7160     0.0120   131.9910     2.5050
 2400.0000   -74.4010     6.1720     5.7850     9.2180     8.7110     0.0170   130.1960     2.5160
 2400.5000   -74.3670     6.1810     5.8330     9.1620     8.7070     0.0160   130.9650     2.5110
 2401.0000   -74.3330     6.1900     5.8820     9.1070     8.7210     0.0150   132.7530     2.5050
 2401.5000   -74.2990     6.1990     5.9300     9.0620     8.7340     0.0130   134.4420     2.5000
 2402.0000   -74.2650     6.2080     6.0000     9.0830     8.7440     0.0120   135.4020     2.4960
 2402.5000   -74.2320     6.2170     5.9660     9.1040     8.7300     0.0110   134.4240     2.4960
 2403.0000   -74.2870     6.2240     5.9030     9.1250     8.7320     0.0100   133.5060     2.4950
 2403.5000   -74.4070     6.1610     5.8410     9.1430     8.7400     0.0090   132.7920     2.4920
 2404.0000   -74.3590     6.1060     5.7780     9.0590     8.7430     0.0090   132.5510     2.4880
 2404.5000   -74.3040     6.0520     5.6800     8.6960     8.7320     0.0080   132.3040     2.4840
 2405.0000   -74.2480     5.9980     5.7000     8.2670     8.7320     0.0070   131.9990     2.4800
 2405.5000   -74.1930     5.9460     5.7500     8.5200     8.7430     0.0070   131.2970     2.4840
 2406.0000   -74.1380     6.0330     5.8000     8.8290     8.7540     0.0060   130.6050     2.4890
 2406.5000   -74.0830     6.1180     5.8500     9.0590     8.7650     0.0050   130.3700     2.4880
 2407.0000   -74.0310     6.2030     5.9000     8.6920     8.7760     0.0050   131.3260     2.4860
 2407.5000   -73.9310     6.2810     5.9460     8.4000     8.7870     0.0060   132.2940     2.4890
 2408.0000   -73.8280     6.7410     6.1740     8.1910     8.7980     0.0060   131.0920     2.4950
 2408.5000   -73.7230     7.1660     6.3860    10.0620     8.8090     0.0060   129.2340     2.5000
 2409.0000   -73.6280     7.5800     6.5970    10.4740     8.8200     0.0070   127.3540     2.5030
 2409.5000   -73.6060     7.8950     6.8090    10.8870     8.8250     0.0080   125.4700     2.5060
 2410.0000   -73.5870     8.1370     7.0210    11.3000     8.8250     0.0100   124.1910     2.5090
 2410.5000   -73.5680     8.3140     7.1250    11.8140     8.8200     0.0120   123.4010     2.5120
 2411.0000   -73.5480     8.4970     7.1910    11.6220     8.8080     0.0140   123.8740     2.5150
 2411.5000   -73.5290     8.4430     7.2570    11.1040     8.9390     0.0160   125.3880     2.5170
 2412.0000   -73.5090     8.3870     7.3970    10.6370     8.9150     0.0180   126.9260     2.5190
 2412.5000   -73.4900     8.3430     7.5570    10.3930     8.8900     0.0200   127.7940     2.5210
 2413.0000   -73.4700     8.7610     7.6940    10.5320     8.8650     0.0220   128.6510     2.5220
 2413.5000   -73.4510     8.9460     7.7480    10.7620     8.8610     0.0240   129.4940     2.5210
 2414.0000   -73.4340     9.0300     7.8020    11.0500     8.8580     0.0230   130.9700     2.5130
 2414.5000   -73.5040     9.1430     7.8570    11.3370     8.8540     0.0200   132.6110     2.5060
 2415.0000   -73.5780     9.1090     7.8970    11.4940     8.8510     0.0170   134.2420     2.5010
 2415.5000   -73.6530     9.0560     7.7550    11.1940     8.8470     0.0140   135.8130     2.4960
 2416.0000   -73.7270     9.0040     7.6430    10.7810     8.8450     0.0110   136.6330     2.4910
 2416.5000   -73.8010     8.9520     7.5310    10.4880     8.8520     0.0080   136.5820     2.4860
 2417.0000   -73.8760     8.8950     7.4180    10.5750     8.8580     0.0050   135.9620     2.4820
 2417.5000   -73.9500     8.7610     7.3060    10.7000     8.8650     0.0020   134.6900     2.4840
 2418.0000   -74.0180     8.6130     7.1930    10.8240     8.8850     0.0020   133.4170     2.4860
 2418.5000   -74.0200     8.4660     7.0810    10.9800     8.9050     0.0040   133.4190     2.4900
 2419.0000   -74.0200     8.3190     6.9690    10.8800     8.8860     0.0050   134.3180     2.4960
 2419.5000   -74.0200     8.1710     6.8560    10.5140     8.8890     0.0070   135.2370     2.5010
 2420.0000   -74.0200     8.0240     6.7440    10.1330     8.9140     0.0090   134.6530     2.5040
 2420.5000   -74.0200     7.8760     6.6770     9.7480     8.8890     0.0100   133.0240     2.5040
 2421.0000   -74.0200     7.7290     6.6430     9.9770     8.8870     0.0100   131.3720     2.5010
 2421.5000   -74.0200     7.6070     6.6090    10.2040     8.8900     0.0080   130.1180     2.4970
 2422.0000   -74.0200     7.5790     6.5750    10.0460     8.8930     0.0050   131.6470     2.4930
 2422.5000   -74.0200     7.5510     6.6200     9.9280     8.8960     0.0030   133.6500     2.4900
 2423.0000   -74.0200     7.5230     6.6630    10.1790     8.9000     0.0010   134.7580     2.4890
 2423.5000   -74.0200     7.4950     6.7060    10.4880     8.9020    -0.0010   134.3530     2.4890
 2424.0000   -74.0200     7.4750     6.7490    10.4090     8.9350     0.0010   133.7640     2.4900
 2424.5000   -74.0200     7.6640     6.7930    10.2390     8.9750     0.0030   133.3570     2.4900
 2425.0000   -74.0190     7.8120     6.8360    10.0190     8.9610     0.0050   133.9100     2.4900
 2425.5000   -74.0210     7.9600     6.8790    10.1310     8.9350     0.0060   135.3040     2.4900
 2426.0000   -74.0560     8.1090     6.9220    10.2890     8.9080     0.0080   136.7450     2.4890
 2426.5000   -74.0930     8.2670     6.9650    10.4470     8.9120     0.0080   136.0630     2.4850
 2427.0000   -74.1300     8.2160     7.0110    10.5490     8.9230     0.0050   135.2980     2.4810
 2427.5000   -74.1670     8.1620     7.0030    10.6820     8.9330     0.0030   134.4230     2.4770
 2428.0000   -74.2050     8.1170     6.9950    10.4430     8.9440     0.0000   133.3710     2.4810
 2428.5000   -74.1980     8.2800     6.9860     9.9280     8.9550     0.0000   132.3170     2.4850
 2429.0000   -74.1740     8.4190     6.9780    10.2500     8.9650     0.0020   131.3490     2.4910
 2429.5000   -74.1480     8.1940     6.9700    10.6590     8.9760     0.0040   132.0900     2.4960
 2430.0000   -74.1230     8.2050     6.9610    10.9800     8.9800     0.0060   132.8900     2.5020
 2430.5000   -74.0970     8.2280     6.9530    10.6230     8.9750     0.0080   133.6880     2.5040
 2431.0000   -74.0720     8.2500     6.9420    10.3300     8.9700     0.0100   134.4010     2.5020
 2431.5000   -74.0460     8.2670     6.9220    10.1110     8.9650     0.0120   133.5600     2.5050
 2432.0000   -74.0220     8.1980     6.9020    10.5830     8.9590     0.0140   132.6830     2.5100
 2432.5000   -74.0990     7.9050     6.8840    10.8800     8.9540     0.0160   131.8180     2.5130
 2433.0000   -74.1840     7.5750     6.7460    10.4370     8.9490     0.0160   132.1500     2.5100
 2433.5000   -74.2690     7.3580     6.6200     9.7790     8.9440     0.0150   134.1230     2.5100
 2434.0000   -74.3540     7.1890     6.4930     9.1130     8.9460     0.0140   136.0750     2.5150
 2434.5000   -74.4390     7.0750     6.3660     8.2670     8.9490     0.0130   137.3790     2.5200
 2435.0000   -74.5240     7.2060     6.2450     9.1410     8.9520     0.0120   137.8060     2.5200
