~VERSION INFORMATION
 VERS.                2.0:   CWLS LOG ASCII STANDARD - VERSION 2.0
 WRAP.                 NO:   ONE LINE PER DEPTH STEP
~WELL INFORMATION
#MNEM.UNIT      DATA TYPE    INFORMATION
#----------   ------------   ------------------------------
 STRT.F           60.0000:   START DEPTH
 STOP.F         3758.0000:   STOP DEPTH
 STEP.F            0.5000:   STEP LENGTH
 NULL.          -999.2500:   NO VALUE
 COMP. LAWRENCE ALLISON & ASSOCIATES:   COMPANY
 WELL. LAWRENCE "MX" #72-10:   WELL
 FLD .            N P R 3:   FIELD
 LOC .      S10 T38N R78W:   LOCATION
 CNTY.            NATRONA:   COUNTY
 STAT.            WYOMING:   STATE
 CTRY. UNITED STATES OF AMERICA:   COUNTRY
 SRVC.       SCHLUMBERGER:   SERVICE COMPANY
 DATE.        03-JUL-1982:   LOGDATE
 API .     49025108910000:   API NUMBER
~CURVE INFORMATION
#MNEM.UNIT       API CODE    CURVE DESCRIPTION
#----------   ------------   ------------------------------
 DEPT.F                  :   
 GRD .GAPI   45 310 01 00:   GAMMA RAY FROM DENSITY LOG
 NPHI.DEC    42 890 03 00:   NEUTRON POROSITY SANDSTONE
 CALD.IN     45 280 60 00:   CALIPER FROM DENSITY LOG
 RHOB.G/C3   45 350 01 00:   BULK DENSITY
 DRHO.G/C3   45 356 01 00:   DENSITY CORRECTION
 TEND.LBS    45 635 01 00:   TENSION FROM DENSITY LOG
 SPR .MV     07 010 01 00:   SPONTANEOUS POTENTIAL
 SFL .OHMM   07 220 01 00:   SHALLOW FOCUSED LOG RESISTIVITY
 ILD .OHMM   07 120 46 00:   DEEP INDUCTION RESISTIVITY
 ILM .OHMM   07 120 44 00:   INDUCTION LOG MEDIUM RESISTIVITY
 TENR.LBS    07 635 01 00:   TENSION FROM RESISTIVITY
~PARAMETER INFORMATION
#MNEM.UNIT          VALUE    DESCRIPTION
#----------   ------------   ------------------------------
 EKB .F         5182.0000:   Kelly bushing
 EGL .F         5172.0000:   Ground level
 EDF .F            0.0000:   Drilling floor
 EPD .F            0.0000:   Permanent datum
 TD  .F         3770.0000:   Total depth
 DATE.        03-JUL-1982:   Date logged
 CLNT.            A2DTECH:   Client Code
 SL  . 1119' FNL & 21' FEL:   Surface Location
 PD  .                 GL:   Permanent Datum
 DD  .F              3770:   Depth driller
 DL  .F              3750:   Depth logger
 BLI .F              3744:   Bottom log interval
 CS1 .IN            9.625:   Casing size
 CBD1.      9.625" @ 473':   Casing driller 1
 CBL1.F               482:   Casing logger 1
 BS1 .IN            7.875:   Bit size
 DFT .                GEL:   Type fluid in hole
 DFD .                9.1:   Density
 DFV .                 34:   Viscosity
 DFPH.               10.5:   pH
 DFL .                 12:   Fluid loss
 MSS .            MUD PIT:   Source of sample
 RMS .OHMM           1.50:   Rm
 MST .F                84:   Rm Meas. temp.
 RMF .OHMM           1.37:   Rmf
 MFST.F                83:   Rmf Meas. temp.
 RMC .OHMM           1.20:   Rmc
 MCST.F                83:   Rmc Meas. temp.
 MFSS.               MEAS:   Source Rmf.
 RMB .OHMM              1:   Rm. at BHT
 BHT .F               130:   BHT.
 TCS .HRS            1500:   Time Circ. stopped
 MRT .F               130:   Maximum recorded temp.
 LUN .               8039:   Logging unit number
 LUL .               CSPR:   Logging unit location
 ENGI. CONOSCENTI/PIRAKIS:   Recorded By
 WITN.             STRONG:   Witnessed by
 ORIG.       2.5"5" PRINT:   Origin of data
 UWI .     49025108910000:   Unique Well ID
 DICO. A2D TECHNOLOGIES, INC.:   Digitizing Company
 DAPD.                 10:   Feet Above Permanent Datum
 BSD1.               3770:   Depth drilled with bit1
 MCSS.               CALC:   Source Rmc.
 TLI .                482:   Top log interval
 TLAB.HR             1800:   Time logger at bottom
~OTHER INFORMATION
~A   DEPT      GRD       NPHI       CALD       RHOB       DRHO       TEND        SPR        SFL        ILD        ILM       TENR   
# ...
  700.5000   112.2180     0.3470    11.8350     2.4980     0.0140   900.0000   -72.4370     6.6340     6.4570     5.8340   880.8990
  701.0000   111.8770     0.3510    11.8420     2.4980     0.0120   900.0000   -72.4020     6.5850     6.4640     5.8340   880.9890
  701.5000   107.5270     0.3540    11.8470     2.4980     0.0120   900.0000   -72.3670     6.5370     6.4710     5.8340   881.0800
  702.0000   103.0240     0.3560    11.8530     2.4980     0.0130   900.0000   -72.3310     6.4880     6.4780     5.8340   881.1700
  702.5000    99.9640     0.3570    11.8590     2.4980     0.0220   900.0000   -72.2960     6.4570     6.4850     5.8340   881.2610
  703.0000    99.8880     0.3500    11.8650     2.4990     0.0280   900.0000   -72.2610     6.4570     6.4920     5.7800   881.3510
  703.5000   101.8610     0.3440    11.8710     2.4960     0.0330   900.0000   -72.2260     6.4570     6.5000     5.7220   881.4420
  704.0000   103.0250     0.3370    11.8770     2.4890     0.0270   900.0000   -72.1910     6.4570     6.5070     5.6960   881.5320
  704.5000   103.0760     0.3300    11.8830     2.4820     0.0190   900.0000   -72.1560     6.4730     6.5140     5.6690   881.6230
  705.0000   103.1060     0.3320    11.8890     2.4810     0.0170   900.0000   -72.1210     6.5130     6.5210     5.6430   881.7140
  705.5000   103.1000     0.3320    11.8950     2.4850     0.0220   900.0000   -72.0860     6.5530     6.5280     5.6210   881.8040
  706.0000   102.8060     0.3420    11.9010     2.4870     0.0240   900.0000   -72.0510     6.5930     6.5350     5.6130   881.8950
  706.5000   100.1120     0.3520    11.8970     2.4840     0.0210   900.0000   -72.0140     6.6360     6.5430     5.6060   881.9850
  707.0000    97.7280     0.3630    11.8900     2.4840     0.0230   900.0000   -72.0550     6.6200     6.5500     5.5980   882.0760
  707.5000    95.3250     0.3730    11.8830     2.4880     0.0300   900.0000   -72.1310     6.5980     6.5570     5.5910   882.1660
  708.0000    96.5910     0.3760    11.8780     2.4920     0.0300   900.0000   -72.2070     6.5760     6.5640     5.5830   882.2570
  708.5000    97.9060     0.3780    11.8690     2.4950     0.0300   900.0000   -72.2840     6.5540     6.5720     5.5760   882.3470
  709.0000    99.0980     0.3800    11.8690     2.5000     0.0350   900.0000   -72.3600     6.5320     6.5790     5.5710   882.4380
  709.5000    95.6990     0.3830    11.8110     2.5080     0.0460   900.0000   -72.4370     6.5170     6.7610     6.1070   882.5290
  710.0000    90.5700     0.3710    11.6750     2.5290     0.0570   900.0000   -72.5150     7.1160     6.9600     6.5160   882.6190
  710.5000    85.8210     0.3510    11.5410     2.5540     0.0670   900.0000   -72.5880     8.2990     7.1600     6.9250   882.7100
  711.0000    84.7990     0.2880    11.4080     2.5740     0.0740   900.0000   -72.4650     9.4820     7.3590     7.3480   882.8000
  711.5000    88.2590     0.2720    11.2920     2.5630     0.0590   900.0000   -72.3290    10.9270     7.5540     7.1460   882.8910
  712.0000    93.1050     0.2660    11.4110     2.5120     0.0300   900.0000   -72.1930    10.3270     7.5690     6.8840   882.9810
  712.5000    97.8400     0.2850    11.5410     2.4860     0.0340   900.0000   -72.0550     8.3990     7.6950     6.6210   883.0720
  713.0000    99.0790     0.3120    11.6910     2.4970     0.0660   900.0000   -72.1500     6.8250     7.6240     6.4570   883.1620
  713.5000   101.6440     0.3430    11.7150     2.5170     0.1120   900.0000   -72.3870     6.8330     7.4970     6.3910   883.2530
  714.0000   104.8830     0.3590    11.7440     2.5290     0.1500   900.0000   -72.6250     6.8530     7.2900     6.3090   883.3440
  714.5000   107.7430     0.3670    11.7440     2.5150     0.1380   900.0000   -72.8630     6.8740     7.0830     6.2270   883.4340
  715.0000   106.5650     0.3710    11.7460     2.4940     0.0890   900.0000   -73.1130     6.8940     6.8880     6.1450   883.5250
  715.5000   105.2560     0.3730    11.7450     2.4780     0.0490   900.0000   -73.1210     6.9140     6.8880     6.0640   883.6150
  716.0000   105.5260     0.3750    11.7450     2.4820     0.0420   900.0000   -73.0330     6.9340     6.8880     6.0480   883.7060
  716.5000   106.0830     0.3770    11.7450     2.4870     0.0260   900.0000   -72.9420     6.9520     6.8960     6.0290   883.7960
  717.0000   105.5970     0.3780    11.7450     2.4930     0.0250   900.0000   -72.8520     6.9570     6.9050     6.0110   883.8870
  717.5000   105.6300     0.3790    11.7450     2.4950     0.0230   900.0000   -72.7610     6.9610     6.9140     5.9920   883.9770
  718.0000   103.1180     0.3760    11.7450     2.4920     0.0220   900.0000   -72.6710     6.9650     6.9230     5.9730   884.0680
  718.5000   102.3510     0.3600    11.7450     2.4870     0.0210   900.0000   -72.5800     6.9690     6.9320     5.9550   884.1590
  719.0000   104.4930     0.3610    11.7450     2.4810     0.0180   900.0000   -72.4900     6.9730     6.9410     5.9430   884.2490
  719.5000   106.4270     0.3620    11.7450     2.4750     0.0140   900.0000   -72.3980     6.9770     6.9500     5.9480   884.3400
  720.0000   106.1850     0.3640    11.7460     2.4730     0.0100   900.0000   -72.2950     6.9810     6.9590     5.9840   884.4300
  720.5000   104.1800     0.3600    11.7440     2.4710     0.0100   900.0000   -72.1910     6.9850     6.9680     6.0190   884.5210
  721.0000   102.3370     0.3470    11.7470     2.4730     0.0150   900.0000   -72.0870     6.9900     6.9770     6.0540   884.6110
  721.5000   102.2710     0.3500    11.7410     2.4790     0.0200   900.0000   -72.0030     6.9940     6.9860     6.0900   884.7020
  722.0000   102.5980     0.3600    11.8010     2.4810     0.0200   900.0000   -72.0150     6.9980     6.9950     6.1250   884.7920
  722.5000   102.8750     0.3720    11.9230     2.4810     0.0140   900.0000   -72.0240     7.0020     7.0040     6.1660   884.8830
  723.0000   103.0960     0.3660    12.0220     2.4770     0.0100   900.0000   -72.0330     7.0060     7.0160     6.1410   884.9740
  723.5000   104.6280     0.3560    12.1320     2.4750     0.0100   900.0000   -72.0430     7.0100     6.9660     6.1110   885.0640
  724.0000   108.1840     0.3480    12.2200     2.4810     0.0200   900.0000   -72.0520     7.0160     6.8900     6.0810   885.1550
  724.5000   109.7230     0.3510    12.5790     2.4910     0.0320   900.0000   -72.0610     6.9270     6.8130     6.0520   885.2450
  725.0000   110.7020     0.3510    12.9280     2.5010     0.0440   900.0000   -72.0700     6.7410     6.7370     6.0220   885.3360
  725.5000   107.5250     0.3500    13.1740     2.4920     0.0430   900.0000   -72.0800     6.5550     6.6390     5.9920   885.4260
  726.0000   104.4610     0.3490    13.2210     2.4670     0.0290   900.0000   -72.0890     6.2810     6.7720     5.9620   885.5170
  726.5000   103.6510     0.3450    13.2820     2.4580     0.0150   900.0000   -72.0980     6.3300     7.0290     5.9430   885.6070
  727.0000   103.0700     0.3390    12.7910     2.4670     0.0070   900.0000   -72.1070     6.4220     7.2870     6.2130   885.6980
  727.5000   102.2460     0.3330    12.2960     2.4950     0.0080   900.0000   -72.1160     6.5170     7.5540     6.6120   885.7890
  728.0000   100.0250     0.3000    11.7220     2.5040     0.0070   900.0000   -72.1260     7.2940     8.0400     7.0100   885.8790
  728.5000    98.6800     0.2970    11.6350     2.5030     0.0070   900.0000   -72.1350     8.1040     8.5450     7.4090   885.9700
  729.0000    96.6220     0.2920    11.5980     2.4980     0.0060   900.0000   -72.1440     8.8390     9.0500     7.8070   886.0600
  729.5000    93.4240     0.2840    11.5660     2.4900     0.0030   900.0000   -72.1530     9.2700     9.5560     8.2060   886.1510
  730.0000    92.3590     0.2880    11.5460     2.4810    -0.0030   900.0000   -72.1620     9.6920    10.0610     8.4760   886.2410
  730.5000    93.3170     0.2980    11.5540     2.4710    -0.0090   900.0000   -72.1720     9.6270    10.5660     8.6470   886.3320
