~VERSION INFORMATION
 VERS.                2.0:   CWLS LOG ASCII STANDARD - VERSION 2.0
 WRAP.                 NO:   ONE LINE PER DEPTH STEP
~WELL INFORMATION
#MNEM.UNIT      DATA TYPE    INFORMATION
#----------   ------------   ------------------------------
 STRT.F          204.0000:   START DEPTH
 STOP.F         3104.0000:   STOP DEPTH
 STEP.F            0.5000:   STEP LENGTH
 NULL.          -999.2500:   NO VALUE
 COMP.    FENIX & SCISSON:   COMPANY
 WELL. FENIX NPR 83 "AX" #3-10:   WELL
 FLD .                NPR:   FIELD
 LOC .      S10 T38N R78W:   LOCATION
 CNTY.            NATRONA:   COUNTY
 STAT.            WYOMING:   STATE
 CTRY. UNITED STATES OF AMERICA:   COUNTRY
 SRVC.              WELEX:   SERVICE COMPANY
 DATE.        14-JUL-1977:   LOGDATE
 API .     49025103980000:   API NUMBER
~CURVE INFORMATION
#MNEM.UNIT       API CODE    CURVE DESCRIPTION
#----------   ------------   ------------------------------
 DEPT.F                  :   
 ILD .OHMM   07 120 46 00:   DEEP INDUCTION RESISTIVITY
 GURD.OHMM   07 220 05 00:   GUARD LOG RESISTIVITY
 ILM .OHMM   07 120 44 00:   INDUCTION LOG MEDIUM RESISTIVITY
 SPR .MV     07 010 01 00:   SPONTANEOUS POTENTIAL
 CALD.IN     45 280 60 00:   CALIPER FROM DENSITY LOG
 GRD .GAPI   45 310 01 00:   GAMMA RAY FROM DENSITY LOG
 RHOB.G/C3   45 350 01 00:   BULK DENSITY
 CORR.G/C3   45 356 01 00:   DENSITY CORRECTION
 NPHI.DEC    42 890 03 00:   NEUTRON POROSITY SANDSTONE
~PARAMETER INFORMATION
#MNEM.UNIT          VALUE    DESCRIPTION
#----------   ------------   ------------------------------
 EKB .F         5176.0000:   Kelly bushing
 EGL .F         5166.0000:   Ground level
 TD  .F         3105.0000:   Total depth
 DATE.        14-JUL-1977:   Date logged
 CLNT.            A2DTECH:   Client Code
 SL  . 1650' FNL & 100' FEL:   Surface Location
 PD  .                 GL:   Permanent Datum
 DD  .F              3094:   Depth driller
 DL  .F              3105:   Depth logger
 BLI .F              3103:   Bottom log interval
 CS1 .IN            8.625:   Casing size
 CBD1.      8.625" @ 218':   Casing driller 1
 CBL1.F               220:   Casing logger 1
 BS1 .IN            7.875:   Bit size
 DFT .            KCL/GEL:   Type fluid in hole
 DFD .                9.4:   Density
 DFV .                 36:   Viscosity
 DFPH.                  8:   pH
 DFL .                 12:   Fluid loss
 MSS .           FLOWLINE:   Source of sample
 RMS .OHMM           1.54:   Rm
 MST .F               100:   Rm Meas. temp.
 RMF .OHMM            1.5:   Rmf
 MFST.F               100:   Rmf Meas. temp.
 RMC .OHMM           3.47:   Rmc
 MCST.F               100:   Rmc Meas. temp.
 MFSS.               FANN:   Source Rmf.
 RMB .OHMM           1.36:   Rm. at BHT
 BHT .F               113:   BHT.
 TCS .HRS             2.5:   Time Circ. stopped
 MRT .F               113:   Maximum recorded temp.
 LUN .               8766:   Logging unit number
 LUL .             CASPER:   Logging unit location
 ENGI. G. BENTSEN/T. JOYNER:   Recorded By
 WITN.      B. HARRINGTON:   Witnessed by
 ORIG.           5" PRINT:   Origin of data
 UWI .     49025103980000:   Unique Well ID
 DICO. A2D TECHNOLOGIES, INC.:   Digitizing Company
 DAPD.F                10:   Feet Above Permanent Datum
 BSD1.F              3094:   Depth drilled with bit1
 MCSS.                KIT:   Source Rmc.
 TLI .F               210:   Top log interval
 EPD .F              5166:   Elevation Permanent Datum
 LMF .                 KB:   Log Measured From
 DMF .                 KB:   Drilling Measured From
~OTHER INFORMATION
~A   DEPT      ILD       GURD        ILM        SPR       CALD        GRD       RHOB       CORR       NPHI   
# ...
 2467.0000     5.6330     8.1630     7.2340   -53.7650     9.3760   129.1200     2.5380     0.0380     0.4030
 2467.5000     5.6570     8.1170     6.9770   -53.7690     9.3770   130.2740     2.5450     0.0380     0.4040
 2468.0000     5.6800     8.0800     6.7860   -53.7730     9.3780   131.4430     2.5510     0.0400     0.4060
 2468.5000     5.6940     8.0430     6.8010   -53.7770     9.3790   130.5690     2.5670     0.0460     0.4060
 2469.0000     5.6790     8.0140     6.8180   -53.7810     9.3800   129.1300     2.5800     0.0520     0.4060
 2469.5000     5.6560     8.0340     6.8350   -53.7850     9.3810   127.6720     2.5840     0.0530     0.4110
 2470.0000     5.6320     8.0510     6.9130   -53.7890     9.3820   126.2170     2.5820     0.0520     0.4170
 2470.5000     5.6090     8.0680     6.8760   -53.7930     9.3830   126.4300     2.5700     0.0470     0.4230
 2471.0000     5.5850     8.0880     6.7880   -53.7970     9.3840   128.1130     2.5570     0.0430     0.4290
 2471.5000     5.5620     7.9670     6.6990   -53.8010     9.3850   129.7960     2.5540     0.0390     0.4310
 2472.0000     5.5380     7.8180     6.6110   -53.8050     9.3860   131.4840     2.5520     0.0340     0.4320
 2472.5000     5.5150     7.5820     6.5230   -53.8100     9.3870   133.1770     2.5440     0.0300     0.4320
 2473.0000     5.4920     7.6250     6.4350   -53.8140     9.3880   134.8950     2.5410     0.0310     0.4330
 2473.5000     5.4380     7.7950     6.3470   -53.8180     9.3890   134.0360     2.5540     0.0320     0.4360
 2474.0000     5.3770     7.7360     6.2590   -53.8220     9.3900   132.7920     2.5680     0.0320     0.4390
 2474.5000     5.3170     7.5900     6.1700   -53.8260     9.3910   131.9340     2.5640     0.0320     0.4420
 2475.0000     5.2560     7.4440     6.0820   -53.8300     9.3920   132.0260     2.5590     0.0310     0.4440
 2475.5000     5.1950     7.2980     5.9940   -53.8340     9.3930   134.1410     2.5570     0.0310     0.4450
 2476.0000     5.1340     7.1530     5.9060   -53.8380     9.3940   136.3400     2.5620     0.0300     0.4460
 2476.5000     5.0740     7.0070     5.8180   -53.8420     9.3960   137.0610     2.5670     0.0290     0.4410
 2477.0000     5.0130     6.9770     5.6940   -53.8460     9.3970   135.6850     2.5720     0.0310     0.4360
 2477.5000     4.9520     6.6760     5.7330   -53.8500     9.3980   134.3250     2.5720     0.0320     0.4310
 2478.0000     4.8660     6.2220     5.8010   -53.8540     9.3990   132.9510     2.5700     0.0330     0.4270
 2478.5000     4.8810     6.3940     5.8680   -53.8580     9.4000   132.7240     2.5750     0.0350     0.4230
 2479.0000     4.9070     6.9300     5.9350   -53.8620     9.4010   133.3300     2.5810     0.0360     0.4190
 2479.5000     4.9330     7.5820     5.9640   -53.8660     9.4020   134.0120     2.5860     0.0370     0.4150
 2480.0000     4.9590     7.5340     5.9680   -53.8700     9.4030   134.6930     2.5910     0.0390     0.4110
 2480.5000     4.9840     7.4530     5.9720   -53.8740     9.4040   135.3710     2.5960     0.0380     0.4090
 2481.0000     5.0100     7.3720     5.9760   -53.8780     9.4050   136.0500     2.5880     0.0350     0.4070
 2481.5000     5.0360     7.2900     5.9800   -53.8820     9.4060   136.3860     2.5790     0.0320     0.4050
 2482.0000     5.0620     7.2380     5.9840   -53.8870     9.4070   135.7420     2.5690     0.0290     0.4050
 2482.5000     5.0870     7.2300     5.9880   -53.8910     9.4080   134.4630     2.5660     0.0280     0.4070
 2483.0000     5.1130     7.2220     5.9920   -53.8950     9.4090   133.1620     2.5670     0.0270     0.4100
 2483.5000     5.1390     7.2140     5.9960   -53.8990     9.4100   131.8720     2.5680     0.0260     0.4130
 2484.0000     5.1650     7.2060     6.0000   -53.9030     9.4110   131.1920     2.5600     0.0260     0.4160
 2484.5000     5.2390     7.1980     6.0040   -53.9070     9.4120   131.5660     2.5710     0.0170     0.4190
 2485.0000     5.2260     7.1890     6.0080   -53.9110     9.4130   131.9510     2.5810     0.0230     0.4200
 2485.5000     5.2090     7.1810     6.0120   -53.9150     9.4140   132.4360     2.5910     0.0280     0.4190
 2486.0000     5.1920     7.1730     6.0160   -53.9190     9.4160   132.1730     2.5990     0.0340     0.4190
 2486.5000     5.1750     7.1820     6.0290   -53.9230     9.4170   131.2920     2.5920     0.0380     0.4180
 2487.0000     5.1580     7.1950     6.0960   -53.9270     9.4180   130.3830     2.5820     0.0380     0.4150
 2487.5000     5.1440     7.2070     6.1640   -53.9310     9.4190   129.4770     2.5770     0.0370     0.4090
 2488.0000     5.2340     7.2200     6.2310   -53.9350     9.4200   128.5710     2.5790     0.0370     0.4020
 2488.5000     5.3550     7.2320     6.3030   -53.9390     9.4210   127.6700     2.5840     0.0360     0.3920
 2489.0000     5.4770     7.3810     6.5930   -53.9430     9.4220   126.7390     2.5890     0.0350     0.3830
 2489.5000     5.5980     7.7900     6.9830   -53.9470     9.4220   127.3360     2.5880     0.0350     0.3780
 2490.0000     5.7190     8.2000     7.2630   -53.9510     9.4220   128.5680     2.5900     0.0340     0.3740
 2490.5000     5.8400     8.5280     7.3310   -53.9550     9.4220   129.6770     2.6030     0.0360     0.3700
 2491.0000     5.9610     8.7090     7.3990   -53.9590     9.4220   129.9240     2.5970     0.0360     0.3690
 2491.5000     6.0820     8.7090     7.4670   -53.9640     9.4220   130.1900     2.5870     0.0330     0.3700
 2492.0000     6.1980     8.5480     7.5120   -53.9680     9.4220   130.4570     2.5770     0.0310     0.3730
 2492.5000     6.2790     8.3760     7.7110   -53.9720     9.4220   130.7250     2.5670     0.0280     0.3780
 2493.0000     6.3600     8.2040     7.9400   -53.9760     9.4220   130.9930     2.5580     0.0260     0.3830
 2493.5000     6.4410     8.0880     8.0140   -53.9800     9.4220   131.2570     2.5580     0.0260     0.3890
 2494.0000     6.5220     8.3380     8.0210   -53.9840     9.4220   131.4900     2.5600     0.0280     0.3940
 2494.5000     6.6040     8.6080     8.0780   -53.9880     9.4220   132.9710     2.5620     0.0290     0.3970
 2495.0000     6.6850     8.9530     8.1360   -53.9920     9.4220   134.6250     2.5620     0.0300     0.3990
 2495.5000     6.7240     8.8180     8.1630   -53.9960     9.4220   136.3380     2.5570     0.0320     0.4000
 2496.0000     6.6500     8.6310     7.9380   -54.0000     9.4220   135.6380     2.5500     0.0320     0.3970
 2496.5000     6.5840     8.4430     7.7670   -54.0040     9.4220   133.8660     2.5440     0.0290     0.3920
 2497.0000     6.5180     8.2390     7.5960   -54.0080     9.4220   132.0630     2.5380     0.0270     0.3880
 2497.5000     6.4530     8.2390     7.4900   -54.0120     9.4220   130.7640     2.5330     0.0240     0.3810
 2498.0000     6.3870     8.2390     7.4200   -54.0160     9.4220   132.1400     2.5340     0.0210     0.3830
 2498.5000     6.3210     8.2390     7.3500   -54.0200     9.4220   133.6480     2.5360     0.0180     0.3860
 2499.0000     6.2550     8.2390     7.2790   -54.0240     9.4220   135.1500     2.5400     0.0190     0.3900
 2499.5000     6.1890     8.2390     7.2090   -54.0280     9.4230   136.6500     2.5580     0.0220     0.3940
 2500.0000     6.1240     8.1070     7.1390   -54.0320     9.4230   138.1510     2.5790     0.0240     0.3960
 2500.5000     6.0580     7.9600     7.0680   -54.0360     9.4240   139.6360     2.5760     0.0260     0.3930
 2501.0000     5.9920     7.8130     6.9770   -54.0400     9.4240   140.5620     2.5730     0.0260     0.3890
 2501.5000     5.9260     7.6520     6.9910   -54.0450     9.4240   140.3090     2.5750     0.0250     0.3830
 2502.0000     5.8540     7.7250     7.0190   -54.0490     9.4250   140.0750     2.5720     0.0250     0.3770
 2502.5000     5.9280     7.8060     7.0470   -54.0530     9.4250   139.8420     2.5670     0.0240     0.3720
 2503.0000     5.9570     7.8860     7.0750   -54.0570     9.4260   139.6040     2.5670     0.0240     0.3690
