~VERSION INFORMATION
 VERS.                2.0:   CWLS LOG ASCII STANDARD - VERSION 2.0
 WRAP.                 NO:   ONE LINE PER DEPTH STEP
~WELL INFORMATION
#MNEM.UNIT      DATA TYPE    INFORMATION
#----------   ------------   ------------------------------
 STRT.F          209.5000:   START DEPTH
 STOP.F         3130.0000:   STOP DEPTH
 STEP.F            0.5000:   STEP LENGTH
 NULL.          -999.2500:   NO VALUE
 COMP. FENIX & SCISSON-U.S. NAVY:   COMPANY
 WELL.   FENIX "A" #66-29:   WELL
 FLD .              NPR 3:   FIELD
 LOC .      S29 T39N R78W:   LOCATION
 CNTY.            NATRONA:   COUNTY
 STAT.            WYOMING:   STATE
 CTRY. UNITED STATES OF AMERICA:   COUNTRY
 SRVC.       SCHLUMBERGER:   SERVICE COMPANY
 DATE.        12-JUN-1977:   LOGDATE
 API .     49025103850000:   API NUMBER
~CURVE INFORMATION
#MNEM.UNIT       API CODE    CURVE DESCRIPTION
#----------   ------------   ------------------------------
 DEPT.F                  :   
 CALD.IN     45 280 60 00:   CALIPER FROM DENSITY LOG
 GRD .GAPI   45 310 01 00:   GAMMA RAY FROM DENSITY LOG
 RHOB.G/C3   45 350 01 00:   BULK DENSITY
 CORR.G/C3   45 356 01 00:   DENSITY CORRECTION
 LL8 .OHMM   07 220 08 00:   LATEROLOG-8 RES.
 ILD .OHMM   07 120 46 00:   DEEP INDUCTION RESISTIVITY
 ILM .OHMM   07 120 44 00:   INDUCTION LOG MEDIUM RESISTIVITY
 SPR .MV     07 010 01 00:   SPONTANEOUS POTENTIAL
~PARAMETER INFORMATION
#MNEM.UNIT          VALUE    DESCRIPTION
#----------   ------------   ------------------------------
 EKB .F         5058.0000:   Kelly bushing
 EGL .F         5048.0000:   Ground level
 EDF .F            0.0000:   Drilling floor
 TD  .F         3120.0000:   Total depth
 DATE.        12-JUN-1977:   Date logged
 CLNT.            A2DTECH:   Client Code
 SL  . 1650' FSL & 1650' FEL:   Surface Location
 PD  .                 GL:   Permanent Datum
 EPD .F              5048:   Elevation Permanent Datum
 LMF .                 KB:   Log Measured From
 DMF .                 KB:   Drilling Measured From
 DAPD.F                10:   Feet Above Permanent Datum
 DD  .F              3120:   Depth driller
 DL  .F              3120:   Depth logger
 BLI .F              3120:   Bottom log interval
 TLI .F               219:   Top log interval
 CS1 .IN            8.625:   Casing size
 CBD1.      8.625" @ 225':   Casing driller 1
 CBL1.F               219:   Casing logger 1
 BS1 .IN            7.875:   Bit size
 BSD1.F              3120:   Depth drilled with bit1
 DFT .            KCL MUD:   Type fluid in hole
 DFD .                8.8:   Density
 DFV .                 32:   Viscosity
 DFPH.                7.5:   pH
 DFL .                  8:   Fluid loss
 MSS .              CIRC.:   Source of sample
 RMS .OHMM           2.01:   Rm
 MST .F                72:   Rm Meas. temp.
 RMF .OHMM            1.9:   Rmf
 MFST.F                72:   Rmf Meas. temp.
 RMC .OHMM           3.02:   Rmc
 MCST.F                72:   Rmc Meas. temp.
 MFSS.               MEAS:   Source Rmf.
 MCSS.               CALC:   Source Rmc.
 RMB .OHMM           1.21:   Rm. at BHT
 BHT .F               120:   BHT.
 TCS .HRS            1400:   Time Circ. stopped
 TLAB.HRS            1730:   Time logger at bottom
 MRT .F               120:   Maximum recorded temp.
 LUN .               7711:   Logging unit number
 LUL .               CSPR:   Logging unit location
 ENGI.             SAYLER:   Recorded By
 WITN.             RHODES:   Witnessed by
 ORIG.           5" PRINT:   Origin of data
 UWI .     49025103850000:   Unique Well ID
 DICO. A2D TECHNOLOGIES, INC.:   Digitizing Company
~OTHER INFORMATION
~A   DEPT     CALD         GRD      RHOB       CORR        LL8        ILD        ILM        SPR   
# ...
 1951.0000     8.1559   129.0840     2.5125     0.0062     9.6849     8.0826     8.8585   -42.0485
 1951.5000     8.1561   126.9091     2.5194     0.0053     9.6824     8.1549     8.9377   -41.6584
 1952.0000     8.1562   126.3169     2.5135     0.0053    10.0409     8.2278     9.1008   -41.2684
 1952.5000     8.1563   129.0876     2.5175     0.0083    10.1306     8.3779     9.1822   -41.0763
 1953.0000     8.1565   129.8801     2.5284     0.0153    10.2211     8.5307     9.1798   -41.2803
 1953.5000     8.1423   131.0681     2.5314     0.0163    10.5030     8.6070     9.2619   -41.4842
 1954.0000     8.1569   134.8277     2.5115     0.0063    10.2158     8.6840     9.3448   -41.8862
 1954.5000     8.1570   136.2135     2.5046     0.0043    10.2132     8.8424     9.2572   -41.8922
 1955.0000     8.1572   136.8083     2.5046     0.0050    10.2106     8.9216     9.2548   -42.0962
 1955.5000     8.1574   136.8092     2.5106     0.0074    10.6860     9.0843     9.3376   -42.4982
 1956.0000     8.1576   134.8325     2.5126     0.0074    10.7815     9.1656     9.4211   -43.0995
 1956.5000     8.1379   132.0642     2.5146     0.0104    10.7787     9.2476     9.5054   -43.1055
 1957.0000     8.1580   132.4609     2.5126     0.0064    10.6778     9.3303     9.5905   -43.3096
 1957.5000     8.1384   133.8465     2.5066     0.0054    10.7732     9.3279     9.6763   -43.7117
 1958.0000     8.1385   134.6385     2.5007     0.0005    11.0703     9.3255     9.6738   -43.9158
 1958.5000     8.1387   132.2669     2.4957     0.0035    11.2719     9.3231     9.6713   -43.9218
 1959.0000     8.1389   131.4766     2.4867    -0.0005    11.1664     9.2356     9.5806   -43.5316
 1959.5000     8.1391   134.6427     2.4778    -0.0005    11.1635     9.0655     9.3183   -43.3396
 1960.0000     8.1590   133.5889     2.4937     0.0005    10.8583     8.9804     9.2318   -43.1475
 1960.5000     8.1790   132.4693     2.5047     0.0108    10.9553     8.8150     9.1442   -42.7573
 1961.0000     8.1989   133.6569     2.5127     0.0184    10.8527     8.7323     8.9758   -42.3671
 1961.5000     8.1991   135.4381     2.5117     0.0214    10.5560     8.6499     8.8916   -42.1750
 1962.0000     8.1993   138.0109     2.5167     0.0264     9.7186     8.6477     8.8081   -42.1809
 1962.5000     8.1797   137.8133     2.5296     0.0294     9.3667     8.6454     8.8054   -42.1869
 1963.0000     8.1799   136.4304     2.5137     0.0135     9.6251     8.6432     8.8031   -41.7966
 1963.5000     8.1800   135.0471     2.5087     0.0046    10.3538     8.6409     8.8819   -41.4064
 1964.0000     8.1802   132.8727     2.5048     0.0046    10.9356     8.6391     8.9614   -41.4123
 1964.5000     8.1804   132.2805     2.5078     0.0056    11.0333     8.7963     9.1249   -41.6164
 1965.0000     8.1959   130.5020     2.5157     0.0136    10.8304     8.8750     9.2913   -42.0186
 1965.5000     8.2005   129.7121     2.5237     0.0056    10.7289     9.0369     9.5480   -42.2227
 1966.0000     8.1809   128.1311     2.5227     0.0046    10.8248     9.2018     9.8117   -42.2287
 1966.5000     8.2008   126.9458     2.5118     0.0027    10.9215     9.2758    10.0832   -42.4328
 1967.0000     8.2010   126.1559     2.5028     0.0017    11.1205     9.3505    10.2672   -42.4412
 1967.5000     8.2012   126.5527     2.4959     0.0017    11.4272     9.4258    10.4545   -43.0392
 1968.0000     8.1816   127.9382     2.4889    -0.0013    11.7424     9.5017    10.5481   -43.0452
 1968.5000     8.1818   130.3125     2.4859    -0.0003    11.8474     9.5782    10.6425   -43.4476
 1969.0000     8.1820   132.4889     2.4909     0.0007    11.8443     9.6553    10.7383   -43.6517
 1969.5000     8.1821   133.0834     2.5019     0.0037    11.8413     9.7330    10.9336   -43.8559
 1970.0000     8.1823   134.6663     2.5069     0.0104    11.8383     9.7021    11.0315   -43.4656
 1970.5000     8.1825   137.0404     2.5139     0.0167    11.8352     9.7889    11.0281   -43.8679
 1971.0000     8.1827   139.4145     2.5109     0.0147    11.8322     9.8765    11.0253   -43.4776
 1971.5000     8.1828   140.0088     2.5119     0.0058    11.7213     9.8740    11.0224   -43.2854
 1972.0000     8.1830   141.3943     2.5169     0.0058    11.7183     9.7813    10.9190   -42.6968
 1972.5000     8.1832   141.9884     2.5079     0.0028    11.9318     9.6895    10.7178   -42.1082
 1973.0000     8.1834   141.0007     2.5030     0.0028    11.8194     9.5991    10.6173   -41.7177
 1973.5000     8.1835   137.8381     2.5020     0.0088    11.6020     9.7737    10.5176   -41.5255
 1974.0000     8.1837   133.6869     2.4980     0.0009    11.0800     9.7712    10.4189   -40.9367
 1974.5000     8.1839   134.2813     2.4950    -0.0021    10.6787     9.8587    10.4163   -40.9427
 1975.0000     8.1841   135.8643     2.4891    -0.0031    10.6760     9.8561    10.3185   -40.7504
 1975.5000     8.1843   138.4363     2.4841    -0.0021    11.4844     9.8536    10.2222   -40.5581
 1976.0000     8.1845   135.4711     2.4891     0.0019    11.8012     9.9418    10.0334   -40.7623
 1976.5000     8.1846   133.8904     2.4831     0.0019    11.9067     9.9402    10.0308   -40.7682
 1977.0000     8.1848   133.2984     2.4831     0.0009    11.7952     9.9366    10.0282   -40.7742
 1977.5000     8.1850   133.1018     2.4791     0.0019    11.5782    10.0256    10.1179   -41.1766
 1978.0000     8.1852   132.9053     2.4891     0.0000    11.3651    10.0230    10.1153   -41.5803
 1978.5000     8.1853   133.4995     2.4832    -0.0030    11.0543     9.9289    10.2059   -41.7845
 1979.0000     8.1657   134.4893     2.4832    -0.0010    11.2557    10.0178    10.2972   -42.3853
 1979.5000     8.1659   135.6767     2.4822     0.0010    11.8884    10.0152    10.2946   -42.5895
 1980.0000     8.1661   137.6549     2.4822     0.0010    12.2164    10.0126    10.2919   -42.5955
 1980.5000     8.1267   135.6789     2.4882     0.0040    12.3256     9.9187    10.1953   -42.7998
 1981.0000     8.1664   135.0869     2.5071     0.0050    12.3224    10.0070    10.0997   -43.0041
 1981.5000     8.1666   135.6812     2.5011     0.0110    12.0957     9.9136     9.9136   -43.0101
 1982.0000     8.1668   136.4731     2.5001     0.0110    11.9824     9.9110     9.3799   -42.6195
 1982.5000     8.1670   137.2655     2.5041     0.0110    11.7619     9.8180     9.1230   -42.4271
 1983.0000     8.1474   137.2659     2.5041     0.0110    11.6517     9.7254     9.0374   -42.2348
 1983.5000     8.1475   135.6857     2.5071     0.0110    11.1274     9.7228     9.0351   -41.6458
 1984.0000     8.1477   133.1168     2.5161     0.0111    10.9226     9.7203     9.1159   -40.8585
 1984.5000     8.1479   131.7341     2.5062     0.0111    11.0203     9.7178     9.1975   -40.6662
 1985.0000     8.1479   130.9447     2.5042     0.0111    11.4285     9.7153     9.2799   -40.6721
 1985.5000     8.1482   130.9459     2.5052     0.0091    11.6367     9.7128     9.3629   -40.4797
 1986.0000     8.1484   131.9353     2.5102     0.0094    11.7408     9.7103     9.6216   -40.0890
 1986.5000     8.1486   134.3087     2.5012     0.0098    11.8457     9.7078     9.7078   -40.0949
 1987.0000     8.1488   135.8913     2.5002     0.0101    11.7347     9.7947     9.8849   -40.2992
 1987.5000     8.1490   136.8805     2.5022     0.0101    11.8396     9.7921     9.9734   -40.5035
 1988.0000     8.1491   136.6840     2.5102     0.0151    11.8366     9.7896     9.9708   -40.7077
 1988.5000     8.1493   134.9062     2.5252     0.0171    11.7257     9.7871     9.9683   -40.7137
 1989.0000     8.1495   133.3259     2.5172     0.0142    11.7221     9.7861     9.9657   -40.9180
 1989.5000     8.1497   133.9201     2.5093     0.0132    11.7191     9.7820     9.9631   -41.5191
 1990.0000     8.1498   136.0961     2.4973     0.0102    11.7161     9.7810     9.9605   -41.7234
 1990.5000     8.1698   134.5154     2.4943     0.0052    11.5005     9.7780     9.8671   -42.3245
 1991.0000     8.1700   132.9355     2.4849     0.0023    11.2888     9.7744     9.8645   -42.5289
