~VERSION INFORMATION
 VERS.                2.0:   CWLS LOG ASCII STANDARD - VERSION 2.0
 WRAP.                 NO:   ONE LINE PER DEPTH STEP
~WELL INFORMATION
#MNEM.UNIT      DATA TYPE    INFORMATION
#----------   ------------   ------------------------------
 STRT.F           90.0000:   START DEPTH
 STOP.F         3342.0000:   STOP DEPTH
 STEP.F            0.5000:   STEP LENGTH
 NULL.          -999.2500:   NO VALUE
 COMP. LAWRENCE ALLISON AND ASSOCIATES:   COMPANY
 WELL. LAWERNCE "X" #83-3:   WELL
 FLD .             NPR #3:   FIELD
 LOC .       S3 T38N R78W:   LOCATION
 CNTY.            NATRONA:   COUNTY
 STAT.            WYOMING:   STATE
 CTRY. UNITED STATES OF AMERICA:   COUNTRY
 SRVC.      DRESSER ATLAS:   SERVICE COMPANY
 DATE.        23-APR-1985:   LOGDATE
 API .     49025110210000:   API NUMBER
~CURVE INFORMATION
#MNEM.UNIT       API CODE    CURVE DESCRIPTION
#----------   ------------   ------------------------------
 DEPT.F                  :   
 TENR.LBS    07 635 01 00:   TENSION FROM RESISTIVITY
 CALR.IN     07 280 01 00:   CALIPER FROM RESISTIVITY
 SPR .MV     07 010 01 00:   SPONTANEOUS POTENTIAL
 GRR .GAPI   07 310 01 00:   GAMMA RAY FROM RESISTIVITY
 RFOC.OHMM   07 220 04 00:   RESISTIVITY FOCUSED LOG RES.
 RILD.OHMM   07 120 46 00:   DEEP INDUCTION RESISTIVITY
 RILM.OHMM   07 120 44 00:   INDUCTION LOG MEDIUM RESISTIVITY
 NPHI.DEC    42 890 03 00:   NEUTRON POROSITY SANDSTONE
 RHOB.G/C3   45 350 01 00:   BULK DENSITY
 TEND.LBS    45 635 01 00:   TENSION FROM DENSITY LOG
 CORR.G/C3   45 356 01 00:   DENSITY CORRECTION
~PARAMETER INFORMATION
#MNEM.UNIT          VALUE    DESCRIPTION
#----------   ------------   ------------------------------
 EKB .F         5125.0000:   Kelly bushing
 EGL .F         5112.0000:   Ground level
 EDF .F            0.0000:   Drilling floor
 TD  .F         3330.0000:   Total depth
 DATE.        23-APR-1985:   Date logged
 CLNT.            A2DTECH:   Client Code
 SL  . 1745' FNL & 612' FEL:   Surface Location
 PD  .                 GL:   Permanent Datum
 DD  .F              3330:   Depth driller
 DL  .F              3328:   Depth logger
 BLI .F              3326:   Bottom log interval
 CS1 .IN            8.625:   Casing size
 CBD1.      8.625" @ 526':   Casing driller 1
 CBL1.F               528:   Casing logger 1
 BS1 .IN            7.875:   Bit size
 DFT .            KCL-GEL:   Type fluid in hole
 DFD .                9.1:   Density
 DFV .                 43:   Viscosity
 DFPH.                  8:   pH
 DFL .                  8:   Fluid loss
 MSS .           FLOWLINE:   Source of sample
 RMS .OHMM          0.445:   Rm
 MST .F                72:   Rm Meas. temp.
 RMF .OHMM           0.36:   Rmf
 MFST.F                70:   Rmf Meas. temp.
 RMC .OHMM           0.55:   Rmc
 MCST.F                72:   Rmc Meas. temp.
 MFSS.               MEAS:   Source Rmf.
 RMB .OHMM          0.286:   Rm. at BHT
 BHT .F               116:   BHT.
 TCS .HRS               3:   Time Circ. stopped
 MRT .F               116:   Maximum recorded temp.
 LUN .               6274:   Logging unit number
 LUL .               GLTE:   Logging unit location
 ENGI.             RAUTIO:   Recorded By
 WITN.             STRONG:   Witnessed by
 ORIG.           5" PRINT:   Origin of data
 UWI .     49025110210000:   Unique Well ID
 DICO. A2D TECHNOLOGIES, INC.:   Digitizing Company
 DAPD.                 13:   Feet Above Permanent Datum
 BSD1.               3330:   Depth drilled with bit1
 MCSS.               CALC:   Source Rmc.
 EPD .               5112:   Elevation Permanent Datum
 LMF .                 KB:   Log Measured From
 DMF .                 KB:   Drilling Measured From
~OTHER INFORMATION
~A   DEPT     TENR       CALR        SPR         GRR      RFOC       RILD       RILM       NPHI       RHOB       TEND       CORR   
# ...
 2011.5000   -66.8120    10.4680   -73.6430   131.9670     8.7720     8.0720     7.2600  -999.2500  -999.2500  -999.2500  -999.2500
 2012.0000   -66.0280    10.4720   -73.5620   132.3800     8.1320     7.9390     7.3760  -999.2500  -999.2500  -999.2500  -999.2500
 2012.5000   -65.5530    10.4760   -73.9270   129.6570     8.6540     7.8390     7.4920  -999.2500  -999.2500  -999.2500  -999.2500
 2013.0000   -65.5530    10.4800   -74.3530   126.9140     9.1820     7.8730     7.6070  -999.2500  -999.2500  -999.2500  -999.2500
 2013.5000   -65.5530    10.4840   -74.7860   126.7950     9.5940     8.0350     7.7230  -999.2500  -999.2500  -999.2500  -999.2500
 2014.0000   -65.5530    10.4890   -75.2160   127.8780     9.5940     8.1970     7.8390  -999.2500  -999.2500  -999.2500  -999.2500
 2014.5000   -65.5530    10.4930   -75.6440   128.9320     9.5940     8.3590     7.9550  -999.2500  -999.2500  -999.2500  -999.2500
 2015.0000   -65.5530    10.4970   -75.9470   129.9870     9.5940     8.5220     8.0700  -999.2500  -999.2500  -999.2500  -999.2500
 2015.5000   -65.5530    10.5010   -75.9400   129.5590     9.5940     8.6840     8.1910  -999.2500  -999.2500  -999.2500  -999.2500
 2016.0000   -65.5530    10.5050   -75.9400   127.7110     9.5940     8.8330     8.2830  -999.2500  -999.2500  -999.2500  -999.2500
 2016.5000   -65.5530    10.5090   -75.9400   123.9000     9.6760     8.9140     8.2700  -999.2500  -999.2500  -999.2500  -999.2500
 2017.0000   -65.5530    10.5130   -75.9380   119.8750     9.7960     8.9140     8.2500  -999.2500  -999.2500  -999.2500  -999.2500
 2017.5000   -65.5530    10.5160   -75.9510   117.5420     9.9160     8.8560     8.2310  -999.2500  -999.2500  -999.2500  -999.2500
 2018.0000   -65.5530    10.5210   -76.3430   117.2390    10.0440     8.7740     8.2120  -999.2500  -999.2500  -999.2500  -999.2500
 2018.5000   -65.5530    10.5260   -76.7540   120.4060     9.7390     8.6920     8.1150  -999.2500  -999.2500  -999.2500  -999.2500
 2019.0000   -65.5530    10.5320   -77.1630   123.5720     9.3330     8.6100     7.9440  -999.2500  -999.2500  -999.2500  -999.2500
 2019.5000   -65.5530    10.5370   -77.5720   125.1970     9.3890     8.5280     7.7670  -999.2500  -999.2500  -999.2500  -999.2500
 2020.0000   -65.5530    10.5420   -77.9950   124.4000     9.4630     8.4460     7.7350  -999.2500  -999.2500  -999.2500  -999.2500
 2020.5000   -65.5530    10.5480   -78.2300   120.2950     9.5360     8.3640     7.6260  -999.2500  -999.2500  -999.2500  -999.2500
 2021.0000   -65.5530    10.5530   -78.4050   116.2720     9.6100     8.2830     7.5970  -999.2500  -999.2500  -999.2500  -999.2500
 2021.5000   -65.5530    10.5580   -78.5760   113.5880     9.6820     8.2070     7.5560  -999.2500  -999.2500  -999.2500  -999.2500
 2022.0000   -65.5530    10.5640   -78.7470   117.6720     9.3880     8.2070     7.6010  -999.2500  -999.2500  -999.2500  -999.2500
 2022.5000   -65.5530    10.5690   -78.9180   120.5310     8.9960     8.2140     7.7060  -999.2500  -999.2500  -999.2500  -999.2500
 2023.0000   -65.5530    10.5740   -79.0890   121.8860     9.1270     8.2300     7.8120  -999.2500  -999.2500  -999.2500  -999.2500
 2023.5000   -65.5530    10.5800   -79.2610   121.4160     9.4190     8.2460     7.9110  -999.2500  -999.2500  -999.2500  -999.2500
 2024.0000   -65.5530    10.5850   -79.4360   119.2210     9.7110     8.2620     7.8930  -999.2500  -999.2500  -999.2500  -999.2500
 2024.5000   -65.5530    10.5900   -79.7630   117.8130     9.8620     8.2790     7.8770  -999.2500  -999.2500  -999.2500  -999.2500
 2025.0000   -65.5530    10.5960   -80.4680   120.6870     9.5960     8.2950     7.8600  -999.2500  -999.2500  -999.2500  -999.2500
 2025.5000   -65.5530    10.6010   -81.1550   126.5620     9.3890     8.3110     7.8430  -999.2500  -999.2500  -999.2500  -999.2500
 2026.0000   -65.5530    10.6060   -82.1630   130.0340     9.1630     8.3270     7.8390  -999.2500  -999.2500  -999.2500  -999.2500
 2026.5000   -65.5530    10.6120   -83.5620   131.7020     9.3130     8.3430     7.8390  -999.2500  -999.2500  -999.2500  -999.2500
 2027.0000   -65.5530    10.6150   -84.9640   130.1730     9.4190     8.3590     7.8390  -999.2500  -999.2500  -999.2500  -999.2500
 2027.5000   -65.5530    10.6170   -86.4410   127.7130     9.3330     8.3750     7.8550  -999.2500  -999.2500  -999.2500  -999.2500
 2028.0000   -65.5530    10.6180   -87.1860   125.1500     9.3070     8.3910     7.8710  -999.2500  -999.2500  -999.2500  -999.2500
 2028.5000   -65.5530    10.6190   -86.4120   125.6660     9.2480     8.4070     7.8990  -999.2500  -999.2500  -999.2500  -999.2500
 2029.0000   -65.5530    10.6210   -84.0910   127.2450     9.5420     8.4240     7.9090  -999.2500  -999.2500  -999.2500  -999.2500
 2029.5000   -65.5530    10.6220   -81.8150   126.1360     9.7900     8.4370     7.8390  -999.2500  -999.2500  -999.2500  -999.2500
 2030.0000   -65.5530    10.6240   -80.0920   122.4080    10.0390     8.4360     7.8390  -999.2500  -999.2500  -999.2500  -999.2500
 2030.5000   -65.5530    10.6250   -79.5820   118.6540    10.2310     8.4370     7.7730  -999.2500  -999.2500  -999.2500  -999.2500
 2031.0000   -65.5530    10.6270   -78.8190   116.7090     9.7400     8.4070     7.6960  -999.2500  -999.2500  -999.2500  -999.2500
 2031.5000   -65.5530    10.6280   -78.0510   120.7000     9.2640     8.3700     7.8180  -999.2500  -999.2500  -999.2500  -999.2500
 2032.0000   -65.5530    10.6290   -77.3300   124.4290     8.7520     8.3340     7.8870  -999.2500  -999.2500  -999.2500  -999.2500
 2032.5000   -65.5530    10.6310   -75.4180   125.2190     9.4290     8.2970     7.9110  -999.2500  -999.2500  -999.2500  -999.2500
 2033.0000   -65.5530    10.6320   -73.2980   126.3670    10.1370     8.2610     7.9110  -999.2500  -999.2500  -999.2500  -999.2500
 2033.5000   -65.5530    10.6340   -71.1360   127.9170     9.9490     8.2250     7.6860  -999.2500  -999.2500  -999.2500  -999.2500
 2034.0000   -65.5530    10.6130   -70.3580   127.6480     9.7760     8.2070     7.4790  -999.2500  -999.2500  -999.2500  -999.2500
 2034.5000   -65.5530    10.6190   -70.2420   125.0570     9.6040     8.1320     7.2730  -999.2500  -999.2500  -999.2500  -999.2500
 2035.0000   -65.5530    10.6230   -70.1360   121.6670     9.4310     8.1180     7.2170  -999.2500  -999.2500  -999.2500  -999.2500
 2035.5000   -65.5530    10.6260   -70.0270   120.6130     9.2580     8.0120     7.2520  -999.2500  -999.2500  -999.2500  -999.2500
 2036.0000   -65.5530    10.6290   -70.0800   121.9790     9.0790     7.9070     7.2780  -999.2500  -999.2500  -999.2500  -999.2500
 2036.5000   -65.5530    10.6320   -70.1900   120.2200     8.7750     7.8020     7.2840  -999.2500  -999.2500  -999.2500  -999.2500
 2037.0000   -65.5530    10.6240   -70.3120   120.5810     8.4600     7.6960     7.2840  -999.2500  -999.2500  -999.2500  -999.2500
 2037.5000   -65.5530    10.5880   -70.4640   125.9770     8.2070     7.5910     7.2840  -999.2500  -999.2500  -999.2500  -999.2500
 2038.0000   -65.5530    10.5530   -70.6190   130.3160     8.3480     7.4870     7.2840  -999.2500  -999.2500  -999.2500  -999.2500
 2038.5000   -65.5530    10.5180   -70.7730   132.8880     8.4900     7.4870     7.2820  -999.2500  -999.2500  -999.2500  -999.2500
 2039.0000   -65.5530    10.4830   -70.9280   135.5330     8.7520     7.5430     7.2770  -999.2500  -999.2500  -999.2500  -999.2500
 2039.5000   -65.5530    10.4660   -71.0830   138.3170     8.6560     7.5890     7.3510  -999.2500  -999.2500  -999.2500  -999.2500
 2040.0000   -65.5530    10.4530   -71.2380   139.5700     8.5640     7.6350     7.4350  -999.2500  -999.2500  -999.2500  -999.2500
 2040.5000   -65.5530    10.4400   -71.3840   138.4690     8.5140     7.6810     7.5160  -999.2500  -999.2500  -999.2500  -999.2500
 2041.0000   -65.5530    10.4270   -71.3830   141.1510     8.7410     7.6960     7.5970  -999.2500  -999.2500  -999.2500  -999.2500
 2041.5000   -70.5200    10.4140   -71.2700   144.3440     8.9140     7.7670     7.6770  -999.2500  -999.2500  -999.2500  -999.2500
