~VERSION INFORMATION
 VERS.                2.0:   CWLS LOG ASCII STANDARD - VERSION 2.0
 WRAP.                 NO:   ONE LINE PER DEPTH STEP
~WELL INFORMATION
#MNEM.UNIT      DATA TYPE    INFORMATION
#----------   ------------   ------------------------------
 STRT.F           20.0000:   START DEPTH
 STOP.F         4128.0000:   STOP DEPTH
 STEP.F            0.5000:   STEP LENGTH
 NULL.          -999.2500:   NO VALUE
 COMP. LAWRENCE-ALLISON & ASSOCIATES:   COMPANY
 WELL. LAWRENCE "X" #53-3:   WELL
 FLD .             NPR #3:   FIELD
 LOC .       S3 T38N R78W:   LOCATION
 CNTY.            NATRONA:   COUNTY
 STAT.            WYOMING:   STATE
 CTRY. UNITED STATES OF AMERICA:   COUNTRY
 SRVC.      DRESSER ATLAS:   SERVICE COMPANY
 DATE.        18-SEP-1983:   LOGDATE
 API .     49025109370000:   API NUMBER
~CURVE INFORMATION
#MNEM.UNIT       API CODE    CURVE DESCRIPTION
#----------   ------------   ------------------------------
 DEPT.F                  :   
 NPHI.DEC    42 890 03 00:   NEUTRON POROSITY SANDSTONE
 TEND.LBS    45 635 01 00:   TENSION FORM DENSITY LOG
 CORR.G/C3   45 356 01 00:   DENSITY CORRECTION
 RHOB.G/C3   45 350 01 00:   BULK DENSITY
 CALD.IN     45 280 60 00:   CALIPER FROM DENSITY LOG
 GRR .GAPI   07 310 01 00:   GAMMA RAY FROM RESISTIVITY
 TENR.LBS    06 635 01 00:   TENSION FROM RESISTIVITY
 SPR .MV     07 010 01 00:   SPONTANEOUS POTENTIAL
 RILD.OHMM   07 120 46 00:   DEEP INDUCTION RESISTIVITY
 RILM.OHMM   07 120 44 00:   INDUCTION LOG MEDIUM RESISTIVITY
 RSFL.OHMM   07 220 01 00:   SPHERICALLY FOCUSED RESISTIVITY
 TENS.LBS    60 635 01 00:   TENSION FROM SONIC
 DT  .US/F   60 520 00 00:   DELTA TIME
~PARAMETER INFORMATION
#MNEM.UNIT          VALUE    DESCRIPTION
#----------   ------------   ------------------------------
 EKB .F         5214.0000:   Kelly bushing
 EGL .F         5204.0000:   Ground level
 EDF .F            0.0000:   Drilling floor
 TD  .F         4117.0000:   Total depth
 CLNT.            A2DTECH:   Client Code
 PD  .                 GL:   Permanent Datum
 EPD .F              5204:   Elevation Permanent Datum
 LMF .                 KB:   Log Measured From
 DMF .                 KB:   Drilling Measured From
 DAPD.F                10:   Feet Above Permanent Datum
 DATE.        18-SEP-1983:   Date Logged [DD-MMM-YYYY]
 DD  .F              4117:   Depth driller
 DL  .F              4113:   Depth logger
 BLI .F              4110:   Bottom log interval
 TLI .F                 0:   Top log interval
 CS1 .IN            9.625:   Casing size
 CBD1.      9.625" @ 523':   Casing driller 1
 CBL1.F               523:   Casing logger 1
 BS1 .IN            7.875:   Bit size
 BSD1.F              4117:   Depth drilled with bit1
 DFT .            GEL KCL:   Type fluid in hole
 DFD .                9.0:   Density
 DFV .                 42:   Viscosity
 DFPH.                8.5:   pH
 DFL .                 10:   Fluid loss
 MSS .               TANK:   Source of sample
 RMS .OHMM           0.35:   Rm
 MST .F                68:   Rm Meas. temp.
 RMF .OHMM          0.266:   Rmf
 MFST.F                68:   Rmf Meas. temp.
 MFSS.               MEAS:   Source Rmf.
 RMC .OHMM          0.443:   Rmc
 MCST.F                68:   Rmc Meas. temp.
 MCSS.               CALC:   Source Rmc.
 RMB .OHMM          0.185:   Rm. at BHT
 BHT .F               130:   BHT.
 TCS .HRS               4:   Time Circ. stopped
 MRT .F               130:   Maximum recorded temp.
 LUN .               6270:   Logging unit number
 LUL .              WLSTN:   Logging unit location
 ENGI.             REEVES:   Recorded By
 WITN.             STRONG:   Witnessed by
 ORIG.           5" PRINT:   Origin of data
 UWI .     49025109370000:   Unique Well ID
 DICO. A2D TECHNOLOGIES, INC.:   Digitizing Company
~OTHER INFORMATION
~A   DEPT     NPHI       TEND       CORR       RHOB       CALD         GRR      TENR        SPR       RILD       RILM       RSFL       TENS         DT   
# ...
 3114.0000     0.2219   -19.2474     0.0160     2.5056     8.6417   120.4134   -64.6986   -70.6922     3.5873     4.0868     4.6956   -61.6576    82.2473
 3114.5000     0.2195   -19.6028     0.0297     2.5026     8.6417   124.9623   -64.3453   -70.3976     3.5608     4.0278     4.4967   -60.9154    81.4092
 3115.0000     0.2147   -16.1875     0.0224     2.4988     8.6417   127.6893   -63.9920   -70.3976     3.4978     3.9696     4.4003   -64.3428    81.9570
 3115.5000     0.2098   -16.6318    -0.0046     2.4937     8.6417   127.6808   -63.6386   -70.3976     3.4460     3.9123     4.3684   -63.9824    83.0242
 3116.0000     0.2068   -16.9873    -0.0286     2.4900     8.6417   126.1504   -63.2853   -70.5449     3.3942     3.9117     4.4314   -59.8340    83.5607
 3116.5000     0.2140   -17.4626    -0.0285     2.4886     8.6417   124.6222   -62.9320   -70.6922     3.3341     3.8548     4.4632   -59.4696    83.8697
 3117.0000     0.2186   -21.4932    -0.0147     2.4939     8.6417   124.3097   -62.5787   -70.8512     3.3095     3.7994     4.4629   -59.0909    84.0271
 3117.5000     0.2216   -25.6839     0.0096     2.5015     8.6417   126.7307   -62.2253   -70.9867     3.2851     3.7989     4.4625   -58.6626    83.7311
 3118.0000     0.2201   -26.0393     0.0429     2.5083     8.6417   127.0283   -71.7773   -71.1340     3.2842     3.7984     4.4622   -58.3021    83.5079
 3118.5000     0.2156   -30.1659     0.0599     2.5136     8.6417   125.8019   -62.1134   -71.2813     3.2836     3.7978     4.4619   -54.1538    83.4379
 3119.0000     0.2110   -38.1515     0.0342     2.5145     8.6417   124.5775   -62.3468   -71.5758     3.2829     3.7973     4.4615   -53.7879    83.7484
 3119.5000     0.2101   -46.0484     0.0480     2.5138     8.6417   124.5669   -62.5636   -72.0177     3.2822     3.7968     4.4612   -49.5548    83.9919
 3120.0000     0.2120   -42.6331     0.0587     2.5101     8.6417   122.7347   -62.8136   -72.1649     3.2815     3.7962     4.5257   -49.1943    84.2163
 3120.5000     0.2219   -35.4471     0.0468     2.5055     8.6417   120.2946   -63.0470   -72.1649     3.2913     3.7956     4.5581   -48.8338    84.2221
 3121.0000     0.2282   -32.0318     0.0258     2.5019     8.6417   122.4116   -63.2804   -71.8704     3.3278     3.7951     4.5907   -48.4735    84.1506
 3121.5000     0.2330   -28.6165     0.0064     2.5035     8.6418   122.7092   -63.5137   -71.8704     3.3754     3.7946     4.6236   -44.3181    84.0820
 3122.0000     0.2351   -25.2900     0.0141     2.5096     8.6417   119.6591   -63.7471   -71.7231     3.4238     3.8214     4.6232   -47.7526    83.8403
 3122.5000     0.2306   -25.6455     0.0279     2.5187     8.6317   117.1883   -63.9805   -71.5758     3.5231     3.8486     4.5185   -47.3484    83.5628
 3123.0000     0.2249   -22.2302     0.0491     2.5307     8.6221   116.9065   -64.2139   -71.5758     3.6515     3.9039     4.3952   -46.9415    84.1766
 3123.5000     0.2177   -22.6744     0.0779     2.5406     8.6220   119.9354   -64.4473   -71.2813     3.7848     3.9920     4.3634   -46.5810    84.7889
 3124.0000     0.2089   -23.0015     0.0570     2.5521     8.6221   126.3099   -64.6807   -71.1202     3.9799     4.1640     4.6999   -46.1906    85.4012
 3124.5000     0.2009   -23.3853     0.0481     2.5636     8.6221   129.9467   -64.9141   -70.6922     4.3073     4.4355     5.2613   -49.6212    85.1696
 3125.0000     0.1930   -19.9701     0.0845     2.5768     8.6221   129.0263   -65.1475   -70.3976     4.5952     4.8080     5.8612   -52.9853    84.2011
 3125.5000     0.1885   -20.4145     0.0967     2.5799     8.6223   125.6743   -65.3809   -69.9558     4.9023     5.3944     6.5767   -52.6516    81.8566
 3126.0000     0.1837   -20.7700     0.0607     2.5567     8.6255   121.9941   -65.6143   -69.6613     5.2381     5.8806     7.1699   -52.2644    79.4363
 3126.5000     0.1741   -17.3455     0.0307     2.5492     8.6288   116.8406   -65.8476   -69.5140     5.6603     6.2736     7.3790   -51.8939    77.4709
 3127.0000     0.1669   -13.9394     0.0097     2.5463     8.6321   113.1847   -66.0810   -69.3667     5.9093     6.5496     7.3785   -51.4533    76.0162
 3127.5000     0.1624   -14.3836     0.0174     2.5426     8.6354   108.6169   -66.3144   -69.2194     5.9940     6.5487     7.5538   -51.0928    75.4369
 3128.0000     0.1615   -10.9684     0.0266     2.5344     8.6387   100.7036   -66.5478   -69.3667     5.9925     6.5008     7.8151   -50.7323    75.0636
 3128.5000     0.1699    -7.5531     0.0313     2.5268     8.6416   102.8227   -66.7812   -69.6613     5.9055     6.4046     7.7027   -54.1667    75.1452
 3129.0000     0.1755    -7.9186     0.0194     2.5217     8.6400   106.1577   -66.9934   -69.9558     5.8198     6.1350     7.2167   -53.7879    75.7575
 3129.5000     0.1870    -8.2956     0.0241     2.5218     8.6383   107.4321   -67.2999   -70.2504     5.5719     5.8325     6.4788   -53.3488    76.9411
 3130.0000     0.1951    -8.7082     0.0299     2.5181     8.6366   109.7860   -67.6064   -70.6922     5.3919     5.6661     6.0717   -56.8662    78.0449
 3130.5000     0.1939    -9.0637     0.0365     2.5152     8.6349   111.6012   -67.9129   -70.9867     5.2575     5.5042     6.1594   -56.4157    78.6572
 3131.0000     0.1918    -9.4269     0.0261     2.5137     8.6333   112.8085   -68.2194   -71.2970     5.1387     5.3859     6.2936   -56.0552    79.1937
 3131.5000     0.1906    -9.8634     0.0171     2.5115     8.6316   113.1039   -68.5259   -71.5758     5.0326     5.2700     6.2479   -51.8939    79.2045
 3132.0000     0.1945   -10.1810     0.0129     2.5079     8.6299   112.4854   -68.8324   -71.7231     4.9463     5.1939     5.9832   -51.4562    79.0437
 3132.5000     0.1984   -12.0960     0.0146     2.5049     8.6283   111.2611   -69.1389   -71.5758     4.8876     5.1558     5.8549   -51.0958    78.8320
 3133.0000     0.2017   -14.7058     0.0193     2.5042     8.6266   110.9483   -69.4454   -71.4286     4.8863     5.1181     5.8544   -50.7353    79.0666
 3133.5000     0.2029   -15.1449     0.0286     2.5074     8.6249   111.2420   -69.7519   -71.4286     4.8154     5.1917     5.8540   -50.3788    79.3757
 3134.0000     0.1990   -15.5004     0.0377     2.5134     8.6233   113.3611   -70.0584   -71.2813     4.7799     5.2283     5.8536   -49.9999    79.5331
 3134.5000     0.1960   -19.6079     0.0469     2.5157     8.6236   115.7906   -70.3649   -71.1340     4.7443     5.3035     5.9810   -49.5639    79.7008
 3135.0000     0.1951   -19.9849     0.0169     2.5165     8.6286   116.9915   -70.6714   -70.9867     4.7777     5.4186     6.1112   -49.2423    79.6219
 3135.5000     0.1938   -24.1970    -0.0013     2.5218     8.6336   115.4611   -70.9779   -70.8395     4.7768     5.3019     6.2443   -48.8429    79.4002
 3136.0000     0.1861   -24.5525    -0.0054     2.5264     8.6385   115.4166   -71.2844   -70.6922     4.7757     5.1136     6.5253   -52.2703    79.0269
 3136.5000     0.1777   -28.6787     0.0114     2.5265     8.6435   117.5697   -71.5909   -70.3976     4.7665     5.0398     6.7098   -51.8940    78.5778
 3137.0000     0.1765   -29.0347     0.0266     2.5220     8.6484   118.7770   -71.7773   -70.1031     4.7393     5.0391     6.3793   -55.2471    78.0430
 3137.5000     0.1930   -33.2491     0.0358     2.5161     8.6534   119.3764   -71.6363   -69.9558     4.7383     5.0383     6.0652   -54.8866    77.8312
 3138.0000     0.1993   -33.6046     0.0089     2.5131     8.6583   119.6838   -71.4634   -69.8085     4.7373     5.0742     5.7665   -54.5455    78.4449
 3138.5000     0.2023   -37.7308     0.0060     2.5162     8.6591   120.2712   -71.2905   -69.8085     4.7363     5.1470     5.6836   -57.9536    79.3605
 3139.0000     0.2038   -38.0862     0.0288     2.5201     8.6537   119.9566   -71.1177   -69.8085     4.6845     5.1835     5.6425   -57.5757    80.1244
 3139.5000     0.2074   -34.6709     0.0426     2.5231     8.6484   119.3402   -70.9448   -69.8085     4.7003     5.2203     5.7652   -57.1969    80.3577
