~VERSION INFORMATION
 VERS.                2.0:   CWLS LOG ASCII STANDARD - VERSION 2.0
 WRAP.                 NO:   ONE LINE PER DEPTH STEP
~WELL INFORMATION
#MNEM.UNIT      DATA TYPE    INFORMATION
#----------   ------------   ------------------------------
 STRT.F           32.0000:   START DEPTH
 STOP.F         2998.0000:   STOP DEPTH
 STEP.F            0.5000:   STEP LENGTH
 NULL.          -999.2500:   NO VALUE
 COMP.   TESORO PETROLEUM:   COMPANY
 WELL. TESORO N.P.R. #3-34:   WELL
 FLD .        TEAPOT DOME:   FIELD
 LOC .      S34 T39N R78W:   LOCATION
 CNTY.            NATRONA:   COUNTY
 STAT.            WYOMING:   STATE
 CTRY. UNITED STATES OF AMERICA:   COUNTRY
 SRVC.       SCHLUMBERGER:   SERVICE COMPANY
 DATE.        08-AUG-1969:   LOGDATE
 API .     49025100250000:   API NUMBER
~CURVE INFORMATION
#MNEM.UNIT       API CODE    CURVE DESCRIPTION
#----------   ------------   ------------------------------
 DEPT.F                  :   
 SPR .MV     05 010 01 00:   SPONTANEOUS POTENTIAL FROM RES.
 ASN .OHMM   05 040 16 00:   AMPLIFIED SHORT NORMAL 16"
 ILD .OHMM   05 120 46 00:   INDUCTION LOG DEEP
 CORR.G/C3   45 356 01 00:   DENSITY CORRECTION
 GRD .GAPI   45 310 01 00:   GAMMA RAY FROM DENSITY LOG
 CALD.IN     45 280 60 00:   CALIPER FROM DENSITY LOG
 RHOB.G/C3   45 350 01 00:   BULK DENSITY
~PARAMETER INFORMATION
#MNEM.UNIT          VALUE    DESCRIPTION
#----------   ------------   ------------------------------
 EKB .F         5185.0000:   Kelly bushing
 EGL .F         5172.0000:   Ground level
 TD  .F         2999.0000:   Total depth
 CLNT.            A2DTECH:   Client Code
 SL  . 465' FWL & 1075' FSL':   Surface Location
 DATE.        08-AUG-1969:   Date Logged [DD-MMM-YYYY]
 DD  .F              2998:   Depth driller
 DL  .F              2999:   Depth logger
 BLI .F              2998:   Bottom log interval
 TLI .F               615:   Top log interval
 CS1 .              10.75:   Casing size
 CBD1.      10.75" @ 615':   Casing driller 1
 CBL1.IN              615:   Casing logger 1
 BS1 .IN                9:   Bit size
 BSD1.F              2998:   Depth drilled with bit1
 DFT .      FRESH GEL MUD:   Type fluid in hole
 DFD .                9.6:   Density
 DFV .                 55:   Viscosity
 DFPH.                9.5:   pH
 DFL .                7.0:   Fluid loss
 MSS .           FLOWLINE:   Source of sample
 RMS .OHMM           0.75:   Rm
 MST .F                87:   Rm Meas. temp.
 RMF .OHMM           1.09:   Rmf
 MFST.F                87:   Rmf Meas. temp.
 MFSS.               MEAS:   Source Rmf.
 RMB .OHMM           0.59:   Rm. at BHT
 BHT .F               111:   BHT.
 TCS .HRS               3:   Time Circ. stopped
 MRT .F               111:   Maximum recorded temp.
 LUN .               4507:   Logging unit number
 LUL .               CSPR:   Logging unit location
 ENGI.            ED MIXA:   Recorded By
 WITN.                MAY:   Witnessed by
 ORIG.   1" 2.5" 5" PRINT:   Origin of data
 UWI .     49025100250000:   Unique Well ID
 DICO. A2D TECHNOLOGIES, INC.:   Digitizing Company
~OTHER INFORMATION
~A   DEPT      SPR        ASN        ILD       CORR        GRD       CALD       RHOB   
# ...
 2307.0000   -26.0915     7.0753     5.7636     0.0068    90.4650     8.9621     2.4817
 2307.5000   -26.0902     6.9867     5.9084     0.0099    93.8685     8.9860     2.4861
 2308.0000   -26.0888     6.9572     5.9084     0.0225    94.4587     8.9779     2.4963
 2308.5000   -25.9440     7.2378     5.9084     0.0317    93.7444     8.9698     2.5125
 2309.0000   -25.7991     7.4793     5.9084     0.0396    90.7420     8.9617     2.5287
 2309.5000   -25.6540     7.7105     5.9084     0.0480    87.6628     8.9536     2.5360
 2310.0000   -25.6526     7.8877     5.9084     0.0555    89.4766     8.9479     2.5364
 2310.5000   -25.6512     7.9911     5.9084     0.0519    89.6422     8.8858     2.4932
 2311.0000   -25.5064     7.7843     5.9084     0.0427    87.5996     8.8237     2.4754
 2311.5000   -25.4326     7.5294     5.8346     0.0317    86.9670     8.7923     2.4769
 2312.0000   -25.3601     7.1049     5.8346     0.0265    88.7808     8.6996     2.4989
 2312.5000   -25.2151     6.7651     5.7607     0.0375    89.3731     8.6681     2.5054
 2313.0000   -25.2136     6.7208     5.6869     0.0498    88.1270     8.6061     2.5184
 2313.5000   -25.2122     6.7947     5.6130     0.0466    86.2711     8.5746     2.5224
 2314.0000   -25.2109     6.8833     5.6130     0.0386    82.5803     8.4514     2.5137
 2314.5000   -25.2093     6.9572     5.4653     0.0308    78.8896     8.5139     2.5061
 2315.0000   -25.3514     6.9867     5.4653     0.0249    79.4801     8.7906     2.5183
 2315.5000   -25.3501     7.0015     5.4653     0.0220    83.8002     8.9405     2.5149
 2316.0000   -25.3484     7.0015     5.4653     0.0231    86.8989     8.9712     2.5245
 2316.5000   -25.3472     6.9867     5.3914     0.0214    91.2206     8.9973     2.5325
 2317.0000   -25.3456     6.9719     5.3176     0.0155    94.2372     8.9963     2.5282
 2317.5000   -25.3443     6.9276     5.2437     0.0068    96.9066     8.9954     2.5244
 2318.0000   -25.1994     6.8390     5.0960     0.0068   103.5687     8.9945     2.5338
 2318.5000   -25.0542     6.6765     5.0960     0.0133   116.4151     8.9936     2.5282
 2319.0000   -24.7659     6.5436     5.1699     0.0215   122.6120     8.9927     2.5411
 2319.5000   -24.6211     6.4686     5.1699     0.0256   125.1622     8.9918     2.5115
 2320.0000   -24.4763     6.4106     5.2437     0.0236   116.3696     8.9908     2.4967
 2320.5000   -24.4749     6.4106     5.3176     0.0251   111.0528     9.0032     2.5129
 2321.0000   -24.6167     6.4697     5.4653     0.0330   112.7403     9.0196     2.5026
 2321.5000   -24.6153     6.7061     5.6130     0.0408   115.2055     9.0492     2.4937
 2322.0000   -24.9009     7.0038     5.6869     0.0487   116.7747     9.0649     2.5040
 2322.5000   -25.1865     7.4151     5.9084     0.0547   115.5505     9.0780     2.5113
 2323.0000   -25.3286     7.6662     6.0561     0.0509   112.4099     9.0769     2.4803
 2323.5000   -25.4707     7.9173     6.2038     0.0390   110.2269     9.0760     2.4876
 2324.0000   -25.4690     8.1093     6.4254     0.0285   110.2874     9.0445     2.4758
 2324.5000   -25.6114     8.2275     6.5731     0.0254   107.2041     9.0436     2.4855
 2325.0000   -25.6097     8.3161     6.6470     0.0297   105.9598     9.0427     2.4966
 2325.5000   -25.7518     8.3752     6.6470     0.0358   107.7736     9.0112     2.4992
 2326.0000   -25.7501     8.4490     6.6470     0.0395   108.9758     9.0103     2.4940
 2326.5000   -25.7487     8.5229     6.5731     0.0383   108.3431     8.9483     2.4846
 2327.0000   -25.7474     8.5524     6.4993     0.0286   105.8756     8.9168     2.4750
 2327.5000   -25.7459     8.3978     6.4254     0.0164   105.2429     8.9159     2.4649
 2328.0000   -25.7446     8.1388     6.2659     0.0129   105.8335     8.9150     2.4583
 2328.5000   -25.7429     7.9616     5.9823     0.0129   105.8124     8.9141     2.4743
 2329.0000   -25.7416     7.7548     5.7607     0.0312   106.4037     8.9437     2.4894
 2329.5000   -25.7402     7.5923     5.6130     0.0453   108.2168     8.9734     2.4963
 2330.0000   -25.7388     7.4880     5.3914     0.0539   109.4190     8.9725     2.5106
 2330.5000   -25.4505     7.4446     5.3176     0.0621   106.8685     8.9368     2.5238
 2331.0000   -25.1619     7.5037     5.3176     0.0676   103.8716     8.9043     2.5105
 2331.5000   -25.1605     7.6514     5.3914     0.0644   105.1342     8.8474     2.5223
 2332.0000   -25.1591     7.8730     5.6130     0.0600   107.6613     8.8611     2.5296
 2332.5000   -25.1578     8.0655     5.9084     0.0550   110.7390     8.9152     2.4986
 2333.0000   -25.1564     8.1979     6.0629     0.0501   112.3507     8.9671     2.4847
 2333.5000   -25.1547     8.3013     6.2777     0.0448   112.7554     8.9661     2.4897
 2334.0000   -25.2972     8.4343     6.4993     0.0380   115.8522     8.9959     2.4822
 2334.5000   -25.2954     8.5820     6.5731     0.0323   118.7675     8.9948     2.4689
 2335.0000   -25.2941     8.7297     6.6470     0.0269   118.9943     8.9939     2.4630
 2335.5000   -25.3077     8.8696     6.6470     0.0207   116.6863     8.9930     2.4750
 2336.0000   -25.4348     9.0251     6.6470     0.0144   114.4219     8.9920     2.4824
 2336.5000   -25.1462     9.0251     6.6470     0.0121   113.1572     8.9911     2.4864
 2337.0000   -25.1448     8.9808     6.7208     0.0195   113.9715     8.9902     2.4849
 2337.5000   -25.1434     8.9069     6.7947     0.0269   115.2140     8.9891     2.4643
 2338.0000   -25.1420     8.8922     6.8705     0.0274   114.2549     9.0188     2.4480
 2338.5000   -25.1404     8.9513     7.0901     0.0189   113.3364     9.0179     2.4559
 2339.0000   -25.1391     9.1137     7.1640     0.0090   113.0705     9.0170     2.4684
 2339.5000   -25.1376     9.3205     7.3117     0.0030   115.1246     9.0161     2.4803
 2340.0000   -25.1363     9.5421     7.3855     0.0047   117.5500     9.0152     2.4729
 2340.5000   -25.1349     9.7071     7.4594     0.0114   119.9754     9.0143     2.4861
 2341.0000   -25.1332     9.9261     7.5332     0.0164   119.3428     9.0134     2.4772
 2341.5000   -24.9884    10.0295     7.3855     0.0251   118.0985     9.0431     2.4894
 2342.0000   -24.9870    10.0148     7.3117     0.0271   117.4658     9.0422     2.4762
 2342.5000   -24.8421     9.8818     7.0901     0.0238   116.2215     9.0413     2.4880
 2343.0000   -24.8408     9.6152     6.7947     0.0169   114.9772     9.0404     2.5000
 2343.5000   -24.8393     9.0842     6.4880     0.0114   113.7329     9.0701     2.5073
 2344.0000   -24.6943     8.6706     6.2038     0.0220   114.9351     9.0691     2.4863
 2344.5000   -24.6929     8.2422     6.0561     0.0285   115.5256     9.0682     2.4791
 2345.0000   -24.5481     7.8582     5.9084     0.0358   114.8930     9.0367     2.4781
 2345.5000   -24.5463     7.7548     5.9084     0.0316   111.7733     9.0358     2.4710
 2346.0000   -24.5450     7.7253     5.9823     0.0118   107.9595     9.0416     2.4915
 2346.5000   -24.6874     7.9616     6.0561     0.0038   105.0439     9.0646     2.4964
 2347.0000   -24.6857     8.2275     6.1300     0.0083   108.3252     9.0636     2.4678
 2347.5000   -24.8281     8.4786     6.1300     0.0174   110.7086     9.0627     2.4796
 2348.0000   -24.9699     8.5820     6.2038     0.0209   111.7085     9.0728     2.4913
 2348.5000   -24.9682     8.5482     6.2038     0.0140   111.0734     9.0916     2.5001
 2349.0000   -25.1106     8.3456     6.0561     0.0038   110.4404     9.0905     2.4942
 2349.5000   -25.1089     8.0502     5.7607     0.0179   111.2140     9.0590     2.4587
 2350.0000   -25.1075     7.7105     5.4653     0.0176   113.6603     9.0581     2.4720
 2350.5000   -25.1059     7.2821     5.1699     0.0103   114.6613     9.0572     2.4876
 2351.0000   -25.1045     6.8798     5.0222     0.0071   109.8652     9.0869     2.5029
 2351.5000   -25.1032     6.6027     4.9483     0.0206   109.1101     9.0858     2.5088
 2352.0000   -25.1018     6.4845     4.9483     0.0341   109.7003     9.1154     2.5183
