~VERSION INFORMATION
 VERS.                2.0:   CWLS LOG ASCII STANDARD - VERSION 2.0
 WRAP.                 NO:   ONE LINE PER DEPTH STEP
~WELL INFORMATION
#MNEM.UNIT      DATA TYPE    INFORMATION
#----------   ------------   ------------------------------
 STRT.F          484.0000:   START DEPTH
 STOP.F         4334.0000:   STOP DEPTH
 STEP.F            0.5000:   STEP LENGTH
 NULL.          -999.2500:   NO VALUE
 COMP.    FENIX & SCISSON:   COMPANY
 WELL. FENIX NPR 3 "JX" #46-27:   WELL
 FLD .              N P R:   FIELD
 LOC .      S27 T39N R78W:   LOCATION
 CNTY.            NATRONA:   COUNTY
 STAT.            WYOMING:   STATE
 CTRY. UNITED STATES OF AMERICA:   COUNTRY
 SRVC.       SCHLUMBERGER:   SERVICE COMPANY
 DATE.        01-MAR-1979:   LOGDATE
 API .     49025107660000:   API NUMBER
~CURVE INFORMATION
#MNEM.UNIT       API CODE    CURVE DESCRIPTION
#----------   ------------   ------------------------------
 DEPT.F                  :   
 TENR.LBS    07 635 01 00:   TENSION FROM RESISTIVITY
 SPR .MV     07 010 01 00:   SPONTANEOUS POTENTIAL
 SFL .OHMM   07 220 01 00:   SHALLOW FOCUSED LOG RESISTIVITY
 ILD .OHMM   07 120 46 00:   DEEP INDUCTION RESISTIVITY
 ILM .OHMM   07 120 44 00:   INDUCTION LOG MEDIUM RESISTIVITY
 TEND.LBS    42 635 01 00:   TENSION FROM COMPENSATE NEUTRON
 GRD .GAPI   45 310 01 00:   GAMMA RAY FROM DENSITY LOG
 CALD.IN     45 280 60 00:   CALIPER FROM DENSITY LOG
 RHOB.G/C3   45 350 01 00:   BULK DENSITY
 CORR.G/C3   45 356 01 00:   DENSITY CORRECTION
 NPHI.DEC    42 890 03 00:   NEUTRON POROSITY SANDSTONE
~PARAMETER INFORMATION
#MNEM.UNIT          VALUE    DESCRIPTION
#----------   ------------   ------------------------------
 EKB .F         5059.0000:   Kelly bushing
 EGL .F         5049.0000:   Ground level
 EDF .F            0.0000:   Drilling floor
 TD  .F         4320.0000:   Total depth
 DATE.        01-MAR-1979:   Date logged
 CLNT.            A2DTECH:   Client Code
 SL  . 1625' FSL & 2281' FWL:   Surface Location
 PD  .                 GL:   Permanent Datum
 DD  .F              4320:   Depth driller
 DL  .F              4319:   Depth logger
 BLI .F              4316:   Bottom log interval
 CS1 .IN            8.625:   Casing size
 CBD1.      8.625" @ 505':   Casing driller 1
 CBL1.F               500:   Casing logger 1
 BS1 .IN            7.875:   Bit size
 DFT .                FGM:   Type fluid in hole
 DFD .                9.1:   Density
 DFV .                 40:   Viscosity
 DFPH.               11.7:   pH
 DFL .                6.5:   Fluid loss
 MSS .               TANK:   Source of sample
 RMS .OHMM           .901:   Rm
 MST .F                65:   Rm Meas. temp.
 RMF .OHMM           .852:   Rmf
 MFST.F                65:   Rmf Meas. temp.
 MFSS.               MEAS:   Source Rmf.
 RMB .OHMM            .39:   Rm. at BHT
 BHT .F               151:   BHT.
 TCS .HRS            1200:   Time Circ. stopped
 MRT .F               151:   Maximum recorded temp.
 LUN .               8043:   Logging unit number
 LUL .               CSPR:   Logging unit location
 ENGI.              PFARR:   Recorded By
 WITN.              AMENO:   Witnessed by
 ORIG.         2.5" PRINT:   Origin of data
 UWI .     49025107660000:   Unique Well ID
 DICO. A2D TECHNOLOGIES, INC.:   Digitizing Company
 DAPD.                 10:   Feet Above Permanent Datum
 BSD1.F              4320:   Depth drilled with bit1
 EPD .F              5049:   Elevation Permanent Datum
 LMF .                 KB:   Log Measured From
 DMF .                 KB:   Drilling Measured From
 TLI .F               500:   Top log interval
 TLAB.HRS            1900:   Time logger at bottom
~OTHER INFORMATION
~A   DEPT     TENR        SPR        SFL        ILD        ILM       TEND         GRD      CALD       RHOB       CORR         NPHI 
# ...
 1490.5000   501.4990   -37.8550     7.5600     7.0120     6.7600   862.7870   103.5890     9.0870     2.5230     0.0660     0.2970
 1491.0000   501.7760   -38.0450     7.3870     7.0170     6.7650   862.9520   105.7280     9.0800     2.5090     0.0610     0.2980
 1491.5000   502.0530   -38.2380     7.2540     7.1050     6.8500   863.1180   107.2860     9.0730     2.5140     0.0660     0.3120
 1492.0000   502.3300   -38.4400     7.4470     7.1930     6.9350   863.2840   107.2470     9.0670     2.5350     0.0720     0.3300
 1492.5000   502.6070   -38.6350     7.6280     7.2800     7.0190   863.4490   103.5840     9.0600     2.5490     0.0710     0.3260
 1493.0000   502.8830   -38.8310     7.8090     7.3680     7.1040   863.6150    99.9670     9.0530     2.5400     0.0560     0.3150
 1493.5000   503.1600   -39.0290     7.9900     7.4560     7.1880   863.7810    99.0900     9.0470     2.5280     0.0390     0.3050
 1494.0000   503.4370   -39.2280     8.1710     7.5440     7.2730   863.9470    98.3340     9.0400     2.5200     0.0300     0.3010
 1494.5000   503.7140   -39.4110     8.3520     7.6310     7.3580   864.1120    97.7730     9.0330     2.5200     0.0270     0.3000
 1495.0000   503.9900   -39.6320     8.5330     7.7190     7.4420   864.2780    97.2850     9.0270     2.5260     0.0240     0.3000
 1495.5000   504.2670   -39.8920     8.7080     7.8040     7.5240   864.4440    98.4460     9.0200     2.5320     0.0210     0.2950
 1496.0000   504.5440   -39.6850     8.6490     7.8040     7.5240   864.6100    99.3730     9.0130     2.5300     0.0210     0.2830
 1496.5000   504.8210   -39.3290     8.3940     7.8040     7.5240   864.7750   100.3900     9.0070     2.5250     0.0230     0.2850
 1497.0000   505.0980   -39.0050     8.0940     7.8040     7.5240   864.9410   101.4940     9.0000     2.5220     0.0300     0.2890
 1497.5000   505.3740   -38.7030     8.0940     7.8040     7.5240   865.1070   101.6290     8.9930     2.5240     0.0400     0.2930
 1498.0000   505.6510   -38.6130     8.1540     7.8040     7.5240   865.2720   100.4190     8.9870     2.5270     0.0490     0.2970
 1498.5000   505.9280   -38.5340     8.4320     7.9220     7.6350   865.4380    99.3370     8.9800     2.5300     0.0520     0.2970
 1499.0000   506.2050   -38.4600     8.7100     8.0940     7.8070   865.6040    98.2220     8.9730     2.5300     0.0450     0.2960
 1499.5000   506.4810   -38.3860     8.9880     8.0940     7.8010   865.7700    97.1130     8.9670     2.5290     0.0330     0.2940
 1500.0000   506.7580   -38.2990     9.2660     8.0470     7.7560   865.9350    95.9960     8.9600     2.5270     0.0270     0.2900
 1500.5000   507.0350   -38.3170     9.5410     7.9990     7.7110   866.1010    94.8700     8.9530     2.5260     0.0200     0.2880
 1501.0000   507.3120   -38.3750     9.7170     7.9520     7.6660   866.2670    94.0880     8.9470     2.5250     0.0130     0.2910
 1501.5000   507.5890   -38.4360     9.5090     7.9050     7.6210   866.4330    94.9130     8.9400     2.5310     0.0230     0.2890
 1502.0000   507.8650   -38.4940     9.0130     7.8580     7.5760   866.5980    96.7940     8.9400     2.5390     0.0310     0.2880
 1502.5000   508.1420   -38.5530     8.5180     7.8100     7.5300   866.7640    98.7630     8.9370     2.5410     0.0370     0.3040
 1503.0000   508.4190   -38.6120     7.9480     7.7630     7.4850   866.9300   100.9250     8.9340     2.5290     0.0290     0.2980
 1503.5000   508.6960   -38.6700     8.0900     7.7160     7.4390   867.0950   102.4500     8.9310     2.5140     0.0140     0.3050
 1504.0000   508.9720   -38.7290     8.4060     7.6620     7.3870   867.2610   102.6830     8.9290     2.5130     0.0120     0.3040
 1504.5000   509.2490   -38.7880     8.7210     7.6560     7.3820   867.4270   100.2680     8.9260     2.5230     0.0170     0.3040
 1505.0000   509.5260   -38.8470     9.0360     7.6430     7.3690   867.5930    98.5640     8.9230     2.5250     0.0220     0.3050
 1505.5000   509.8030   -38.9060     9.1990     7.6300     7.3570   867.7580    94.8430     8.9210     2.5290     0.0250     0.2940
 1506.0000   510.0800   -38.9660     8.9310     7.6170     7.3440   867.9240    93.4130     8.9180     2.5370     0.0280     0.2890
 1506.5000   510.3560   -39.0210     8.5440     7.6050     7.3320   868.0900    93.2550     8.9150     2.5480     0.0320     0.2860
 1507.0000   510.6330   -39.0870     8.1570     7.5920     7.3190   868.2550    95.3580     8.9120     2.5530     0.0290     0.2950
 1507.5000   510.9100   -39.0510     7.6620     7.5790     7.3070   868.4210    96.1600     8.9100     2.5410     0.0220     0.3040
 1508.0000   511.1870   -38.9710     7.6990     7.5660     7.2940   868.5870    95.1800     8.9070     2.5090     0.0090     0.3030
 1508.5000   511.4630   -38.8930     7.8120     7.5530     7.2820   868.7530    94.3250     8.9040     2.4830     0.0060     0.3100
 1509.0000   511.7400   -38.8170     7.9240     7.5400     7.2690   868.9180    93.9480     8.9010     2.4870     0.0110     0.3130
 1509.5000   512.0170   -38.7410     8.0370     7.5270     7.2570   869.0840    94.1760     8.9050     2.5050     0.0260     0.3150
 1510.0000   512.2940   -38.6120     8.1500     7.4990     7.2300   869.2500    95.0430     8.9190     2.5220     0.0430     0.3120
 1510.5000   512.5710   -38.3980     8.2430     7.4670     7.1990   869.4160    96.8560     8.9320     2.5410     0.0590     0.3050
 1511.0000   512.8470   -38.1880     8.3950     7.4350     7.1680   869.5810    98.6320     8.9450     2.5520     0.0700     0.3000
 1511.5000   513.1240   -37.9650     8.3190     7.4010     7.1360   869.7470    99.9260     8.9590     2.5310     0.0650     0.2990
 1512.0000   513.4010   -37.7650     8.2400     7.3680     7.1050   869.9130   100.3660     8.9730     2.5160     0.0550     0.2970
 1512.5000   513.6780   -37.5230     8.1620     7.3340     7.0740   870.0780   100.9730     8.9800     2.5210     0.0470     0.2960
 1513.0000   513.9540   -37.6430     8.0830     7.3000     7.0430   870.2440   101.2690     8.9790     2.5400     0.0540     0.2970
 1513.5000   514.2310   -37.8180     8.0050     7.2590     6.9930   870.4100   101.1140     8.9610     2.5520     0.0600     0.2980
 1514.0000   514.5080   -38.0030     7.9260     7.3930     7.1350   870.5760   101.2030     8.9380     2.5420     0.0620     0.3020
 1514.5000   514.7850   -38.1780     7.8480     7.3820     7.1140   870.7410    99.0410     8.9140     2.5090     0.0360     0.3040
 1515.0000   515.0620   -38.3580     7.8030     7.3920     7.1230   870.9070   100.0190     8.8910     2.5040     0.0220     0.3040
 1515.5000   515.3380   -38.5350     7.8220     7.3900     7.1250   871.0730   101.0300     8.8670     2.5170     0.0370     0.3020
 1516.0000   515.6150   -38.7160     7.8400     7.3860     7.1220   871.2390   101.8400     8.8440     2.5300     0.0440     0.3040
 1516.5000   515.8920   -38.8920     7.8580     7.3880     7.1220   871.4040    99.7870     8.8210     2.5330     0.0300     0.3040
 1517.0000   516.1690   -39.0680     7.8770     7.3870     7.1220   871.5700    98.1660     8.8200     2.5250     0.0200     0.3060
 1517.5000   516.4450   -39.2640     7.8950     7.3870     7.1230   871.7360    96.1970     8.8200     2.5290     0.0160     0.3090
 1518.0000   516.7220   -39.3940     7.9130     7.3870     7.1220   871.9010    96.0990     8.8200     2.5330     0.0160     0.3120
 1518.5000   516.9990   -39.7680     7.9310     7.3870     7.1220   872.0670    97.2160     8.8200     2.5360     0.0180     0.3170
 1519.0000   517.2760   -39.6880     7.9470     7.3870     7.1220   872.2330    97.9590     8.8200     2.5280     0.0180     0.3200
 1519.5000   517.5530   -39.5850     7.9470     7.3880     7.1230   872.3990    96.8050     8.8200     2.5200     0.0150     0.3180
 1520.0000   517.8290   -39.2380     7.9360     7.3740     7.1100   872.5640    95.5420     8.8200     2.5090     0.0130     0.3150
 1520.5000   518.1060   -39.1520     7.9230     7.3460     7.0810   872.7300    96.6450     8.8200     2.5030     0.0100     0.3120
