~VERSION INFORMATION
 VERS.                2.0:   CWLS LOG ASCII STANDARD - VERSION 2.0
 WRAP.                 NO:   ONE LINE PER DEPTH STEP
~WELL INFORMATION
#MNEM.UNIT      DATA TYPE    INFORMATION
#----------   ------------   ------------------------------
 STRT.F           96.5000:   START DEPTH
 STOP.F         2720.0000:   STOP DEPTH
 STEP.F            0.5000:   STEP LENGTH
 NULL.          -999.2500:   NO VALUE
 COMP.          INTEX OIL:   COMPANY
 WELL. INTEX NPR 65 "AX" #3-20:   WELL
 FLD .             TEAPOT:   FIELD
 LOC .      S20 T39N R78W:   LOCATION
 CNTY.            NATRONA:   COUNTY
 STAT.            WYOMING:   STATE
 CTRY. UNITED STATES OF AMERICA:   COUNTRY
 SRVC.       SCHLUMBERGER:   SERVICE COMPANY
 DATE.        04-MAY-1966:   LOGDATE
 API .     49025094910000:   API NUMBER
~CURVE INFORMATION
#MNEM.UNIT       API CODE    CURVE DESCRIPTION
#----------   ------------   ------------------------------
 DEPT.F                  :   
 SPR .MV     05 010 01 00:   SPONTANEOUS POTENTIAL FROM RES.
 SN  .OHMM   05 040 16 00:   SHORT NORMAL 16"
 ILD .OHMM   05 120 46 00:   INDUCTION LOG DEEP
 CALD.IN     45 280 60 00:   CALIPER FROM DENSITY LOG
 CORR.G/C3   45 356 01 00:   DENSITY CORRECTION
 GRD .GAPI   45 310 01 00:   GAMMA RAY FROM DENSITY LOG
 RHOB.G/C3   45 350 01 00:   BULK DENSITY
~PARAMETER INFORMATION
#MNEM.UNIT          VALUE    DESCRIPTION
#----------   ------------   ------------------------------
 EKB .F         5053.3000:   Kelly bushing
 EGL .F         5043.0000:   Ground level
 EDF .F            0.0000:   Drilling floor
 TD  .F         2720.0000:   Total depth
 DATE.        04-MAY-1966:   Date logged
 CLNT.            A2DTECH:   Client Code
 PD  .                 GL:   Permanent Datum
 EPD .F              5043:   Elevation Permanent Datum
 LMF .                 KB:   Log Measured From
 DMF .                 KB:   Drilling Measured From
 DAPD.F              10.3:   Feet Above Permanent Datum
 DD  .F              2720:   Depth driller
 DL  .F              2720:   Depth logger
 BLI .F              2719:   Bottom log interval
 TLI .F                97:   Top log interval
 CS1 .IN            10.75:   Casing size
 CBD1.       10.75" @ 30':   Casing driller 1
 BS1 .IN            7.875:   Bit size
 BSD1.F              2720:   Depth drilled with bit1
 DFT . GEL/Q-BROX/OIL/DAKOLITE:   Type fluid in hole
 DFD .               10.3:   Density
 DFV .                 41:   Viscosity
 DFPH.                7.2:   pH
 DFL .                8.8:   Fluid loss
 MSS .           FLOWLINE:   Source of sample
 RMS .OHMM              2:   Rm
 MST .F                61:   Rm Meas. temp.
 RMF .OHMM           1.31:   Rmf
 MFST.F                65:   Rmf Meas. temp.
 MFSS.                 FP:   Source Rmf.
 RMB .OHMM           1.15:   Rm. at BHT
 BHT .F               110:   BHT.
 TCS .HRS               2:   Time Circ. stopped
 MRT .F               110:   Maximum recorded temp.
 LUN .               4507:   Logging unit number
 LUL .               CSPR:   Logging unit location
 ENGI.            MANGOLD:   Recorded By
 WITN.             TUTTLE:   Witnessed by
 ORIG.       2", 5" PRINT:   Origin of data
 UWI .     49025094910000:   Unique Well ID
 DICO. A2D TECHNOLOGIES, INC.:   Digitizing Company
~OTHER INFORMATION
~A   DEPT      SPR         SN         ILD      CALD       CORR        GRD       RHOB   
# ...
 2462.5000   -27.0250    10.7290     7.9310     7.8690     0.0530   122.8120     2.5260
 2463.0000   -27.0380    10.6820     8.0480     7.8400     0.0340   121.9970     2.5120
 2463.5000   -27.0520    10.6620     8.1300     7.8090     0.0170   121.2900     2.5270
 2464.0000   -27.0660    10.6600     8.1780     7.7820     0.0180   119.9200     2.5290
 2464.5000   -27.0800    10.7720     8.2450     7.7480     0.0200   117.8870     2.5240
 2465.0000   -27.0930    11.0460     8.3990     7.7620     0.0200   117.0710     2.5220
 2465.5000   -27.1070    11.3880     8.6580     7.8110     0.0180   117.3460     2.5160
 2466.0000   -27.1210    11.6800     8.9610     7.8540     0.0170   115.5460     2.5070
 2466.5000   -27.1340    11.9340     9.2480     7.8990     0.0180   112.0600     2.5150
 2467.0000   -27.1480    12.2220     9.5180     7.9330     0.0200   110.8460     2.5230
 2467.5000   -27.1620    12.5190     9.7920     7.9330     0.0180   110.9940     2.5220
 2468.0000   -27.1760    12.7570    10.0580     7.9340     0.0140   110.8520     2.5300
 2468.5000   -27.1890    12.9930    10.3170     7.9330     0.0170   111.1280     2.5330
 2469.0000   -27.2030    13.3710    10.6090     7.9330     0.0180   108.8610     2.5310
 2469.5000   -27.2170    13.9220    10.9370     7.9330     0.0140   104.7450     2.5310
 2470.0000   -27.2310    14.5450    11.2010     7.9340     0.0090   102.6670     2.5240
 2470.5000   -27.2450    15.1600    11.3030     7.9330     0.0060   100.5130     2.5120
 2471.0000   -27.2570    15.7430    11.2850     7.9330     0.0260    99.7470     2.5080
 2471.5000   -27.2700    16.1790    11.2670     7.9030     0.0470   100.1500     2.5210
 2472.0000   -27.2870    16.2750    11.2840     7.8630     0.0610   100.7310     2.5580
 2472.5000   -27.3020    15.9720    11.2460     7.8250     0.0570   104.9930     2.5510
 2473.0000   -27.3100    15.4290    11.0770     7.7850     0.0480   108.6910     2.5380
 2473.5000   -27.3210    14.8580    10.8000     7.7470     0.0400   112.6200     2.5360
 2474.0000   -27.3450    14.3600    10.4890     7.7040     0.0310   116.6190     2.5250
 2474.5000   -27.3660    13.9520    10.2050     7.6990     0.0280   116.3620     2.5200
 2475.0000   -27.3380    13.6600     9.9670     7.7000     0.0340   110.9710     2.5290
 2475.5000   -27.2430    13.5220     9.7300     7.6980     0.0360   109.1600     2.5390
 2476.0000   -27.1190    13.4940     9.4100     7.7220     0.0320   107.4550     2.5350
 2476.5000   -27.0260    13.4080     8.9740     7.7690     0.0360   106.2930     2.5250
 2477.0000   -26.9600    13.0770     8.4900     7.8100     0.0460   106.1850     2.5390
 2477.5000   -26.8580    12.4760     8.0470     7.8530     0.0550   108.6870     2.5530
 2478.0000   -26.7060    11.7750     7.6440     7.8960     0.0510   110.3480     2.5630
 2478.5000   -26.6020    11.1410     7.2240     7.9390     0.0460   111.8830     2.5380
 2479.0000   -26.6370    10.5630     6.7820     7.9720     0.0410   112.3350     2.5210
 2479.5000   -26.7510     9.9340     6.3640     7.9780     0.0360   114.6340     2.5040
 2480.0000   -26.7820     9.2200     5.9630     7.9830     0.0310   116.3050     2.4950
 2480.5000   -26.6640     8.4990     5.5190     7.9870     0.0350   122.5350     2.4880
 2481.0000   -26.4810     7.8680     5.0430     7.9920     0.0410   127.4980     2.5000
 2481.5000   -26.3360     7.3680     4.6730     7.9960     0.0470   139.2720     2.5130
 2482.0000   -26.2540     6.9860     4.5180     8.0010     0.0530   149.9500     2.5330
 2482.5000   -26.2210     6.6720     4.4910     8.0060     0.0590   156.9720     2.5260
 2483.0000   -26.2400     6.3870     4.3810     8.0100     0.0500   152.4920     2.5000
 2483.5000   -26.3010     6.1160     4.0940     8.0150     0.0230   147.2760     2.4790
 2484.0000   -26.3720     5.8340     3.7260     8.0190     0.0170   141.1430     2.4810
 2484.5000   -26.4350     5.5020     3.3980     8.0240     0.0240   149.6860     2.4890
 2485.0000   -26.4980     5.1030     3.0930     8.0290     0.0210   159.4160     2.4750
 2485.5000   -26.5530     4.6560     2.7440     8.0330     0.0150   166.2580     2.4400
 2486.0000   -26.5810     4.1810     2.3880     8.0380     0.0180   175.4650     2.4270
 2486.5000   -26.5830     3.7170     2.1330     8.0420     0.0200   184.8850     2.4090
 2487.0000   -26.5750     3.3540     1.9980     8.0470     0.0190   194.5620     2.3900
 2487.5000   -26.5610     3.1710     1.8730     8.0510     0.0180   203.9660     2.3510
 2488.0000   -26.5330     3.1300     1.6770     8.0560     0.0160   210.9740     2.3260
 2488.5000   -26.4890     3.1010     1.4810     8.0600     0.0170   208.4690     2.3100
 2489.0000   -26.4400     3.0100     1.4480     8.0650     0.0200   203.8450     2.2990
 2489.5000   -26.3980     2.9040     1.6410     8.0690     0.0230   199.0410     2.3150
 2490.0000   -26.3700     2.8540     1.9210     8.0740     0.0260   195.5960     2.3360
 2490.5000   -26.3370     2.8780     2.0630     8.0790     0.0350   197.5440     2.3530
 2491.0000   -26.2810     2.9850     2.0230     8.0810     0.0470   197.8200     2.3470
 2491.5000   -26.2240     3.2350     2.0350     8.0920     0.0730   195.4460     2.3380
 2492.0000   -26.2110     3.6700     2.3630     8.0480     0.0950   173.4610     2.3380
 2492.5000   -26.2510     4.2560     3.0030     7.9630     0.0770   153.1270     2.3480
 2493.0000   -26.3310     4.9320     3.7580     7.8880     0.0360   126.0730     2.3610
 2493.5000   -26.4950     5.6890     4.5240     7.8070     0.0430   111.1270     2.4410
 2494.0000   -26.8020     6.4840     5.3010     7.7730     0.0610   111.4910     2.4900
 2494.5000   -27.1710     7.1680     5.9580     7.7730     0.0570   110.3020     2.4820
 2495.0000   -27.4020     7.6120     6.2710     7.7690     0.0330   108.9360     2.4760
 2495.5000   -27.3930     7.8800     6.2580     7.7660     0.0220   108.0440     2.4940
 2496.0000   -27.2570     8.1520     6.2120     7.7620     0.0470   107.2340     2.4900
 2496.5000   -27.1510     8.4900     6.3320     7.7590     0.0410   107.9000     2.4770
 2497.0000   -27.0960     8.8250     6.5160     7.7560     0.0410   108.4560     2.4710
 2497.5000   -27.0290     9.1360     6.6310     7.7520     0.0480   109.0150     2.4950
 2498.0000   -26.9380     9.4700     6.7710     7.7490     0.0440   108.8060     2.5100
 2498.5000   -26.8560     9.8110     7.0810     7.7460     0.0330   108.4980     2.5010
 2499.0000   -26.7820    10.0860     7.5030     7.7420     0.0220   108.8530     2.4930
 2499.5000   -26.6960    10.3560     7.8740     7.7390     0.0210   109.6350     2.4860
 2500.0000   -26.6190    10.8400     8.1790     7.7360     0.0350   110.5940     2.5100
 2500.5000   -26.6000    11.6530     8.5560     7.7320     0.0520   109.7420     2.5370
 2501.0000   -26.6610    12.6510     9.0760     7.7290     0.0440   105.9090     2.5440
 2501.5000   -26.7710    13.6000     9.6900     7.7260     0.0350   103.7110     2.5370
 2502.0000   -26.8780    14.4380    10.3130     7.7230     0.0460   103.1530     2.5400
 2502.5000   -26.9460    15.3060    10.8310     7.7190     0.0480   102.6820     2.5340
 2503.0000   -26.9650    16.2740    11.0240     7.7160     0.0410   100.1760     2.5270
 2503.5000   -26.9530    17.0740    10.6750     7.7130     0.0360    95.8480     2.5100
 2504.0000   -26.9320    17.2050     9.8390     7.7100     0.0500    94.4450     2.5180
 2504.5000   -26.9190    16.3830     8.8670     7.7060     0.0680   101.6570     2.5320
 2505.0000   -26.9090    14.8190     8.0550     7.7040     0.0850   112.4260     2.5390
 2505.5000   -26.8960    12.9800     7.3710     7.7050     0.1040   120.4300     2.5460
 2506.0000   -26.8810    11.1990     6.6170     7.7860     0.0970   124.0550     2.5380
 2506.5000   -26.8670     9.6530     5.7920     7.8850     0.0760   128.8620     2.5280
 2507.0000   -26.8550     8.5250     5.1370     7.9800     0.0680   132.7280     2.5230
 2507.5000   -26.8420     7.9080     4.8320     8.0810     0.0690   135.7420     2.5190
