~VERSION INFORMATION
 VERS.                2.0:   CWLS LOG ASCII STANDARD - VERSION 2.0
 WRAP.                 NO:   ONE LINE PER DEPTH STEP
~WELL INFORMATION
#MNEM.UNIT      DATA TYPE    INFORMATION
#----------   ------------   ------------------------------
 STRT.F          200.5000:   START DEPTH
 STOP.F         3118.5000:   STOP DEPTH
 STEP.F            0.5000:   STEP LENGTH
 NULL.          -999.2500:   NO VALUE
 COMP.    FENIX & SCISSON:   COMPANY
 WELL. FENIX SCISSON "A" #16-27:   WELL
 FLD .                NPR:   FIELD
 LOC .      S27 T39N R78W:   LOCATION
 CNTY.            NATRONA:   COUNTY
 STAT.            WYOMING:   STATE
 CTRY. UNITED STATES OF AMERICA:   COUNTRY
 SRVC.       SCHLUMBERGER:   SERVICE COMPANY
 DATE.        31-AUG-1977:   LOGDATE
 API .     49025104180000:   API NUMBER
~CURVE INFORMATION
#MNEM.UNIT       API CODE    CURVE DESCRIPTION
#----------   ------------   ------------------------------
 DEPT.F                  :   
 CALD.IN     45 280 60 00:   CALIPER FROM DENSITY LOG
 GRD .GAPI   45 310 01 00:   GAMMA RAY FROM DENSITY LOG
 DPHI.DEC    42 890 03 00:   DENSITY POROSITY SANDSTONE
 RHOB.G/C3   45 350 01 00:   BULK DENSITY
 CORR.G/C3   45 356 01 00:   DENSITY CORRECTION
 SPR .MV     07 010 01 00:   SPONTANEOUS POTENTIAL
 GURD.OHMM   07 220 05 00:   GUARD LOG RESISTIVITY
 ILD .OHMM   07 120 46 00:   DEEP INDUCTION RESISTIVITY
 ILM .OHMM   07 120 44 00:   INDUCTION LOG MEDIUM RESISTIVITY
~PARAMETER INFORMATION
#MNEM.UNIT          VALUE    DESCRIPTION
#----------   ------------   ------------------------------
 EKB .F         5095.0000:   Kelly bushing
 EGL .F         5085.0000:   Ground level
 EDF .F            0.0000:   Drilling floor
 TD  .F         3121.0000:   Total depth
 DATE.        31-AUG-1977:   Date logged
 CLNT.            A2DTECH:   Client Code
 SL  . 1430' FSL & 330' FNL:   Surface Location
 PD  .                 GL:   Permanent Datum
 EPD .F              5085:   Elevation Permanent Datum
 LMF .                 KB:   Log Measured From
 DMF .                 KB:   Drilling Measured From
 DAPD.F                10:   Feet Above Permanent Datum
 DD  .F              3120:   Depth driller
 DL  .F              3121:   Depth logger
 BLI .F              3119:   Bottom log interval
 TLI .F               200:   Top log interval
 CS1 .IN            8.625:   Casing size
 CBD1.      8.625" @ 206':   Casing driller 1
 CBL1.F               215:   Casing logger 1
 BS1 .IN            7.875:   Bit size
 BSD1.F              3120:   Depth drilled with bit1
 DFT .            KCL/MUD:   Type fluid in hole
 DFD .                  9:   Density
 DFV .                 36:   Viscosity
 DFPH.                 11:   pH
 DFL .                8.4:   Fluid loss
 MSS .           FLOWLINE:   Source of sample
 RMS .OHMM            2.5:   Rm
 MST .F                89:   Rm Meas. temp.
 RMF .OHMM           2.45:   Rmf
 MFST.F                89:   Rmf Meas. temp.
 RMC .OHMM           3.30:   Rmc
 MCST.F                89:   Rmc Meas. temp.
 MFSS.               FANN:   Source Rmf.
 MCSS.                KIT:   Source Rmc.
 RMB .OHMM           1.91:   Rm. at BHT
 BHT .F               116:   BHT.
 TCS .HRS              12:   Time Circ. stopped
 MRT .F               116:   Maximum recorded temp.
 LUN .               9585:   Logging unit number
 LUL .             CASPEN:   Logging unit location
 ENGI.         G. BENTSEN:   Recorded By
 WITN.      W. PETTINGILL:   Witnessed by
 ORIG.           5" PRINT:   Origin of data
 UWI .     49025104180000:   Unique Well ID
 DICO. A2D TECHNOLOGIES, INC.:   Digitizing Company
~OTHER INFORMATION
~A   DEPT     CALD         GRD      DPHI       RHOB        CORR       SPR       GURD        ILD        ILM   
# ...
 1368.5000     8.8132    62.1652     0.0988     2.4842     0.0203   -66.9681    10.2019     6.1704     7.0807
 1369.0000     8.8126    62.1277     0.0972     2.4861     0.0242   -66.9666    10.1098     6.1144     7.1463
 1369.5000     8.8120    62.0902     0.0956     2.4891     0.0262   -66.9651    10.0186     6.2286     7.1470
 1370.0000     8.8114    62.0527     0.0936     2.4921     0.0262   -66.9636     9.6591     6.2289     7.2801
 1370.5000     8.8109    62.0152     0.0912     2.4941     0.0261   -66.9621    10.2057     6.2295     7.2146
 1371.0000     8.8103    61.9777     0.0916     2.4960     0.0241   -66.9606    10.3003     6.2873     7.9083
 1371.5000     8.8097    61.9402     0.0932     2.4950     0.0221   -67.1572    10.4917     6.4046     8.0555
 1372.0000     8.8091    61.9027     0.0952     2.4910     0.0220   -67.1557    10.4927     6.5238     8.0561
 1372.5000     8.8085    61.8652     0.0956     2.4900     0.0220   -66.7581    10.3980     6.5242     8.0569
 1373.0000     8.8079    61.8277     0.0948     2.4920     0.0259   -66.3600    10.4946     6.5250     7.7673
 1373.5000     8.8073    61.7903     0.0929     2.4930     0.0279   -66.7552    10.8872     6.5253     7.8397
 1374.0000     8.8067    61.7528     0.0897     2.4959     0.0318   -66.7537    10.5931     6.3490     7.3528
 1374.5000     8.8061    61.7153     0.0893     2.4989     0.0318   -66.7522    10.4975     6.2342     7.2198
 1375.0000     8.8055    61.6778     0.0881     2.5009     0.0318   -66.9487    10.4028     6.1214     7.1544
 1375.5000     8.8050    61.6403     0.0865     2.5058     0.0317   -66.9473    10.3089     6.1219     7.0897
 1376.0000     8.8044    61.5849     0.0841     2.5078     0.0357   -67.3418    10.4047     6.1225     7.0904
 1376.5000     8.8038    61.5802     0.0837     2.5098     0.0376   -67.3403    10.5014     6.1229     7.0912
 1377.0000     8.8032    61.9620     0.0845     2.5068     0.0376   -67.3388    10.3118     6.1235     7.0918
 1377.5000     8.8026    62.3439     0.0861     2.5038     0.0396   -67.3376    10.0332     6.1240     7.0276
 1378.0000     8.8020    62.3321     0.0881     2.5028     0.0375   -67.3361     9.6732     6.1247     7.0281
 1378.5000     8.8014    62.7139     0.0893     2.5028     0.0355   -67.3346     9.9436     6.1253     6.9009
 1379.0000     8.8008    62.7021     0.0905     2.5017     0.0355   -67.1351     9.9445     6.1258     6.9015
 1379.5000     8.8002    62.6903     0.0905     2.4957     0.0334   -67.1337     9.8547     6.1264     6.3017
 1380.0000     8.7996    61.1102     0.0906     2.4937     0.0334   -67.1322     9.6767     6.1267     6.3021
 1380.5000     8.7990    61.0984     0.0902     2.4957     0.0373   -67.1307    10.1311     6.0715     6.2456
 1381.0000     8.8181    61.0866     0.0894     2.5007     0.0373   -67.3272    10.1321     6.0721     6.2462
 1381.5000     8.8177    61.0748     0.0890     2.5036     0.0373   -67.1277    10.8043     6.0724     6.2465
 1382.0000     8.8170    61.0630     0.0882     2.5066     0.0392   -67.5221    10.1339     6.0731     6.2472
 1382.5000     8.8165    61.0512     0.0886     2.5036     0.0372   -67.3227     9.5929     6.0737     6.2478
 1383.0000     8.8159    61.0394     0.0950     2.4966     0.0352   -67.5192     9.3338     6.0742     6.2484
 1383.5000     8.8152    61.0276     0.0978     2.4886     0.0311   -67.5177     9.3347     6.0747     6.2488
 1384.0000     8.8146    61.0157     0.0990     2.4856     0.0311   -67.5162     9.2504     6.0755     6.2496
 1384.5000     8.7943    61.0039     0.0998     2.4846     0.0330   -67.5147     9.0833     6.1887     6.3654
 1385.0000     8.7937    60.9921     0.0998     2.4866     0.0330   -67.5132     9.0014     6.1890     6.3658
 1385.5000     8.8128    60.9803     0.0990     2.4866     0.0350   -67.5117     9.0849     6.1896     6.3664
 1386.0000     8.8122    60.9685     0.0990     2.4865     0.0369   -67.5102     9.7764     6.1899     6.3667
 1386.5000     8.8116    60.9567     0.0998     2.4865     0.0329   -67.5087     9.0865     6.1905     6.3673
 1387.0000     8.8111    60.9449     0.0998     2.4865     0.0329   -67.3093     9.2554     6.1914     6.3682
 1387.5000     8.8105    60.9331     0.0998     2.4865     0.0328   -67.3078     9.2562     6.1919     6.3687
 1388.0000     8.8099    60.9213     0.0990     2.4865     0.0348   -67.3063     9.5150     6.1922     6.3691
 1388.5000     8.8093    60.9095     0.0982     2.4875     0.0308   -67.7006     9.9618     6.1927     6.3695
 1389.0000     8.8087    60.8977     0.0982     2.4874     0.0307   -67.6991     9.9627     6.0811     6.2554
 1389.5000     8.8081    60.8858     0.0987     2.4864     0.0287   -67.8955     9.8728     6.0260     6.1990
 1390.0000     8.8075    60.8740     0.1003     2.4814     0.0267   -67.8940     9.5185     5.9171     6.0876
 1390.5000     8.8069    60.8622     0.1011     2.4794     0.0246   -67.8925     8.5285     5.9175     6.0881
 1391.0000     8.8063    60.8504     0.1023     2.4774     0.0246   -67.8910     8.1475     5.8642     6.0335
 1391.5000     8.8057    60.8386     0.1035     2.4754     0.0246   -67.8895     9.4343     5.7581     5.9733
 1392.0000     8.8051    60.8268     0.1055     2.4754     0.0245   -67.8880     9.6096     5.7586     5.9737
 1392.5000     8.8046    60.8150     0.1079     2.4724     0.0245   -67.4907     9.5229     5.7591     5.9743
 1393.0000     8.8040    60.8032     0.1099     2.4714     0.0244   -67.4892     9.5237     5.7596     6.0297
 1393.5000     8.8034    60.7914     0.1083     2.4684     0.0244   -67.4877     9.6123     5.7599     6.0304
 1394.0000     8.8028    60.7796     0.1059     2.4693     0.0244   -67.4862     9.7016     5.8137     6.1427
 1394.5000     8.8022    61.1543     0.1031     2.4733     0.0243   -67.4847     9.5264     5.8676     6.2570
 1395.0000     8.8016    62.3305     0.1027     2.4763     0.0243   -67.4832     9.6149     5.9769     6.1488
 1395.5000     8.8010    62.7124     0.1002     2.4802     0.0203   -67.4817     9.6158     6.0881     6.2625
 1396.0000     8.8004    62.7029     0.0972     2.4812     0.0222   -67.4805     9.5290     6.1452     6.3210
 1396.5000     8.7802    62.2951     0.0960     2.4852     0.0262   -67.4790     9.6176     6.1456     6.3214
 1397.0000     8.7401    60.7087     0.0944     2.4872     0.0301   -67.4775     9.9772     6.1460     6.3218
 1397.5000     8.7396    59.9120     0.0924     2.4931     0.0321   -67.4761    10.3505     6.1467     6.3225
 1398.0000     8.7391    59.5065     0.0912     2.4951     0.0320   -67.4746    10.8367     6.1470     6.3228
 1398.5000     8.7581    59.4923     0.0924     2.4971     0.0300   -67.0765    10.6406     6.1475     6.4957
 1399.0000     8.7579    60.6615     0.0980     2.4931     0.0280   -67.2737    10.0727     6.1484     6.4963
 1399.5000     8.7964    61.0433     0.1012     2.4871     0.0140   -67.2723     9.6227     6.2056     6.7396
 1400.0000     8.7959    61.4251     0.1020     2.4821     0.0140   -67.2708     9.0260     6.3211     6.8652
 1400.5000     8.7951    61.4119     0.1030     2.4782     0.0100   -67.2691     9.5887     6.3726     6.9199
 1401.0000     8.7951    61.4149     0.1040     2.4761     0.0119   -67.2669    10.2610     6.3794     6.9285
 1401.5000     8.8144    61.4078     0.1048     2.4741     0.0099   -67.2649    10.1674     6.3794     6.9285
 1402.0000     8.8141    62.5817     0.1052     2.4740     0.0178   -67.4607     9.7123     6.3794     6.9285
 1402.5000     8.8139    62.9719     0.1044     2.4750     0.0098   -67.4587    10.0747     6.4382     6.9285
 1403.0000     8.8136    63.7509     0.1015     2.4800     0.0117   -67.6546    10.2610     6.4382     6.9285
 1403.5000     8.8133    63.7462     0.0985     2.4849     0.0117   -67.6526    10.1674     6.4382     6.9285
 1404.0000     8.8130    63.7415     0.0961     2.4889     0.0176   -67.6506     9.8017     6.3794     6.6179
 1404.5000     8.7142    62.9458     0.0929     2.4938     0.0236   -67.6486    11.0618     6.3212     6.5009
