~VERSION INFORMATION
 VERS.                2.0:   CWLS LOG ASCII STANDARD - VERSION 2.0
 WRAP.                 NO:   ONE LINE PER DEPTH STEP
~WELL INFORMATION
#MNEM.UNIT      DATA TYPE    INFORMATION
#----------   ------------   ------------------------------
 STRT.F          250.5000:   START DEPTH
 STOP.F         2849.5000:   STOP DEPTH
 STEP.F            0.5000:   STEP LENGTH
 NULL.          -999.2500:   NO VALUE
 COMP. FENIX & SCISSON U.S. NAVY:   COMPANY
 WELL.   FENIX "A" #25-21:   WELL
 FLD .           N P R #3:   FIELD
 LOC .      S21 T39N R78W:   LOCATION
 CNTY.            NATRONA:   COUNTY
 STAT.            WYOMING:   STATE
 CTRY. UNITED STATES OF AMERICA:   COUNTRY
 SRVC.       SCHLUMBERGER:   SERVICE COMPANY
 DATE.        14-MAR-1977:   LOGDATE
 API .     49025103140000:   API NUMBER
~CURVE INFORMATION
#MNEM.UNIT       API CODE    CURVE DESCRIPTION
#----------   ------------   ------------------------------
 DEPT.F                  :   
 CALD.IN     45 280 60 00:   CALIPER FROM DENSITY LOG
 GRD .GAPI   45 310 01 00:   GAMMA RAY FROM DENSITY LOG
 RHOB.G/C3   45 350 01 00:   BULK DENSITY
 CORR.G/C3   45 356 01 00:   DENSITY CORRECTION
 SPR .MV     07 010 01 00:   SPONTANEOUS POTENTIAL
 LL8 .OHMM   07 220 08 00:   LATEROLOG-8 RES.
 ILM .OHMM   07 120 44 00:   INDUCTION LOG MEDIUM RESISTIVITY
 ILD .OHMM   07 120 46 00:   DEEP INDUCTION RESISTIVITY
~PARAMETER INFORMATION
#MNEM.UNIT          VALUE    DESCRIPTION
#----------   ------------   ------------------------------
 EKB .F         4963.0000:   Kelly bushing
 EGL .F         4953.0000:   Ground level
 EDF .F            0.0000:   Drilling floor
 TD  .F         2848.0000:   Total depth
 DATE.        14-MAR-1977:   Date logged
 CLNT.            A2DTECH:   Client Code
 SL  . 990' FWL & 2310' FSL:   Surface Location
 PD  .                 GL:   Permanent Datum
 DD  .F              2847:   Depth driller
 DL  .F              2848:   Depth logger
 BLI .F              2842:   Bottom log interval
 CS1 .IN            8.625:   Casing size
 CBD1.      8.625" @ 259':   Casing driller 1
 CBL1.F               261:   Casing logger 1
 BS1 .IN            7.875:   Bit size
 DFT .                KCL:   Type fluid in hole
 DFD .                9.2:   Density
 DFV .                 37:   Viscosity
 DFPH.                8.5:   pH
 DFL .                8.6:   Fluid loss
 MSS .           FLOWLINE:   Source of sample
 RMS .OHMM          0.226:   Rm
 MST .F                72:   Rm Meas. temp.
 RMF .OHMM          0.190:   Rmf
 MFST.F                72:   Rmf Meas. temp.
 MFSS.               MEAS:   Source Rmf.
 RMB .OHMM           .139:   Rm. at BHT
 BHT .F               117:   BHT.
 TCS .HRS            1800:   Time Circ. stopped
 MRT .F               117:   Maximum recorded temp.
 LUN .               5642:   Logging unit number
 LUL .               CSPR:   Logging unit location
 ENGI.         JIM MARTIN:   Recorded By
 WITN.               JAPP:   Witnessed by
 ORIG.           5" PRINT:   Origin of data
 UWI .     49025103140000:   Unique Well ID
 DICO. A2D TECHNOLOGIES, INC.:   Digitizing Company
 DAPD.                 10:   Feet Above Permanent Datum
 BSD1.               2847:   Depth drilled with bit1
 EPD .               4953:   Elevation Permanent Datum
 LMF .                 KB:   Log Measured From
 DMF .                 KB:   Drilling Measured From
 TLI .                261:   Top log interval
 TLAB.               2400:   Time logger at bottom
~OTHER INFORMATION
~A   DEPT     CALD         GRD      RHOB       CORR        SPR        LL8        ILM        ILD   
# ...
  777.0000     9.7840    90.6930     2.5130     0.0210   -60.5100     9.7380    10.4040    11.2310
  777.5000     9.7910    93.5330     2.5150     0.0190   -60.8100     9.2330     9.8480    10.7970
  778.0000     9.7900    96.4150     2.5290     0.0170   -60.9470     9.3480     9.9120    10.8460
  778.5000     9.7810    93.2820     2.5230     0.0100   -61.0300     9.6270    10.0670    10.9650
  779.0000     9.7720    89.2560     2.5210     0.0040   -61.0410     9.9050    10.2230    11.0840
  779.5000     9.7630    85.8470     2.5380    -0.0030   -60.8530    10.2170    10.4070    11.2020
  780.0000     9.7540    87.2830     2.5260     0.0020   -60.7080    10.1580    10.3330    11.2020
  780.5000     9.7450    91.1340     2.5280     0.0090   -61.0010    10.0190    10.2430    11.1730
  781.0000     9.7360    94.9880     2.5460     0.0270   -61.2870     9.8790    10.1530    11.1060
  781.5000     9.7270    96.4140     2.5540     0.0370   -61.5700     9.7390    10.0620    11.0390
  782.0000     9.7180    96.5940     2.5420     0.0390   -61.8520     9.6000     9.9720    10.9710
  782.5000     9.7090    99.0340     2.5440     0.0250   -62.1340     9.4880     9.9390    10.9040
  783.0000     9.7000   101.8200     2.5350     0.0230   -62.2760     9.4720     9.9390    10.8370
  783.5000     9.6950   104.6000     2.5550     0.0470   -62.2770     9.4560     9.9390    10.7690
  784.0000     9.7040   106.8840     2.5460     0.0120   -62.2760     9.4400     9.9390    10.7020
  784.5000     9.7130   104.1650     2.5350     0.0170   -62.2240     9.4240     9.9390    10.6350
  785.0000     9.7210    97.4450     2.5370     0.0260   -62.0190     9.4080     9.9390    10.5670
  785.5000     9.7300    90.6820     2.5220     0.0110   -61.8230     9.3920     9.9390    10.5030
  786.0000     9.7390    89.1930     2.5050     0.0010   -61.6800     9.3760     9.9400    10.5370
  786.5000     9.7470    90.3700     2.5010    -0.0060   -61.6830     9.3600     9.9130    10.5690
  787.0000     9.7490    90.9390     2.5080    -0.0010   -61.6830     9.3440     9.8820    10.6020
  787.5000     9.7350    89.0330     2.4940     0.0030   -61.6830     9.3280     9.8510    10.6350
  788.0000     9.7210    90.2200     2.5030     0.0080   -61.6850     9.3120     9.8200    10.6670
  788.5000     9.7070    91.3670     2.5340     0.0140   -61.7300     9.2950     9.7900    10.7000
  789.0000     9.6930    92.2060     2.5190     0.0100   -61.9090     9.2790     9.7590    10.7320
  789.5000     9.6790    90.9770     2.5140     0.0000   -62.0820     9.2630     9.7280    10.7650
  790.0000     9.6650    90.1730     2.5360     0.0060   -62.2550     9.2470     9.6970    10.7980
  790.5000     9.6510    91.6070     2.5180     0.0050   -62.4280     9.2310     9.6680    10.8300
  791.0000     9.6370    92.5040     2.5030     0.0010   -62.6020     9.2150     9.8060    10.8630
  791.5000     9.6230    92.4510     2.5170     0.0120   -62.7750     9.1990     9.9360    10.8950
  792.0000     9.6100    89.4520     2.5410     0.0470   -62.9470     9.1830    10.0310    10.9280
  792.5000     9.5960    83.2650     2.5610     0.0380   -63.0720     9.1670     9.9610    10.9610
  793.0000     9.5820    82.0200     2.5670     0.0300   -63.0700     9.1510     9.8800    10.9970
  793.5000     9.5720    86.9050     2.5580     0.0180   -63.0670     9.1350     9.8000    10.9220
  794.0000     9.5670    89.9260     2.5380     0.0080   -62.8710     9.1190     9.7200    10.8100
  794.5000     9.5630    89.7160     2.5290     0.0160   -62.6510     9.1030     9.6390    10.6970
  795.0000     9.5580    89.5100     2.5470     0.0220   -62.4330     9.0870     9.5590    10.5850
  795.5000     9.5540    89.3080     2.5300     0.0020   -62.2740     9.0710     9.4790    10.4730
  796.0000     9.5490    88.5320     2.5380    -0.0050   -62.2770     9.0540     9.4050    10.3600
  796.5000     9.5440    87.0330     2.5350     0.0040   -62.2770     9.0380     9.4050    10.2480
  797.0000     9.5400    87.9950     2.5420     0.0130   -62.2770     9.0220     9.4300    10.1280
  797.5000     9.5350    89.6540     2.5470     0.0200   -62.2780     9.0060     9.4530    10.1550
  798.0000     9.5360    91.3260     2.5250     0.0150   -62.2230     8.9830     9.4760    10.1910
  798.5000     9.5380    92.7350     2.5030     0.0040   -62.1470     8.9920     9.4990    10.2260
  799.0000     9.5390    91.2140     2.5140     0.0020   -62.0860     9.0100     9.5220    10.2620
  799.5000     9.5410    89.8690     2.5250     0.0160   -62.2100     9.0300     9.5450    10.2970
  800.0000     9.5430    88.0250     2.5320     0.0040   -62.3310     9.0490     9.5680    10.3330
  800.5000     9.5440    86.5750     2.5030     0.0090   -62.4510     9.0680     9.5900    10.3690
  801.0000     9.5460    87.9550     2.5030     0.0020   -62.5710     9.0870     9.6130    10.4040
  801.5000     9.5480    90.5610     2.5090     0.0110   -62.6900     9.1060     9.6360    10.4400
  802.0000     9.5490    93.1340     2.5220     0.0090   -62.8100     9.1250     9.6590    10.4750
  802.5000     9.5510    95.7420     2.5350     0.0100   -62.7780     9.1440     9.6820    10.5110
  803.0000     9.5530    98.6000     2.5520     0.0210   -62.5950     9.1630     9.7050    10.5470
  803.5000     9.5540   100.2320     2.5430     0.0120   -62.4130     9.1820     9.7280    10.5820
  804.0000     9.5770    97.8930     2.5280     0.0210   -62.2300     9.2010     9.7510    10.6180
  804.5000     9.6070    95.6480     2.5240     0.0110   -62.0470     9.2200     9.8000    10.6530
  805.0000     9.6140    92.8490     2.5210     0.0060   -61.8760     9.2520     9.8590    10.6890
  805.5000     9.6290    89.4800     2.5090    -0.0010   -61.7240     9.3120     9.9180    10.7250
  806.0000     9.6440    86.2050     2.5320     0.0380   -61.5970     9.3710     9.9770    10.7600
  806.5000     9.6520    86.8390     2.5470     0.0310   -61.4730     9.4300    10.0360    10.7960
  807.0000     9.6730    89.2570     2.5080     0.0130   -61.3490     9.4890    10.0960    10.8310
  807.5000     9.6770    90.7720     2.5020     0.0060   -61.2230     9.5480    10.1550    10.8670
  808.0000     9.6810    91.4880     2.5040    -0.0020   -61.0970     9.6070    10.2140    10.9030
  808.5000     9.6850    93.1460     2.5060     0.0120   -61.2660     9.6670    10.2730    10.9380
  809.0000     9.6900    91.3390     2.5260     0.0320   -61.4650     9.7260    10.3320    10.9740
  809.5000     9.6940    91.1390     2.5420     0.0380   -61.6630     9.7850    10.4070    10.9970
  810.0000     9.6980    94.1400     2.5340     0.0240   -61.8620     9.8480    10.2970    10.8700
  810.5000     9.7020    97.2170     2.5260     0.0130   -62.0620     9.7380    10.1490    10.7970
  811.0000     9.7060    98.3420     2.5200     0.0070   -62.2670     9.5900    10.0010    10.7940
  811.5000     9.7100    93.5860     2.5200     0.0170   -62.2000     9.4420     9.8530    10.7850
  812.0000     9.7140    93.7110     2.5210     0.0200   -62.1100     9.3690     9.7050    10.7770
  812.5000     9.7180    93.3610     2.5210     0.0130   -62.0220     9.3190     9.5800    10.7680
  813.0000     9.7220    92.3380     2.5060     0.0020   -61.9340     9.3770     9.6870    10.7590
  813.5000     9.7260    88.8040     2.5000    -0.0050   -61.8460     9.4530     9.8000    10.7510
  814.0000     9.7310    85.2580     2.5120     0.0010   -61.7580     9.5300     9.9130    10.7420
  814.5000     9.7410    84.8990     2.5240     0.0070   -61.6700     9.7580    10.0310    10.7330
  815.0000     9.7720    88.2270     2.5370     0.0200   -61.5810     9.6290    10.0060    10.7250
  815.5000     9.7740    98.0190     2.5480     0.0130   -61.4890     9.5770     9.9630    10.7160
  816.0000     9.7760   107.2710     2.5500     0.0230   -61.4840     9.5250     9.9190    10.7070
  816.5000     9.7790   103.1590     2.5630     0.0260   -61.4850     9.4860     9.8760    10.6990
  817.0000     9.7820    98.7400     2.5580     0.0210   -61.4860     9.4500     9.8320    10.6900
