~VERSION INFORMATION
 VERS.                2.0:   CWLS LOG ASCII STANDARD - VERSION 2.0
 WRAP.                 NO:   ONE LINE PER DEPTH STEP
~WELL INFORMATION
#MNEM.UNIT      DATA TYPE    INFORMATION
#----------   ------------   ------------------------------
 STRT.F            0.0000:   START DEPTH
 STOP.F         5673.0000:   STOP DEPTH
 STEP.F            0.5000:   STEP LENGTH
 NULL.          -999.2500:   NO VALUE
 COMP.       FLUOR DANIEL:   COMPANY
 WELL.   FLUOR "X" #63-10:   WELL
 FLD .             NPR #3:   FIELD
 LOC .      S10 T38N R78W:   LOCATION
 CNTY.            NATRONA:   COUNTY
 STAT.            WYOMING:   STATE
 CTRY. UNITED STATES OF AMERICA:   COUNTRY
 SRVC.      WESTERN ATLAS:   SERVICE COMPANY
 DATE.        02-MAR-1996:   LOGDATE
 API .     49025227690000:   API NUMBER
~CURVE INFORMATION
#MNEM.UNIT       API CODE    CURVE DESCRIPTION
#----------   ------------   ------------------------------
 DEPT.F                  :   
 GRD .GAPI   45 310 01 00:   GAMMA RAY FROM DENSITY LOG
 TEND.LBS    45 635 01 00:   TENSION FROM DENSITY LOG
 CALD.IN     45 280 60 00:   CALIPER FROM DENSITY LOG
 ZCOR.G/C3   45 356 01 00:   DENSITY CORRECTION
 ZDEN.G/C3   45 350 01 00:   BULK DENSITY
 CNC .DEC    42 890 03 00:   COMPENSATED NEUTRON POROSITY SANDSTONE
 SPR .MV     11 010 01 00:   SPONTANEOUS POTENTIAL FROM RESISTIVITY
 RD  .OHMM   11 220 10 00:   RESISTIVITY DEEP
 RS  .OHMM   11 220 09 00:   RESISTIVITY SHALLOW
~PARAMETER INFORMATION
#MNEM.UNIT          VALUE    DESCRIPTION
#----------   ------------   ------------------------------
 EKB .F         5196.0000:   Kelly bushing
 EGL .F         5186.0000:   Ground level
 EDF .F         5195.0000:   Drilling floor
 TD  .F         5674.0000:   Total depth
 CLNT.            A2DTECH:   Client Code
 SL  . 1688' FNL & 1730' FEL:   Surface Location
 PD  .                 GL:   Permanent Datum
 EPD .F              5186:   Elevation Permanent Datum
 LMF .                 KB:   Log Measured From
 DMF .                 KB:   Drilling Measured From
 DAPD.F                10:   Feet Above Permanent Datum
 DATE.        02-MAR-1996:   Date Logged [DD-MMM-YYYY]
 DD  .F              5674:   Depth driller
 DL  .F              5674:   Depth logger
 BLI .F              5663:   Bottom log interval
 CS1 .IN            9.625:   Casing size
 CBD1.      9.625" @ 448':   Casing driller 1
 CBL1.F               448:   Casing logger 1
 BS1 .IN             8.75:   Bit size
 BSD1.F              5674:   Depth drilled with bit1
 DFT .               CHEM:   Type fluid in hole
 DFD .                9.7:   Density
 DFV .                 53:   Viscosity
 DFPH.                9.0:   pH
 DFL .                9.2:   Fluid loss
 MSS .           FLOWLINE:   Source of sample
 RMS .OHMM          0.628:   Rm
 MST .F                71:   Rm Meas. temp.
 RMF .OHMM          0.477:   Rmf
 MFST.F                71:   Rmf Meas. temp.
 MFSS.               MEAS:   Source Rmf.
 RMC .OHMM          0.779:   Rmc
 MCST.F                71:   Rmc Meas. temp.
 MCSS.               MEAS:   Source Rmc.
 RMB .OHMM          0.251:   Rm. at BHT
 BHT .F               178:   BHT.
 TCS .F               4.5:   Time Circ. stopped
 MRT .HRS             178:   Maximum recorded temp.
 LUN .            HL-6530:   Logging unit number
 LUL .             CASPER:   Logging unit location
 ENGI.      PAT RASMUSSEN:   Recorded By
 ORIG.           5" PRINT:   Origin of data
 UWI .     49025227690000:   Unique Well ID
 WITN.         LAFRENIERE:   Witnessed by
 DICO.   A2D TECHNOLOGIES:   Digitizing Company
~OTHER INFORMATION
~A  DEPTH      GRD       TEND       CALD       ZCOR       ZDEN        CNC        SPR         RD         RS
# ...
 4234.0000    90.2748    37.2564    11.5844     0.1845     2.5126     0.2548   -89.6104     6.1042     5.2903
 4234.5000    89.6865    37.1682    11.5847     0.2109     2.4773     0.2590   -89.5534     6.1466     5.2534
 4235.0000    90.3030    44.6115    11.6000     0.2334     2.4157     0.2581   -89.4980     6.1466     5.2530
 4235.5000    90.9167    44.5233    11.7207     0.2469     2.3989     0.2608   -89.4429     6.1466     5.2527
 4236.0000    90.0243    51.9490    11.8563     0.2515     2.3939     0.2665   -89.3877     6.1042     5.2523
 4236.5000    89.1320    51.8608    11.9618     0.2528     2.3992     0.2722   -89.3330     6.1893     5.2520
 4237.0000    90.3509    59.3042    11.9771     0.2378     2.4119     0.2737   -89.2760     6.3191     5.2881
 4237.5000    91.5670    59.2160    11.9775     0.2063     2.4374     0.2704   -89.3830     6.4964     5.3986
 4238.0000    91.5782    59.1455    12.0229     0.1973     2.5171     0.2620   -89.5804     6.7251     5.4357
 4238.5000    88.2763    59.0572    12.2939     0.2138     2.5276     0.2537   -89.7794     6.8662     5.4354
 4239.0000    90.3988    51.4904    12.4746     0.2363     2.4600     0.2528   -89.9811     6.5415     5.2501
 4239.5000    92.5185    51.4199    12.6855     0.2708     2.3887     0.2630   -89.9452     6.2322     4.9670
 4240.0000    91.2043    43.8531    13.1218     0.3027     2.2969     0.2915   -89.7579     6.0203     4.6992
 4240.5000    85.9173    51.2788    13.1973     0.3277     2.3059     0.3119   -89.5673     5.7356     4.6024
 4241.0000    85.3234    21.2055    13.2427     0.2917     2.3427     0.3158   -89.3768     5.6178     4.6985
 4241.5000    85.9399    -1.3537    13.2731     0.2332     2.3953     0.3152   -89.1874     5.6178     4.7309
 4242.0000    87.4600    -8.9206    13.3185     0.2182     2.4033     0.3167   -88.9968     5.6568     4.7966
 4242.5000    87.4712    -9.0088    13.3639     0.2467     2.3653     0.3290   -88.7539     5.6178     4.7631
 4243.0000    86.5789    -1.5654    13.5447     0.2812     2.3149     0.3376   -88.2993     5.5406     4.7299
 4243.5000    85.6654    -9.1498    13.6973     0.2976     2.2931     0.3509   -87.8795     5.4267     4.6969
 4244.0000    84.7942    -9.2204    13.7859     0.2899     2.2848     0.3608   -88.5288     5.3521     4.6001
 4244.5000    85.7119    -9.3086    13.8163     0.2376     2.3156     0.3690   -89.2523     5.2050     4.4743
 4245.0000    86.6268    -9.3791    13.8316     0.2211     2.3419     0.3774   -89.9590     5.0639     4.2919
 4245.5000    87.8457    -9.4497    13.8319     0.2241     2.3569     0.3837   -90.4703     4.9599     4.1457
 4246.0000    87.2546   -17.0165    13.8171     0.2395     2.3543     0.3897   -90.5494     4.9943     4.0885
 4246.5000    86.6606   -24.6009    13.8175     0.2900     2.3359     0.3900   -90.8159     5.0290     4.0882
 4247.0000    86.0723   -24.6715    13.8478     0.3020     2.3231     0.3849   -91.0758     5.1345     4.1163
 4247.5000    86.6888   -17.2281    13.8180     0.2915     2.3156     0.3858   -91.3376     5.2060     4.2023
 4248.0000    88.2061    -2.3238    13.7883     0.2825     2.3103     0.3954   -91.3105     5.2786     4.2312
 4248.5000    89.7233    -9.9083    13.7585     0.2855     2.3088     0.4008   -91.0145     5.3893     4.3197
 4249.0000    90.3370   -24.9713    13.7738     0.2975     2.3178     0.3774   -90.7149     5.4644     4.3494
 4249.5000    88.8423   -40.0344    13.7754     0.3155     2.3171     0.3618   -90.4138     5.4644     4.3793
 4250.0000    89.1576   -40.1050    13.8346     0.3230     2.3140     0.3438   -90.1136     5.4267     4.3103
 4250.5000    89.1660    42.3538    13.9551     0.2914     2.2727     0.3375   -89.8928     5.1697     4.2006
 4251.0000    89.1763    79.8351    14.0003     0.2699     2.2517     0.3354   -90.2023     5.1337     4.0857
 4251.5000    88.2811    94.8276    14.0305     0.2509     2.2426     0.3336   -90.5065     5.0980     3.9738
 4252.0000    87.0846    94.8276    13.5495     0.2404     2.3035     0.3302   -90.8091     5.0244     3.9461
 4252.5000    86.1915    72.3388    13.3692     0.2509     2.3681     0.3240   -91.0053     4.8900     3.9459
 4253.0000    85.8967    42.3538    13.2641     0.2599     2.3538     0.3222   -90.5105     4.8559     3.9730
 4253.5000    86.2084    19.8651    13.1890     0.2598     2.3215     0.3240   -90.0148     4.8556     4.0843
 4254.0000    87.4343    34.8576    13.1591     0.2613     2.3047     0.3331   -90.0034     4.9571     4.2277
 4254.5000    88.0345    19.8651    13.1442     0.2688     2.3079     0.3394   -90.2093     5.0959     4.4067
 4255.0000    86.8381    12.3688    13.1764     0.2838     2.3334     0.3289   -90.4221     5.2749     4.5615
 4255.5000    85.9429    64.8426    13.2197     0.2898     2.3635     0.3151   -90.6368     5.5754     4.5297
 4256.0000    85.6501    87.3313    13.2650     0.2793     2.3959     0.3082   -90.5686     5.9737     4.4363
 4256.5000    85.3573    19.8651    13.3102     0.2657     2.4250     0.3142   -90.4557     6.0988     4.4054
 4257.0000    85.0645    -2.6237    13.3272     0.2612     2.4310     0.3196   -90.3448     5.9318     4.3445
 4257.5000    85.0753     4.8726    13.3857     0.2765     2.4122     0.3244   -90.3582     5.6785     4.3443
 4258.0000    85.3868    34.8576    13.4009     0.2957     2.3822     0.3193   -90.8502     5.3833     4.3140
 4258.5000    85.6964    34.8576    13.3860     0.2912     2.3299     0.3184   -91.3264     5.2360     4.3137
 4259.0000    86.0060    34.8576    13.3696     0.2852     2.2905     0.3243   -91.8030     5.1281     4.2541
 4259.5000    86.3177   132.3089    13.2660     0.2822     2.2589     0.3436   -92.2802     5.0572     4.1954
 4260.0000    86.6273   124.8126    13.1308     0.2776     2.2574     0.3466   -92.7503     4.9874     4.1951
 4260.5000    87.2382    86.4915    13.0859     0.2596     2.2772     0.3484   -93.0604     4.9526     4.1948
 4261.0000    88.7547    49.8501    13.1011     0.2416     2.3385     0.3526   -93.0046     4.9523     4.1945
 4261.5000    89.6667    49.8501    13.1163     0.2384     2.3573     0.3584   -92.9556     4.9519     4.2234
 4262.0000    89.0706    49.8501    13.0863     0.2462     2.3640     0.3524   -92.9050     5.0206     4.2819
 4262.5000    88.7799    72.9609    13.0414     0.2596     2.3580     0.3452   -92.8548     5.0903     4.3412
 4263.0000    89.0917   102.3238    12.9327     0.2716     2.3160     0.3437   -92.8049     5.2328     4.4320
 4263.5000    90.3049   102.3238    12.6507     0.2925     2.2385     0.3447   -92.7556     5.3793     4.4626
 4264.0000    92.1205    72.3388    12.2749     0.3060     2.1731     0.3465   -92.7027     5.2683     4.5558
 4264.5000    95.1431    34.4532    12.0344     0.2925     2.1476     0.3357   -92.4605     5.1956     4.5871
 4265.0000    97.5612    27.3613    11.8351     0.2565     2.1423     0.3255   -91.8036     5.3781     4.6831
 4265.5000    98.4732    12.3688    11.4032     0.2130     2.1641     0.3183   -91.1486     5.6838     4.7809
 4266.0000    99.0861    -2.6237    10.8169     0.2023     2.2106     0.3063   -91.2003     6.1330     4.9175
 4266.5000    99.0945   -17.8640    10.0501     0.2219     2.2940     0.2994   -91.3637     6.4824     5.3031
 4267.0000    99.1029   -25.1124     9.6109     0.2114     2.3789     0.2823   -91.5276     6.8500     5.9647
 4267.5000    97.5902    34.8576     9.4339     0.1334     2.4676     0.2557   -91.6898     7.5463     6.7089
 4268.0000    94.9050    42.3538     9.3889     0.0779     2.5487     0.2277   -91.8522     9.6137     7.9203
 4268.5000    93.1062    34.8265     9.3740     0.0565     2.5862     0.1977   -92.0146    11.8796     9.0326
 4269.0000    92.5121    29.0451     9.3741     0.0238     2.6072     0.1794   -92.1751    14.1620    10.3011
 4269.5000    93.4263    32.2263     9.3743     0.0193     2.6307     0.1635   -92.2270    15.4940    12.2458
 4270.0000    87.7118    34.8576     9.3895     0.0178     2.6575     0.1482   -92.1253    17.4271    14.5574
