~VERSION INFORMATION
 VERS.                2.0:   CWLS LOG ASCII STANDARD - VERSION 2.0
 WRAP.                 NO:   ONE LINE PER DEPTH STEP
~WELL INFORMATION
#MNEM.UNIT      DATA TYPE    INFORMATION
#----------   ------------   ------------------------------
 STRT.F          230.0000:   START DEPTH
 STOP.F         3480.0000:   STOP DEPTH
 STEP.F            0.5000:   STEP LENGTH
 NULL.          -999.2500:   NO VALUE
 COMP.    FENIX & SCISSON:   COMPANY
 WELL. FENIX NPR 3 "AX" #33-15:   WELL
 FLD .                NPR:   FIELD
 LOC .      S15 T38N R78W:   LOCATION
 CNTY.            NATRONA:   COUNTY
 STAT.            WYOMING:   STATE
 CTRY. UNITED STATES OF AMERICA:   COUNTRY
 SRVC.       SCHLUMBERGER:   SERVICE COMPANY
 DATE.        19-MAR-1981:   LOGDATE
 API .     49025108760000:   API NUMBER
~CURVE INFORMATION
#MNEM.UNIT       API CODE    CURVE DESCRIPTION
#----------   ------------   ------------------------------
 DEPT.F                  :   
 TENR.LBS    07 635 01 00:   TENSION
 SFL .OHMM   07 220 01 00:   SHALLOW FOCUSED LOG RESISTIVITY
 ILM .OHMM   07 120 44 00:   INDUCTION LOG MEDIUM RESISTIVITY
 ILD .OHMM   07 120 46 00:   INDUCTION LOG DEEP RESISTIVITY
 SPR .MV     07 010 01 00:   SPONTANEOUS POTENTIAL
 CALD.IN     45 280 60 00:   CALIPER FROM DENSITY LOG
 GRD .GAPI   45 310 01 00:   GAMMA RAY FROM DENSITY LOG
 CORR.G/C3   45 356 01 00:   DENSITY CORRECTION
 RHOB.G/C3   45 350 01 00:   BULK DENSITY
~PARAMETER INFORMATION
#MNEM.UNIT          VALUE    DESCRIPTION
#----------   ------------   ------------------------------
 EKB .F         5286.0000:   Kelly bushing
 EGL .F         5276.0000:   Ground level
 EDF .F            0.0000:   Drilling floor
 TD  .F         3500.0000:   Total depth
 DATE.        19-MAR-1981:   Date logged
 CLNT.            A2DTECH:   Client Code
 SL  . 1545' FNL & 1467' FWL:   Surface Location
 PD  .                 GL:   Permanent Datum
 EPD .F              5276:   Elevation Permanent Datum
 LMF .                 KB:   Log Measured From
 DMF .                 KB:   Drilling Measured From
 DAPD.F                10:   Feet Above Permanent Datum
 DD  .F              3500:   Depth driller
 DL  .F              3476:   Depth logger
 BLI .F              3470:   Bottom log interval
 TLI .F               234:   Top log interval
 CS1 .IN            8.625:   Casing size
 CBD1.      8.625" @ 250':   Casing driller 1
 CBL1.F               234:   Casing logger 1
 BS1 .IN            7.875:   Bit size
 BSD1.F              3500:   Depth drilled with bit1
 DFT .                FGM:   Type fluid in hole
 DFD .                8.9:   Density
 DFV .                 39:   Viscosity
 DFPH.                9.5:   pH
 DFL .                 10:   Fluid loss
 MSS .               TANK:   Source of sample
 RMS .OHMM           2.26:   Rm
 MST .F                54:   Rm Meas. temp.
 RMF .OHMM           1.60:   Rmf
 MFST.F                54:   Rmf Meas. temp.
 MFSS.               MEAS:   Source Rmf.
 RMB .OHMM            .87:   Rm. at BHT
 BHT .F               140:   BHT.
 TCS .HRS            1030:   Time Circ. stopped
 TLAB.HRS            1300:   Time logger at bottom
 MRT .F               140:   Maximum recorded temp.
 LUN .               8039:   Logging unit number
 LUL .               CSPR:   Logging unit location
 ENGI.           C. PFARR:   Recorded By
 WITN.           R. SCOTT:   Witnessed by
 ORIG.     2.5", 5" PRINT:   Origin of data
 UWI .     49025108760000:   Unique Well ID
 DICO. A2D TECHNOLOGIES, INC.:   Digitizing Company
~OTHER INFORMATION
~A   DEPT     TENR          SFL      ILM        ILD        SPR         CALD       GRD      CORR         RHOB 
# ...
 1069.5000   922.1420    10.8500     8.4560    10.0750   -54.3530     9.2550   104.8710     0.0100     2.5350
 1070.0000   922.3750    11.0060     8.4940    10.0140   -54.6740     9.2540   103.3130     0.0160     2.5460
 1070.5000   922.6070    11.2400     8.5260     9.9640   -54.9730     9.2530   101.4120     0.0210     2.5550
 1071.0000   922.8400    11.2030     8.4610     9.9120   -55.3270     9.2530    99.8150     0.0240     2.5470
 1071.5000   923.0730    11.1290     8.4060     9.8890   -55.3480     9.2520    97.3500     0.0210     2.5380
 1072.0000   923.3060    11.0530     8.3500     9.8890   -55.2540     9.2520    95.0120     0.0190     2.5280
 1072.5000   923.5380    10.6510     8.2940     9.8900   -55.1410     9.2510    94.0270     0.0160     2.5220
 1073.0000   923.7710    10.6510     8.2170     9.8890   -55.0360     9.2510    95.0120     0.0140     2.5260
 1073.5000   924.0040    10.6510     8.2730     9.8900   -54.9290     9.2500    97.7720     0.0160     2.5350
 1074.0000   924.2370    10.6510     8.3680     9.8900   -54.8210     9.2500   100.3760     0.0180     2.5440
 1074.5000   924.4690    11.0970     8.4630     9.8900   -54.7140     9.2490   102.1570     0.0160     2.5390
 1075.0000   924.7020    11.5460     8.5580     9.8900   -54.6060     9.2490   101.0730     0.0100     2.5280
 1075.5000   924.9350    11.9040     8.6540    10.0750   -54.4990     9.2500    99.7420     0.0070     2.5180
 1076.0000   925.1680    11.8590     8.7490    10.1140   -54.3920     9.2500    99.5720     0.0220     2.5250
 1076.5000   925.4000    11.8050     8.8440    10.2110   -54.2850     9.2510   101.0950     0.0220     2.5390
 1077.0000   925.6330    11.7500     8.9390    10.3070   -54.1770     9.2510   100.8000     0.0160     2.5340
 1077.5000   925.8660    11.6850     9.0350    10.4050   -54.0710     9.2520   100.4930     0.0100     2.5250
 1078.0000   926.0990    11.7240     9.1300    10.5010   -53.9610     9.2520   100.1860     0.0070     2.5220
 1078.5000   926.3310    11.8160     9.2250    10.5980   -53.8550     9.2530    99.1830     0.0130     2.5390
 1079.0000   926.5640    11.9090     9.3200    10.6530   -53.7810     9.2530    97.7330     0.0110     2.5450
 1079.5000   926.7970    12.0010     9.3550    10.6360   -53.8930     9.2540    96.2940     0.0090     2.5410
 1080.0000   927.0300    12.0930     9.3390    10.6100   -53.9840     9.2540    96.6830     0.0100     2.5360
 1080.5000   927.2620    12.1260     9.3030    10.5840   -54.0910     9.2550    97.9020     0.0200     2.5400
 1081.0000   927.4950    12.1260     9.2680    10.5570   -54.1630     9.2550    99.0930     0.0210     2.5430
 1081.5000   927.7280    11.9040     9.2320    10.5310   -54.1540     9.2550    98.8070     0.0210     2.5370
 1082.0000   927.9610    12.1260     9.1960    10.5050   -53.9670     9.2560    97.3260     0.0130     2.5350
 1082.5000   928.1930    12.0040     9.0800    10.4800   -53.7740     9.2560    96.7560     0.0070     2.5410
 1083.0000   928.4260    11.6920     8.9230    10.4550   -53.5640     9.2570    98.0540     0.0170     2.5440
 1083.5000   928.6590    11.2350     8.7660    10.4550   -53.3910     9.2570   101.9850     0.0390     2.5500
 1084.0000   928.8920    10.7770     8.6090    10.2150   -53.4140     9.2580   107.8490     0.0630     2.5590
 1084.5000   929.1240    10.2630     8.4530    10.1130   -53.8890     9.2580   110.5030     0.0940     2.5550
 1085.0000   929.3570    10.0750     8.3500    10.0110   -54.3280     9.2590   107.5140     0.0830     2.5410
 1085.5000   929.5900    10.2130     8.3080     9.9090   -54.5870     9.2590   103.7860     0.0650     2.5230
 1086.0000   929.8230    10.6990     8.2650     9.8060   -54.5540     9.2600   100.3780     0.0510     2.5220
 1086.5000   930.0550    10.8500     8.2230     9.7040   -54.4520     9.2600    98.0100     0.0290     2.5400
 1087.0000   930.2880    10.6390     8.1800     9.6020   -54.3110     9.2610   100.2100     0.0260     2.5450
 1087.5000   930.5210    10.4020     8.1380     9.5300   -54.1650     9.2610   103.7910     0.0190     2.5410
 1088.0000   930.7540    10.1660     8.0960     9.3550   -54.0260     9.2620   107.6050     0.0120     2.5340
 1088.5000   930.9860     9.9290     8.0190     9.1830   -53.8830     9.2620   111.1500     0.0120     2.5320
 1089.0000   931.2190     9.6920     7.8650     9.0970   -53.7410     9.2630   110.6430     0.0170     2.5340
 1089.5000   931.4520     9.5300     7.7110     8.9270   -53.6000     9.2630   109.8850     0.0230     2.5360
 1090.0000   931.6850     9.5300     7.5570     8.7570   -53.4570     9.2640   110.3820     0.0290     2.5450
 1090.5000   931.9180     9.5300     7.4030     8.5870   -53.3190     9.2640   111.1870     0.0360     2.5550
 1091.0000   932.1500     9.3410     7.2490     8.4170   -53.1710     9.2640   110.5650     0.0410     2.5590
 1091.5000   932.3830     8.9810     7.0850     8.0660   -53.0330     9.2650   108.4470     0.0430     2.5440
 1092.0000   932.6160     8.6220     7.0680     8.0660   -52.9970     9.2650   105.9600     0.0290     2.5290
 1092.5000   932.8490     8.5270     7.0510     8.0660   -53.3080     9.2660   105.0730     0.0140     2.5180
 1093.0000   933.0810     8.5270     7.0330     7.9990   -53.5720     9.2660   106.2190     0.0070     2.5110
 1093.5000   933.3140     8.5270     7.0160     7.9180   -53.8350     9.2670   107.8820     0.0040     2.5040
 1094.0000   933.5470     8.5270     6.9990     7.9180   -54.1420     9.2670   109.5000     0.0030     2.4960
 1094.5000   933.7800     8.3710     6.9810     7.9180   -54.1630     9.2680   111.1200     0.0080     2.4980
 1095.0000   934.0120     8.4610     6.9640     7.8940   -54.1720     9.2680   112.7460     0.0070     2.5020
 1095.5000   934.2450     8.6230     6.9460     7.8510   -54.1650     9.2690   114.3600     0.0080     2.5040
 1096.0000   934.4780     8.7840     6.9290     7.8080   -54.1660     9.2690   114.7460     0.0060     2.5010
 1096.5000   934.7110     8.9460     6.9110     7.7650   -54.1700     9.2700   113.6010     0.0040     2.5020
 1097.0000   934.9430     9.0150     6.8940     7.7220   -54.1640     9.2700   113.6780     0.0070     2.5130
 1097.5000   935.1760     8.9380     6.8760     7.6790   -54.1510     9.2710   116.0060     0.0140     2.5250
 1098.0000   935.4090     8.7360     6.8590     7.6360   -53.8810     9.2710   118.4860     0.0170     2.5350
 1098.5000   935.6420     8.5340     6.8410     7.5930   -53.6010     9.2720   120.6870     0.0040     2.5300
 1099.0000   935.8740     8.3710     6.8270     7.5490   -53.3140     9.2720   118.2090     0.0070     2.5200
 1099.5000   936.1070     8.3710     6.8170     7.5060   -53.0350     9.2720   115.6810     0.0040     2.5080
 1100.0000   936.3400     8.3710     6.8050     7.4630   -52.7320     9.2730   113.8080     0.0020     2.4960
 1100.5000   936.5730     8.3710     6.7930     7.4200   -52.5630     9.2730   113.7310     0.0030     2.4900
 1101.0000   936.8050     8.3710     6.7810     7.3770   -52.5850     9.2740   113.8550     0.0050     2.4920
 1101.5000   937.0380     8.3710     6.7690     7.3520   -52.5870     9.2740   113.9700     0.0060     2.5020
 1102.0000   937.2710     8.3710     6.7570     7.2170   -52.7100     9.2750   113.8160     0.0110     2.5140
 1102.5000   937.5040     8.3710     6.7440     7.2170   -52.8340     9.2750   112.7610     0.0120     2.5250
 1103.0000   937.7360     8.3710     6.7320     7.2170   -52.9600     9.2760   112.5110     0.0050     2.5260
 1103.5000   937.9690     8.3710     6.7210     7.2170   -53.0860     9.2760   113.1360     0.0070     2.5220
 1104.0000   938.2020     8.3040     6.7020     7.2170   -53.2110     9.2770   114.9540     0.0110     2.5180
 1104.5000   938.4350     8.0660     6.7560     7.4900   -53.3340     9.2770   116.7880     0.0080     2.5220
 1105.0000   938.6670     8.0660     6.8740     7.7730   -53.4700     9.2780   116.4320     0.0040     2.5260
 1105.5000   938.9000     8.5620     6.9910     7.7730   -53.5770     9.2780   114.7690     0.0070     2.5300
