~VERSION INFORMATION
 VERS.                2.0:   CWLS LOG ASCII STANDARD - VERSION 2.0
 WRAP.                 NO:   ONE LINE PER DEPTH STEP
~WELL INFORMATION
#MNEM.UNIT      DATA TYPE    INFORMATION
#----------   ------------   ------------------------------
 STRT.F          195.5000:   START DEPTH
 STOP.F         3197.0000:   STOP DEPTH
 STEP.F            0.5000:   STEP LENGTH
 NULL.          -999.2500:   NO VALUE
 COMP.    FENIX & SCISSON:   COMPANY
 WELL.  FENIX "AX" #17-11:   WELL
 FLD .              NPR-3:   FIELD
 LOC .      S11 T38N R78W:   LOCATION
 CNTY.            NATRONA:   COUNTY
 STAT.            WYOMING:   STATE
 CTRY. UNITED STATES OF AMERICA:   COUNTRY
 SRVC.              WELEX:   SERVICE COMPANY
 DATE.        16-SEP-1977:   LOGDATE
 API .     49025104170000:   API NUMBER
~CURVE INFORMATION
#MNEM.UNIT       API CODE    CURVE DESCRIPTION
#----------   ------------   ------------------------------
 DEPT.F                  :   
 GRD .GAPI   45 310 01 00:   GAMMA RAY FROM DENSITY LOG
 CALD.IN     45 280 60 00:   CALIPER FROM DENSITY LOG
 CORR.G/C3   45 356 01 00:   DENSITY CORRECTION
 TEND.LBS    45 635 01 00:   TENSION FORM DENSITY LOG
 RHOB.G/C3   45 350 01 00:   BULK DENSITY
 SPR .MV     07 010 01 00:   SPONTANEOUS POTENTIAL
 TENR.LBS    07 635 01 00:   TENSION FROM RESISTIVITY
 ILD .OHMM   07 120 46 00:   DEEP INDUCTION RESISTIVITY
 ILM .OHMM   07 120 44 00:   INDUCTION LOG MEDIUM RESISTIVITY
 SGRD.OHMM   07 220 05 00:   SHALLOW SHORT GUARD RESISTIVITY
~PARAMETER INFORMATION
#MNEM.UNIT          VALUE    DESCRIPTION
#----------   ------------   ------------------------------
 EKB .F         5212.0000:   Kelly bushing
 EGL .F         5202.0000:   Ground level
 TD  .F         3195.0000:   Total depth
 CLNT.            A2DTECH:   Client Code
 SL  . 1090' FSL & 330' FWL:   Surface Location
 PD  .                 GL:   Permanent Datum
 EPD .F              5202:   Elevation Permanent Datum
 LMF .                 KB:   Log Measured From
 DMF .                 KB:   Drilling Measured From
 DAPD.F                10:   Feet Above Permanent Datum
 DATE.        16-SEP-1977:   Date Logged [DD-MMM-YYYY]
 DD  .F              3195:   Depth driller
 DL  .F              3195:   Depth logger
 BLI .F              3193:   Bottom log interval
 TLI .F               217:   Top log interval
 CS1 .IN            8.625:   Casing size
 CBD1.      8.625" @ 216':   Casing driller 1
 CBL1.F               217:   Casing logger 1
 BS1 .IN            7.875:   Bit size
 BSD1.F              3195:   Depth drilled with bit1
 DFT .            KCL MUD:   Type fluid in hole
 DFD .                9.2:   Density
 DFV .                 36:   Viscosity
 DFPH.                 11:   pH
 DFL .                8.8:   Fluid loss
 MSS .           FLOWLINE:   Source of sample
 RMS .OHMM           2.76:   Rm
 MST .F                99:   Rm Meas. temp.
 RMF .OHMM           1.54:   Rmf
 MFST.F                99:   Rmf Meas. temp.
 MFSS.               MEAS:   Source Rmf.
 RMC .OHMM           3.01:   Rmc
 MCST.F                99:   Rmc Meas. temp.
 MCSS.               MEAS:   Source Rmc.
 RMB .OHMM           2.40:   Rm. at BHT
 BHT .F               112:   BHT.
 TCS .HRS               6:   Time Circ. stopped
 MRT .F               112:   Maximum recorded temp.
 LUN .               8611:   Logging unit number
 LUL .             CASPER:   Logging unit location
 ENGI.          D. LAWSON:   Recorded By
 WITN.         HARRINGTON:   Witnessed by
 ORIG.           5" PRINT:   Origin of data
 UWI .     49025104170000:   Unique Well ID
 DICO. A2D TECHNOLOGIES, INC.:   Digitizing Company
~OTHER INFORMATION
~A   DEPT       GRD      CALD       CORR       TEND       RHOB        SPR       TENR        ILD        ILM       SGRD   
# ...
 2004.5000   126.2351     8.8438    -0.0088  1771.2686     2.5002   -71.7758  1627.7161     8.8567     9.7671    12.9623
 2005.0000   123.1967     8.8582    -0.0093  1761.7737     2.4942   -71.6361  1628.8893     8.8549     9.7658    12.4329
 2005.5000   121.9726     8.8838    -0.0104  1745.6028     2.4844   -71.3478  1615.0922     8.7309     9.6298    13.0518
 2006.0000   121.8181     8.8869    -0.0135  1725.1708     2.4777   -71.3596  1601.0021     8.6083     9.6285    13.4109
 2006.5000   122.5367     8.8860    -0.0150  1695.5179     2.4724   -71.3714  1572.5286     8.6066    10.0369    12.6865
 2007.0000   123.7258     8.9005    -0.0154  1695.8085     2.4701   -71.6862  1573.7015     8.7256    10.6089    12.2534
 2007.5000   123.4067     8.8996    -0.0166  1696.1641     2.4678   -72.0010  1574.8748     8.9071    10.9063    11.7534
 2008.0000   123.0876     8.8989    -0.0161  1711.4213     2.4693   -72.6189  1576.0480     9.0299    10.9049    12.6801
 2008.5000   121.8635     8.8982    -0.0153  1726.6467     2.4746   -72.7822  1562.2509     9.0914    10.8984    14.0636
 2009.0000   120.9411     8.8974    -0.0153  1726.9657     2.4813   -72.6424  1548.4542     9.0891    10.6031    14.2576
 2009.5000   120.6214     8.8965    -0.0138  1742.2230     2.4873   -72.6545  1549.9207     9.1507    10.2395    14.4531
 2010.0000   120.9061     8.8958    -0.0109  1742.5150     2.4926   -72.3631  1551.0936     9.0854    10.0969    15.6051
 2010.5000   122.0953     8.8951    -0.0095  1742.8691     2.4963   -72.2233  1552.2668     8.7127    10.1662    15.9263
 2011.0000   123.0649     8.8944    -0.0081  1743.1564     2.5002   -72.0836  1538.1769     8.4133    10.3785    15.6984
 2011.5000   123.5643     8.8936    -0.0046  1743.4436     2.5045   -72.0984  1539.6433     8.2381    10.4498    15.2633
 2012.0000   122.9436     8.8929    -0.0037  1743.7308     2.5060   -72.1102  1525.5530     8.1798    10.5946    14.8402
 2012.5000   120.8145     8.8922    -0.0022  1744.0120     2.5060   -72.1220  1527.0194     8.2921    10.5928    14.5289
 2013.0000   119.5897     8.8913     0.0007  1729.3351     2.5060   -72.1338  1528.1927     8.4650    10.5913    15.1367
 2013.5000   121.6802     8.8755     0.0006  1738.0878     2.5075   -72.1455  1529.3657     8.5821    10.5899    15.5536
 2014.0000   125.2826     8.8596     0.0006  1744.9514     2.5082   -72.1576  1500.5989     8.7004    10.5884    15.8718
 2014.5000   125.5712     8.8626     0.0005  1745.2386     2.5098   -72.3236  1501.7964     8.8199    10.5867    16.0851
 2015.0000   125.5494     8.8718     0.0019  1730.4839     2.5119   -72.4869  1500.5013     8.9414    10.5852    16.0756
 2015.5000   124.3253     8.8715     0.0047  1745.8130     2.5142   -72.4987  1489.2217     8.9396    10.6579    16.0680
 2016.0000   121.8785     8.8712     0.0078  1746.1078     2.5164   -72.5105  1490.6147     8.9373    10.7308    15.8400
 2016.5000   118.5545     8.8709     0.0108  1746.4591     2.5224   -72.5223  1491.7877     8.8737    10.8794    15.8325
 2017.0000   115.0286     8.8706     0.0122  1746.7065     2.5284   -72.5341  1492.9611     8.8105    11.0301    15.7161
 2017.5000   111.5432     8.8703     0.0136  1747.0060     2.5322   -72.8489  1494.1343     8.6871    11.0282    15.7087
 2018.0000   108.3790     8.8700     0.0121  1747.3207     2.5162   -72.8607  1495.3073     8.6253    10.8746    15.7012
 2018.5000   110.7865     8.8546     0.0075  1747.6079     2.5043   -72.8727  1511.4506     8.5045    10.3522    15.6938
 2019.0000   115.3056     8.8543     0.0030  1747.9043     2.5021   -72.8873  1512.6239     8.4440     9.9838    15.9047
 2019.5000   120.7296     8.8389    -0.0001  1763.2241     2.4990   -72.8970  1513.7969     8.3258     9.7265    16.0074
 2020.0000   118.9138     8.8386     0.0025  1778.4813     2.4983   -72.9091  1514.9701     8.5586     9.5246    16.3330
 2020.5000   116.4947     8.8232     0.0025  1793.7626     2.5050   -72.9227  1516.1676     8.4329     9.4574    16.3253
 2021.0000   121.2067     8.7927     0.0025  1798.0365     2.5103   -72.9344  1534.8403     8.1487     9.6553    16.0937
 2021.5000   128.2464     8.7829     0.0040  1809.3071     2.5148   -72.9463  1548.7229     7.9790     9.8576    15.7561
 2022.0000   124.6206     8.7771     0.0069  1809.5808     2.5177   -72.9580  1579.8363     7.8673    10.0634    15.2138
 2022.5000   120.6932     8.7919     0.0084  1809.8802     2.5200   -72.9698  1581.0095     7.7572    10.1322    15.3121
 2023.0000   117.0675     8.7916     0.0114  1825.1497     2.5216   -72.9818  1582.1825     7.8101    10.1308    15.7338
 2023.5000   116.0598     8.7913     0.0128  1825.4491     2.5222   -72.9939  1553.1224     7.9174    10.1294    16.0560
 2024.0000   122.5333     8.7909     0.0128  1825.7609     2.5214   -73.0082  1554.5889     8.0265    10.1280    16.0481
 2024.5000   120.9702     8.7906     0.0128  1811.0779     2.5199   -73.3230  1540.4985     8.1371    10.1264    15.7038
 2025.0000   119.1558     8.7903     0.0097  1811.3773     2.5214   -73.3348  1526.9462     8.3068    10.1250    15.8130
 2025.5000   127.5950     8.8051     0.0081  1809.1550     2.5221   -73.1921  1528.1683     8.5390    10.1236    15.9151
 2026.0000   128.4956     8.8048     0.0037  1794.4763     2.5094   -73.2061  1544.3113     8.7778    10.1222    16.0179
 2026.5000   125.1701     8.7894     0.0007  1782.3353     2.5011   -73.2182  1545.5090     8.7149    10.1209    15.8982
 2027.0000   123.0527     8.7891    -0.0009  1767.6647     2.4988   -73.3820  1549.1991     8.5334    10.1195    15.5647
 2027.5000   121.2169     8.7737    -0.0024  1768.2229     2.4980   -73.3939  1563.0944     8.5317     9.9785    15.4502
 2028.0000   119.4197     8.7734    -0.0024  1784.1678     2.4963   -73.2864  1564.2673     8.6497     9.8395    15.4429
 2028.5000   118.5089     8.7732    -0.0010  1798.5492     2.4912   -73.1173  1595.3807     8.7685     9.8382    15.5429
 2029.0000   122.4246     8.7728     0.0005  1798.8024     2.4888   -73.1273  1581.2904     8.8893     9.9146    15.8607
 2029.5000   123.6269     8.7843     0.0020  1799.1235     2.4860   -73.1394  1582.7570     9.0119    10.1126    15.9631
 2030.0000   120.9047     8.7712     0.0012  1814.4048     2.4859   -73.1527  1568.9601     9.1361    10.2527    15.8455
 2030.5000   118.7873     8.7569     0.0003  1814.6708     2.4867   -73.1636  1570.1333     9.1341    10.2510    15.5115
 2031.0000   118.4798     8.7521    -0.0028  1825.2571     2.4897   -73.1763  1571.3063     9.1319    10.1082    15.7199
 2031.5000   120.5841     8.7412    -0.0041  1830.2395     2.4912   -73.1881  1572.4796     9.1300     9.9674    16.3775
 2032.0000   121.1816     8.7107    -0.0057  1815.6254     2.4881   -73.2000  1573.6528     9.1282     9.6929    16.8305
 2032.5000   121.7806     8.7104    -0.0057  1815.8683     2.4836   -73.2121  1574.8503     9.0004     9.5579    16.2494
 2033.0000   122.6783     8.7100    -0.0072  1816.1677     2.4791   -73.2264  1573.5553     8.6313     9.4248    15.4749
 2033.5000   125.6890     8.7263    -0.0073  1816.4672     2.4746   -73.2382  1562.2023     8.3930     9.4235    15.3611
 2034.0000   129.6048     8.7397    -0.0073  1816.7665     2.4708   -73.2500  1548.4052     8.0488     9.4309    16.0037
 2034.5000   135.4744     8.7393    -0.0058  1817.1093     2.4678   -73.4133  1549.8717     7.9362     9.5528    15.9953
 2035.0000   141.3564     8.7541    -0.0043  1802.3545     2.4745   -73.5766  1551.0449     7.8251     9.6851    14.4553
 2035.5000   145.8755     8.7538     0.0002  1802.7135     2.4933   -73.5884  1552.2179     7.7639     9.9562    12.0372
 2036.0000   149.7912     8.7535     0.0046  1803.0007     2.5046   -73.6002  1553.3912     7.7136    10.2354    12.9816
 2036.5000   143.7522     8.7230     0.0076  1803.2935     2.5128   -73.6121  1554.5645     7.6586    10.6695    14.6938
 2037.0000   135.2999     8.7077     0.0090  1803.6469     2.5188   -73.6242  1555.7374     7.6041    10.9690    15.7376
 2037.5000   129.2609     8.7074     0.0090  1798.4855     2.5218   -73.6386  1556.9106     7.6559    11.2762    15.6218
