~VERSION INFORMATION
 VERS.                2.0:   CWLS LOG ASCII STANDARD - VERSION 2.0
 WRAP.                 NO:   ONE LINE PER DEPTH STEP
~WELL INFORMATION
#MNEM.UNIT      DATA TYPE    INFORMATION
#----------   ------------   ------------------------------
 STRT.F           61.5000:   START DEPTH
 STOP.F         4220.0000:   STOP DEPTH
 STEP.F            0.5000:   STEP LENGTH
 NULL.          -999.2500:   NO VALUE
 COMP.   LAWRENCE ALLISON:   COMPANY
 WELL. ALLISON NPR 3 "LX" #28-34:   WELL
 FLD .                NPR:   FIELD
 LOC .      S34 T39N R78W:   LOCATION
 CNTY.            NATRONA:   COUNTY
 STAT.            WYOMING:   STATE
 CTRY. UNITED STATES OF AMERICA:   COUNTRY
 SRVC.       DRESER ATLAS:   SERVICE COMPANY
 DATE.        23-MAR-1983:   LOGDATE
 API .     49025109190000:   API NUMBER
~CURVE INFORMATION
#MNEM.UNIT       API CODE    CURVE DESCRIPTION
#----------   ------------   ------------------------------
 DEPT.F                  :   
 TEND.LBS    45 635 01 00:   TENSION FROM DENSITY LOG
 CORR.G/C3   45 356 01 00:   DENSITY CORRECTION
 RHOB.G/C3   45 350 01 00:   BULK DENSITY
 CN  .DEC    42 890 00 00:   Neutron Porosity
 SPR .MV     07 010 01 00:   SPONTANEOUS POTENTIAL
 GRR .GAPI   07 310 01 00:   GAMMA RAY FROM RESISTIVITY
 TENR.LBS    07 635 01 00:   TENSION FROM RESISTIVITY
 RILD.OHMM   07 120 46 00:   DEEP INDUCTION RESISTIVITY
 RILM.OHMM   07 120 44 00:   INDUCTION LOG MEDIUM RESISTIVITY
 RFOC.OHMM   07 220 01 00:   RESISTIVITY FOCUSED LOG RES.
 TENS.LBS    60 635 01 00:   TENSION FROM SONIC LOG
 DT  .US/F   60 520 00 00:   DELTA TIME
 CALS.IN     60 280 50 00:   CALIPER FROM SONIC LOG
~PARAMETER INFORMATION
#MNEM.UNIT          VALUE    DESCRIPTION
#----------   ------------   ------------------------------
 EKB .F         5184.0000:   Kelly bushing
 EGL .F         5174.0000:   Ground level
 EDF .F            0.0000:   Drilling floor
 TD  .F         4397.0000:   Total depth
 DATE.        23-MAR-1983:   Date logged
 CLNT.            A2DTECH:   Client Code
 SL  . 942' FWL & 645' FSL:   Surface Location
 PD  .                 GL:   Permanent Datum
 EPD .F              5174:   Elevation Permanent Datum
 LMF .                 KB:   Log Measured From
 DMF .                 KB:   Drilling Measured From
 DAPD.F                10:   Feet Above Permanent Datum
 DD  .F              4397:   Depth driller
 DL  .F              4203:   Depth logger
 BLI .F              4201:   Bottom log interval
 CS1 .IN            9.625:   Casing size
 CBD1.      9.625" @ 659':   Casing driller 1
 CBL1.F               658:   Casing logger 1
 BS1 .IN             8.75:   Bit size
 BSD1.F              4397:   Depth drilled with bit1
 DFT .   GEL/DRISPACK/KCL:   Type fluid in hole
 DFD .                8.6:   Density
 DFV .                 36:   Viscosity
 DFPH.                8.5:   pH
 DFL .                 18:   Fluid loss
 MSS .               TANK:   Source of sample
 RMS .OHMM           0.55:   Rm
 MST .F                74:   Rm Meas. temp.
 RMF .OHMM           0.43:   Rmf
 MFST.F                66:   Rmf Meas. temp.
 RMC .OHMM           0.69:   Rmc
 MCST.F                74:   Rmc Meas. temp.
 MFSS.               MEAS:   Source Rmf.
 MCSS.               CALC:   Source Rmc.
 RMB .OHMM           0.33:   Rm. at BHT
 BHT .F               122:   BHT.
 TCS .HRS             5.5:   Time Circ. stopped
 MRT .F               122:   Maximum recorded temp.
 LUN .               6270:   Logging unit number
 LUL .              WLSTN:   Logging unit location
 ENGI.             REEVES:   Recorded By
 WITN.             STRONG:   Witnessed by
 ORIG.           5" PRINT:   Origin of data
 UWI .     49025109190000:   Unique Well ID
 DICO. A2D TECHNOLOGIES, INC.:   Digitizing Company
~OTHER INFORMATION
~A   DEPT     TEND       CORR       RHOB         CN        SPR         GRR      TENR       RILD       RILM       RFOC       TENS         DT       CALS   
# ...
 1361.5000  -999.2500  -999.2500  -999.2500  -999.2500   -29.0470    94.8580  -110.4140     7.1620     7.3080     7.5190  -132.7070    89.1380    15.2640
 1362.0000  -999.2500  -999.2500  -999.2500  -999.2500   -29.0340    95.0630  -110.7550     7.1140     7.2470     7.5190  -133.0670    89.4980    15.2230
 1362.5000  -999.2500  -999.2500  -999.2500  -999.2500   -29.0190    98.6230  -111.0960     7.1140     7.2360     7.5190  -133.4270    88.8200    15.2190
 1363.0000  -999.2500  -999.2500  -999.2500  -999.2500   -29.0120   102.7260  -111.4370     7.1140     7.2240     7.5190  -133.7870    88.2930    15.2140
 1363.5000  -999.2500  -999.2500  -999.2500  -999.2500   -28.9370   100.6390  -111.7780     7.1140     7.2120     7.5190  -134.1470    88.2930    15.2120
 1364.0000  -999.2500  -999.2500  -999.2500  -999.2500   -28.7980    97.9010  -112.1190     7.1140     7.2010     7.5190  -134.5380    88.7100    15.2090
 1364.5000  -999.2500  -999.2500  -999.2500  -999.2500   -28.6630    95.6630  -112.4600     7.1140     7.1890     7.5190  -133.7450    89.2980    15.2050
 1365.0000  -999.2500  -999.2500  -999.2500  -999.2500   -28.5310    97.4950  -112.8010     7.1140     7.1770     7.5190  -132.8760    89.6720    15.2020
 1365.5000  -999.2500  -999.2500  -999.2500  -999.2500   -28.3990   100.5270  -113.1420     7.1140     7.1650     7.5190  -132.0070    89.5880    15.1990
 1366.0000  -999.2500  -999.2500  -999.2500  -999.2500   -28.2520   104.1410  -113.4830     7.1150     7.1530     7.5190  -131.1380    89.4980    15.1960
 1366.5000  -999.2500  -999.2500  -999.2500  -999.2500   -28.2590   107.9580  -113.8230     7.1160     7.1410     7.5190  -130.2690    89.0300    15.1930
 1367.0000  -999.2500  -999.2500  -999.2500  -999.2500   -28.4070   109.5630  -114.1640     7.1400     7.1290     7.4780  -129.4000    88.7290    15.1890
 1367.5000  -999.2500  -999.2500  -999.2500  -999.2500   -28.5390   107.2210  -114.5050     7.1610     7.1180     7.4200  -128.5310    88.8290    15.1870
 1368.0000  -999.2500  -999.2500  -999.2500  -999.2500   -28.6710   105.3480  -114.8470     7.1840     7.1090     7.3620  -127.6620    88.9300    15.1820
 1368.5000  -999.2500  -999.2500  -999.2500  -999.2500   -28.8060   103.4610  -115.1890     7.2070     7.0910     7.3040  -126.7930    89.0310    15.1770
 1369.0000  -999.2500  -999.2500  -999.2500  -999.2500   -28.9440   103.8910  -115.5310     7.2250     7.0740     7.2430  -125.9240    89.0670    15.1410
 1369.5000  -999.2500  -999.2500  -999.2500  -999.2500   -29.0090   104.4530  -115.8730     7.2470     7.0570     7.2510  -125.0550    88.9830    15.1090
 1370.0000  -999.2500  -999.2500  -999.2500  -999.2500   -29.0120   105.1170  -116.2150     7.1340     7.0400     7.0570  -125.6280    88.8960    15.0970
 1370.5000  -999.2500  -999.2500  -999.2500  -999.2500   -29.0220   103.8920  -116.5580     7.0360     7.0230     6.9860  -128.7780    89.5010    15.0940
 1371.0000  -999.2500  -999.2500  -999.2500  -999.2500   -29.0310   102.5690  -116.9000     6.9380     7.0050     6.9160  -131.9280    89.9730    15.0910
 1371.5000  -999.2500  -999.2500  -999.2500  -999.2500   -29.0380   102.0400  -117.2420     6.8560     6.9840     6.8560  -135.0780    90.1750    15.0880
 1372.0000  -999.2500  -999.2500  -999.2500  -999.2500   -29.0470   103.1940  -117.5840     6.9280     7.0090     7.0480  -138.2280    90.2470    15.0850
 1372.5000  -999.2500  -999.2500  -999.2500  -999.2500   -29.0550   104.2020  -117.9260     6.9890     7.0740     7.2470  -141.3780    90.1030    15.0810
 1373.0000  -999.2500  -999.2500  -999.2500  -999.2500   -29.0640   105.1640  -118.2690     7.0510     7.1140     7.1840  -144.5780    89.9590    15.0780
 1373.5000  -999.2500  -999.2500  -999.2500  -999.2500   -29.0720   105.8000  -118.6110     7.1120     7.0080     7.0210  -144.7690    89.9730    15.0750
 1374.0000  -999.2500  -999.2500  -999.2500  -999.2500   -29.0810   103.2030  -118.9530     7.1730     6.9000     6.8560  -144.9630    90.1000    15.0720
 1374.5000  -999.2500  -999.2500  -999.2500  -999.2500   -29.0890   101.1290  -119.2950     7.2340     6.7310     6.8560  -145.1570    91.2670    15.0680
 1375.0000  -999.2500  -999.2500  -999.2500  -999.2500   -29.0970    98.9400  -119.6370     7.2470     6.7600     6.9780  -145.3510    91.7740    15.0650
 1375.5000  -999.2500  -999.2500  -999.2500  -999.2500   -29.1060    98.7140  -119.9790     7.2610     6.8320     7.0790  -145.5440    91.5540    15.0620
 1376.0000  -999.2500  -999.2500  -999.2500  -999.2500   -29.1140    99.9710  -120.3220     7.2740     6.9040     7.1810  -145.7380    90.9660    15.0530
 1376.5000  -999.2500  -999.2500  -999.2500  -999.2500   -29.1230   103.5510  -120.6640     7.2880     6.9750     7.2820  -145.9320    90.3780    15.0330
 1377.0000  -999.2500  -999.2500  -999.2500  -999.2500   -29.1310   105.5130  -121.0060     7.3020     7.0470     7.3820  -146.1260    89.7900    15.0140
 1377.5000  -999.2500  -999.2500  -999.2500  -999.2500   -29.1400   105.8560  -121.3480     7.3150     7.1190     7.4210  -146.3200    89.0960    14.9950
 1378.0000  -999.2500  -999.2500  -999.2500  -999.2500   -29.1480   103.6890  -121.6900     7.3290     7.1910     7.4840  -146.5140    88.8900    14.9760
 1378.5000  -999.2500  -999.2500  -999.2500  -999.2500   -29.1570   100.6840  -122.0330     7.3430     7.2470     7.5480  -146.7080    88.6380    14.9570
 1379.0000  -999.2500  -999.2500  -999.2500  -999.2500   -29.1650    99.6820  -122.3750     7.3560     7.2660     7.6110  -146.9010    88.7110    14.9370
 1379.5000  -999.2500  -999.2500  -999.2500  -999.2500   -29.1730   105.6000  -122.7170     7.3700     7.2890     7.6590  -147.0950    89.0770    14.9180
 1380.0000  -999.2500  -999.2500  -999.2500  -999.2500   -29.1820   104.8150  -123.0590     7.3840     7.3110     7.6590  -147.2890    88.9930    14.9000
 1380.5000  -999.2500  -999.2500  -999.2500  -999.2500   -29.1900   103.7730  -123.4010     7.3970     7.3340     7.6590  -147.4830    88.8960    14.8910
 1381.0000  -999.2500  -999.2500  -999.2500  -999.2500   -29.1990   102.3420  -123.7430     7.4110     7.3570     7.6590  -147.6770    88.8960    14.8830
 1381.5000  -999.2500  -999.2500  -999.2500  -999.2500   -29.2070   100.9760  -124.0860     7.4250     7.3800     7.6590  -147.8710    88.8480    14.8750
 1382.0000  -999.2500  -999.2500  -999.2500  -999.2500   -29.2160   101.3230  -124.4280     7.4380     7.4020     7.6590  -148.0650    88.6590    14.8660
 1382.5000  -999.2500  -999.2500  -999.2500  -999.2500   -29.2240   103.7050  -124.7700     7.4520     7.4250     7.6590  -148.2580    88.4700    14.8610
 1383.0000  -999.2500  -999.2500  -999.2500  -999.2500   -29.2320   106.2150  -125.1120     7.4660     7.4480     7.6590  -148.4520    88.2930    14.8630
 1383.5000  -999.2500  -999.2500  -999.2500  -999.2500   -29.2410   105.2010  -125.4540     7.4790     7.4710     7.5290  -148.6460    88.2930    14.8650
 1384.0000  -999.2500  -999.2500  -999.2500  -999.2500   -29.2490   102.2050  -125.7960     7.4930     7.4940     7.3340  -148.8400    88.2570    14.8680
 1384.5000  -999.2500  -999.2500  -999.2500  -999.2500   -29.2580    99.3240  -126.1390     7.5070     7.5190     7.1140  -149.0340    88.2150    14.8700
 1385.0000  -999.2500  -999.2500  -999.2500  -999.2500   -29.2660    97.7980  -126.4810     7.5200     7.5590     7.3430  -149.2280    88.1730    14.8730
 1385.5000  -999.2500  -999.2500  -999.2500  -999.2500   -29.2750    98.9300  -126.8230     7.5400     7.6420     7.6050  -149.4220    88.1310    14.8750
 1386.0000  -999.2500  -999.2500  -999.2500  -999.2500   -29.2830   100.3960  -127.1650     7.5580     7.7240     7.9470  -149.6150    88.0920    14.8780
 1386.5000  -999.2500  -999.2500  -999.2500  -999.2500   -29.2920   101.7600  -127.5070     7.5760     7.8070     7.9350  -149.8090    87.5440    14.8800
 1387.0000  -999.2500  -999.2500  -999.2500  -999.2500   -29.3000   100.8240  -127.8500     7.5950     7.8900     7.9170  -150.0030    87.0400    14.8830
