~VERSION INFORMATION
 VERS.                2.0:   CWLS LOG ASCII STANDARD - VERSION 2.0
 WRAP.                 NO:   ONE LINE PER DEPTH STEP
~WELL INFORMATION
#MNEM.UNIT      DATA TYPE    INFORMATION
#----------   ------------   ------------------------------
 STRT.F          407.0000:   START DEPTH
 STOP.F         3228.0000:   STOP DEPTH
 STEP.F            0.5000:   STEP LENGTH
 NULL.          -999.2500:   NO VALUE
 COMP.    FENIX & SCISSON:   COMPANY
 WELL.   FENIX "A" #21-34:   WELL
 FLD .             N.P.R.:   FIELD
 LOC .      S34 T39N R78W:   LOCATION
 CNTY.            NATRONA:   COUNTY
 STAT.            WYOMING:   STATE
 CTRY. UNITED STATES OF AMERICA:   COUNTRY
 SRVC.       SCHLUMBERGER:   SERVICE COMPANY
 DATE.        05-MAY-1977:   LOGDATE
 API .     49025103710000:   API NUMBER
~CURVE INFORMATION
#MNEM.UNIT       API CODE    CURVE DESCRIPTION
#----------   ------------   ------------------------------
 DEPT.F                  :   
 SPR .MV     11 010 01 00:   SPONTANEOUS POTENTIAL FROM RES.
 LLS .OHMM   11 220 09 00:   LATEROLOG LOG SHALLOW
 LLD .OHMM   11 220 10 00:   LATEROLOG DEEP
 MSFL.OHMM   11 270 04 00:   MICRO SPHERICALLY FOCUSED
 CALD.IN     45 280 60 00:   CALIPER FROM DENSITY LOG
 NPHI.DEC    42 890 03 00:   NEUTRON POROSITY SANDSTONE
 GRD .GAPI   45 310 01 00:   GAMMA RAY FROM DENSITY LOG
 CORR.G/C3   45 356 01 00:   DENSITY CORRECTION
 RHOB.G/C3   45 350 01 00:   BULK DENSITY
~PARAMETER INFORMATION
#MNEM.UNIT          VALUE    DESCRIPTION
#----------   ------------   ------------------------------
 EKB .F         5086.0000:   Kelly bushing
 EGL .F         5074.0000:   Ground level
 TD  .F         3226.0000:   Total depth
 CLNT.            A2DTECH:   Client Code
 SL  . 990' FWL & 330' FNL:   Surface Location
 PD  .                 GL:   Permanent Datum
 EPD .F              5074:   Elevation Permanent Datum
 LMF .                 KB:   Log Measured From
 DMF .                 KB:   Drilling Measured From
 DAPD.F                12:   Feet Above Permanent Datum
 DATE.        05-MAY-1977:   Date Logged [DD-MMM-YYYY]
 DD  .F              3226:   Depth driller
 DL  .F              3229:   Depth logger
 BLI .F              3227:   Bottom log interval
 TLI .F               430:   Top log interval
 CS1 .IN            8.625:   Casing size
 CBD1.      8.625" @ 424':   Casing driller 1
 CBL1.F               430:   Casing logger 1
 BS1 .IN            7.875:   Bit size
 BSD1.F              3226:   Depth drilled with bit1
 DFT .                KCL:   Type fluid in hole
 DFD .                9.4:   Density
 DFV .                 31:   Viscosity
 DFPH.                  8:   pH
 DFL .                9.6:   Fluid loss
 MSS .           MUD TANK:   Source of sample
 RMS .OHMM          0.202:   Rm
 MST .F                78:   Rm Meas. temp.
 RMF .OHMM          0.191:   Rmf
 MFST.F                76:   Rmf Meas. temp.
 MFSS.               MEAS:   Source Rmf.
 RMC .OHMM           0.30:   Rmc
 MCST.F                78:   Rmc Meas. temp.
 MCSS.               CALC:   Source Rmc.
 RMB .OHMM          0.123:   Rm. at BHT
 BHT .F               128:   BHT.
 TCS .HRS            1400:   Time Circ. stopped
 TLAB.HRS            0300:   Time logger at bottom
 MRT .F               128:   Maximum recorded temp.
 LUN .               5642:   Logging unit number
 LUL .               CSPR:   Logging unit location
 ENGI.                FIX:   Recorded By
 WITN.         HARRINGTON:   Witnessed by
 ORIG.           5" PRINT:   Origin of data
 UWI .     49025103710000:   Unique Well ID
 DICO. A2D TECHNOLOGIES, INC.:   Digitizing Company
~OTHER INFORMATION
~A   DEPT      SPR        LLS        LLD       MSFL       CALD       NPHI         GRD      CORR       RHOB   
# ...
 1137.0000   -53.6673     9.2166     8.7896     9.5567     8.2937     0.3615    97.0861     0.0254     2.5110
 1137.5000   -53.4565     9.2260     8.7991     9.6342     8.2176     0.3578    98.6869     0.0346     2.4878
 1138.0000   -52.1620     9.2354     8.8087     9.6433     8.1942     0.3481    94.1976     0.0347     2.4879
 1138.5000   -52.1051     9.2447     8.8182     9.6511     8.1923     0.3405    96.0241     0.0227     2.4663
 1139.0000   -53.1428     9.2541     8.8278     9.6605     8.1924     0.3431    93.7904     0.0107     2.4444
 1139.5000   -53.5984     9.1973     8.8374     9.6707     8.1935     0.3376    92.6634     0.0165     2.4415
 1140.0000   -53.8952     9.2089     8.8062     9.6799     8.1946     0.3453    95.8950     0.0443     2.4672
 1140.5000   -54.3975     9.1544     8.7733     9.6886     8.1956     0.3509    97.2451     0.0678     2.4846
 1141.0000   -54.4807     9.1007     8.7403     9.7656     8.1967     0.3502    95.6881     0.0838     2.4975
 1141.5000   -54.9096     9.1102     8.7074     9.7749     8.1977     0.3443    91.6499     0.0922     2.4765
 1142.0000   -54.7411     9.1196     8.6744     9.7844     8.1987     0.3452    90.7641     0.0682     2.4254
 1142.5000   -53.9109     9.0655     8.6415     9.7957     8.1998     0.3460    92.8216     0.0479     2.4104
 1143.0000   -53.4148     9.0770     8.6038     9.8050     8.2008     0.3447    94.6480     0.0404     2.4263
 1143.5000   -53.6573     9.0862     8.5513     9.7465     8.2018     0.3464    96.4744     0.0572     2.4208
 1144.0000   -53.6695     9.1587     8.4450     9.7558     8.2029     0.3650    98.3009     0.0591     2.4092
 1144.5000   -53.6850     9.1680     8.4542     9.7650     8.2039     0.3559    99.0197     0.0627     2.4387
 1145.0000   -53.0474     9.1139     8.2892     9.7742     8.2049     0.3419    99.2525     0.0525     2.4433
 1145.5000   -52.2933     9.1232     8.1920     9.7835     8.2060     0.3370    97.4484     0.0455     2.4343
 1146.0000   -53.6048     9.0692     8.1362     9.7925     8.2070     0.3384    94.7659     0.0517     2.4315
 1146.5000   -53.4595     8.8920     8.0330     9.8020     8.2080     0.3414    92.0835     0.0548     2.4383
 1147.0000   -53.2966     8.8396     8.0107     9.8797     8.2091     0.3385    90.9800     0.0564     2.4437
 1147.5000   -53.2840     8.8508     7.9949     9.8912     8.2101     0.3399    92.1321     0.0550     2.4322
 1148.0000   -52.8612     8.9214     8.0057     9.9694     8.2112     0.3447    95.3143     0.0499     2.4380
 1148.5000   -51.6639     8.9925     7.9590    10.0482     8.2122     0.3502    98.5716     0.0424     2.4257
 1149.0000   -51.0073     9.0642     8.0231    10.1979     8.2127     0.3454   101.5293     0.0425     2.4304
 1149.5000   -50.6898     9.1999     8.0318    10.5672     8.2131     0.3404   102.6052     0.0396     2.4366
 1150.0000   -50.4041     9.2733     8.0964    10.9499     8.2135     0.3403    97.4416     0.0337     2.4300
 1150.5000   -50.0658     9.4121     8.2183    11.1904     8.2139     0.3421   100.4043     0.0453     2.4414
 1151.0000   -49.8938     9.4217     8.3421    11.2788     8.2143     0.3383   102.0076     0.0531     2.4482
 1151.5000   -49.9235     9.3738     8.5266    11.3679     8.2147     0.3349   102.2513     0.0582     2.4634
 1152.0000   -50.6289     9.2632     8.6550    11.3418     8.2151     0.3395    99.5689     0.0462     2.4454
 1152.5000   -51.0916     9.1525     8.6646    11.2090     8.2155     0.3517   102.7572     0.0380     2.4681
 1153.0000   -50.6423     9.0419     8.6138    11.0761     8.2159     0.3522   102.1048     0.0419     2.4746
 1153.5000   -50.0610     8.9312     8.5733    10.8087     8.2163     0.3495   102.3546     0.0443     2.4487
 1154.0000   -50.7875     8.7897     8.5202    10.4522     8.2167     0.3479   106.6647     0.0246     2.4428
 1154.5000   -51.0846     8.7385     8.3961    10.2484     8.2171     0.3488   108.0424     0.0167     2.4429
 1155.0000   -51.0841     8.6900     8.4041     9.9793     8.2176     0.3527   106.0366     0.0040     2.4310
 1155.5000   -51.0923     8.6370     8.2963     9.7172     8.2180     0.3551   106.0670     0.0010     2.4341
 1156.0000   -51.0915     8.5298     8.2468     9.3967     8.2184     0.3466   106.5424     0.0208     2.4598
 1156.5000   -51.0336     8.5390     8.0867     9.2110     8.2188     0.3381   107.0178     0.0369     2.4749
 1157.0000   -50.9676     8.5483     7.9278     9.0966     8.2192     0.3359   107.0421     0.0461     2.4908
 1157.5000   -50.9015     8.4399     7.7721     9.2360     8.2196     0.3399   107.2920     0.0492     2.4879
 1158.0000   -50.8358     8.3907     7.6706     9.4402     8.2200     0.3336   104.3840     0.0304     2.4737
 1158.5000   -50.7664     8.2271     7.5722     9.5822     8.2204     0.3283   102.3782     0.0237     2.4893
 1159.0000   -50.6930     8.2361     7.4765     9.6593     8.2208     0.3307   103.9815     0.0322     2.4995
 1159.5000   -50.7689     8.2450     7.4321     9.7370     8.2212     0.3406   106.2614     0.0206     2.4853
 1160.0000   -51.0752     8.1404     7.4911     9.6777     8.2216     0.3478   106.0602     0.0090     2.4666
 1160.5000   -51.0965     8.1496     7.6074     9.6213     8.2220     0.3526   105.1822     0.0023     2.4772
 1161.0000   -51.0894     8.3316     7.8334     9.4993     8.2224     0.3565   107.7638     0.0184     2.4886
 1161.5000   -50.8927     8.5749     8.1659     9.3810     8.2229     0.3628   103.6579     0.0329     2.4932
 1162.0000   -50.6976     8.7644     8.2877     9.1985     8.2233     0.3673   105.9379     0.0345     2.4835
 1162.5000   -50.6864     8.9581     8.4699     9.1449     8.2237     0.3709   107.3156     0.0240     2.4746
 1163.0000   -51.0223     9.0929     8.5963     9.0917     8.2241     0.3732   101.7008     0.0083     2.4626
 1163.5000   -51.5169     9.2297     8.6643     9.1652     8.2245     0.3648   100.5973     0.0015     2.4537
 1164.0000   -51.8122     9.3039     8.6725     9.4350     8.2249     0.3563   100.6216     0.0093     2.4677
 1164.5000   -51.1252     9.2494     8.6808     9.7106     8.2253     0.3539    99.0669     0.0109     2.4768
 1165.0000   -51.0822     9.2598     8.6890     9.9252     8.2257     0.3589    96.6090     0.0080     2.4902
 1165.5000   -51.0811     9.2047     8.5776    10.0746     8.2261     0.3565    99.3411     0.0036     2.4805
 1166.0000   -51.0924     9.0891     8.5857    10.1556     8.2265     0.3447   100.2677     0.0007     2.4678
 1166.5000   -50.6855     9.1014     8.5345    10.3084     8.2269     0.3423    98.6949     0.0107     2.4610
 1167.0000   -49.9575     8.9836     8.5426    10.3196     8.2273     0.3483    97.6095     0.0191     2.4755
 1167.5000   -49.5937     8.9957     8.4917    10.3309     8.2277     0.3380    97.1807     0.0102     2.4665
 1168.0000   -48.7254     9.0055     8.4411    10.3421     8.2281     0.3301    99.9117     0.0216     2.4937
 1168.5000   -48.3150     9.0153     8.3348    10.2819     8.2286     0.3265    96.1075     0.0097     2.4697
 1169.0000   -48.3453     9.0251     8.2831    10.0814     8.2290     0.3307    97.7108     0.0136     2.4962
 1169.5000   -48.7289     9.0348     8.2930     9.9536     8.2294     0.3349   100.8930     0.0268     2.5152
 1170.0000   -47.9765     9.0447     8.3009     9.8273     8.2298     0.3315   104.0752     0.0343     2.5281
 1170.5000   -47.5576     9.0545     8.3088     9.7053     8.2302     0.3273   105.9045     0.0405     2.5334
 1171.0000   -47.3329     9.0643     8.3167     9.7159     8.2306     0.3296   104.2004     0.0323     2.5011
 1171.5000   -47.8318     9.1411     8.3246     9.7940     8.2310     0.3329    94.6805     0.0218     2.4726
 1172.0000   -49.1087     9.2204     8.4488     9.8728     8.2314     0.3250    92.9003     0.0227     2.4885
 1172.5000   -49.4982     9.4822     8.6947    10.0214     8.2318     0.3160    94.7291     0.0266     2.4999
 1173.0000   -49.4951     9.6249     8.9478    10.1020     8.2318     0.3141    98.3624     0.0282     2.4827
