~VERSION INFORMATION
 VERS.                2.0:   CWLS LOG ASCII STANDARD - VERSION 2.0
 WRAP.                 NO:   ONE LINE PER DEPTH STEP
~WELL INFORMATION
#MNEM.UNIT      DATA TYPE    INFORMATION
#----------   ------------   ------------------------------
 STRT.F            0.0000:   START DEPTH
 STOP.F         4134.5000:   STOP DEPTH
 STEP.F            0.5000:   STEP LENGTH
 NULL.          -999.2500:   NO VALUE
 COMP. LAWRENCE ALLISON & ASSOCIATES:   COMPANY
 WELL. LAWRENCE NPR 3 "X" #72-10:   WELL
 FLD .            WILDCAT:   FIELD
 LOC .      S10 T38N R78W:   LOCATION
 CNTY.            NATRONA:   COUNTY
 STAT.            WYOMING:   STATE
 CTRY. UNITED STATES OF AMERICA:   COUNTRY
 SRVC.      DRESSER ATLAS:   SERVICE COMPANY
 DATE.        29-JUL-1983:   LOGDATE
 API .     49025109390000:   API NUMBER
~CURVE INFORMATION
#MNEM.UNIT       API CODE    CURVE DESCRIPTION
#----------   ------------   ------------------------------
 DEPT.F                  :   
 CALD.IN     45 280 60 00:   CALIPER FROM DENSITY LOG
 DEN .G/C3   45 350 01 00:   BULK DENSITY
 CORR.G/C3   45 356 01 00:   DENSITY CORRECTION
 TEND.LBS    45 635 01 00:   TENSION FROM DENSITY LOG
 NPHI.DEC    42 890 03 00:   NEUTRON POROSITY SANDSTONE
 GRD .GAPI   45 310 01 00:   GAMMA RAY FROM DENSITY LOG
 SPR .MV     07 010 01 00:   SPONTANEOUS POTENTIAL
 RILD.OHMM   07 120 46 00:   DEEP INDUCTION RESISTIVITY
 RILM.OHMM   07 120 44 00:   INDUCTION LOG MEDIUM RESISTIVITY
 RFOC.OHMM   07 220 04 00:   RESISTIVITY FOCUSED LOG RES.
 TENR.LBS    07 635 01 00:   TENSION FROM RESISTIVITY
 AC  .US/F   60 250 00 00:   ACCOUSTIC
 TENS.LBS    60 635 01 00:   TENSION FROM SONIC
 GRR .GAPI   07 310 01 00:   GAMMA RAY FROM RESISTIVITY
~PARAMETER INFORMATION
#MNEM.UNIT          VALUE    DESCRIPTION
#----------   ------------   ------------------------------
 EKB .F         5182.0000:   Kelly bushing
 EGL .F         5172.0000:   Ground level
 EDF .F            0.0000:   Drilling floor
 TD  .F         4139.0000:   Total depth
 DATE.        29-JUL-1983:   Date logged
 CLNT.            A2DTECH:   Client Code
 SL  . 900' FNL & 900' FEL:   Surface Location
 PD  .                 GL:   Permanent Datum
 EPD .F              5172:   Elevation Permanent Datum
 LMF .                 KB:   Log Measured From
 DMF .                 KB:   Drilling Measured From
 DAPD.F                10:   Feet Above Permanent Datum
 DD  .F              4139:   Depth driller
 DL  .F              4134:   Depth logger
 BLI .F              4132:   Bottom log interval
 CS1 .IN            9.625:   Casing size
 CBD1.      9.625" @ 476':   Casing driller 1
 BS1 .IN            7.875:   Bit size
 BSD1.F              4139:   Depth drilled with bit1
 DFT .               LSND:   Type fluid in hole
 DFD .                6.6:   Density
 DFV .                 41:   Viscosity
 DFPH.                8.5:   pH
 DFL .                 10:   Fluid loss
 MSS .           FLOWLINE:   Source of sample
 RMS .OHMM            .27:   Rm
 MST .F                91:   Rm Meas. temp.
 RMF .OHMM            .19:   Rmf
 MFST.F                87:   Rmf Meas. temp.
 RMC .OHMM            .34:   Rmc
 MCST.F                87:   Rmc Meas. temp.
 MFSS.               MEAS:   Source Rmf.
 MCSS.               CALC:   Source Rmc.
 RMB .OHMM            .19:   Rm. at BHT
 BHT .F               130:   BHT.
 TCS .HRS               3:   Time Circ. stopped
 MRT .F               130:   Maximum recorded temp.
 LUN .               6274:   Logging unit number
 LUL .               GLTF:   Logging unit location
 ENGI.             RAUTIC:   Recorded By
 WITN.             STRONG:   Witnessed by
 ORIG.           5" PRINT:   Origin of data
 UWI .     49025109390000:   Unique Well ID
 DICO. A2D TECHNOLOGIES, INC.:   Digitizing Company
~OTHER INFORMATION
~A    DEPT    CALD        DEN       CORR       TEND       NPHI        GRD        SPR       RILD       RILM       RFOC       TENR         AC       TENS         GRR  
# ...
 3381.0000     8.9550     2.1750    -0.1290   -68.1630     0.3170   181.1590   -35.8360     3.1440     3.3160     4.4100   -42.9140    90.7120   -47.7020   147.5550
 3381.5000     8.9710     2.0490    -0.0830   -52.4550     0.3230   190.0920   -35.5110     2.8620     3.0170     4.6710   -42.9140    88.8050   -47.7020   151.8860
 3382.0000     8.9890     2.0030     0.0660   -36.7470     0.3250   198.3070   -34.3980     2.5820     2.7430     4.7450   -42.9140    87.4030   -47.7020   156.9980
 3382.5000     9.0050     2.0020     0.1530   -21.0380     0.3240   193.3890   -32.7790     2.2750     2.4690     3.9830   -42.9140    94.2120   -47.7020   167.4110
 3383.0000     8.9700     2.0310     0.1200    -7.9080     0.2990   177.7450   -31.2080     2.3680     2.0750     3.1710   -42.9140    99.5950   -47.7020   180.6570
 3383.5000     8.9310     2.2170     0.0010    -8.9880     0.2850   163.2330   -29.6500     2.6110     2.3960     2.3600   -42.9140   104.9790   -47.7020   174.0250
 3384.0000     8.9110     2.4440    -0.1160   -10.0680     0.2520   155.7500   -28.9880     2.5320     2.9650     1.8410   -42.9140   108.8810   -47.7020   155.2240
 3384.5000     8.9300     2.6710     0.1180   -11.1470     0.2460   147.8780   -30.6310     2.4910     3.1960     2.4940   -42.9140   103.4070   -47.7020   135.4800
 3385.0000     9.0640     2.5430     0.4310   -12.2270     0.2540   142.0380   -31.8220     2.4490     3.1960     3.6130   -42.9140    97.4370   -47.7020   122.9400
 3385.5000     9.2010     2.2050     0.3510   -13.3070     0.2770   139.7100   -33.0530     2.4260     3.0070     4.7290   -42.9140    91.4680   -47.7020   119.7960
 3386.0000     9.2610     2.0000     0.1670   -14.3870     0.3000   141.6780   -33.4700     2.6520     2.8210     5.4470   -42.9140    84.0060   -47.7020   119.5980
 3386.5000     9.3060     2.0000     0.0290   -15.4660     0.2890   146.7580   -33.0720     2.8350     2.6840     5.0690   -42.9140    87.2140   -47.7020   122.9130
 3387.0000     9.3340     2.0010     0.0840   -16.5460     0.2790   158.2900   -32.4110     3.0180     3.0100     4.4910   -42.9140    92.8500   -47.7020   130.0900
 3387.5000     9.0910     2.0990     0.1690   -17.6260     0.2690   163.1100   -31.8090     3.2010     3.3160     3.2430   -42.9140    98.4870   -47.7020   141.1630
 3388.0000     8.9740     2.3220     0.2670   -18.7060     0.2590   165.4740   -31.6060     3.2550     3.6220     2.4040   -42.9140   104.1230   -46.9110   148.7330
 3388.5000     8.8960     2.5050     0.2910   -19.7860     0.2610   169.0250   -32.6650     3.1480     3.9490     2.5650   -42.9140   106.3840   -44.9670   144.0040
 3389.0000     8.8210     2.5040     0.2580   -20.8650     0.2640   176.4790   -33.7170     3.0560     4.0120     3.0500   -42.9140    99.8330   -43.0220   137.3050
 3389.5000     8.7970     2.4520     0.2240   -21.9450     0.2710   182.2870   -34.7740     2.9420     3.8150     4.2020   -42.9140    94.4690   -42.7070   137.4650
 3390.0000     8.8140     2.3830     0.2040   -23.0250     0.2780   182.8130   -35.8500     3.0530     3.6340     5.2500   -42.9140    87.4960   -42.7070   140.1400
 3390.5000     8.8310     2.3280     0.2320   -24.1050     0.2760   179.2250   -36.0540     3.2830     3.4540     4.9200   -42.9140    88.0860   -41.9710   142.7490
 3391.0000     8.8470     2.3930     0.2550   -25.1840     0.2660   175.1820   -35.8650     3.5400     3.3460     4.4390   -42.9140    89.6340   -40.3910   144.5130
 3391.5000     8.8640     2.4580     0.2850   -26.2640     0.2560   169.0830   -35.6670     3.8410     3.6480     3.9580   -42.9140    91.5840   -38.8110   145.0410
 3392.0000     8.8810     2.4680     0.3190   -27.3440     0.2550   163.0050   -35.6350     3.7180     3.9850     3.8410   -42.9140    93.5330   -37.7120   143.2860
 3392.5000     8.8980     2.4200     0.3490   -30.0200     0.2570   156.9590   -36.1040     3.5710     3.9280     4.0130   -42.9140    94.0030   -37.7120   139.8080
 3393.0000     8.8970     2.3720     0.2970   -35.0950     0.2590   156.6280   -36.8270     3.4230     3.8020     4.1510   -42.9140    93.8730   -37.7120   136.6780
 3393.5000     8.8760     2.3100     0.2490   -40.1700     0.2590   159.1130   -37.0560     3.3160     3.6350     4.2500   -42.9140    93.7430   -37.7120   137.0490
 3394.0000     8.8540     2.3150     0.2070   -45.2450     0.2600   161.5730   -37.3240     3.3940     3.6410     4.1370   -42.9140    93.6130   -37.7120   138.5320
 3394.5000     8.8320     2.3210     0.1650   -47.7020     0.2630   163.7330   -37.8120     3.5060     3.6500     4.0700   -42.9140    93.4830   -37.7120   137.7060
 3395.0000     8.8390     2.3270     0.1120   -46.5440     0.2660   163.2730   -37.3970     3.6180     3.6590     3.9850   -42.9140    93.3540   -37.7120   135.8420
 3395.5000     8.8550     2.3320     0.0560   -43.0840     0.2700   162.6700   -36.8360     3.6690     3.6690     4.1050   -42.9140    93.2240   -37.7120   134.7620
 3396.0000     8.8710     2.2670     0.0310   -39.6240     0.2800   161.3210   -36.2000     3.6690     3.4240     4.4020   -42.9140    92.1930   -37.7120   134.2130
 3396.5000     8.8860     2.1790     0.0580   -36.1640     0.2900   160.1070   -35.4050     3.5040     3.1680     4.7020   -42.9140    89.9620   -37.7120   132.6860
 3397.0000     8.8670     2.0430     0.0950   -32.7170     0.2880   156.9990   -34.6140     3.3380     2.8620     4.5120   -42.9140    87.1100   -37.7120   132.0630
 3397.5000     8.8450     2.0960     0.0350   -31.9680     0.2810   153.8090   -33.8600     3.2850     3.0680     3.9730   -42.9140    84.2570   -42.7070   133.1430
 3398.0000     8.8240     2.2250    -0.0850   -30.1560     0.2740   145.9150   -32.2510     3.5360     3.4060     3.2590   -42.9140    83.0070   -42.7070   134.8700
 3398.5000     8.8030     2.3530    -0.0180   -28.3430     0.2610   138.0080   -30.5480     3.8000     3.7440     2.8620   -42.9140    82.6070   -42.7070   130.8150
 3399.0000     8.7830     2.4810     0.0850   -26.5310     0.2510   131.9700   -30.7930     3.9850     4.0590     3.2220   -42.9140    81.7080   -42.7070   125.7380
 3399.5000     8.8070     2.5210     0.1650   -24.7180     0.2590   130.7900   -31.3710     4.0960     3.8770     3.8660   -42.9140    77.2870   -42.7070   121.2070
 3400.0000     8.9700     2.3980     0.2110   -22.7270     0.2720   145.1550   -31.9570     3.6690     3.5890     4.5740   -42.9140    72.3630   -47.7020   118.1460
 3400.5000     9.1450     2.2590     0.2210   -20.1130     0.2840   161.4810   -32.5410     3.1910     3.2190     4.4670   -42.9140    67.4380   -47.7020   116.1590
 3401.0000     9.7320     2.1200     0.2300   -11.6720     0.2960   177.8530   -33.1360     2.7570     2.8490     4.3690   -42.9140    66.0240   -47.7020   126.2610
 3401.5000    10.3650     2.0000     0.2230    -3.2300     0.3080   194.5220   -33.2740     2.3230     2.4800     4.1720   -42.9140    69.0340   -47.7020   147.3710
 3402.0000    11.3360     2.0000     0.2010     5.2110     0.3240   198.1490   -33.0730     1.8880     2.1100     3.1730   -42.9140    72.1780   -47.7020   163.4540
 3402.5000    12.3890     2.0000     0.1790     1.9700     0.3000   197.9990   -32.7030     1.4370     1.7400     2.2320   -42.9140    76.2140   -47.7020   170.9650
 3403.0000    12.4760     2.0000     0.1570    -7.4090     0.3000   196.1280   -32.3330     1.3470     1.2870     1.9600   -42.9140    88.8670   -47.7020   167.3610
 3403.5000    11.8330     2.0000     0.1360   -16.7890     0.2950   194.7040   -31.9740     1.2980     1.3100     1.7260   -42.9140   100.0050   -47.7020   162.5850
 3404.0000    11.0970     2.0000     0.0590   -26.1680     0.2720   175.8950   -31.2760     1.3350     1.3720     1.5880   -42.9140   111.1430   -47.7020   157.7800
 3404.5000    10.4600     2.0730    -0.0630   -35.5480     0.2590   146.6710   -30.2790     1.4740     1.7950     1.5320   -42.9140   116.6730   -52.6970   153.6200
 3405.0000     9.3370     2.2400    -0.1270   -42.7070     0.2460   117.3310   -29.7110     1.6150     2.3240     1.7110   -42.9140   108.9260   -52.6970   133.9950
