~VERSION INFORMATION
 VERS.                2.0:   CWLS LOG ASCII STANDARD - VERSION 2.0
 WRAP.                 NO:   ONE LINE PER DEPTH STEP
~WELL INFORMATION
#MNEM.UNIT      DATA TYPE    INFORMATION
#----------   ------------   ------------------------------
 STRT.F         2144.5000:   START DEPTH
 STOP.F         2870.0000:   STOP DEPTH
 STEP.F            0.5000:   STEP LENGTH
 NULL.          -999.2500:   NO VALUE
 COMP. LAWRENCE ALLISON & ASSOCIATES:   COMPANY
 WELL. LAWRENCE "X" #13-21:   WELL
 FLD .        TEAPOT DOME:   FIELD
 LOC .      S21 T39N R78W:   LOCATION
 CNTY.            NATRONA:   COUNTY
 STAT.            WYOMING:   STATE
 CTRY. UNITED STATES OF AMERICA:   COUNTRY
 SRVC.      DRESSER ATLAS:   SERVICE COMPANY
 DATE.        09-FEB-1987:   LOGDATE
 API .     49025111200000:   API NUMBER
~CURVE INFORMATION
#MNEM.UNIT       API CODE    CURVE DESCRIPTION
#----------   ------------   ------------------------------
 DEPT.F                  :   
 MCAL.IN     15 280 01 00:   CALIPER FROM MICRO LOG
 MTEN.LBS    15 635 01 00:   TENSION FROM MICRO LOG
 GRR .GAPI   05 310 01 00:   GAMMA RAY FROM RES.
 R2SL.OHMM   05 120 00 00:   RESISTIVITY
~PARAMETER INFORMATION
#MNEM.UNIT          VALUE    DESCRIPTION
#----------   ------------   ------------------------------
 EKB .F         4986.0000:   Kelly bushing
 EGL .F         4974.0000:   Ground level
 EDF .F            0.0000:   Drilling floor
 EPD .F         4974.0000:   Permanent datum
 TD  .F         2852.0000:   Total depth
 DATE.        09-FEB-1987:   Date logged
 CLNT.            A2DTECH:   Client Code
 SL  . 1962' FNL & 352' FWL:   Surface Location
 DAPD.F                12:   Feet Above Permanent Datum
 DD  .F              2850:   Depth driller
 DL  .F              2852:   Depth logger
 BLI .F              2846:   Bottom log interval
 TLI .F              2150:   Top log interval
 CS1 .IN            8.625:   Casing size
 CBD1.      8.625" @ 282':   Casing driller 1
 BS1 .IN            7.875:   Bit size
 BSD1.F              2850:   Depth drilled with bit1
 DFT .        KCL POLYMER:   Type fluid in hole
 DFD .                8.9:   Density
 DFV .                 40:   Viscosity
 DFPH.                9.7:   pH
 DFL .                8.6:   Fluid loss
 MSS .           FLOWLINE:   Source of sample
 RMS .OHMM          0.287:   Rm
 MST .F                60:   Rm Meas. temp.
 RMF .OHMM          0.203:   Rmf
 MFST.F                60:   Rmf Meas. temp.
 RMC .OHMM          0.358:   Rmc
 MCST.F                60:   Rmc Meas. temp.
 MFSS.               MEAS:   Source Rmf.
 MCSS.               CALC:   Source Rmc.
 RMB .OHMM          0.154:   Rm. at BHT
 BHT .F               112:   BHT.
 TCS .HRS               7:   Time Circ. stopped
 MRT .F               112:   Maximum recorded temp.
 LUN .            HL-6274:   Logging unit number
 LUL .           GILLETTE:   Logging unit location
 ENGI.             RAUTIO:   Recorded By
 WITN.             STRONG:   Witnessed by
 ORIG.           5" PRINT:   Origin of data
 UWI .     49025111200000:   Unique Well ID
 DICO. A2D TECHNOLOGIES, INC.:   Digitizing Company
~OTHER INFORMATION
~A  DEPT      MCAL       MTEN        GRR       R2SL   
# ...
 2509.5000     7.9540   -52.7640    98.1500     4.0700
 2510.0000     7.9540   -52.7640   101.3410     3.9940
 2510.5000     7.9550   -52.7640   100.3500     4.2450
 2511.0000     7.9570   -52.7640    99.0820     4.4650
 2511.5000     7.9600   -52.7640    97.8100     4.5820
 2512.0000     7.9630   -52.7640    96.5410     4.7210
 2512.5000     7.9650   -52.7640    95.3270     4.4910
 2513.0000     7.9680   -52.7640    95.4290     4.1150
 2513.5000     7.9700   -52.7640    98.8040     3.7790
 2514.0000     7.9730   -52.7640   101.8260     3.5250
 2514.5000     7.9760   -52.7640   101.1740     3.4510
 2515.0000     7.9820   -52.7640   100.6790     3.3800
 2515.5000     7.9870   -52.7640   102.3320     3.2060
 2516.0000     7.9920   -52.7640   104.7410     3.0510
 2516.5000     7.9970   -52.7640   107.5330     2.9690
 2517.0000     8.0020   -52.7640   110.4820     2.8860
 2517.5000     8.0070   -52.7640   117.9230     2.7640
 2518.0000     8.0120   -52.7640   125.3550     2.6300
 2518.5000     8.0170   -52.7640   132.6930     2.4950
 2519.0000     8.0220   -52.7640   135.4850     2.4190
 2519.5000     8.0270   -52.7640   137.7470     2.2420
 2520.0000     8.0320   -52.7640   140.2100     2.0660
 2520.5000     8.0370   -52.7640   151.3710  -999.2500
 2521.0000     8.0420   -52.7640   164.8390  -999.2500
 2521.5000     8.0470   -52.7640   177.7400  -999.2500
 2522.0000     8.0520   -52.7640   190.9440  -999.2500
 2522.5000     8.0570   -52.7640   206.7540  -999.2500
 2523.0000     8.0620   -52.7640   218.7760  -999.2500
 2523.5000     8.0670   -52.7640   213.9830  -999.2500
 2524.0000     8.0720   -52.7640   206.1070  -999.2500
 2524.5000     8.0700   -52.7640   189.0440  -999.2500
 2525.0000     8.0630   -52.7640   174.5040  -999.2500
 2525.5000     8.0560   -52.7640   172.9730  -999.2500
 2526.0000     8.0490   -52.7640   197.0860  -999.2500
 2526.5000     8.0420   -52.7640   201.2280  -999.2500
 2527.0000     8.0340   -52.7640   195.3930  -999.2500
 2527.5000     8.0270   -52.7640   164.5170  -999.2500
 2528.0000     8.0200   -52.7640   133.4460     2.7300
 2528.5000     8.0130   -52.7640   104.5500     2.5840
 2529.0000     8.0060   -52.7640   105.2750     2.2880
 2529.5000     7.9990   -52.7640   106.2500     2.3470
 2530.0000     7.9940   -52.7640   105.1650     2.4530
 2530.5000     7.9930   -52.7640   105.6430     2.5590
 2531.0000     7.9920   -52.7640   106.5030     2.6650
 2531.5000     7.9910   -52.7640   107.3700     2.7710
 2532.0000     7.9900   -52.7640   106.5000     2.8770
 2532.5000     7.9890   -52.7640   105.4790     2.9830
 2533.0000     7.9880   -52.7640   104.4820     3.0800
 2533.5000     7.9870   -52.7640   102.4420     3.4110
 2534.0000     7.9860   -53.9530    99.3230     4.2380
 2534.5000     7.9850   -55.3690    92.5460     5.1480
 2535.0000     7.9840   -56.7840    85.7960     5.8960
 2535.5000     7.9830   -58.1990    82.4170     6.3540
 2536.0000     7.9820   -59.6150    80.5580     6.4130
 2536.5000     7.9810   -61.0300    79.7520     6.1500
 2537.0000     7.9800   -62.4460    80.0310     5.9450
 2537.5000     7.9790   -62.6530    82.4890     5.7370
 2538.0000     7.9780   -62.4350    83.4030     6.1620
 2538.5000     7.9770   -62.2170    83.6560     6.5330
 2539.0000     7.9760   -61.9990    84.7230     6.2700
 2539.5000     7.9750   -61.7810    88.0910     5.8900
 2540.0000     7.9740   -61.5620    91.3460     5.5090
 2540.5000     7.9670   -61.3440    94.4400     5.1280
 2541.0000     7.9600   -61.1260    93.6550     4.9910
 2541.5000     7.9530   -60.9080    92.7310     5.4970
 2542.0000     7.9470   -60.6900    91.7500     6.0100
 2542.5000     7.9400   -60.4720    93.1820     5.5060
 2543.0000     7.9330   -60.2540    96.3100     5.0380
 2543.5000     7.9260   -60.0360    98.7060     4.9910
 2544.0000     7.9200   -59.8180    97.0500     5.4130
 2544.5000     7.9130   -59.6000    93.2670     5.7470
 2545.0000     7.9060   -59.3820    89.4790     5.8880
 2545.5000     7.8990   -59.1640    87.1030     5.9720
 2546.0000     7.8940   -58.9460    86.8660     6.2340
 2546.5000     7.8940   -58.7280    87.4870     6.6560
 2547.0000     7.8940   -58.5100    92.4410     6.1760
 2547.5000     7.8940   -58.2910   102.2510     4.2790
 2548.0000     7.8940   -58.0730   112.6510     2.8070
 2548.5000     7.8940   -57.8550   123.5080     2.3820
 2549.0000     7.8940   -57.6370   126.7270     2.3230
 2549.5000     7.8940   -57.4190   127.1090     2.3060
 2550.0000     7.8940   -57.2010   127.3640     2.2890
 2550.5000     7.8940   -56.9830   127.1330     2.2710
 2551.0000     7.8940   -56.7650   125.7410     2.2540
 2551.5000     7.8940   -56.5470   124.3990     2.2370
 2552.0000     7.8940   -56.3290   123.8030     2.2250
 2552.5000     7.8940   -56.1110   127.5770     2.2390
 2553.0000     7.8940   -55.8930   131.4250     2.2490
 2553.5000     7.8940   -55.6750   132.3760     2.2590
 2554.0000     7.8940   -55.4570   134.5840     2.2670
 2554.5000     7.8940   -55.2390   138.8480     2.2130
 2555.0000     7.8940   -55.0210   143.3180     2.1440
 2555.5000     7.8940   -54.8020   146.6320     2.1590
 2556.0000     7.8940   -54.5840   141.0200     2.4850
 2556.5000     7.8940   -54.3660   131.3020     2.8600
 2557.0000     7.8940   -54.1480   121.5720     3.2870
 2557.5000     7.8920   -53.9300   116.8920     3.2710
 2558.0000     7.8900   -53.7120   118.3670     3.2560
 2558.5000     7.8880   -53.4940   117.3880     3.2770
 2559.0000     7.8860   -53.2760   116.2850     3.2870
 2559.5000     7.8840   -53.0580   118.6790     3.0270
 2560.0000     7.8820   -52.8400   122.8880     2.8350
 2560.5000     7.8800   -52.6220   124.9250     2.6790
 2561.0000     7.8780   -52.4040   123.2710     2.7250
 2561.5000     7.8750   -52.1860   122.8400     2.8230
 2562.0000     7.8730   -51.9680   122.2630     3.0210
 2562.5000     7.8710   -51.7500   118.3120     3.2790
 2563.0000     7.8690   -51.5310   115.3830     3.3480
 2563.5000     7.8670   -51.3130   117.4730     3.1920
 2564.0000     7.8650   -51.0950   121.6280     2.9590
 2564.5000     7.8630   -50.8770   125.7980     2.7040
 2565.0000     7.8610   -50.6590   130.0390     2.6850
 2565.5000     7.8590   -50.4410   132.0680     2.6380
 2566.0000     7.8570   -50.2230   132.3980     2.5820
 2566.5000     7.8540   -50.0050   131.8280     2.5340
 2567.0000     7.8540   -49.7870   131.2630     2.5890
 2567.5000     7.8550   -49.5690   130.6980     2.6550
 2568.0000     7.8560   -49.3510   131.2520     2.6180
 2568.5000     7.8560   -49.1330   133.6190     2.5560
 2569.0000     7.8570   -48.9150   135.9720     2.4950
 2569.5000     7.8580   -48.6970   138.4450     2.4330
 2570.0000     7.8580   -48.4790   137.7830     2.3710
 2570.5000     7.8590   -48.2600   135.7810     2.3100
 2571.0000     7.8600   -48.0420   133.7930     2.2480
 2571.5000     7.8600   -47.8240   134.8730     2.2050
 2572.0000     7.8610   -47.6060   136.3650     2.2570
 2572.5000     7.8620   -47.3880   137.8860     2.2900
 2573.0000     7.8630   -47.1700   138.1570     2.3240
 2573.5000     7.8630   -46.9520   138.0990     2.3580
 2574.0000     7.8640   -46.7340   136.4260     2.3920
 2574.5000     7.8650   -46.5160   134.7760     2.4340
 2575.0000     7.8650   -46.2980   134.0040     2.5170
 2575.5000     7.8660   -46.0800   133.2520     2.5990
 2576.0000     7.8670   -45.8620   133.5000     2.6790
 2576.5000     7.8670   -45.6440   133.9320     2.6630
 2577.0000     7.8680   -45.4260   134.2460     2.6480
 2577.5000     7.8690   -45.2080   132.3330     2.6320
 2578.0000     7.8700   -44.9900   130.3980     2.5490
 2578.5000     7.8700   -44.7710   128.4250     2.4570
 2579.0000     7.8710   -44.5530   129.3820     2.3640
 2579.5000     7.8720   -44.3350   130.7900     2.2460
 2580.0000     7.8720   -44.1170   134.0240     2.3060
 2580.5000     7.8730   -43.8990   134.3550     2.3890
 2581.0000     7.8740   -43.6810   133.9030     2.4400
 2581.5000     7.8740   -43.4630   133.4270     2.4140
 2582.0000     7.8750   -43.2450   133.1320     2.3970
