~VERSION INFORMATION
 VERS.                2.0:   CWLS LOG ASCII STANDARD - VERSION 2.0
 WRAP.                 NO:   ONE LINE PER DEPTH STEP
~WELL INFORMATION
#MNEM.UNIT      DATA TYPE    INFORMATION
#----------   ------------   ------------------------------
 STRT.F          198.5000:   START DEPTH
 STOP.F         3172.0000:   STOP DEPTH
 STEP.F            0.5000:   STEP LENGTH
 NULL.          -999.2500:   NO VALUE
 COMP.    FENIX & SCISSON:   COMPANY
 WELL. FENIX & SCISSON AX #26-11:   WELL
 FLD .              NPR-3:   FIELD
 LOC .      S11 T38N R78W:   LOCATION
 CNTY.            NATRONA:   COUNTY
 STAT.            WYOMING:   STATE
 CTRY. UNITED STATES OF AMERICA:   COUNTRY
 SRVC.              WELEX:   SERVICE COMPANY
 DATE.        11-NOV-1977:   LOGDATE
 API .     49025104420000:   API NUMBER
~CURVE INFORMATION
#MNEM.UNIT       API CODE    CURVE DESCRIPTION
#----------   ------------   ------------------------------
 DEPT.F                  :   
 GRD .GAPI   45 310 01 00:   GAMMA RAY FROM DENSITY LOG
 CALD.IN     45 280 60 00:   CALIPER FROM DENSITY LOG
 CORR.G/C3   45 356 01 00:   DENSITY CORRECTION
 TEND.LBS    45 635 01 00:   TENSION FROM DENSITY LOG
 RHOB.G/C3   45 350 01 00:   BULK DENSITY
 SPR .MV     07 010 01 00:   SPONTANEOUS POTENTIAL
 ILD .OHMM   07 120 46 00:   DEEP INDUCTION RESISTIVITY
 ILM .OHMM   07 120 44 00:   INDUCTION LOG MEDIUM RESISTIVITY
 SGRD.OHMM   07 220 05 00:   SHALLOW SHORT GUARD RESISTIVITY
~PARAMETER INFORMATION
#MNEM.UNIT          VALUE    DESCRIPTION
#----------   ------------   ------------------------------
 EKB .F         5187.0000:   Kelly bushing
 EGL .F         5177.0000:   Ground level
 EDF .F            0.0000:   Drilling floor
 EPD .F         5177.0000:   Permanent datum
 TD  .F         3174.0000:   Total depth
 CLNT.            A2DTECH:   Client Code
 SL  . 1650' FSL & 840' FWL:   Surface Location
 PD  .                 GL:   Permanent Datum
 LMF .                 KB:   Log Measured From
 DMF .                 KB:   Drilling Measured From
 DAPD.F                10:   Feet Above Permanent Datum
 DATE.        11-NOV-1977:   Date Logged [DD-MMM-YYYY]
 DD  .F              3170:   Depth driller
 DL  .F              3174:   Depth logger
 BLI .F              3172:   Bottom log interval
 TLI .F               200:   Top log interval
 CS1 .              8.625:   Casing size
 CBD1.      8.625" @ 220':   Casing driller 1
 CBL1.IN              220:   Casing logger 1
 BS1 .IN            7.875:   Bit size
 BSD1.F              3170:   Depth drilled with bit1
 DFT .            KCL MUD:   Type fluid in hole
 DFD .                8.9:   Density
 DFV .                 37:   Viscosity
 DFPH.               11.0:   pH
 DFL .                6.4:   Fluid loss
 MSS .           FLOWLINE:   Source of sample
 RMS .OHMM           2.79:   Rm
 MST .F                50:   Rm Meas. temp.
 RMF .OHMM           2.16:   Rmf
 MFST.F                50:   Rmf Meas. temp.
 MFSS.               FANN:   Source Rmf.
 MCSS.               TEST:   Source Rmc.
 RMB .OHMM           1.22:   Rm. at BHT
 BHT .F               114:   BHT.
 TCS .HRS               3:   Time Circ. stopped
 MRT .F               114:   Maximum recorded temp.
 LUN .               8611:   Logging unit number
 LUL .             CASPER:   Logging unit location
 ENGI.            C. DOAK:   Recorded By
 WITN.         HARRINGTON:   Witnessed by
 ORIG.      2.5" 5" PRINT:   Origin of data
 UWI .     49025104420000:   Unique Well ID
 DICO. A2D TECHNOLOGIES, INC.:   Digitizing Company
~OTHER INFORMATION
~A   DEPT       GRD      CALD       CORR       TEND       RHOB        SPR        ILD        ILM       SGRD   
# ...
 2534.5000   126.6966     9.0223    -0.0112  1970.3077     2.5014   -73.9575     6.3350     5.0839     8.9870
 2535.0000   124.8794     9.0217    -0.0112  1970.7692     2.5006   -74.0105     6.3774     5.0480     9.1115
 2535.5000   123.0621     9.0211    -0.0081  1971.2308     2.5073   -74.0636     6.3315     4.9781     9.3019
 2536.0000   120.6460     9.0204    -0.0050  1971.6924     2.5094   -74.1166     6.2426     4.8701     9.4962
 2536.5000   120.0263     9.0198    -0.0019  1972.1538     2.5032   -74.1696     6.1124     4.5368     9.3004
 2537.0000   124.1971     9.0192    -0.0019  1972.7061     2.5024   -74.2226     5.9421     4.1297     8.5593
 2537.5000   127.7690     9.0186    -0.0019  1973.1625     2.5141   -74.2757     5.8161     3.9073     7.7690
 2538.0000   130.1434     9.0180     0.0012  1973.6190     2.5234   -74.3287     5.7325     3.8532     7.4014
 2538.5000   131.9189     9.0173     0.0012  1974.0758     2.5293   -74.3817     5.6571     4.0434     7.6613
 2539.0000   130.1016     9.0167     0.0043  1974.5322     2.5337   -74.4347     5.6553     4.1276     8.4980
 2539.5000   128.2843     9.0471     0.0104  1974.9890     2.5381   -74.4534     5.6935     3.9869     8.7963
 2540.0000   127.0659     9.0464     0.0135  1975.4456     2.5411   -74.6085     5.7315     3.9589     8.3801
 2540.5000   124.0403     9.0458     0.0166  1975.9020     2.5455   -74.6130     5.8096     4.1832     7.8740
 2541.0000   122.2036     9.0452     0.0197  1976.3588     2.5469   -74.3103     5.8891     4.7035     7.6587
 2541.5000   120.4009     9.0756     0.0197  1976.8153     2.5350   -74.0195     5.9285     5.4743     8.3917
 2542.0000   118.5788     9.0749     0.0136  1977.2717     2.5275   -74.0241     6.0096     6.0290     9.2995
 2542.5000   117.3298     9.0800     0.0136  1977.7285     2.5319   -74.0295     6.0502     6.1544     9.6398
 2543.0000   116.1622     9.1047     0.0134  1978.1851     2.5378   -74.0303     6.0902     5.9447    10.0264
 2543.5000   117.9377     9.1350     0.0105  1978.6417     2.5396   -74.0257     6.1314     5.3963    10.0954
 2544.0000   119.7525     9.1410     0.0072  1948.3290     2.5288   -74.0211     6.1293     4.8647     9.6176
 2544.5000   122.1315     9.1648     0.0010  1948.7854     2.5169   -74.0165     6.1706     4.5710     9.0994
 2545.0000   123.3633     9.1641    -0.0052  1980.0115     2.5079   -74.0119     6.1685     4.5077     8.8506
 2545.5000   125.0399     9.1945    -0.0109  1980.4680     2.5108   -74.0073     6.1668     4.5071     8.7890
 2546.0000   126.2755     9.2016    -0.0067  1980.9247     2.5182   -74.0027     6.1652     4.5063     8.9726
 2546.5000   127.3933     9.2323     0.0020  1981.3846     2.5286   -73.9981     6.2064     4.4747     9.0971
 2547.0000   127.3713     9.2629     0.0076  1981.8461     2.5285   -73.9935     6.2047     4.4741     8.7872
 2547.5000   127.3503     9.2849     0.0076  1982.3077     2.5092   -73.9890     6.2461     4.4735     8.6062
 2548.0000   127.3293     9.3153     0.0115  1982.7693     2.5151   -73.9844     6.2443     4.4421     8.6653
 2548.5000   127.3934     9.3456     0.0154  1983.2307     2.5225   -73.9798     6.1995     4.4109     9.1576
 2549.0000   129.0854     9.3759     0.0230  1983.6924     2.5284   -73.9752     6.1121     4.3200     9.4866
 2549.5000   129.6633     9.4063     0.0159  1984.1538     2.5328   -73.9706     6.0262     4.2308     8.7237
 2550.0000   129.6407     9.4056     0.0097  1984.6152     2.5283   -73.9660     5.9829     4.3188     8.3109
 2550.5000   127.4050     9.4050     0.0035  1985.0770     2.5207   -73.9614     5.8989     4.8644     8.1393
 2551.0000   121.8163     9.4043     0.0016  1985.5385     2.5101   -73.9568     5.8565     5.3487     8.7205
 2551.5000   125.1312     9.4037    -0.0015  1985.9999     2.4997   -73.9525     5.8144     5.6132     8.9021
 2552.0000   128.1198     9.4031    -0.0027  1986.4615     2.4924   -73.9482     5.7727     5.6518     9.0252
 2552.5000   129.7851     9.4025    -0.0045  1986.9231     2.4908   -73.9439     5.7491     5.5738     8.7775
 2553.0000   131.4412     9.4019    -0.0014  1987.3845     2.4926   -73.9396     5.6907     5.4592     8.3040
 2553.5000   132.1581     9.4012     0.0016  1987.8462     2.5002   -73.9353     5.6466     5.4213     7.7964
 2554.0000   133.6671     9.4006     0.0062  1957.4608     2.5105   -73.9311     5.6446     5.4209     7.6407
 2554.5000   132.7552     9.4000     0.0139  1957.9999     2.5164   -73.9268     5.6423     5.4206     7.6927
 2555.0000   131.0778     9.3994     0.0140  1958.4615     2.5174   -73.9225     5.6404     5.6105     7.6914
 2555.5000   130.0117     9.3988     0.0140  1958.9230     2.5091   -73.9182     5.6385     6.0111     7.6904
 2556.0000   132.4232     9.3981     0.0122  1959.3845     2.5027   -73.9140     5.6365     6.3961     8.2970
 2556.5000   136.6149     9.3975     0.0091  1959.8462     2.5037   -73.9097     5.6743     6.9481     8.6473
 2557.0000   138.3323     9.3969     0.0079  1960.3076     2.5120   -73.9054     5.7119     7.3931     8.8274
 2557.5000   135.5641     9.3963     0.0110  1960.7692     2.5164   -73.9011     5.7892     7.7586     8.8262
 2558.0000   133.9162     9.3957     0.0141  1961.2307     2.5201   -73.8968     5.8275     7.9205     8.5842
 2558.5000   132.5082     9.3950     0.0202  1961.6923     2.5182   -73.8926     5.8661     7.8091     8.2877
 2559.0000   131.2791     9.3635     0.0110  1962.1538     2.5156   -73.8883     5.8640     7.6422     8.0086
 2559.5000   129.0480     9.3628     0.0049  1962.6154     2.5126   -73.8840     5.8617     7.5451     8.0628
 2560.0000   127.0256     9.3932     0.0018  1963.1681     2.5051   -73.8797     5.8192     7.5446     8.5202
 2560.5000   123.3887     9.3926     0.0019  1963.6249     2.4976   -73.8754     5.7770     7.4407     8.6979
 2561.0000   119.6025     9.3920     0.0019  1964.0813     2.5107   -73.8712     5.6955     7.2876     8.3430
 2561.5000   125.6110     9.3429     0.0050  1964.5381     2.5236   -73.8669     5.6542     7.1872     8.2273
 2562.0000   127.4012     9.3288     0.0080  1964.9946     2.5272   -73.8626     5.6523     7.0394     8.1132
 2562.5000   129.1207     9.3282     0.0111  1965.4510     2.5244   -73.8583     5.6504     6.8946     8.0562
 2563.0000   130.5229     9.3585     0.0111  1965.9078     2.5199   -73.8540     5.6485     6.7939     8.1110
 2563.5000   130.8754     9.3578     0.0112  1966.3643     2.5145   -73.8498     5.6075     6.7523     8.2229
 2564.0000   130.0123     9.3882     0.0142  1966.8208     2.5092   -73.8455     5.5668     6.8458     8.2788
 2564.5000   130.1207     9.3875     0.0112  1967.2776     2.5062   -73.8412     5.4879     6.7378     8.2774
 2565.0000   132.1557     9.3869     0.0051  1967.7340     2.5039   -73.8369     5.4481     6.2141     8.1626
 2565.5000   134.5448     9.3863    -0.0011  1968.1908     2.5090   -73.8321     5.3713     5.9615     7.8299
 2566.0000   136.9349     9.3857    -0.0041  1968.6473     2.5090   -73.6859     5.2955     5.6799     7.5628
 2566.5000   138.7944     9.3850    -0.0041  1938.3346     2.5089   -73.9945     5.2208     5.4115     7.4065
 2567.0000   140.5748     9.3844    -0.0010  1938.7914     2.5057   -74.3016     5.1829     5.2276     7.4055
 2567.5000   142.6292     9.3838     0.0022  1939.2479     2.5020   -74.3075     5.1812     5.0151     7.3028
 2568.0000   143.5369     9.3832     0.0052  1939.7046     2.4969   -74.3134     5.1794     4.7782     7.0051
 2568.5000   144.1497     9.3826    -0.0012  1940.1611     2.4909   -74.0180     5.1777     4.6799     6.6716
 2569.0000   142.9261     9.3820    -0.0074  1940.6176     2.4953   -73.7228     5.1758     4.9112     6.5353
 2569.5000   141.1035     9.3813    -0.0101  1941.0770     2.5027   -73.7289     5.1737     5.2619     7.4003
 2570.0000   140.4790     9.3807    -0.0101  1941.5386     2.5101   -73.7361     5.1720     5.4465     7.8201
 2570.5000   141.6707     9.3801    -0.0101  1941.9999     2.5145   -73.7420     5.2062     5.4838     7.9282
