~VERSION INFORMATION
 VERS.                2.0:   CWLS LOG ASCII STANDARD - VERSION 2.0
 WRAP.                 NO:   ONE LINE PER DEPTH STEP
~WELL INFORMATION
#MNEM.UNIT      DATA TYPE    INFORMATION
#----------   ------------   ------------------------------
 STRT.F           58.0000:   START DEPTH
 STOP.F         5662.0000:   STOP DEPTH
 STEP.F            0.5000:   STEP LENGTH
 NULL.          -999.2500:   NO VALUE
 COMP. DEPARTMENT OF ENERGY:   COMPANY
 WELL. DEPARTMENT NPR 3 67 "X" #1-10:   WELL
 FLD .              NPR 3:   FIELD
 LOC .      S10 T38N R78W:   LOCATION
 CNTY.            NATRONA:   COUNTY
 STAT.            WYOMING:   STATE
 CTRY. UNITED STATES OF AMERICA:   COUNTRY
 SRVC.       SCHLUMBERGER:   SERVICE COMPANY
 DATE.        05-FEB-2002:   LOGDATE
 API .     49025230400000:   API NUMBER
~CURVE INFORMATION
#MNEM.UNIT       API CODE    CURVE DESCRIPTION
#----------   ------------   ------------------------------
 DEPT.F                  :   
 TEND.LBS    45 635 01 00:   TENSION FROM DENSITY LOG
 PEFZ.B/E    45 358 01 00:   HILT PHOTOELECTRIC FACTOR
 HDRA.G/C3   45 356 01 00:   DELTA RHO HIP TOOL
 NPHI.DEC    42 890 03 00:   NEUTRON POROSITY SANDSTONE
 TENS.LBS    60 635 01 00:   TENSION
 DT  .US/F   60 520 00 00:   DELTA TIME
 TENR.LBS    07 635 01 00:   TENSION FROM RESISTIVITY
 CALR.IN     07 280 01 00:   CALIPER FROM RESISTIVITY
 GRR .GAPI   07 310 01 00:   GAMMA RAY FROM RESISTIVITY
 RXOZ.OHMM   11 270 04 00:   STD. RES. INVADED ZONE RESISTIVITY
 HLLD.OHMM   11 220 10 00:   LATEROLOG DEEP RES.
 HLLS.OHMM   11 220 09 00:   LATEROLOG SHALLOW RES.
 HRLD.OHMM   11 120 46 00:   HIGH RESOULATION DEEP RESISTIVITY
 RHOZ.G/C3   45 350 01 00:   HILT BULK DENSITY
~PARAMETER INFORMATION
#MNEM.UNIT          VALUE    DESCRIPTION
#----------   ------------   ------------------------------
 EKB .F         5205.7000:   Kelly bushing
 EGL .F         5195.7000:   Ground level
 EDF .F            0.0000:   Drilling floor
 EPD .F         5195.7000:   Permanent datum
 TD  .F         5654.0000:   Total depth
 DATE.        05-FEB-2002:   Date logged
 CLNT.            A2DTECH:   Client Code
 SL  . 1503' FEL & 721' FSL:   Surface Location
 PD  .                 GL:   Permanent Datum
 DAPD.F                10:   Feet Above Permanent Datum
 DD  .F              5650:   Depth driller
 DL  .F              5654:   Depth logger
 BLI .F              5646:   Bottom log interval
 TLI .F               499:   Top log interval
 CS1 .IN            9.625:   Casing size
 CBD1.      9.625" @ 505':   Casing driller 1
 CBL1.F               499:   Casing logger 1
 BS1 .IN            8.875:   Bit size
 BSD1.F              5650:   Depth drilled with bit1
 DFT .           GEL/CHEM:   Type fluid in hole
 DFD .                9.2:   Density
 DFV .                 52:   Viscosity
 DFPH.                8.5:   pH
 DFL .                6.8:   Fluid loss
 MSS .           FLOWLINE:   Source of sample
 RMS .OHMM           .954:   Rm
 MST .F                57:   Rm Meas. temp.
 RMF .OHMM           .734:   Rmf
 MFST.F                57:   Rmf Meas. temp.
 MFSS.              PRESS:   Source Rmf.
 RMB .OHMM           .403:   Rm. at BHT
 BHT .F               143:   BHT.
 TLAB.HRS            1208:   Time logger at bottom
 MRT .F               143:   Maximum recorded temp.
 LUN .               2211:   Logging unit number
 LUL .             CASPER:   Logging unit location
 ENGI.           R. SROUR:   Recorded By
 WITN.        M. MILLIKEN:   Witnessed by
 ORIG.           5" PRINT:   Origin of data
 UWI .     49025230400000:   Unique Well ID
 DICO. A2D TECHNOLOGIES, INC.:   Digitizing Company
 RMC .               1.24:   Rmc
 MCST.                 57:   Rmc Meas. temp.
 MCSS.              PRESS:   Source Rmc.
 TCS .                200:   Time Circ. stopped
~OTHER INFORMATION
~A   DEPT     TEND       PEFZ       HDRA       NPHI       TENS         DT       TENR       CALR         GRR      RXOZ       HLLD       HLLS       HRLD       RHOZ   
# ...
 4933.5000  2387.8191     3.3280    -0.0070     0.1280  1900.4980    57.6520  2373.3860    10.2370    91.7840    37.1020    24.2380    28.5260    26.1070     2.6730
 4934.0000  2388.0959     3.3110    -0.0050     0.1200  1900.4980    58.2260  2373.3860    10.2460    84.1530    40.1780    27.4350    31.3630    28.6750     2.6720
 4934.5000  2388.3740     3.2940    -0.0030     0.1130  1900.4980    59.4420  2373.3860    10.2550    82.4410    43.5230    29.7980    34.3080    30.8020     2.6860
 4935.0000  2388.6521     3.2770    -0.0010     0.1090  1900.4980    60.6580  2373.3860    10.2640    81.0150    44.3210    31.3090    34.5840    31.9450     2.6980
 4935.5000  2388.9290     3.2730    -0.0020     0.1100  1900.4980    61.8740  2373.3860    10.2730    80.2930    42.8870    31.2060    34.9410    32.0500     2.7010
 4936.0000  2389.2070     3.2830    -0.0020     0.1140  1900.4980    62.5100  2373.3860    10.2830    80.8860    42.3400    31.1170    34.6750    32.1800     2.6950
 4936.5000  2389.4851     3.2800    -0.0010     0.1190  1900.4980    62.9350  2373.3860    10.2920    83.0720    42.1250    31.0240    34.3080    31.6820     2.6940
 4937.0000  2389.7620     3.2470     0.0010     0.1260  1900.4980    63.0100  2373.3860    10.3010    85.4910    40.7340    29.7220    32.5230    30.7410     2.7020
 4937.5000  2390.0400     3.2360     0.0010     0.1340  1900.4980    63.2340  2373.9209    10.3100    87.6940    38.9940    27.9940    30.6530    29.1580     2.7020
 4938.0000  2390.3169     3.2420     0.0000     0.1410  1900.4980    64.0160  2375.4460    10.3160    89.9050    39.7140    26.2670    29.4310    27.4950     2.6950
 4938.5000  2390.5950     3.2480    -0.0010     0.1410  1900.4980    64.7260  2376.9700    10.3160    92.1010    37.3590    25.1380    28.5510    26.1190     2.6870
 4939.0000  2390.8730     3.2530    -0.0020     0.1380  1900.4980    65.4370  2378.4951    10.3160    93.5870    38.2870    26.4790    28.4070    27.2230     2.6860
 4939.5000  2391.1499     3.2230    -0.0020     0.1360  1900.4980    66.2190  2380.0200    10.3180    93.7480    36.4280    28.0540    28.3120    29.8590     2.6920
 4940.0000  2391.4280     3.1910    -0.0020     0.1350  1900.4980    66.6110  2381.5449    10.3240    95.0890    32.7740    26.6920    29.9090    31.5970     2.7020
 4940.5000  2391.7061     3.1600    -0.0010     0.1340  1900.4980    66.8160  2383.0691    10.3300    96.4800    33.1810    25.6940    29.6370    26.6360     2.7100
 4941.0000  2391.9829     3.1280    -0.0010     0.1390  1900.4980    66.2190  2384.5940    10.3360    96.0130    35.2360    25.1380    29.1000    25.8380     2.7060
 4941.5000  2392.2610     3.1410    -0.0020     0.1430  1900.4980    64.6140  2386.1189    10.3420    93.8140    37.3650    27.5460    27.7700    27.1460     2.6920
 4942.0000  2392.5391     3.1870    -0.0040     0.1480  1900.4980    62.8320  2387.6431    10.3470    93.9270    30.7440    26.3820    29.3910    27.7990     2.6790
 4942.5000  2392.8159     3.2330    -0.0050     0.1530  1900.4980    61.5050  2389.1680    10.3530    98.1430    25.3780    24.1980    26.3690    27.3800     2.6690
 4943.0000  2393.0940     3.2800    -0.0030     0.1790  1900.4980    60.5470  2390.6931    10.3590   102.2850    23.1660    22.0300    23.4820    26.3360     2.6710
 4943.5000  2393.3711     3.3260    -0.0010     0.2070  1900.4980    60.5470  2392.2180    10.3650   104.5080    21.6160    19.8950    21.4330    24.0150     2.6760
 4944.0000  2393.6489     3.3720     0.0010     0.2200  1900.4980    62.3700  2393.2471    10.3710   106.8470    19.6370    17.5960    19.8180    21.1260     2.6780
 4944.5000  2393.9270     3.3810     0.0040     0.2070  1900.4980    63.6820  2393.2471    10.3790   109.9980    20.5340    16.6570    20.5940    19.6370     2.6800
 4945.0000  2394.2041     3.3410     0.0060     0.1840  1900.4980    63.8310  2394.7429    10.3970   111.9830    21.1280    16.6570    21.5720    20.7450     2.6890
 4945.5000  2394.4819     3.3020     0.0060     0.1610  1900.4980    63.3830  2397.6150    10.4010   110.9950    20.9360    20.8040    23.6480    20.5740     2.6940
 4946.0000  2394.7600     3.2630     0.0060     0.1350  1900.4980    62.8860  2400.4861    10.4050   105.7040    29.0030    24.7640    29.1700    23.7350     2.6950
 4946.5000  2395.0371     3.2220     0.0040     0.1150  1900.4980    62.3880  2403.3569    10.4090    95.7540    35.5200    29.4900    35.9130    28.8430     2.6950
 4947.0000  2395.3149     3.2390     0.0020     0.1090  1900.4980    62.4130  2406.2280    10.4130    87.5780    43.9180    33.7560    37.8540    33.3510     2.6940
 4947.5000  2395.5920     3.2480    -0.0010     0.1070  1900.4980    62.6620  2409.1001    10.4170    80.5040    43.7400    34.3820    38.6390    33.0750     2.6990
 4948.0000  2395.8701     3.2450    -0.0020     0.1040  1900.4980    62.9100  2411.9709    10.4200    77.0450    43.5530    35.1750    38.8120    34.5130     2.7160
 4948.5000  2396.1479     3.2280     0.0000     0.0990  1900.4980    63.1340  2414.8420    10.4240    75.3380    46.7630    37.3410    40.4100    36.2430     2.7310
 4949.0000  2396.4250     3.2100     0.0010     0.0930  1900.4980    63.1590  2417.7129    10.4280    74.2690    52.0520    39.7140    42.0070    38.0000     2.7310
 4949.5000  2396.7029     3.1930     0.0000     0.0890  1900.4980    62.9100  2420.5850    10.4320    72.1660    58.8500    40.3120    43.8100    40.1380     2.7250
 4950.0000  2396.9810     3.1750     0.0030     0.0840  1900.4980    62.5880  2423.4561    10.4360    69.6870    63.6770    40.9740    46.0860    42.7360     2.7300
 4950.5000  2397.2581     3.1400     0.0030     0.0800  1900.4980    62.3200  2426.3269    10.4430    67.2170    69.0290    41.5720    47.8480    43.6920     2.7420
 4951.0000  2397.5359     3.1600     0.0030     0.0750  1900.4980    62.2580  2429.1990    10.4500    64.4280    73.2960    46.1900    52.6130    43.9180     2.7490
 4951.5000  2397.8140     3.1880     0.0030     0.0670  1900.4980    62.6590  2432.0701    10.4570    61.8220   101.8780    56.6580    61.6990    55.1060     2.7430
 4952.0000  2398.1189     3.2160     0.0020     0.0650  1900.4980    63.2340  2432.9690    10.4640    63.4640   101.8780    61.8550    70.0200    62.5360     2.7250
 4952.5000  2398.4919     3.2460     0.0000     0.0680  1900.4980    64.6240  2432.9690    10.4700    69.4510    82.6850    67.5040    63.7120    65.0790     2.7070
 4953.0000  2398.8660     3.2570    -0.0020     0.0930  1900.4980    65.9250  2432.9690    10.4770    78.9240    59.8410    59.2390    46.9730    48.5310     2.6930
 4953.5000  2399.2390     3.2630    -0.0030     0.1330  1900.4980    66.6790  2432.9690    10.4840    95.1980    37.0120    41.9430    26.2430    35.6140     2.6840
 4954.0000  2399.6121     3.2690    -0.0030     0.1720  1900.6000    66.9150  2432.9690    10.4910   104.7640    18.7580    28.9870    22.3830    23.5790     2.6820
 4954.5000  2399.9851     3.2740    -0.0030     0.1870  1900.7230    65.8880  2432.9690    10.4980   111.3450    17.6830    23.3650    21.9160    23.1520     2.6860
 4955.0000  2400.3589     3.2720    -0.0030     0.1850  1900.8450    64.4680  2432.9690    10.5050   111.7310    17.5960    24.6240    22.7000    23.9600     2.6890
 4955.5000  2400.7319     3.2280    -0.0020     0.1730  1900.9670    62.6840  2432.9690    10.5120   110.4820    18.5950    26.5250    24.3980    25.7100     2.6940
 4956.0000  2401.1050     3.1860    -0.0010     0.1600  1901.0890    60.9000  2432.9690    10.5190   106.4750    23.5790    27.0890    26.0970    26.3150     2.6900
 4956.5000  2401.4780     3.1620     0.0010     0.1470  1901.2111    59.9930  2432.9690    10.5260   101.2720    22.1170    27.4270    27.7950    25.7700     2.6860
 4957.0000  2401.8521     3.1990     0.0070     0.1280  1901.3330    59.3020  2432.9690    10.5330    95.6910    25.8380    27.7990    31.5860    25.1380     2.6890
 4957.5000  2402.2251     3.2330     0.0140     0.1070  1901.4550    58.8630  2432.9690    10.5400    89.0350    23.9890    34.7640    35.5860    30.6630     2.6970
