~VERSION INFORMATION
 VERS.                2.0:   CWLS LOG ASCII STANDARD - VERSION 2.0
 WRAP.                 NO:   ONE LINE PER DEPTH STEP
~WELL INFORMATION
#MNEM.UNIT      DATA TYPE    INFORMATION
#----------   ------------   ------------------------------
 STRT.F           81.0000:   START DEPTH
 STOP.F          910.0000:   STOP DEPTH
 STEP.F            0.5000:   STEP LENGTH
 NULL.          -999.2500:   NO VALUE
 COMP.         U. S. NAVY:   COMPANY
 WELL. US NAVY NPR 3 "S" #37-35:   WELL
 FLD .             TEAPOT:   FIELD
 LOC .      S35 T39N R78W:   LOCATION
 CNTY.            NATRONA:   COUNTY
 STAT.            WYOMING:   STATE
 CTRY. UNITED STATES OF AMERICA:   COUNTRY
 SRVC.       SCHLUMBERGER:   SERVICE COMPANY
 DATE.        22-JUL-1963:   LOGDATE
 API .     49025065040000:   API NUMBER
~CURVE INFORMATION
#MNEM.UNIT       API CODE    CURVE DESCRIPTION
#----------   ------------   ------------------------------
 DEPT.F                  :   
 SPR .MV     05 010 01 00:   SPONTANEOUS POTENTIAL FROM RES.
 ASN .OHMM   05 041 16 00:   AMPLIFIED SHORT NORMAL 16"
 ILD .OHMM   05 120 46 00:   INDUCTION LOG DEEP
~PARAMETER INFORMATION
#MNEM.UNIT          VALUE    DESCRIPTION
#----------   ------------   ------------------------------
 EKB .F         5113.0000:   Kelly bushing
 EGL .F         5108.0000:   Ground level
 TD  .F          900.0000:   Total depth
 DATE.        22-JUL-1963:   Date logged
 CLNT.            A2DTECH:   Client Code
 PD  .                 GL:   Permanent Datum
 EPD .F              5108:   Elevation Permanent Datum
 LMF .                 KB:   Log Measured From
 DMF .                 KB:   Drilling Measured From
 DAPD.F                 5:   Feet Above Permanent Datum
 DD  .F               900:   Depth driller
 DL  .F               900:   Depth logger
 BLI .F               899:   Bottom log interval
 TLI .F                81:   Top log interval
 BS1 .IN            7.875:   Bit size
 BSD1.F               900:   Depth drilled with bit1
 DFT .                GEL:   Type fluid in hole
 DFD .                9.6:   Density
 DFV .                 67:   Viscosity
 DFPH.                  9:   pH
 DFL .                4.8:   Fluid loss
 MSS .           FLOWLINE:   Source of sample
 RMS .OHMM            3.4:   Rm
 MST .F                77:   Rm Meas. temp.
 RMF .OHMM            3.3:   Rmf
 MFST.F                77:   Rmf Meas. temp.
 RMC .OHMM            3.8:   Rmc
 MCST.F                77:   Rmc Meas. temp.
 MFSS.                 FP:   Source Rmf.
 TCS .HRS               1:   Time Circ. stopped
 LUN .               2523:   Logging unit number
 LUL .               CSPR:   Logging unit location
 ENGI.            GIFFORD:   Recorded By
 WITN.          JORGENSON:   Witnessed by
 ORIG.           5" PRINT:   Origin of data
 UWI .     49025065040000:   Unique Well ID
 DICO. A2D TECHNOLOGIES, INC.:   Digitizing Company
~OTHER INFORMATION
~A   DEPT      SPR        ASN        ILD   
# ...
  354.0000   -47.0420     2.9960     3.6390
  354.5000   -46.9110     3.0930     3.7110
  355.0000   -46.7780     3.1930     3.8840
  355.5000   -46.7320     3.2920     4.0750
  356.0000   -46.8710     3.3570     4.2660
  356.5000   -47.0140     3.5540     4.4590
  357.0000   -47.1570     3.9860     4.6510
  357.5000   -47.3000     4.1500     4.8440
  358.0000   -47.3140     4.2310     5.0370
  358.5000   -47.1630     4.3190     5.2230
  359.0000   -47.0120     4.3980     5.2380
  359.5000   -46.8620     4.4320     5.2600
  360.0000   -46.7300     4.4570     5.2810
  360.5000   -46.8450     4.4820     5.3030
  361.0000   -46.9770     4.5070     5.3290
  361.5000   -47.1090     4.5160     5.1980
  362.0000   -47.2400     4.2890     5.0440
  362.5000   -47.3720     4.0110     4.8890
  363.0000   -47.5030     3.8560     4.7340
  363.5000   -47.6330     3.7500     4.5790
  364.0000   -47.7180     3.8240     4.4240
  364.5000   -47.5850     3.7380     4.2700
  365.0000   -47.3640     3.6270     4.1160
  365.5000   -47.1420     3.5160     4.0360
  366.0000   -46.9200     3.4340     4.1250
  366.5000   -46.6980     3.4670     4.3060
  367.0000   -46.4760     3.6270     4.4880
  367.5000   -46.2540     3.7570     4.6700
  368.0000   -46.1400     3.8320     4.8520
  368.5000   -46.3220     4.2080     5.0340
  369.0000   -46.5020     4.6720     5.2160
  369.5000   -46.6810     4.9760     5.3980
  370.0000   -46.8610     5.1870     5.5800
  370.5000   -47.0410     5.3070     5.7630
  371.0000   -47.2200     5.4260     5.9450
  371.5000   -47.3990     5.5450     6.1270
  372.0000   -47.5190     5.6680     6.3090
  372.5000   -47.3910     5.8830     6.4910
  373.0000   -47.2540     6.1050     6.6730
  373.5000   -47.1180     6.3280     6.8550
  374.0000   -46.9810     6.5510     7.0370
  374.5000   -46.8450     6.7740     7.2240
  375.0000   -46.7080     6.9970     7.3100
  375.5000   -46.5710     7.1060     7.2980
  376.0000   -46.4400     7.1160     7.2850
  376.5000   -46.3470     7.1060     7.2710
  377.0000   -46.1470     7.0950     7.2580
  377.5000   -46.2410     7.0840     7.2440
  378.0000   -46.3250     7.0730     7.2300
  378.5000   -46.4090     7.0580     7.2160
  379.0000   -46.4950     7.0550     7.2030
  379.5000   -46.5810     7.0800     7.1890
  380.0000   -46.6660     7.1060     7.1750
  380.5000   -46.7280     7.1330     7.1620
  381.0000   -46.7500     7.1340     7.1480
  381.5000   -46.7760     7.1050     7.1340
  382.0000   -46.8030     7.0760     7.1220
  382.5000   -46.8290     7.0480     7.1430
  383.0000   -46.8550     7.0190     7.3070
  383.5000   -46.8820     6.9910     7.4930
  384.0000   -46.9090     7.0240     7.6760
  384.5000   -46.9160     7.2420     7.8580
  385.0000   -46.6470     7.4590     8.0400
  385.5000   -46.3660     7.6760     8.2220
  386.0000   -46.0860     7.8100     8.4040
  386.5000   -45.8050     7.9000     8.5860
  387.0000   -45.5480     7.9940     8.7690
  387.5000   -45.6570     8.1400     8.9510
  388.0000   -45.7760     8.2900     9.1290
  388.5000   -45.8940     8.4360     9.3170
  389.0000   -46.0120     8.4590     9.3330
  389.5000   -46.1300     8.3730     9.1050
  390.0000   -46.2480     8.2010     8.5160
  390.5000   -46.3650     8.0460     7.9100
  391.0000   -46.4830     7.8120     7.3020
  391.5000   -46.6020     7.5000     6.6930
  392.0000   -46.7140     7.0900     6.0840
  392.5000   -46.4270     6.6870     5.4750
  393.0000   -46.1100     6.2010     4.8660
  393.5000   -45.7920     5.5590     4.2570
  394.0000   -45.4740     4.9140     3.6460
  394.5000   -45.1570     4.2830     3.0400
  395.0000   -44.8400     3.7880     2.8300
  395.5000   -44.5210     3.5450     2.7520
  396.0000   -44.1970     3.4550     2.6650
  396.5000   -44.3390     3.4730     2.7950
  397.0000   -44.5640     3.6400     3.0210
  397.5000   -44.7920     3.8460     3.5520
  398.0000   -45.0200     4.2140     4.4370
  398.5000   -45.2490     4.4760     5.3190
  399.0000   -45.4770     5.8590     6.2020
  399.5000   -45.7060     7.5980     7.0850
  400.0000   -45.9340     9.1510     7.9700
  400.5000   -46.1620    11.6920     8.8580
  401.0000   -46.3900    13.1040     9.7570
  401.5000   -46.6190    13.8870     9.9960
  402.0000   -46.7250    14.6910    10.1440
  402.5000   -46.7250    13.6560    10.2960
  403.0000   -46.7250    12.5470    10.2270
  403.5000   -46.7400    11.4290     9.3930
  404.0000   -47.2690    10.3850     8.4480
  404.5000   -47.8370    10.0080     7.5020
  405.0000   -48.4250     9.4730     6.5570
  405.5000   -47.7750     8.0530     5.6180
  406.0000   -46.8870     7.2130     4.9150
  406.5000   -45.9860     7.2430     5.0180
  407.0000   -45.0870     7.1210     5.8200
  407.5000   -45.1100     7.4260     6.7700
  408.0000   -45.4750     8.7480     7.7320
  408.5000   -45.8420     9.9710     8.6960
  409.0000   -46.2090    10.0720     9.6580
  409.5000   -46.5770    10.1400    10.6170
  410.0000   -46.9450    10.2160    11.5770
  410.5000   -47.3130    10.5340    12.1650
  411.0000   -47.6800    10.8410    12.3120
  411.5000   -48.0490    11.1480    12.4620
  412.0000   -48.4250    11.4540    12.6100
  412.5000   -48.4770    11.7610    12.7570
  413.0000   -48.4390    12.0700    12.9040
  413.5000   -48.3980    12.3860    13.0510
  414.0000   -48.3570    12.4510    13.1970
  414.5000   -48.3160    12.5040    13.2990
  415.0000   -48.4150    12.5570    13.2800
  415.5000   -48.5810    12.6110    13.2570
  416.0000   -48.7470    12.6650    13.2340
  416.5000   -48.9140    12.7190    13.2120
  417.0000   -49.0800    12.7720    13.1980
  417.5000   -49.2450    12.8260    13.2310
  418.0000   -49.4110    12.8800    13.4250
  418.5000   -49.3690    12.9340    13.6180
  419.0000   -49.0820    12.9840    13.8110
  419.5000   -48.7990    13.1370    14.0040
  420.0000   -48.5240    13.3060    14.1970
  420.5000   -48.4790    13.4760    14.3900
  421.0000   -48.6260    13.6470    14.5830
  421.5000   -48.7260    13.8170    14.7760
  422.0000   -48.8240    13.9880    14.9690
  422.5000   -48.9520    14.1580    15.1620
  423.0000   -49.2190    14.3290    15.3550
  423.5000   -49.4880    14.4990    15.5460
  424.0000   -49.7580    14.6720    15.7020
  424.5000   -50.0280    14.8680    15.9300
  425.0000   -50.2890    15.1550    16.1570
  425.5000   -50.2980    15.4380    16.3830
  426.0000   -50.2980    15.7200    16.5870
  426.5000   -50.2980    16.0020    16.9150
  427.0000   -50.2990    16.2840    17.2740
  427.5000   -50.3430    16.5670    17.6340
  428.0000   -50.5450    16.8490    17.9940
  428.5000   -50.6980    17.1320    18.3540
  429.0000   -50.6550    17.4140    18.7140
  429.5000   -50.5720    17.6960    19.0740
  430.0000   -50.5890    17.9790    19.4350
  430.5000   -51.1220    18.2600    19.7980
  431.0000   -51.7570    18.4740    19.8540
  431.5000   -52.3610    18.4170    19.7840
  432.0000   -52.9610    18.3640    19.7120
  432.5000   -53.5600    18.3150    19.5710
  433.0000   -54.2240    18.2980    19.3270
  433.5000   -55.0900    18.3040    19.0840
  434.0000   -55.9750    18.2290    18.8410
  434.5000   -56.8690    18.1490    18.5990
  435.0000   -57.0280    18.0690    18.3560
  435.5000   -56.7850    17.9890    18.1130
  436.0000   -56.5280    17.9080    17.8700
  436.5000   -56.2710    17.8280    17.6270
  437.0000   -56.0130    17.7480    17.3840
  437.5000   -55.7560    17.6670    17.1410
  438.0000   -55.5000    17.5840    16.8990
  438.5000   -55.2320    17.5980    16.6860
  439.0000   -54.5690    17.6180    16.7140
  439.5000   -53.9160    17.6370    16.7730
  440.0000   -53.2480    17.6560    16.8280
  440.5000   -52.9460    17.6760    16.8810
  441.0000   -52.6710    17.4570    16.5790
  441.5000   -52.4060    16.7460    16.0410
  442.0000   -51.8490    16.0250    15.5080
  442.5000   -51.5190    15.3070    14.4640
  443.0000   -51.7090    14.5720    13.0590
  443.5000   -51.6220    13.4980    11.9310
  444.0000   -50.0030    12.2040    10.9810
  444.5000   -48.3900    10.9060    10.0290
