~VERSION INFORMATION
 VERS.                2.0:   CWLS LOG ASCII STANDARD - VERSION 2.0
 WRAP.                 NO:   ONE LINE PER DEPTH STEP
~WELL INFORMATION
#MNEM.UNIT      DATA TYPE    INFORMATION
#----------   ------------   ------------------------------
 STRT.F         2185.0000:   START DEPTH
 STOP.F         5688.0000:   STOP DEPTH
 STEP.F            0.5000:   STEP LENGTH
 NULL.          -999.2500:   NO VALUE
 COMP.       FLUOR DANIEL:   COMPANY
 WELL.   FLUOR "X" #53-10:   WELL
 FLD .           N.P.R #3:   FIELD
 LOC .      S10 T38N R78W:   LOCATION
 CNTY.            NATRONA:   COUNTY
 STAT.            WYOMING:   STATE
 CTRY. UNITED STATES OF AMERICA:   COUNTRY
 SRVC.      WESTERN ATLAS:   SERVICE COMPANY
 DATE.        23-MAR-1997:   LOGDATE
 API .     49025228470000:   API NUMBER
~CURVE INFORMATION
#MNEM.UNIT       API CODE    CURVE DESCRIPTION
#----------   ------------   ------------------------------
 DEPT.F                  :   
 CNC .DEC    42 890 03 00:   NEUTRON POROSITY SANDSTONE
 TEND.LBS    45 635 01 00:   TENSION FORM DENSITY LOG
 GRD .GAPI   45 310 01 00:   GAMMA RAY FROM DENSITY LOG
 CALD.IN     45 280 60 00:   CALIPER FROM DENSITY LOG
 ZDEN.G/C3   45 350 01 00:   BULK DENSITY
 ZCOR.G/C3   45 356 01 00:   DENSITY CORRECTION
 PE  .B/E    45 358 01 00:   PHOTOELECTRIC FACTOR
 R4SL.OHMM   07 000 00 00:   RESISTIVITY DEL 4
 R2SL.OHMM   07 000 00 00:   RESISTIVITY DEL 2
~PARAMETER INFORMATION
#MNEM.UNIT          VALUE    DESCRIPTION
#----------   ------------   ------------------------------
 EKB .F         5182.0000:   Kelly bushing
 EGL .F         5172.0000:   Ground level
 EDF .F         5181.0000:   Drilling floor
 EPD .F         5172.0000:   Permanent datum
 TD  .F         5690.0000:   Total depth
 CLNT.            A2DTECH:   Client Code
 SL  . 1183' FNL & 2118' FEL:   Surface Location
 PD  .                 GL:   Permanent Datum
 LMF .                 KB:   Log Measured From
 DMF .                 KB:   Drilling Measured From
 DAPD.F                10:   Feet Above Permanent Datum
 DATE.        23-MAR-1997:   Date Logged [DD-MMM-YYYY]
 DD  .F              5690:   Depth driller
 DL  .F              5688:   Depth logger
 BLI .F              5648:   Bottom log interval
 TLI .F              2200:   Top log interval
 CS1 .IN            9.625:   Casing size
 CBD1.      9.625" @ 446':   Casing driller 1
 CBL1.F               452:   Casing logger 1
 BS1 .IN             8.75:   Bit size
 BSD1.F              5690:   Depth drilled with bit1
 DFT .           GEL CHEM:   Type fluid in hole
 DFD .                9.8:   Density
 DFV .                 66:   Viscosity
 DFPH.                8.5:   pH
 DFL .                8.4:   Fluid loss
 MSS .              CIRC.:   Source of sample
 RMS .OHMM            1.1:   Rm
 MST .F                73:   Rm Meas. temp.
 RMF .OHMM           0.87:   Rmf
 MFST.F                73:   Rmf Meas. temp.
 MFSS.               CALC:   Source Rmf.
 RMC .OHMM           1.35:   Rmc
 MCST.F                73:   Rmc Meas. temp.
 MCSS.               CALC:   Source Rmc.
 RMB .OHMM           0.46:   Rm. at BHT
 BHT .F               174:   BHT.
 TCS .HRS               5:   Time Circ. stopped
 MRT .F               174:   Maximum recorded temp.
 LUN .            HL 6530:   Logging unit number
 LUL .          CASPER WY:   Logging unit location
 ENGI.           BROWNLOW:   Recorded By
 WITN.              HARDY:   Witnessed by
 ORIG.     2.5", 5" PRINT:   Origin of data
 UWI .     49025228470000:   Unique Well ID
 DICO. A2D TECHNOLOGIES, INC.:   Digitizing Company
~OTHER INFORMATION
~A  DEPTH      CNC       TEND        GRD       CALD       ZDEN       ZCOR         PE       R4SL       R2SL
# ...
 4484.5000     0.0392   -17.0914    17.7940     8.8467     2.7193     0.0545     4.3139    85.9495    66.5046
 4485.0000     0.0386   -16.8666    16.5980     8.8475     2.7193     0.0604     4.2087    87.1163    56.4155
 4485.5000     0.0368    -9.1016    15.1008     8.8482     2.7140     0.0473     4.2686    79.0364    54.1726
 4486.0000     0.0356    -1.3845    16.3145     8.8490     2.6989     0.0227     4.5237    70.7305    54.3161
 4486.5000     0.0353    -8.7151    18.1306     8.8497     2.6952     0.0211     4.9290    70.6977    58.1314
 4487.0000     0.0350    -8.4392    21.1515     8.8505     2.6861     0.0181     5.1691    70.6696    64.0811
 4487.5000     0.0344    -8.2183    24.7748     8.8512     2.6823     0.0165     4.9587    69.6713    68.7093
 4488.0000     0.0338    -0.5012    26.2897     8.8521     2.6838     0.0285     4.8685    67.7438    79.2906
 4488.5000     0.0332    22.2084    25.0938     8.8528     2.6958     0.0374     4.8383    62.3207    89.0364
 4489.0000     0.0319    37.4218    23.5966     8.8536     2.7070     0.0404     4.8390    52.7701    94.5751
 4489.5000     0.0302    37.6425    21.1958     8.8543     2.7152     0.0358     4.8699    43.4641    89.5834
 4490.0000     0.0296    22.8709    18.7566     8.8551     2.7212     0.0342     4.9129    41.6812    71.9059
 4490.5000     0.0296    23.0918    16.6514     8.8558     2.7320     0.0432     4.9127    40.5254    56.1469
 4491.0000     0.0305    23.3133    15.5017     8.8566     2.7376     0.0431     4.9426    37.8028    50.3230
 4491.5000     0.0326    23.5382    14.6070     8.8573     2.7323     0.0416     4.9575    32.9073    44.4857
 4492.0000     0.0344     7.5510    16.4230     8.8580     2.7195     0.0400     4.9724    24.6017    34.2650
 4492.5000     0.0398    -6.0099    17.9379     8.8588     2.6902     0.0339     4.9572    20.8315    17.2106
 4493.0000     0.0567     1.7625    18.2480     8.8595     2.6579     0.0359     4.8519    15.5747    12.3700
 4493.5000     0.0810   -13.0091    18.8593     8.8603     2.6279     0.0473     4.5365    14.1321    12.3832
 4494.0000     0.0962   -20.3398    19.4705     8.8610     2.6001     0.0473     4.2060    13.9315    12.0527
 4494.5000     0.1196   -20.0639    21.2866     8.8619     2.5986     0.0457     3.8305    14.1209    11.4181
 4495.0000     0.1236   -19.8430    25.8136     8.8627     2.6061     0.0426     3.5450    14.3118    10.3758
 4495.5000     0.1131   -12.1258    30.9429     8.8634     2.6038     0.0411     3.2893    14.1087     9.0479
 4496.0000     0.1065    -4.4087    36.7419     8.8642     2.5832     0.0455     3.1368    13.1600     7.9973
 4496.5000     0.1113    -4.1880    43.1386     8.8649     2.5495     0.0485     2.9994    11.7770     7.5742
 4497.0000     0.1203    11.0253    49.0440     8.8656     2.5422     0.0529     2.8537    11.1388     7.2740
 4497.5000     0.1263    11.2462    53.5709     8.8664     2.5452     0.0574     2.7485    10.8306     7.1792
 4498.0000     0.1329     3.9709    59.6039     8.8671     2.5421     0.0483     2.7033    10.5303     7.1237
 4498.5000     0.1359     4.1979    64.1308     8.8679     2.5383     0.0452     2.7632    10.5261     7.0021
 4499.0000     0.1384     4.4677    65.6457     8.8686     2.5406     0.0437     2.8682    10.5219     6.8805
 4499.5000     0.1407     4.6886    67.7630     8.8693     2.5480     0.0451     3.0782    10.5178     6.7589
 4500.0000     0.1458     4.8603    70.7839     8.8701     2.5594     0.0420     3.1682    10.4040     6.6372
 4500.5000     0.1612    -2.7824    74.1060     8.8708     2.5828     0.0373     3.2131     9.7153     5.4255
 4501.0000     0.1827    -2.9290    79.8377     8.8565     2.6051     0.0284     3.3480     8.7811     4.5807
 4501.5000     0.2116    11.9171    88.8827     8.8574     2.6372     0.0223     3.6782     7.7524     4.4586
 4502.0000     0.2419    19.2668   100.0362     8.8428     2.6507     0.0208     3.9483     7.4364     4.5872
 4502.5000     0.2461     4.1230   118.2800     8.8287     2.6477     0.0207     4.0083     7.8581     5.1967
 4503.0000     0.2446     3.9447   129.4038     8.8294     2.6447     0.0252     4.0065     8.5368     5.8066
 4503.5000     0.2192     3.7982   132.2939     8.8453     2.6515     0.0296     3.8567     9.4033     6.1405
 4504.0000     0.1888     3.6517   122.6642     8.8460     2.6575     0.0220     3.4522     9.9370     5.8149
 4504.5000     0.1879     3.5051   115.4441     8.8467     2.6635     0.0190     3.2719     9.1441     5.2110
 4505.0000     0.1944     3.3733   109.7301     8.8475     2.6567     0.0174     3.1516     8.4149     4.8934
 4505.5000     0.2144     3.2122   108.8331     8.8482     2.6500     0.0204     3.4067     7.9610     4.6084
 4506.0000     0.2180     3.0657   113.6635     8.8490     2.6478     0.0233     3.9225     7.8506     4.8740
 4506.5000     0.2081     2.9191   121.8049     8.8481     2.6485     0.0277     4.0880     8.1821     5.2979
 4507.0000     0.1943     2.7726   125.1270     8.8472     2.6516     0.0347     4.1634     8.8886     5.9202
 4507.5000     0.1743     2.6237   126.0395     8.8462     2.6569     0.0408     4.0886     9.6563     6.3470
 4508.0000     0.1587     2.4738   123.9399     8.8453     2.6605     0.0423     3.6234    10.4905     6.5287
 4508.5000     0.1553     2.2965   120.3054     8.8444     2.6620     0.0438     3.4110    10.2026     6.7463
 4509.0000     0.1587     2.1499   114.7964     8.8435     2.6621     0.0423     3.3212    10.0876     7.0047
 4509.5000     0.1639     2.0034   111.9205     8.8426     2.6606     0.0333     3.2490    10.2001     7.4067
 4510.0000     0.1620     1.8570   111.0235     8.8429     2.6523     0.0288     3.2342    11.0806     8.1626
 4510.5000     0.1523    16.7397   111.6348     8.8438     2.6328     0.0243     3.2045    12.0376     9.3765
 4511.0000     0.1448     9.0602   108.9350     8.8447     2.6066     0.0153     3.2949    13.0773    10.4769
 4511.5000     0.1276    -6.0788   102.3174     8.8607     2.5879     0.0049     3.6105    14.2068    11.5461
 4512.0000     0.1132    -6.2254    92.0853     8.8465     2.5819    -0.0041     3.7910    15.4339    12.9010
 4512.5000     0.1035    -6.3718    77.7355     8.8474     2.5737     0.0064     3.7762    16.0852    14.2192
 4513.0000     0.0949     8.4742    68.1630     8.8485     2.5699     0.0109     3.7165    16.3077    15.2440
 4513.5000     0.0849    15.8239    60.9489     8.8494     2.5631     0.0109     3.6568    16.5322    15.8975
 4514.0000     0.0776    15.6409    60.0446     8.8503     2.5602     0.0169     3.6571    16.5297    15.6926
 4514.5000     0.0746     7.9981    59.4346     8.8512     2.5714     0.0275     3.6574    16.7580    15.0667
 4515.0000     0.0734     0.3553    60.6957     8.8367     2.5812     0.0335     3.6426    16.7550    14.2676
 4515.5000     0.0734   -14.7838    62.8189     8.8379     2.5894     0.0352     3.5229    16.7528    12.9635
 4516.0000     0.0758    -7.4340    62.2313     8.8387     2.5947     0.0380     3.2979    16.7506    11.1478
 4516.5000     0.0866     7.4121    61.6400     8.8396     2.5932     0.0425     3.1631    15.6290     9.1969
 4517.0000     0.0948    14.7676    62.8633     8.8405     2.5947     0.0456     3.1934    13.2374     7.9079
 4517.5000     0.1071    14.6177    67.9986     8.8414     2.6030     0.0291     3.4189    10.7561     6.0066
 4518.0000     0.1301     6.9716    75.2423     8.8423     2.6217     0.0246     3.5994     9.2370     4.6254
 4518.5000     0.1503     6.8215    92.7270     8.8432     2.6435     0.0291     3.6598     7.6099     4.3689
 4519.0000     0.1872    -0.8534   112.3201     8.8441     2.6704     0.0411     3.6751     7.1005     4.1473
 4519.5000     0.2213    -8.4962   127.3951     8.8452     2.6712     0.0441     3.6454     6.9059     4.4472
 4520.0000     0.2228   -16.1390   134.3376     8.8461     2.6589     0.0426     3.6456     7.1977     5.1080
 4520.5000     0.2089   -16.2855   134.6536     8.8470     2.6454     0.0380     3.5834     7.8190     6.3731
