~VERSION INFORMATION
 VERS.                2.0:   CWLS LOG ASCII STANDARD - VERSION 2.0
 WRAP.                 NO:   ONE LINE PER DEPTH STEP
~WELL INFORMATION
#MNEM.UNIT      DATA TYPE    INFORMATION
#----------   ------------   ------------------------------
 STRT.F          208.0000:   START DEPTH
 STOP.F         2950.0000:   STOP DEPTH
 STEP.F            0.5000:   STEP LENGTH
 NULL.          -999.2500:   NO VALUE
 COMP.    FENIX & SCISSON:   COMPANY
 WELL.     FENIX A #56-28:   WELL
 FLD .                NPR:   FIELD
 LOC .      S28 T39N R78W:   LOCATION
 CNTY.            NATRONA:   COUNTY
 STAT.            WYOMING:   STATE
 CTRY. UNITED STATES OF AMERICA:   COUNTRY
 SRVC.              WELEX:   SERVICE COMPANY
 DATE.        20-AUG-1977:   LOGDATE
 API .     49025104140000:   API NUMBER
~CURVE INFORMATION
#MNEM.UNIT       API CODE    CURVE DESCRIPTION
#----------   ------------   ------------------------------
 DEPT.F                  :   
 SPR .MV     07 010 01 00:   SPONTANEOUS POTENTIAL
 RILM.OHMM   07 120 44 00:   INDUCTION LOG MEDIUM RESISTIVITY
 RILD.OHMM   07 120 46 00:   INDUCTION LOG DEEP RESISTIVITY
 SGRD.OHMM   07 220 05 00:   SHALLOW GUARD LOG RESISTIVITY
 CALD.IN     45 280 60 00:   CALIPER FROM DENSITY LOG
 DCOR.G/C3   45 356 01 00:   DENSITY CORRECTION
 GRD .GAPI   45 310 01 00:   GAMMA RAY FROM DENSITY LOG
 RHOB.G/C3   45 350 01 00:   BULK DENSITY
~PARAMETER INFORMATION
#MNEM.UNIT          VALUE    DESCRIPTION
#----------   ------------   ------------------------------
 EKB .F         5088.0000:   Kelly bushing
 EGL .F         5078.0000:   Ground level
 EDF .F            0.0000:   Drilling floor
 EPD .F         5078.0000:   Permanent datum
 TD  .F         2960.0000:   Total depth
 DATE.        20-AUG-1977:   Date logged
 CLNT.            A2DTECH:   Client Code
 SL  . 1650' FSL & 2310' FEL:   Surface Location
 PD  .                 GL:   Permanent Datum
 LMF .                 KB:   Log Measured From
 DMF .                 KB:   Drilling Measured From
 DAPD.F                10:   Feet Above Permanent Datum
 DD  .F              2960:   Depth driller
 DL  .F              2952:   Depth logger
 BLI .F              2950:   Bottom log interval
 TLI .F               210:   Top log interval
 CS1 .IN            8.625:   Casing size
 CBD1.      8.625" @ 215':   Casing driller 1
 CBL1.F               218:   Casing logger 1
 BS1 .IN            7.875:   Bit size
 BSD1.F              2960:   Depth drilled with bit1
 DFT .            KCL MUD:   Type fluid in hole
 DFD .                8.9:   Density
 DFV .                 60:   Viscosity
 DFPH.                 11:   pH
 DFL .                7.2:   Fluid loss
 MSS .           FLOWLINE:   Source of sample
 RMS .OHMM            .78:   Rm
 MST .F                81:   Rm Meas. temp.
 RMF .OHMM            .46:   Rmf
 MFST.F                81:   Rmf Meas. temp.
 RMC .OHMM           1.66:   Rmc
 MCST.F                81:   Rmc Meas. temp.
 MFSS.               CALC:   Source Rmf.
 MCSS.               CALC:   Source Rmc.
 RMB .OHMM            .56:   Rm. at BHT
 BHT .F               112:   BHT.
 TCS .HRS             2.5:   Time Circ. stopped
 MRT .F               112:   Maximum recorded temp.
 LUN .               8611:   Logging unit number
 LUL .             CASPER:   Logging unit location
 ENGI.             C DOAK:   Recorded By
 WITN.       B HARRINGTON:   Witnessed by
 ORIG.           5" PRINT:   Origin of data
 UWI .     49025104140000:   Unique Well ID
 DICO. A2D TECHNOLOGIES, INC.:   Digitizing Company
~OTHER INFORMATION
~A   DEPT      SPR       RILM       RILD       SGRD         CALD     DCOR        GRD       RHOB   
# ...
 1463.5000   -78.9640     8.9390     7.3460    11.4840     9.3320     0.0090   123.0990     2.5000
 1464.0000   -79.1320     8.8140     7.3570    11.0680     9.3270     0.0060   123.1440     2.4940
 1464.5000   -79.1790     8.8800     7.3680    10.9800     9.3220     0.0040   123.2810     2.4880
 1465.0000   -79.2300     8.9930     7.3790    11.1160     9.3170     0.0020   123.4220     2.4850
 1465.5000   -79.2830     9.1050     7.3910    11.2540     9.3110     0.0020   123.5630     2.4900
 1466.0000   -79.4710     9.2180     7.4020    11.4200     9.3060     0.0020   123.7010     2.4950
 1466.5000   -79.9060     9.3180     7.4260    11.6000     9.3010     0.0030   123.7710     2.5000
 1467.0000   -80.3360     9.3530     7.4590    11.7110     9.2960     0.0040   123.4500     2.5020
 1467.5000   -80.7670     9.3890     7.4920    11.8260     9.2900     0.0050   123.1330     2.5050
 1468.0000   -81.1980     9.4380     7.5250    11.9230     9.2850     0.0050   122.8170     2.5070
 1468.5000   -81.6270     9.8370     7.5580    11.7060     9.2800     0.0040   122.5000     2.5090
 1469.0000   -82.0590     9.6530     7.5910    12.2520     9.2690     0.0040   122.1760     2.5080
 1469.5000   -82.1440     9.3180     7.6130    12.4810     9.2540     0.0030   121.8830     2.5040
 1470.0000   -81.9520     8.8950     7.5730    11.9700     9.2380     0.0000   123.0000     2.4930
 1470.5000   -81.7580     8.9600     7.5440    11.4460     9.2220    -0.0030   124.2300     2.4820
 1471.0000   -81.5620     9.0480     7.5150    10.7810     9.2190    -0.0070   125.4710     2.4710
 1471.5000   -81.3760     9.1430     7.4850    11.1950     9.2180    -0.0070   126.4150     2.4730
 1472.0000   -81.2000     9.1860     7.4560    12.0320     9.2180    -0.0040   127.2820     2.4800
 1472.5000   -81.0860     9.2330     7.4270    11.9670     9.2190    -0.0010   128.1420     2.4890
 1473.0000   -81.1230     9.2800     7.4070    11.8420     9.2190     0.0010   129.0050     2.4970
 1473.5000   -81.1570     9.3270     7.4070    11.7060     9.2190     0.0030   129.9000     2.5090
 1474.0000   -81.1900     9.3970     7.4070    11.8980     9.2190     0.0040   129.6360     2.5020
 1474.5000   -81.2240     9.3520     7.4070    12.1080     9.2190     0.0050   128.3320     2.4980
 1475.0000   -81.2580     9.2640     7.4070    12.2550     9.2190     0.0020   126.3840     2.4970
 1475.5000   -81.2910     9.1750     7.4070    11.0810     9.2180    -0.0010   124.4340     2.4900
 1476.0000   -81.3250     9.0590     7.4070    11.2330     9.2060    -0.0030   123.9520     2.4830
 1476.5000   -81.3590     9.1180     7.4070    11.3890     9.1940    -0.0040   124.9860     2.4850
 1477.0000   -81.3920     9.2020     7.4070    11.1060     9.1830    -0.0020   126.0160     2.4940
 1477.5000   -81.4260     9.2870     7.4070    11.6650     9.1710     0.0010   126.9530     2.5040
 1478.0000   -81.4610     9.3710     7.4060    12.1430     9.1600     0.0030   126.9680     2.5140
 1478.5000   -81.4640     9.4840     7.3990    12.0320     9.1480     0.0050   126.5540     2.5250
 1479.0000   -81.4560     9.3840     7.3920    12.7120     9.1400     0.0080   125.6820     2.5320
 1479.5000   -81.4470     9.2360     7.3850    12.0730     9.1440     0.0100   124.8070     2.5370
 1480.0000   -81.4380     9.0870     7.3780    11.0200     9.1470     0.0100   123.9450     2.5400
 1480.5000   -81.4290     8.9690     7.3710    11.4940     9.1500     0.0100   125.1210     2.5350
 1481.0000   -81.4200     8.9400     7.3640    11.4050     9.1530     0.0090   126.6050     2.5300
 1481.5000   -81.4110     8.8950     7.3570    11.2080     9.1560     0.0080   127.5250     2.5320
 1482.0000   -81.4020     8.9540     7.3500    10.9800     9.1590     0.0070   126.3260     2.5330
 1482.5000   -81.3930     9.0850     7.3390    11.4160     9.1620     0.0070   125.1860     2.5280
 1483.0000   -81.3840     9.2170     7.3520    11.8270     9.1650     0.0060   124.7470     2.5320
 1483.5000   -81.3750     9.3810     7.3830    12.1010     9.1680     0.0050   124.4440     2.5350
 1484.0000   -81.3660     9.2910     7.4130    12.3680     9.1710     0.0080   124.0940     2.5300
 1484.5000   -81.3570     9.0790     7.4430    11.3890     9.1740     0.0110   123.5680     2.5330
 1485.0000   -81.3480     9.1580     7.4740    11.5210     9.1770     0.0140   123.0520     2.5390
 1485.5000   -81.3390     9.3180     7.5040    11.8340     9.1860     0.0160   122.7020     2.5330
 1486.0000   -81.3300     9.5710     7.5340    12.1430     9.2010     0.0190   123.0990     2.5320
 1486.5000   -81.3210     9.5010     7.5640    12.0330     9.2170     0.0190   123.4800     2.5310
 1487.0000   -81.3120     9.2270     7.6130    11.9230     9.2320     0.0140   123.8590     2.5190
 1487.5000   -81.3030     9.3620     7.6050    11.8140     9.2480     0.0100   124.2370     2.5080
 1488.0000   -81.2940     9.8370     7.5860    11.9710     9.2630     0.0060   124.6130     2.4960
 1488.5000   -81.2850     9.7310     7.5660    12.1280     9.2780     0.0020   125.0200     2.4900
 1489.0000   -81.2760     9.5520     7.5470    12.2550     9.2940    -0.0030   125.3830     2.4850
 1489.5000   -81.2320     9.3730     7.5280    11.7770     9.2970    -0.0020   125.2020     2.4920
 1490.0000   -81.1610     9.2270     7.5080    11.2860     9.2970     0.0000   124.1230     2.5010
 1490.5000   -81.0900     9.2650     7.4890    11.4070     9.2970     0.0020   123.0600     2.4950
 1491.0000   -81.0180     9.2980     7.4690    11.6000     9.2970     0.0030   122.7870     2.4860
 1491.5000   -80.9470     9.3510     7.4500    11.5100     9.2950    -0.0010   122.5460     2.4770
 1492.0000   -80.8750     9.4200     7.4310    11.3890     9.2900    -0.0040   122.3020     2.4740
 1492.5000   -80.8040     9.4890     7.4070    11.6100     9.2860    -0.0070   122.0570     2.4760
 1493.0000   -80.7330     9.5590     7.4270    11.8390     9.2810    -0.0070   121.8120     2.4850
 1493.5000   -80.6920     9.6590     7.4550    12.0320     9.2770    -0.0030   121.5670     2.4980
 1494.0000   -80.7100     9.3120     7.4830    11.6430     9.2720     0.0010   121.3220     2.5100
 1494.5000   -80.7280    10.2980     7.5100    11.2860     9.2680     0.0050   121.0770     2.5230
 1495.0000   -80.7460    10.0980     7.5380    11.4930     9.2630     0.0080   120.8320     2.5300
 1495.5000   -80.7640     9.7290     7.5650    11.8140     9.2580     0.0120   120.5860     2.5370
 1496.0000   -80.7810     9.4840     7.5930    11.7060     9.2540     0.0160   120.3400     2.5420
 1496.5000   -80.7990    10.0320     7.6200    11.8740     9.2490     0.0180   120.0960     2.5290
 1497.0000   -80.8170    10.3580     7.6480    12.1910     9.2450     0.0140   120.0000     2.5190
 1497.5000   -80.8350    10.1110     7.6830    12.5960     9.2400     0.0090   120.9070     2.5080
 1498.0000   -80.8520    10.2040     7.6650    12.1430     9.2400     0.0050   121.8260     2.5060
 1498.5000   -80.8710     9.3970     7.6410    12.2550     9.2430     0.0060   122.7410     2.5060
 1499.0000   -80.9090     9.5130     7.6170    11.9400     9.2470     0.0070   123.6580     2.5070
 1499.5000   -81.0050     9.6360     7.5930    11.5960     9.2500     0.0080   124.5790     2.5080
 1500.0000   -81.0990     9.3970     7.5680    11.2860     9.2530     0.0080   125.3430     2.5090
 1500.5000   -81.1920     9.4690     7.5440    11.6290     9.2570     0.0060   124.3960     2.5120
 1501.0000   -81.2720     9.5710     7.5200    12.2550     9.2600     0.0070   123.4670     2.5140
 1501.5000   -81.2560     9.4930     7.4960    12.0140     9.2640     0.0090   122.6480     2.5210
 1502.0000   -81.2380     9.3850     7.4780    11.6780     9.2670     0.0120   122.6820     2.5320
 1502.5000   -81.2210     9.2270     7.5580    11.3980     9.2700     0.0150   122.7290     2.5390
 1503.0000   -81.2040     9.3940     7.6310    11.4940     9.2740     0.0130   122.7730     2.5350
 1503.5000   -81.1870     9.7010     7.7050    11.4020     9.2770     0.0110   122.8170     2.5370
