~VERSION INFORMATION
 VERS.                2.0:   CWLS LOG ASCII STANDARD - VERSION 2.0
 WRAP.                 NO:   ONE LINE PER DEPTH STEP
~WELL INFORMATION
#MNEM.UNIT      DATA TYPE    INFORMATION
#----------   ------------   ------------------------------
 STRT.F          211.5000:   START DEPTH
 STOP.F         3103.0000:   STOP DEPTH
 STEP.F            0.5000:   STEP LENGTH
 NULL.          -999.2500:   NO VALUE
 COMP.    FENIX & SCISSON:   COMPANY
 WELL. FENIX NPR 3 "AX" #38-10:   WELL
 FLD .  TEAPOT DOME - NPR:   FIELD
 LOC .      S10 T38N R78W:   LOCATION
 CNTY.            NATRONA:   COUNTY
 STAT.            WYOMING:   STATE
 CTRY. UNITED STATES OF AMERICA:   COUNTRY
 SRVC.           BIRDWELL:   SERVICE COMPANY
 DATE.        01-JUL-1978:   LOGDATE
 API .     49025106550000:   API NUMBER
~CURVE INFORMATION
#MNEM.UNIT       API CODE    CURVE DESCRIPTION
#----------   ------------   ------------------------------
 DEPT.F                  :   
 CALD.IN     45 280 60 00:   CALIPER FROM DENSITY LOG
 GRD .GAPI   45 310 01 00:   GAMMA RAY FROM DENSITY LOG
 RHOB.G/C3   45 350 01 00:   BULK DENSITY
 CORR.G/C3   45 356 01 00:   DENSITY CORRECTION
 NPOR.DEC    42 890 03 00:   ALPHA PROCESSED NEUTRON POROSITY
 SPR .MV     05 010 01 00:   SPONTANEOUS POTENTIAL
 SN  .OHMM   05 040 00 00:   SHORT NORMAL
 ILD .OHMM   05 120 46 00:   DEEP INDUCTION RESISTIVITY
~PARAMETER INFORMATION
#MNEM.UNIT          VALUE    DESCRIPTION
#----------   ------------   ------------------------------
 EKB .F         5240.0000:   Kelly bushing
 EGL .F         5230.0000:   Ground level
 TD  .F         3103.0000:   Total depth
 DATE.        01-JUL-1978:   Date logged
 CLNT.            A2DTECH:   Client Code
 SL  . 200' FSL & 2100' FWL:   Surface Location
 PD  .                 GL:   Permanent Datum
 EPD .F              5230:   Elevation Permanent Datum
 LMF .                 KB:   Log Measured From
 DMF .                 KB:   Drilling Measured From
 DAPD.F                10:   Feet Above Permanent Datum
 DD  .F              3100:   Depth driller
 DL  .F              3103:   Depth logger
 BLI .F              3096:   Bottom log interval
 TLI .F               228:   Top log interval
 CS1 .IN            8.625:   Casing size
 CBD1.      8.625" @ 224':   Casing driller 1
 CBL1.F               228:   Casing logger 1
 BS1 .IN            7.875:   Bit size
 BSD1.F              3100:   Depth drilled with bit1
 DFT .            MUD/GEL:   Type fluid in hole
 DFD .                8.7:   Density
 DFV .                 31:   Viscosity
 DFPH.               10.5:   pH
 DFL .                  7:   Fluid loss
 MSS .           FLOWLINE:   Source of sample
 BHT .F               109:   BHT.
 TCS .HRS             4.5:   Time Circ. stopped
 MRT .F               109:   Maximum recorded temp.
 LUN .               2958:   Logging unit number
 LUL .               CASP:   Logging unit location
 ENGI.             MILLER:   Recorded By
 ORIG.      2.5" 5" PRINT:   Origin of data
 UWI .     49025106550000:   Unique Well ID
 DICO. A2D TECHNOLOGIES, INC.:   Digitizing Company
~OTHER INFORMATION
~A   DEPT     CALD         GRD      RHOB       CORR       NPOR        SPR         SN        ILD   
# ...
 1386.0000    10.9269    74.0719     2.5676     0.0728  -999.2500   -17.4712     9.2495     9.3343
 1386.5000    10.9271    72.6923     2.5627     0.0708  -999.2500   -17.2756     9.1631     9.3329
 1387.0000    10.9273    73.2863     2.5567     0.0588  -999.2500   -17.2778     9.0782     9.3312
 1387.5000    10.9473    76.6437     2.5281     0.0390  -999.2500   -17.4777     9.0770     9.3297
 1388.0000    10.9277    79.8214     2.5073     0.0252  -999.2500   -17.2821     9.3285     9.3283
 1388.5000    10.9279    81.0072     2.5103     0.0232  -999.2500   -17.2842     9.3271     9.4993
 1389.0000    10.9478    76.0574     2.5123     0.0232  -999.2500   -17.2864     9.3257     9.4981
 1389.5000    10.9283    73.4935     2.5113     0.0192  -999.2500   -17.2885     9.3239     9.4972
 1390.0000    10.9285    72.5089     2.5064     0.0074  -999.2500   -17.4884     9.2374     9.5019
 1390.5000    10.9287    69.7476     2.5151     0.0074  -999.2500   -17.4906     9.2360     9.6690
 1391.0000    10.9289    68.9601     2.4754     0.0014  -999.2500   -17.4927     9.2349     9.6684
 1391.5000    10.9291    69.1594     2.4826    -0.0144  -999.2500   -17.6926     9.2331     9.5787
 1392.0000    10.9293    72.5167     2.4905    -0.0024  -999.2500   -17.8926     9.2317     9.5775
 1392.5000    10.9295    77.0583     2.4886     0.0016  -999.2500   -17.8947     9.2303     9.5876
 1393.0000    10.9297    78.2445     2.4945     0.0036  -999.2500   -17.8973     9.3138     9.5977
 1393.5000    10.9299    77.2595     2.4965     0.0056  -999.2500   -17.8995     9.3126     9.6078
 1394.0000    10.9301    74.8930     2.4965     0.0076  -999.2500   -17.5061     9.3112     9.6179
 1394.5000    10.9303    70.5527     2.4976     0.0076  -999.2500   -17.3105     9.3100     9.6280
 1395.0000    10.9502    69.5682     2.5015     0.0056  -999.2500   -17.3126     9.3080     9.6382
 1395.5000    10.9307    69.3727     2.5035     0.0076  -999.2500   -17.3148     9.3074     9.6530
 1396.0000    10.9309    69.5720     2.5095     0.0116  -999.2500   -17.3169     9.3051     9.6527
 1396.5000    10.9311    69.7714     2.5165     0.0176  -999.2500   -17.3191     9.3045     9.5626
 1397.0000    10.9313    70.1681     2.5244     0.0394  -999.2500   -17.3212     9.2957     9.5614
 1397.5000    10.9315    70.3674     2.5314     0.0494  -999.2500   -16.9278     9.2869     9.5600
 1398.0000    10.9316    70.7641     2.5384     0.0514  -999.2500   -17.1278     9.2781     9.5585
 1398.5000    10.9318    71.1608     2.5424     0.0514  -999.2500   -17.1299     9.2694     9.5570
 1399.0000    10.9321    71.3601     2.5444     0.0514  -999.2500   -17.3299     9.2606     9.5555
 1399.5000    10.9323    72.5644     2.5553     0.0536  -999.2500   -17.3320     9.2518     9.5537
 1400.0000    10.9325    72.3678     2.5851     0.0614  -999.2500   -17.3342     9.2431     9.5522
 1400.5000    10.9327    70.5772     2.5476     0.0476  -999.2500   -17.3366     9.2343     9.5507
 1401.0000    10.9329    70.5784     2.5402     0.0356  -999.2500   -17.5359     9.2045     9.5496
 1401.5000    10.9330    70.7777     2.5452     0.0296  -999.2500   -17.7356     9.1747     9.2048
 1402.0000    10.9332    70.7796     2.5243     0.0296  -999.2500   -17.9354     9.1451     9.4600
 1402.5000    10.9334    70.5846     2.5303     0.0416  -999.2500   -18.1351     9.1184     9.4587
 1403.0000    10.9336    71.7708     2.5444     0.0594  -999.2500   -18.1375     8.9836     9.2857
 1403.5000    10.9338    73.9438     2.5454     0.0694  -999.2500   -18.1394     8.9504     9.1998
 1404.0000    10.9143    74.9322     2.5573     0.0734  -999.2500   -18.3391     9.2832     9.5419
 1404.5000    10.9342    76.3158     2.5603     0.0714  -999.2500   -18.3399     9.0303     9.5406
 1405.0000    10.9344    78.4889     2.5494     0.0576  -999.2500   -18.2131     9.0291     9.3661
 1405.5000    10.9741    79.2803     2.5335     0.0376  -999.2500   -17.7516     9.0279     9.3648
 1406.0000    10.9348    77.3089     2.5206     0.0118  -999.2500   -17.5558     9.0264     9.3636
 1406.5000    10.9350    76.1266     2.5067     0.0058  -999.2500   -17.5577     9.0252     9.0252
 1407.0000    10.9352    74.7469     2.4967    -0.0020  -999.2500   -17.5597     9.0240     9.0240
 1407.5000    10.9354    73.7620     2.4977    -0.0020  -999.2500   -17.5616     9.0227     9.0227
 1408.0000    10.9356    73.7639     2.4985    -0.0060  -999.2500   -16.9702     9.1045     9.0215
 1408.5000    10.9358    73.7658     2.4916    -0.0080  -999.2500   -17.3677     9.0203     9.0203
 1409.0000    10.9360    73.1760     2.4866    -0.0080  -999.2500   -17.1719     9.1021     9.1021
 1409.5000    10.9362    72.7832     2.5007    -0.0040  -999.2500   -17.1738     9.1008     9.1008
 1410.0000    10.9364    72.9825     2.5166     0.0038  -999.2500   -17.1758     9.0166     8.7722
 1410.5000    10.9366    73.3792     2.5176     0.0038  -999.2500   -17.3759     9.0984     9.0984
 1411.0000    10.9368    74.1707     2.5126     0.0018  -999.2500   -17.3779     9.0142     9.0142
 1411.5000    10.9370    74.3700     2.5146     0.0038  -999.2500   -17.3798     9.0959     9.0959
 1412.0000    10.9372    74.5863     2.5136     0.0058  -999.2500   -17.5796     9.0947     9.0947
 1412.5000    10.9374    72.9922     2.5096     0.0058  -999.2500   -17.7793     9.0105     9.0105
 1413.0000    10.9376    70.8231     2.5007     0.0058  -999.2500   -17.7813     9.0093     9.0093
 1413.5000    10.9378    70.2333     2.4997     0.0058  -999.2500   -17.7832     9.0078     9.0078
 1414.0000    10.9182    70.6469     2.5037     0.0078  -999.2500   -17.7852     9.0895     9.0895
 1414.5000    10.9382    73.6103     2.5067     0.0078  -999.2500   -18.1827     9.0883     9.0883
 1415.0000    10.9384    73.4144     2.5176     0.0098  -999.2500   -18.1847     9.0042     9.0042
 1415.5000    10.9386    71.2279     2.5214     0.0098  -999.2500   -18.3844     9.0858     9.0858
 1416.0000    10.9388    70.6377     2.5086     0.0078  -999.2500   -18.3864     9.0846     9.0846
 1416.5000    10.9390    70.4423     2.5005     0.0098  -999.2500   -17.9927     9.0834     9.0834
 1417.0000    10.9392    70.8389     2.5225     0.0138  -999.2500   -17.7969     9.0821     9.0821
 1417.5000    10.9394    71.2356     2.5293     0.0296  -999.2500   -17.6014     8.9981     8.9981
 1418.0000    10.9396    71.4523     2.5186     0.0356  -999.2500   -17.4056     8.9969     8.9969
 1418.5000    10.9398    72.0460     2.5176     0.0416  -999.2500   -17.4075     8.9956     8.9956
 1419.0000    10.9400    73.4296     2.5206     0.0396  -999.2500   -17.2117     8.9944     8.9944
 1419.5000    10.9401    75.0105     2.5303     0.0436  -999.2500   -17.2136     8.9932     8.9932
 1420.0000    10.9403    74.0259     2.5263     0.0436  -999.2500   -17.2156     9.0747     9.0747
 1420.5000    10.9208    72.4319     2.5263     0.0416  -999.2500   -17.0197     9.0733     9.0733
 1421.0000    10.9407    72.2365     2.5263     0.0376  -999.2500   -17.0217     8.9893     8.9893
 1421.5000    10.9410    72.4539     2.5335     0.0356  -999.2500   -17.0236     8.9881     8.9881
 1422.0000    10.9412    71.8630     2.5325     0.0316  -999.2500   -17.0256     8.9869     8.9869
 1422.5000    10.9216    67.7200     2.5235     0.0258  -999.2500   -17.2253     8.9856     8.9856
 1423.0000    10.9415    68.3141     2.5206     0.0178  -999.2500   -17.0295     8.9844     8.9844
 1423.5000    10.9417    69.8777     2.5134     0.0098  -999.2500   -17.2292     8.9832     8.9832
 1424.0000    10.9419    71.4586     2.5216     0.0118  -999.2500   -17.2312     8.9001     8.9001
 1424.5000    10.9224    72.0527     2.5255     0.0178  -999.2500   -17.4313     8.9808     8.9808
 1425.0000    10.9226    71.2655     2.5285     0.0198  -999.2500   -17.4333     8.9796     8.9796
 1425.5000    10.9228    70.4779     2.5295     0.0178  -999.2500   -17.4352     8.9783     8.9783
 1426.0000    10.9427    70.2825     2.5216     0.0178  -999.2500   -17.4372     8.9771     8.9771
