~VERSION INFORMATION
 VERS.                2.0:   CWLS LOG ASCII STANDARD - VERSION 2.0
 WRAP.                 NO:   ONE LINE PER DEPTH STEP
~WELL INFORMATION
#MNEM.UNIT      DATA TYPE    INFORMATION
#----------   ------------   ------------------------------
 STRT.F          204.5000:   START DEPTH
 STOP.F         2964.0000:   STOP DEPTH
 STEP.F            0.5000:   STEP LENGTH
 NULL.          -999.2500:   NO VALUE
 COMP.    FENIX & SCISSON:   COMPANY
 WELL. FENIX NPR 3 "AX" #14-28:   WELL
 FLD .  TEAPOT DOME NPR-3:   FIELD
 LOC .      S28 T39N R78W:   LOCATION
 CNTY.            NATRONA:   COUNTY
 STAT.            WYOMING:   STATE
 CTRY. UNITED STATES OF AMERICA:   COUNTRY
 SRVC.           BIRDWELL:   SERVICE COMPANY
 DATE.        24-MAY-1978:   LOGDATE
 API .     49025106450000:   API NUMBER
~CURVE INFORMATION
#MNEM.UNIT       API CODE    CURVE DESCRIPTION
#----------   ------------   ------------------------------
 DEPT.F                  :   
 SPR .MV     05 010 01 00:   SPONTANEOUS POTENTIAL
 CORR.G/C3   45 356 01 00:   DENSITY CORRECTION
 DEN .G/C3   45 350 01 00:   DENSITY
 CALD.IN     45 280 60 00:   CALIPER FROM DENSITY LOG
 GRD .GAPI   45 310 01 00:   GAMMA RAY FROM DENSITY LOG
 SN  .OHMM   05 040 16 00:   SHORT NORMAL 16"
 ILD .OHMM   05 120 46 00:   DEEP INDUCTION RESISTIVITY
~PARAMETER INFORMATION
#MNEM.UNIT          VALUE    DESCRIPTION
#----------   ------------   ------------------------------
 EKB .F         5042.0000:   Kelly bushing
 EGL .F         5032.0000:   Ground level
 EDF .F            0.0000:   Drilling floor
 TD  .F         2957.0000:   Total depth
 DATE.        24-MAY-1978:   Date logged
 CLNT.            A2DTECH:   Client Code
 SL  . 2410' FNL & 280' FWL:   Surface Location
 PD  .                 GL:   Permanent Datum
 EPD .F              5032:   Elevation Permanent Datum
 LMF .                 KB:   Log Measured From
 DMF .                 KB:   Drilling Measured From
 DAPD.F                10:   Feet Above Permanent Datum
 DD  .F              2950:   Depth driller
 DL  .F              2957:   Depth logger
 BLI .F              2951:   Bottom log interval
 TLI .F               225:   Top log interval
 CS1 .IN            8.625:   Casing size
 CBL1.F               225:   Casing logger 1
 BS1 .IN            7.875:   Bit size
 BSD1.F              2950:   Depth drilled with bit1
 DFT .       CHEMICAL GEL:   Type fluid in hole
 DFD .                  9:   Density
 DFV .                 34:   Viscosity
 DFPH.               10.5:   pH
 DFL .                  6:   Fluid loss
 MSS .           FLOWLINE:   Source of sample
 RMS .OHMM            1.5:   Rm
 MST .F                70:   Rm Meas. temp.
 RMF .OHMM            1.1:   Rmf
 MFST.F                78:   Rmf Meas. temp.
 RMC .OHMM            2.8:   Rmc
 MCST.F                72:   Rmc Meas. temp.
 MFSS.               MEAS:   Source Rmf.
 RMB .OHMM           0.95:   Rm. at BHT
 BHT .F               110:   BHT.
 TCS .HRS               2:   Time Circ. stopped
 MRT .F               110:   Maximum recorded temp.
 LUN .               2958:   Logging unit number
 LUL .               CASP:   Logging unit location
 ENGI.             MILLER:   Recorded By
 WITN.            RHOADES:   Witnessed by
 ORIG.           5" PRINT:   Origin of data
 UWI .     49025106450000:   Unique Well ID
 DICO. A2D TECHNOLOGIES, INC.:   Digitizing Company
~OTHER INFORMATION
~A   DEPT      SPR       CORR        DEN       CALD         GRD        SN        ILD   
# ...
  932.5000    -6.7010     0.1060     2.4920     8.6490   108.0620     7.4500     7.6890
  933.0000    -6.7110     0.0970     2.4960     8.6490   105.8740     7.4320     7.6890
  933.5000    -6.7200     0.0880     2.4980     8.6490   104.4840     7.4120     7.6890
  934.0000    -6.7290     0.0850     2.5000     8.6490   105.5240     7.4010     7.6890
  934.5000    -6.7380     0.0850     2.5010     8.6490   109.8590     7.3900     7.6890
  935.0000    -6.7480     0.0840     2.5020     8.6490   110.6450     7.3780     7.6890
  935.5000    -6.7570     0.0840     2.5030     8.6490   110.6310     7.3660     7.6890
  936.0000    -6.7660     0.0830     2.5030     8.6490   111.7350     7.3540     7.6890
  936.5000    -6.7750     0.0820     2.5030     8.6490   113.3800     7.3430     7.6890
  937.0000    -6.7840     0.0870     2.4990     8.6490   114.4060     7.3310     7.6890
  937.5000    -6.7940     0.1050     2.4920     8.6490   114.4280     7.3190     7.6890
  938.0000    -6.8030     0.1250     2.4950     8.6490   114.4620     7.3080     7.6890
  938.5000    -6.8120     0.1440     2.5010     8.6490   111.9550     7.2960     7.6890
  939.0000    -6.8210     0.1630     2.5020     8.6490   109.5560     7.2830     7.6890
  939.5000    -6.8300     0.1820     2.5040     8.6490   109.0170     7.2760     7.6890
  940.0000    -6.8400     0.1720     2.5110     8.6490   109.0910     7.2760     7.6890
  940.5000    -6.8490     0.1460     2.5280     8.6490   109.5580     7.2760     7.6890
  941.0000    -6.8580     0.1200     2.5300     8.6490   109.6780     7.2760     7.6880
  941.5000    -6.8670     0.0960     2.5310     8.6490   111.5100     7.2760     7.6890
  942.0000    -6.8760     0.0690     2.5210     8.6490   112.7190     7.2760     7.6890
  942.5000    -6.8860     0.0680     2.5030     8.6490   112.7490     7.2760     7.6910
  943.0000    -6.8950     0.0810     2.5020     8.6490   111.6460     7.2760     7.6850
  943.5000    -6.9040     0.0930     2.5080     8.6500   111.7720     7.2760     7.6250
  944.0000    -6.9130     0.0980     2.5070     8.6540   112.3890     7.2760     7.5740
  944.5000    -6.9230     0.0960     2.5000     8.6580   112.9000     7.2770     7.5190
  945.0000    -6.9320     0.0940     2.5020     8.6620   111.7920     7.2760     7.4650
  945.5000    -6.9410     0.0930     2.5040     8.6660   110.6480     7.2760     7.4110
  946.0000    -6.9500     0.0910     2.5050     8.6700   109.9980     7.2790     7.3580
  946.5000    -6.9590     0.0920     2.5030     8.6740   109.8470     7.2450     7.3040
  947.0000    -6.9690     0.0990     2.5020     8.6780   110.8980     7.1570     7.2500
  947.5000    -6.9780     0.1050     2.5070     8.6820   112.3510     7.0700     7.1960
  948.0000    -6.9870     0.1090     2.5130     8.6850   111.1090     6.9820     7.1420
  948.5000    -6.9970     0.1050     2.5130     8.6890   107.7960     6.8950     7.0880
  949.0000    -6.9950     0.1010     2.5140     8.6780   104.8840     6.8080     7.0340
  949.5000    -6.9850     0.0960     2.5130     8.6660   104.3890     6.7210     6.9800
  950.0000    -6.9760     0.0920     2.5110     8.6540   108.4950     6.6340     6.9260
  950.5000    -6.9670     0.0870     2.5090     8.6430   112.8940     6.5470     6.8720
  951.0000    -6.9580     0.0830     2.5060     8.6300   115.8730     6.4590     6.8180
  951.5000    -6.9480     0.0780     2.5040     8.6180   117.6490     6.3720     6.7640
  952.0000    -6.9390     0.0740     2.5040     8.6240   118.2770     6.2850     6.7100
  952.5000    -6.9300     0.0690     2.5030     8.6870   122.0280     6.1670     6.6560
  953.0000    -6.9210     0.0660     2.5010     8.6870   124.3330     6.1730     6.6370
  953.5000    -6.9110     0.0660     2.5010     8.6880   123.1100     6.1820     6.6370
  954.0000    -6.9020     0.0660     2.5020     8.6860   121.9900     6.1910     6.6370
  954.5000    -6.8930     0.0660     2.5040     8.6850   120.6130     6.2010     6.6370
  955.0000    -6.8840     0.0660     2.5040     8.6840   120.5450     6.2100     6.6370
  955.5000    -6.8740     0.0670     2.5060     8.6820   118.5030     6.2190     6.6370
  956.0000    -6.8650     0.0740     2.5090     8.6810   115.5180     6.2280     6.6370
  956.5000    -6.8560     0.0810     2.5020     8.6800   114.7380     6.2380     6.6370
  957.0000    -6.8470     0.0890     2.4840     8.6790   115.0970     6.2470     6.6370
  957.5000    -6.8370     0.0940     2.4660     8.6780   115.0430     6.2560     6.6370
  958.0000    -6.8280     0.1120     2.4490     8.6770   115.0160     6.2660     6.6370
  958.5000    -6.8190     0.1380     2.4320     8.6760   115.1580     6.2750     6.6370
  959.0000    -6.8100     0.1610     2.4060     8.6740   116.3410     6.2900     6.6370
  959.5000    -6.8000     0.2000     2.3590     8.6730   117.3410     6.3170     6.6370
  960.0000    -6.7910     0.2580     2.3150     8.6720   116.6450     6.3430     6.6370
  960.5000    -6.7820     0.3310     2.2760     8.6710   115.9330     6.3690     6.6370
  961.0000    -6.7730     0.3130     2.3370     8.6700   115.1810     6.3960     6.6370
  961.5000    -6.7630     0.2390     2.4050     8.6690   114.4170     6.4220     6.6370
  962.0000    -6.7540     0.1610     2.5120     8.6670   113.7000     6.4480     6.6370
  962.5000    -6.7450     0.0820     2.5050     8.6660   113.1830     6.4750     6.6370
  963.0000    -6.7360     0.0570     2.5050     8.6650   114.9370     6.5010     6.6370
  963.5000    -6.7260     0.0600     2.5060     8.6640   116.4560     6.5280     6.6370
  964.0000    -6.7170     0.0610     2.5130     8.6630   117.9950     6.5540     6.6370
  964.5000    -6.7080     0.0610     2.5190     8.6620   116.0770     6.5800     6.6380
  965.0000    -6.6990     0.0600     2.5230     8.6600   113.5420     6.6070     6.6380
  965.5000    -6.6890     0.0510     2.5230     8.6590   111.9320     6.6370     6.6270
  966.0000    -6.6800     0.0470     2.5180     8.6580   111.8210     6.5280     6.5870
  966.5000    -6.6710     0.0500     2.5140     8.6570   113.4020     6.4000     6.5470
  967.0000    -6.6620     0.0540     2.5180     8.6560   114.4800     6.2810     6.5070
  967.5000    -6.6520     0.0540     2.5160     8.6550   114.8790     6.2670     6.4660
  968.0000    -6.6430     0.0610     2.5150     8.6530   115.4290     6.2540     6.4260
  968.5000    -6.6340     0.0660     2.5220     8.6520   115.8970     6.2410     6.3940
  969.0000    -6.6250     0.0680     2.5170     8.6510   116.6140     6.2280     6.3840
  969.5000    -6.6160     0.0700     2.5120     8.6500   117.3260     6.2150     6.3740
  970.0000    -6.6060     0.0720     2.5130     8.6490   118.4030     6.2020     6.3630
  970.5000    -6.5990     0.0760     2.5160     8.6490   119.2880     6.1890     6.3530
  971.0000    -6.6000     0.0770     2.5190     8.6490   117.2840     6.1760     6.3420
  971.5000    -6.6000     0.0730     2.5180     8.6490   115.8510     6.1630     6.3320
  972.0000    -6.6000     0.0700     2.5180     8.6490   115.4060     6.1500     6.3210
  972.5000    -6.6000     0.0610     2.5180     8.6490   115.4480     6.1370     6.3110
  973.0000    -6.6000     0.0530     2.5200     8.6490   115.4410     6.1240     6.3000
  973.5000    -6.6000     0.0430     2.5070     8.6490   115.4660     6.1110     6.2890
  974.0000    -6.6000     0.0410     2.4920     8.6490   115.3420     6.0980     6.2800
  974.5000    -6.6000     0.0520     2.4920     8.6490   114.5010     6.0850     6.2480
  975.0000    -6.6000     0.0610     2.5030     8.6490   112.4240     6.0730     6.2210
  975.5000    -6.6000     0.0620     2.5140     8.6490   110.7560     6.0610     6.1940
  976.0000    -6.6000     0.0620     2.5130     8.6490   110.6020     6.0350     6.1670
  976.5000    -6.6000     0.0620     2.5100     8.6490   113.2440     5.9990     6.1390
  977.0000    -6.6000     0.0630     2.5100     8.6490   115.6120     5.9650     6.1120
  977.5000    -6.6000     0.0670     2.5120     8.6490   117.1210     5.9300     6.0850
