~VERSION INFORMATION
 VERS.                2.0:   CWLS LOG ASCII STANDARD - VERSION 2.0
 WRAP.                 NO:   ONE LINE PER DEPTH STEP
~WELL INFORMATION
#MNEM.UNIT      DATA TYPE    INFORMATION
#----------   ------------   ------------------------------
 STRT.F          190.0000:   START DEPTH
 STOP.F         3215.0000:   STOP DEPTH
 STEP.F            0.5000:   STEP LENGTH
 NULL.          -999.2500:   NO VALUE
 COMP.    FENIX & SCISSON:   COMPANY
 WELL.  FENIX "AX" #78-34:   WELL
 FLD . NAVAL PET. RES. NO. 3:   FIELD
 LOC .      S34 T39N R78W:   LOCATION
 CNTY.            NATRONA:   COUNTY
 STAT.            WYOMING:   STATE
 CTRY. UNITED STATES OF AMERICA:   COUNTRY
 SRVC.       SCHLUMBERGER:   SERVICE COMPANY
 DATE.        16-DEC-1980:   LOGDATE
 API .     49025108670000:   API NUMBER
~CURVE INFORMATION
#MNEM.UNIT       API CODE    CURVE DESCRIPTION
#----------   ------------   ------------------------------
 DEPT.F                  :   
 TEND.LBS    45 635 01 00:   TENSION FORM DENSITY LOG
 GRD .GAPI   45 310 01 00:   GAMMA RAY FROM DENSITY LOG
 CALD.IN     45 280 60 00:   CALIPER FROM DENSITY LOG
 CORR.G/C3   45 356 01 00:   DENSITY CORRECTION
 RHOB.G/C3   45 350 01 00:   BULK DENSITY
 SPR .MV     07 010 01 00:   SPONTANEOUS POTENTIAL
 TENR.LBS    07 635 01 00:   TENSION FROM RESISTIVITY
 ILD .OHMM   07 120 46 00:   DEEP INDUCTION RESISTIVITY
 ILM .OHMM   07 120 44 00:   INDUCTION LOG MEDIUM RESISTIVITY
 SFL .OHMM   07 220 01 00:   SHALLOW FOCUSED LOG RESISTIVITY
~PARAMETER INFORMATION
#MNEM.UNIT          VALUE    DESCRIPTION
#----------   ------------   ------------------------------
 EKB .F         5068.0000:   Kelly bushing
 EGL .F         5058.0000:   Ground level
 EDF .F            0.0000:   Drilling floor
 EPD .F            0.0000:   Permanent datum
 TD  .F         3202.0000:   Total depth
 CLNT.            A2DTECH:   Client Code
 SL  . 542' FSL & 693' FEL:   Surface Location
 PD  .                 GL:   Permanent Datum
 DAPD.F                10:   Feet Above Permanent Datum
 DATE.        16-DEC-1980:   Date Logged [DD-MMM-YYYY]
 DD  .F              3200:   Depth driller
 DL  .F              3202:   Depth logger
 BLI .F              3199:   Bottom log interval
 TLI .F               193:   Top log interval
 CS1 .IN            8.625:   Casing size
 CBD1.      8.625" @ 215':   Casing driller 1
 CBL1.F               193:   Casing logger 1
 BS1 .IN            7.875:   Bit size
 BSD1.F              3200:   Depth drilled with bit1
 DFT .               LSND:   Type fluid in hole
 DFD .                9.1:   Density
 DFV .                 35:   Viscosity
 DFPH.                  8:   pH
 DFL .                 16:   Fluid loss
 MSS .            MUD PIT:   Source of sample
 RMS .OHMM            2.9:   Rm
 MST .F                56:   Rm Meas. temp.
 RMF .OHMM            2.4:   Rmf
 MFST.F                56:   Rmf Meas. temp.
 MFSS.               MEAS:   Source Rmf.
 RMC .OHMM            2.7:   Rmc
 MCST.F                56:   Rmc Meas. temp.
 MCSS.               CALC:   Source Rmc.
 RMB .OHMM           1.35:   Rm. at BHT
 BHT .F               120:   BHT.
 TCS .HRS            2100:   Time Circ. stopped
 MRT .F               120:   Maximum recorded temp.
 LUN .               8161:   Logging unit number
 ENGI.             SITTON:   Recorded By
 WITN.              FIVAS:   Witnessed by
 ORIG.           5" PRINT:   Origin of data
 UWI .     49025108670000:   Unique Well ID
 DICO. A2D TECHNOLOGIES, INC.:   Digitizing Company
~OTHER INFORMATION
~A   DEPT     TEND         GRD      CALD       CORR       RHOB        SPR       TENR        ILD        ILM        SFL   
# ...
 2970.5000   821.0820   111.0370     8.3472     0.0171     2.5527   -32.6531   703.0841     5.7551     5.9061     6.9555
 2971.0000   820.4907   110.4272     8.3478     0.0195     2.5535   -32.3041   702.1308     5.7589     5.9494     7.1953
 2971.5000   819.8990   109.3731     8.3477     0.0227     2.5550   -32.1056   701.1774     5.7625     5.9518     7.3503
 2972.0000   819.3077   110.5378     8.3476     0.0251     2.5550   -32.0518   700.2241     5.6094     5.8725     7.3035
 2972.5000   818.7165   115.3855     8.3482     0.0267     2.5536   -32.0724   684.2557     5.3470     5.6754     7.0588
 2973.0000   818.1249   122.0464     8.3596     0.0267     2.5513   -31.8550   683.3023     5.1323     5.4052     6.5900
 2973.5000   817.5226   125.6007     8.3676     0.0268     2.5469   -32.0967   682.3489     4.6929     4.9927     6.0259
 2974.0000   816.9183   125.7342     8.3672     0.0276     2.5349   -32.0992   681.3813     4.2027     4.4930     5.7439
 2974.5000   831.4564   127.4828     8.3667     0.0331     2.5236   -31.8277   680.4055     3.8106     3.9692     5.3998
 2975.0000   815.6115   135.7405     8.3718     0.0465     2.5199   -31.5346   679.2507     3.5016     3.5799     4.7039
 2975.5000   815.0200   145.6368     8.4027     0.0601     2.5177   -31.4699   678.2974     3.3266     3.3654     3.9749
 2976.0000   814.4286   151.1770     8.4206     0.0764     2.5140   -31.3647   677.3440     3.2597     3.2973     3.2179
 2976.5000   813.8370   148.8305     8.4264     0.0709     2.5080   -31.4843   676.3907     3.2174     3.2990     2.9421
 2977.0000   813.2457   136.6617     8.4268     0.0561     2.5050   -31.4539   675.4373     3.2194     3.2776     3.4764
 2977.5000   812.6544   127.0022     8.4397     0.0241     2.5051   -31.7198   674.4839     3.2665     3.3500     4.2519
 2978.0000   812.0628   120.3226     8.4459     0.0124     2.5216   -32.2169   673.5306     3.3839     3.7613     5.5732
 2978.5000   811.4715   116.0667     8.4460     0.0164     2.5442   -32.5986   672.5772     3.7573     4.2673     6.5845
 2979.0000   810.8760   115.3843     8.4460     0.0227     2.5487   -32.8416   671.6215     4.0861     4.6381     6.9153
 2979.5000   810.2718   116.4364     8.4459     0.0282     2.5502   -32.8497   670.6456     4.5732     4.9037     6.6374
 2980.0000   809.5495   116.1049     8.4432     0.0338     2.5638   -32.9822   669.4790     5.0823     5.1133     6.5952
 2980.5000   808.9579   114.5640     8.4316     0.0385     2.5728   -32.6390   668.5256     5.4037     5.3688     6.7420
 2981.0000   808.3666   114.6526     8.4243     0.0323     2.5751   -32.6631   667.5723     5.4449     5.5215     6.9312
 2981.5000   807.7753   117.0848     8.4459     0.0159     2.5571   -32.4510   666.6189     5.4098     5.4857     6.9831
 2982.0000   807.1837   119.0315     8.4535     0.0097     2.5511   -32.2817   665.6656     5.3027     5.4111     7.0843
 2982.5000   806.5924   117.4221     8.4909     0.0099     2.5504   -32.2576   664.7122     5.2686     5.3775     6.8469
 2983.0000   806.0008   115.4040     8.5134     0.0133     2.5535   -32.2677   663.7589     5.2728     5.3426     6.5718
 2983.5000   805.4095   116.7786     8.5245     0.0224     2.5629   -32.2167   662.8055     5.1676     5.3824     6.2642
 2984.0000   804.8182   120.5582     8.5246     0.0311     2.5776   -31.9714   661.8521     5.1351     5.3846     5.9298
 2984.5000   804.2266   123.4857     8.5247     0.0389     2.5806   -31.9202   675.9138     5.1030     5.4241     5.8513
 2985.0000   803.6252   121.8084     8.5244     0.0218     2.5701   -31.8545   677.1774     5.1063     5.3889     5.8953
 2985.5000   803.0212   119.3672     8.5178     0.0109     2.5536   -31.8613   688.9639     5.1103     5.3911     6.0266
 2986.0000   802.3046   119.1987     8.4921     0.0078     2.5484   -31.6771   687.8306     5.0432     5.3933     6.3257
 2986.5000   801.7133   120.1043     8.4875     0.0095     2.5499   -31.8627   686.8772     4.9425     5.3955     6.5976
 2987.0000   786.0159   120.8149     8.4781     0.0134     2.5567   -31.8547   685.9238     4.8439     5.3554     6.8338
 2987.5000   785.4246   121.1453     8.5044     0.0189     2.5635   -31.8636   684.9705     4.7464     5.1454     6.6969
 2988.0000   784.8333   125.7388     8.5150     0.0143     2.5583   -31.8581   699.0322     4.5883     4.7379     6.3394
 2988.5000   784.2417   135.0056     8.5242     0.0128     2.5508   -31.6944   698.0788     4.1569     4.4540     5.8776
 2989.0000   783.6504   147.1923     8.5245     0.0144     2.5322   -31.1471   697.1471     3.7058     4.2162     5.4873
 2989.5000   783.0588   164.2334     8.4930     0.0162     2.5112   -30.1094   711.1861     3.5081     3.9092     4.8134
 2990.0000   797.5830   176.6294     8.4555     0.0239     2.5028   -29.4866   710.2103     3.3907     3.2452     4.0785
 2990.5000   796.9790   185.0171     8.4465     0.0349     2.5058   -29.4925   709.0422     3.3456     2.9472     3.1434
 2991.0000   796.3747   180.2821     8.4577     0.0287     2.5299   -30.4722   708.0889     3.4187     2.9079     2.9081
 2991.5000   795.6512   157.4753     8.5031     0.0170     2.5389   -32.0323   707.1355     3.4928     3.1473     3.3889
 2992.0000   795.0596   139.7832     8.5054     0.0132     2.5480   -32.2703   706.3063     3.7202     3.6058     4.0597
 2992.5000   794.4683   122.6480     8.4939     0.0132     2.5525   -32.2378   705.2288     4.0456     3.9977     5.9038
 2993.0000   793.8770   116.2525     8.4752     0.0133     2.5541   -32.4502   704.2759     4.3996     4.2891     6.5084
 2993.5000   793.2854   114.9847     8.4629     0.0134     2.5541   -32.6154   688.3075     4.7896     4.7594     6.6486
 2994.0000   792.6941   117.6785     8.4513     0.0150     2.5541   -32.5499   687.3542     5.1145     5.1729     6.6984
 2994.5000   807.3563   119.9252     8.4460     0.0197     2.5603   -32.4974   686.4008     5.5426     5.5071     6.7955
 2995.0000   806.6169   119.3144     8.4460     0.0221     2.5720   -32.8426   700.4625     5.7819     5.7823     6.9902
 2995.5000   821.1313   117.1021     8.4460     0.0269     2.5843   -33.2505   684.4593     5.9072     5.9471     7.1459
 2996.0000   820.5398   115.7322     8.4460     0.0277     2.5753   -32.8893   683.3021     5.9936     6.0738     7.2956
 2996.5000   819.9396   114.1612     8.4460     0.0108     2.5513   -32.1192   682.5073     6.0812     6.1189     7.2996
 2997.0000   819.3353   111.3251     8.4459    -0.0003     2.5310   -32.0496   696.6490     6.1701     6.2066     7.3035
 2997.5000   818.6177   108.2133     8.4461    -0.0003     2.5213   -32.1104   695.4575     6.2171     6.2521     7.4094
 2998.0000   818.0264   106.3204     8.4480     0.0006     2.5228   -32.2488   694.5945     6.2644     6.2547     7.4134
 2998.5000   817.4348   106.8133     8.4264     0.0014     2.5303   -32.2556   693.5508     6.2684     6.2572     7.4689
 2999.0000   816.8435   108.8535     8.4267     0.0022     2.5416   -32.2555   692.5974     6.2726     6.2160     7.5249
 2999.5000   816.2523   110.5933     8.4263     0.0046     2.5499   -32.2858   691.6441     6.2331     6.1763     7.5290
 3000.0000   830.9142   112.5760     8.4263     0.0070     2.5537   -32.4196   690.6907     6.1096     6.1362     7.5330
 3000.5000   815.0693   114.5588     8.4263     0.0024     2.5363   -32.4506   689.7145     5.9877     6.0920     7.3245
 3001.0000   814.4777   116.5415     8.4262    -0.0007     2.5275   -32.4513   688.5459     5.9090     5.9744     6.9366
 3001.5000   813.8864   118.5243     8.4268     0.0033     2.5274   -32.4510   687.5925     5.8710     5.8542     6.5645
 3002.0000   813.2930   120.0297     8.4393     0.0135     2.5358   -32.4510   686.6392     5.9166     5.9380     6.2124
 3002.5000   812.6887   119.9969     8.4459     0.0214     2.5381   -32.4510   685.6858     6.0031     6.1069     6.1282
 3003.0000   833.3333   117.2467     8.4459     0.0081     2.5306   -32.4510   683.4372     6.0909     6.1944     6.1729
 3003.5000   833.3333   112.6459     8.4460     0.0004     2.5276   -32.4496   682.2609     6.1799     6.2831     6.7096
