~VERSION INFORMATION
 VERS.                2.0:   CWLS LOG ASCII STANDARD - VERSION 2.0
 WRAP.                 NO:   ONE LINE PER DEPTH STEP
~WELL INFORMATION
#MNEM.UNIT      DATA TYPE    INFORMATION
#----------   ------------   ------------------------------
 STRT.F          484.0000:   START DEPTH
 STOP.F         4096.0000:   STOP DEPTH
 STEP.F            0.5000:   STEP LENGTH
 NULL.          -999.2500:   NO VALUE
 COMP.    FENIX & SCISSON:   COMPANY
 WELL. FENIX NPR "JX" #58-28:   WELL
 FLD .                NPR:   FIELD
 LOC .      S28 T39N R78W:   LOCATION
 CNTY.            NATRONA:   COUNTY
 STAT.            WYOMING:   STATE
 CTRY. UNITED STATES OF AMERICA:   COUNTRY
 SRVC.              WELEX:   SERVICE COMPANY
 DATE.        02-MAY-1978:   LOGDATE
 API .     49025107810000:   API NUMBER
~CURVE INFORMATION
#MNEM.UNIT       API CODE    CURVE DESCRIPTION
#----------   ------------   ------------------------------
 DEPT.F                  :   
 NPHI.DEC    42 890 03 00:   NEUTRON POROSITY SANDSTONE
 RHOB.G/C3   45 350 01 00:   BULK DENSITY
 CORR.G/C3   45 356 01 00:   DENSITY CORRECTION
 CALD.IN     45 280 60 00:   CALIPER FROM DENSITY LOG
 GRD .GAPI   45 310 01 00:   GAMMA RAY FROM DENSITY LOG
 SPR .MV     07 010 01 00:   SPONTANEOUS POTENTIAL
 ILD .OHMM   07 120 46 00:   DEEP INDUCTION RESISTIVITY
 SGRD.OHMM   07 220 05 00:   SHALLOW SHORT GUARD RESISTIVITY
 ILM .OHMM   07 120 44 00:   INDUCTION LOG MEDIUM RESISTIVITY
~PARAMETER INFORMATION
#MNEM.UNIT          VALUE    DESCRIPTION
#----------   ------------   ------------------------------
 EKB .F         5115.0000:   Kelly bushing
 EGL .F         5101.0000:   Ground level
 EDF .F            0.0000:   Drilling floor
 EPD .F         5101.0000:   Permanent datum
 TD  .F         4100.0000:   Total depth
 DATE.        02-MAY-1978:   Date logged
 CLNT.            A2DTECH:   Client Code
 SL  . 525' FSL & 2406' FEL:   Surface Location
 PD  .                 GL:   Permanent Datum
 DAPD.F                14:   Feet Above Permanent Datum
 DD  .F              4100:   Depth driller
 DL  .F              4098:   Depth logger
 BLI .F              4096:   Bottom log interval
 CS1 .IN            8.625:   Casing size
 CBD1.      8.625" @ 501':   Casing driller 1
 CBL1.F               500:   Casing logger 1
 BS1 .IN            7.875:   Bit size
 BSD1.F              4100:   Depth drilled with bit1
 DFT .            CHM GEL:   Type fluid in hole
 DFD .                9.4:   Density
 DFV .                 48:   Viscosity
 DFPH.                9.3:   pH
 DFL .                8.5:   Fluid loss
 MSS .           FLOWLINE:   Source of sample
 RMS .OHMM           1.24:   Rm
 MST .F                70:   Rm Meas. temp.
 RMF .OHMM            .57:   Rmf
 MFST.F                70:   Rmf Meas. temp.
 RMC .OHMM           1.48:   Rmc
 MCST.F                70:   Rmc Meas. temp.
 MFSS.               MEAS:   Source Rmf.
 MCSS.               MEAS:   Source Rmc.
 RMB .OHMM            .87:   Rm. at BHT
 BHT .F               123:   BHT.
 TCS .HRS               4:   Time Circ. stopped
 MRT .F               123:   Maximum recorded temp.
 LUN .               1892:   Logging unit number
 LUL .             CASPER:   Logging unit location
 ENGI.               REIN:   Recorded By
 WITN.           DINSMORE:   Witnessed by
 ORIG.         2.5" PRINT:   Origin of data
 UWI .     49025107810000:   Unique Well ID
 DICO. A2D TECHNOLOGIES, INC.:   Digitizing Company
 TLI .                500:   Top log interval
~OTHER INFORMATION
~A   DEPT       NPHI     RHOB       CORR       CALD         GRD       SPR        ILD       SGRD        ILM   
# ...
 1907.5000     0.2940     2.5740     0.0780     8.8900   107.7580    -6.4630     7.1620     8.3330     7.5710
 1908.0000     0.2970     2.5610     0.0700     8.8210   106.9830    -6.5520     7.1400     8.4220     7.5470
 1908.5000     0.3000     2.5570     0.0620     8.7870   109.7750    -6.2870     7.1180     8.4630     7.5240
 1909.0000     0.3010     2.5540     0.0550     8.7550   110.1690    -6.0540     7.0960     8.4630     7.5010
 1909.5000     0.3020     2.5530     0.0520     8.7210   107.9390    -5.8290     7.0740     8.4630     7.4770
 1910.0000     0.3020     2.5520     0.0530     8.6890   106.0560    -5.5900     7.0520     8.4630     7.4540
 1910.5000     0.3000     2.5510     0.0530     8.6560   105.9780    -5.3630     7.0300     8.4630     7.4310
 1911.0000     0.2980     2.5470     0.0540     8.6200   105.9990    -5.1250     7.0080     8.4630     7.4070
 1911.5000     0.2950     2.5370     0.0540     8.6030   104.6650    -5.0530     6.9850     8.4640     7.3840
 1912.0000     0.2980     2.5360     0.0550     8.6190   104.9450    -5.0680     6.9630     8.4640     7.3610
 1912.5000     0.2960     2.5340     0.0550     8.6310   106.9850    -5.0430     6.9410     8.4510     7.3370
 1913.0000     0.2990     2.5380     0.0580     8.6440   112.7590    -5.0420     6.9190     8.4150     7.3140
 1913.5000     0.3000     2.5460     0.0610     8.6580   112.8340    -4.2760     6.8970     8.3730     7.2910
 1914.0000     0.3020     2.5490     0.0650     8.6690   114.4920    -4.5290     6.8750     8.3160     7.2670
 1914.5000     0.3040     2.5440     0.0680     8.6790   116.4290    -5.3490     6.8530     8.3240     7.2440
 1915.0000     0.3060     2.5400     0.0720     8.6510   120.5280    -6.2210     6.8310     8.2870     7.2210
 1915.5000     0.3090     2.5380     0.0800     8.6260   125.5060    -6.1140     6.8090     9.1930     7.1970
 1916.0000     0.3100     2.5240     0.0880     8.6010   130.5780    -5.9820     6.7790     9.0420     7.1660
 1916.5000     0.3130     2.5110     0.0970     8.5670   135.4650    -5.8080     6.8440     8.7400     7.2350
 1917.0000     0.3090     2.4980     0.1050     8.6100   138.7650    -5.6560     6.9480     8.4630     7.3440
 1917.5000     0.3040     2.4640     0.1140     8.7510   136.6310    -5.5010     7.0510     8.4090     7.4530
 1918.0000     0.3030     2.4320     0.1220     8.7770   134.4580    -5.3420     7.1540     8.3590     7.5620
 1918.5000     0.3020     2.3990     0.1410     8.7180   125.7530    -5.1860     7.2580     8.3080     7.6720
 1919.0000     0.2980     2.3610     0.1580     8.7330   118.2980    -5.0280     7.3030     8.3080     7.7200
 1919.5000     0.2950     2.3400     0.1740     8.9770   115.0680    -4.8710     7.3100     8.4870     7.7270
 1920.0000     0.2920     2.3140     0.1930     9.4210   112.7870    -4.7140     7.3170     8.9460     7.7350
 1920.5000     0.2570     2.2650     0.1940    10.3740   113.1040    -4.5580     7.3240     8.8370     7.7420
 1921.0000     0.2590     2.1870     0.1920    11.3490   111.4560    -4.3990     7.3310     8.6160     7.7490
 1921.5000     0.2600     2.1480     0.1840    11.8060   109.3580    -4.2440     7.3380     8.3960     7.7560
 1922.0000     0.2620     2.1080     0.1770    11.8260   110.3260    -4.0890     7.3450     8.1760     7.7640
 1922.5000     0.2620     2.0760     0.1690    11.8750   112.4710    -3.9170     7.3520     8.0140     7.7710
 1923.0000     0.2580     2.0840     0.1650    11.9410   112.3480    -3.8980     7.3590     8.0480     7.7780
 1923.5000     0.2530     2.1010     0.1650    11.9950   112.0790    -4.0520     7.3650     8.0820     7.7860
 1924.0000     0.2480     2.1190     0.1650    12.2850   111.4740    -4.1900     7.3720     8.1160     7.7930
 1924.5000     0.2440     2.1350     0.1660    12.7310   110.3650    -4.3270     7.3790     8.1500     7.8000
 1925.0000     0.2400     2.1320     0.1630    12.6350   109.2290    -4.4640     7.3860     8.1840     7.8080
 1925.5000     0.2370     2.1150     0.1570    12.3670   108.0940    -4.6110     7.3930     8.2170     7.8150
 1926.0000     0.2330     2.0960     0.1510    12.4630   107.0000    -4.5700     7.4010     8.2510     7.8230
 1926.5000     0.2290     2.0690     0.1420    12.5630   106.0960    -4.3600     7.4070     8.2850     7.8300
 1927.0000     0.2250     2.0750     0.1330    12.5000   107.4490    -3.8140     7.4140     8.3080     7.8370
 1927.5000     0.2320     2.0830     0.1240    12.3760   109.8340    -2.7320     7.4210     8.3080     7.8440
 1928.0000     0.2390     2.0880     0.1150    11.9460   108.0440    -3.8940     7.4270     8.3080     7.8510
 1928.5000     0.2480     2.2380     0.1040    11.0680   104.2800    -4.8490     7.4360     8.3080     7.8600
 1929.0000     0.2630     2.2990     0.1060    10.2700   100.5120    -5.8460     7.2420     8.3080     7.6550
 1929.5000     0.2730     2.4130     0.1200     9.8110    98.6920    -6.1650     7.0090     7.6150     7.4090
 1930.0000     0.2700     2.3790     0.1310     9.3950    97.7200    -6.1500     6.7760     7.0340     7.1630
 1930.5000     0.2640     2.3370     0.1090     9.0820    96.9670    -5.8250     6.5330     8.4560     6.9050
 1931.0000     0.2530     2.3220     0.0890     9.3160    97.1970    -5.5300     6.8920     9.7290     7.1140
 1931.5000     0.2450     2.3220     0.0680     9.7940   102.0010    -5.4680     7.2690    10.3320     7.3340
 1932.0000     0.2650     2.3880     0.0450     9.3070   104.7280    -5.4640     7.6470    10.7560     7.5530
 1932.5000     0.2760     2.4450     0.0440     8.8700   106.8540    -5.4620     8.0240    11.1810     7.7730
 1933.0000     0.2790     2.4590     0.0420     8.7740   108.8890    -5.4740     8.4010    11.6060     7.9920
 1933.5000     0.2810     2.4530     0.0420     8.7190   111.0200    -5.4640     8.7780    11.8360     8.2110
 1934.0000     0.2810     2.4480     0.0420     8.7250   114.3470    -5.8450     9.1550    11.8930     8.4310
 1934.5000     0.2800     2.4530     0.0410     8.7200   118.9970    -6.4240     9.4560    11.9500     8.6500
 1935.0000     0.2810     2.4560     0.0410     8.7210   119.6800    -6.5590     9.5850    12.0270     8.8700
 1935.5000     0.2810     2.4550     0.0410     8.7210   119.8690    -6.1800     9.7420    12.0050     8.9550
 1936.0000     0.2780     2.4570     0.0400     8.7210   121.5730    -5.9060     9.9000    11.9240     8.9680
 1936.5000     0.2750     2.4620     0.0390     8.7220   125.8300    -6.2590    10.0570    11.8430     8.9820
 1937.0000     0.2730     2.4790     0.0460     8.7220   125.9380    -6.5930    10.2150    11.6560     8.9950
 1937.5000     0.2740     2.4960     0.0600     8.7340   122.5680    -6.1180    10.3730    11.2440     9.0090
 1938.0000     0.2750     2.5140     0.0750     8.7500   119.5070    -6.1070    10.3730    11.3590     9.0220
 1938.5000     0.2740     2.5330     0.0780     8.7660   117.1010    -6.6250    10.3730    12.2050     9.0360
 1939.0000     0.2730     2.5400     0.0820     8.7810   111.7260    -7.0900    10.2890    12.4800     9.0490
 1939.5000     0.2760     2.5390     0.0840     8.7970   104.1840    -7.4640    10.1640    12.4800     9.0630
 1940.0000     0.2760     2.5100     0.0820     8.8130   101.2760    -7.3600    10.0400    12.2000     9.0770
 1940.5000     0.2760     2.4910     0.0800     8.8290   105.3910    -7.2590     9.9160    11.8200     9.0910
 1941.0000     0.2750     2.4940     0.0780     8.8440   107.7940    -7.1390     9.7910    11.4410     9.1100
 1941.5000     0.2720     2.4980     0.0760     8.8600   110.2950    -7.0300     9.6670    11.0610     9.0850
 1942.0000     0.2710     2.5030     0.0740     8.8760   110.8540    -6.9180     9.5430    10.6810     8.9680
 1942.5000     0.2720     2.4970     0.0720     8.8920   108.5270    -6.8040     9.4180    10.5220     8.8530
 1943.0000     0.2740     2.4840     0.0700     8.9070   106.9170    -6.6920     9.2940    10.3810     8.7380
 1943.5000     0.2740     2.4840     0.0680     8.9220   101.7430    -6.5810     9.1700    10.1830     8.6230
