~VERSION INFORMATION
 VERS.                2.0:   CWLS LOG ASCII STANDARD - VERSION 2.0
 WRAP.                 NO:   ONE LINE PER DEPTH STEP
~WELL INFORMATION
#MNEM.UNIT      DATA TYPE    INFORMATION
#----------   ------------   ------------------------------
 STRT.F           46.0000:   START DEPTH
 STOP.F         2736.5000:   STOP DEPTH
 STEP.F            0.5000:   STEP LENGTH
 NULL.          -999.2500:   NO VALUE
 COMP.          INTEX OIL:   COMPANY
 WELL. INTEX NPR 3 "AX" #72-20:   WELL
 FLD .             TEAPOT:   FIELD
 LOC .      S20 T39N R78W:   LOCATION
 CNTY.            NATRONA:   COUNTY
 STAT.            WYOMING:   STATE
 CTRY. UNITED STATES OF AMERICA:   COUNTRY
 SRVC.       SCHLUMBERGER:   SERVICE COMPANY
 DATE.        11-MAY-1966:   LOGDATE
 API .     49025095110000:   API NUMBER
~CURVE INFORMATION
#MNEM.UNIT       API CODE    CURVE DESCRIPTION
#----------   ------------   ------------------------------
 DEPT.F                  :   
 SPR .MV     05 010 01 00:   SPONTANEOUS POTENTIAL FROM RES.
 ILD .OHMM   05 120 46 00:   INDUCTION LOG DEEP
 ASN .OHMM   05 041 16 00:   AMPLIFIED SHORT NORMAL 16"
 CALD.IN     45 280 60 00:   CALIPER FROM DENSITY LOG
 CORR.G/C3   45 356 01 00:   DENSITY CORRECTION
 RHOB.G/C3   45 350 01 00:   BULK DENSITY
 GRD .GAPI   45 310 01 00:   GAMMA RAY FROM DENSITY LOG
~PARAMETER INFORMATION
#MNEM.UNIT          VALUE    DESCRIPTION
#----------   ------------   ------------------------------
 EKB .F         5042.3000:   Kelly bushing
 EGL .F         5032.0000:   Ground level
 EDF .F            0.0000:   Drilling floor
 EPD .F         5032.0000:   Permanent datum
 TD  .F         2740.0000:   Total depth
 DATE.        11-MAY-1966:   Date logged
 CLNT.            A2DTECH:   Client Code
 DAPD.F              10.3:   Feet Above Permanent Datum
 DD  .F              2740:   Depth driller
 DL  .F              2737:   Depth logger
 BLI .F              2736:   Bottom log interval
 TLI .F                88:   Top log interval
 CS1 .IN            10.75:   Casing size
 CBD1.       10.75" @ 24':   Casing driller 1
 BS1 .IN            7.875:   Bit size
 BSD1.F              2740:   Depth drilled with bit1
 DFT .           OIL EMUL:   Type fluid in hole
 DFD .                9.8:   Density
 DFV .                 58:   Viscosity
 MSS .         CIRCULATED:   Source of sample
 RMS .OHMM           3.04:   Rm
 MST .F                54:   Rm Meas. temp.
 RMF .OHMM           1.95:   Rmf
 MFST.F                55:   Rmf Meas. temp.
 MFSS.                 FR:   Source Rmf.
 RMB .OHMM           1.64:   Rm. at BHT
 BHT .F               100:   BHT.
 TCS .HRS               4:   Time Circ. stopped
 MRT .F               100:   Maximum recorded temp.
 LUN .               4507:   Logging unit number
 LUL .               CSPR:   Logging unit location
 ENGI.               HAUG:   Recorded By
 WITN.             TUTTLE:   Witnessed by
 ORIG.        2" 5" PRINT:   Origin of data
 UWI .     49025095110000:   Unique Well ID
 DICO. A2D TECHNOLOGIES, INC.:   Digitizing Company
~OTHER INFORMATION
~A   DEPT      SPR        ILD        ASN       CALD       CORR       RHOB         GRD  
# ...
  592.0000   -58.0730     9.6170    11.7650     8.4800     0.0240     2.4460   111.9740
  592.5000   -58.0440     9.5860    11.7330     8.4800     0.0270     2.4480   111.3740
  593.0000   -57.9940     9.5550    11.7020     8.4800     0.0250     2.4410   110.8360
  593.5000   -57.9490     9.5230    11.6700     8.4790     0.0210     2.4330   110.5210
  594.0000   -57.9030     9.5010    11.6380     8.4790     0.0230     2.4250   108.7590
  594.5000   -57.8570     9.4870    11.6070     8.4790     0.0300     2.4330   107.7210
  595.0000   -57.8110     9.4710    11.5750     8.4790     0.0350     2.4510   109.2760
  595.5000   -57.7650     9.4560    11.5430     8.4780     0.0420     2.4600   110.0010
  596.0000   -57.7190     9.4410    11.5120     8.4780     0.0430     2.4550   109.1760
  596.5000   -57.6740     9.4260    11.4800     8.4780     0.0390     2.4520   109.3990
  597.0000   -57.6280     9.4110    11.4480     8.4770     0.0360     2.4480   110.9840
  597.5000   -57.5820     9.3960    11.4170     8.4770     0.0370     2.4630   110.1500
  598.0000   -57.5360     9.3810    11.3850     8.4770     0.0430     2.4790   110.3510
  598.5000   -57.4910     9.3660    11.3540     8.4770     0.0320     2.4600   112.4770
  599.0000   -57.4450     9.3510    11.3220     8.4760     0.0240     2.4470   111.5250
  599.5000   -57.3980     9.3370    11.2900     8.4760     0.0220     2.4370   114.6370
  600.0000   -57.3550     9.3210    11.2600     8.4760     0.0190     2.4350   115.9840
  600.5000   -57.3020     9.3130    11.2330     8.4760     0.0210     2.4340   116.4040
  601.0000   -57.3220     9.3140    11.2040     8.4750     0.0270     2.4360   111.9300
  601.5000   -57.4170     9.3140    11.1760     8.4750     0.0330     2.4540   107.5570
  602.0000   -57.5020     9.3140    11.1480     8.4750     0.0310     2.4570   106.8740
  602.5000   -57.5900     9.3130    11.1200     8.4740     0.0270     2.4650   106.9630
  603.0000   -57.6770     9.3150    11.0920     8.4740     0.0340     2.4860   110.1590
  603.5000   -57.7640     9.2910    11.0640     8.4740     0.0530     2.4970   112.9520
  604.0000   -57.8520     9.2390    11.0360     8.4740     0.0600     2.5020   114.5010
  604.5000   -57.9360     9.1910    11.0080     8.4730     0.0570     2.5030   116.0600
  605.0000   -58.0330     9.1420    10.9800     8.4730     0.0570     2.5000   117.9310
  605.5000   -58.0370     9.0930    10.9520     8.4730     0.0730     2.4980   118.8720
  606.0000   -57.9490     9.0440    10.9250     8.4720     0.0890     2.4970   118.2490
  606.5000   -57.8740     8.9950    10.8960     8.4720     0.1030     2.5110   115.5840
  607.0000   -57.7950     8.9460    10.8750     8.4720     0.1140     2.5280   116.2620
  607.5000   -57.7150     8.8970    10.8620     8.4720     0.1020     2.5160   116.7320
  608.0000   -57.6480     8.8480    10.8490     8.4710     0.0750     2.4930   118.1590
  608.5000   -57.5930     8.7990    10.8350     8.4710     0.0570     2.4960   117.0440
  609.0000   -57.5380     8.7500    10.8220     8.4710     0.0570     2.5020   114.9070
  609.5000   -57.4810     8.7010    10.8080     8.4710     0.0550     2.4880   113.8770
  610.0000   -57.4240     8.6520    10.7940     8.4700     0.0410     2.4700   113.3910
  610.5000   -57.3720     8.6050    10.7810     8.4700     0.0280     2.4680   113.1250
  611.0000   -57.3040     8.5510    10.7670     8.4700     0.0260     2.4720   113.3430
  611.5000   -57.3500     8.5460    10.7540     8.4690     0.0260     2.4720   113.5070
  612.0000   -57.5090     8.5900    10.7400     8.4690     0.0260     2.4710   113.7310
  612.5000   -57.6520     8.6270    10.7270     8.4690     0.0300     2.4790   114.3720
  613.0000   -57.8000     8.6650    10.7130     8.4690     0.0350     2.4760   117.6330
  613.5000   -57.9480     8.7090    10.7000     8.4680     0.0390     2.4690   120.2690
  614.0000   -58.0950     8.7100    10.6860     8.4680     0.0470     2.4880   120.6330
  614.5000   -58.2380     8.6710    10.6730     8.4680     0.0540     2.4840   121.0300
  615.0000   -58.3990     8.6360    10.6590     8.4670     0.0500     2.4750   121.3660
  615.5000   -58.4270     8.6000    10.6460     8.4670     0.0410     2.4570   121.8210
  616.0000   -58.3210     8.5650    10.6320     8.4670     0.0330     2.4390   121.2020
  616.5000   -58.2330     8.5290    10.6190     8.4670     0.0240     2.4360   119.0120
  617.0000   -58.1390     8.4940    10.6050     8.4660     0.0230     2.4450   118.4840
  617.5000   -58.0470     8.4580    10.5920     8.4660     0.0280     2.4580   118.9650
  618.0000   -57.9550     8.4220    10.5780     8.4660     0.0320     2.4670   117.7100
  618.5000   -57.8620     8.3890    10.5650     8.4650     0.0330     2.4670   117.3150
  619.0000   -57.7700     8.3470    10.5520     8.4650     0.0320     2.4630   117.8700
  619.5000   -57.6770     8.3560    10.5380     8.4650     0.0310     2.4660   116.4500
  620.0000   -57.5850     8.4090    10.5240     8.4650     0.0380     2.4700   114.0410
  620.5000   -57.4920     8.4500    10.5140     8.4640     0.0450     2.4660   111.5290
  621.0000   -57.4000     8.5260    10.4910     8.4640     0.0530     2.4700   111.7620
  621.5000   -57.3080     8.4140    10.5630     8.4640     0.0530     2.4790   112.1690
  622.0000   -57.2150     8.5120    10.7290     8.4640     0.0440     2.4690   112.7370
  622.5000   -57.1210     8.8170    10.8830     8.4630     0.0370     2.4560   112.9790
  623.0000   -57.0350     8.9300    11.0400     8.4630     0.0350     2.4630   110.9560
  623.5000   -56.9250     9.0760    11.1970     8.4630     0.0370     2.4810   107.1710
  624.0000   -56.9780     9.2170    11.3530     8.4620     0.0380     2.4900   103.2500
  624.5000   -57.1910     9.3550    11.5100     8.4620     0.0400     2.4800   102.2850
  625.0000   -57.3800     9.4970    11.6670     8.4620     0.0300     2.4700   104.4210
  625.5000   -57.5830     9.6350    11.8230     8.4620     0.0350     2.4670   106.8990
  626.0000   -57.7370     9.7750    11.9810     8.4610     0.0490     2.4770   109.3430
  626.5000   -57.8440     9.9160    12.1360     8.4610     0.0490     2.4760   111.2890
  627.0000   -57.9580    10.0550    12.2940     8.4610     0.0440     2.4660   111.4800
  627.5000   -58.0700    10.1950    12.4520     8.4610     0.0390     2.4600   111.6340
  628.0000   -58.1830    10.3360    12.6000     8.4610     0.0350     2.4530   111.8030
  628.5000   -58.2920    10.4710    12.7830     8.4610     0.0310     2.4590   112.0340
  629.0000   -58.4140    10.6250    12.7460     8.4610     0.0360     2.4680   114.2220
  629.5000   -58.4480    10.6390    12.6770     8.4610     0.0340     2.4600   114.2870
  630.0000   -58.3960    10.5130    12.8000     8.4610     0.0280     2.4560   113.0060
  630.5000   -58.3550    10.4060    12.8860     8.4610     0.0280     2.4530   111.8370
  631.0000   -58.3110    10.2930    12.9990     8.4610     0.0330     2.4570   110.6750
  631.5000   -58.2670    10.1810    12.9690     8.4610     0.0450     2.4690   109.7570
  632.0000   -58.2240    10.0700    12.7930     8.4610     0.0480     2.4780   110.3430
  632.5000   -58.1800     9.9580    12.6380     8.4610     0.0470     2.4870   111.1750
  633.0000   -58.1360     9.8460    12.4770     8.4610     0.0360     2.4810   109.7880
  633.5000   -58.0930     9.7340    12.3160     8.4610     0.0280     2.4690   108.5720
  634.0000   -58.0490     9.6220    12.1570     8.4610     0.0250     2.4670   107.1390
  634.5000   -58.0050     9.5100    11.9970     8.4610     0.0210     2.4650   106.7670
  635.0000   -57.9620     9.3980    11.8370     8.4610     0.0160     2.4640   107.9710
  635.5000   -57.9180     9.2880    11.6760     8.4610     0.0120     2.4600   110.3710
  636.0000   -57.8740     9.1700    11.5190     8.4610     0.0090     2.4540   113.2400
  636.5000   -57.8300     9.1140    11.3490     8.4610     0.0080     2.4440   116.6670
  637.0000   -57.7870     9.1200    11.2690     8.4610     0.0090     2.4340   120.4130
