~VERSION INFORMATION
 VERS.                2.0:   CWLS LOG ASCII STANDARD - VERSION 2.0
 WRAP.                 NO:   ONE LINE PER DEPTH STEP
~WELL INFORMATION
#MNEM.UNIT      DATA TYPE    INFORMATION
#----------   ------------   ------------------------------
 STRT.F          198.5000:   START DEPTH
 STOP.F         3172.0000:   STOP DEPTH
 STEP.F            0.5000:   STEP LENGTH
 NULL.          -999.2500:   NO VALUE
 COMP.    FENIX & SCISSON:   COMPANY
 WELL. FENIX & SCISSON AX #26-11:   WELL
 FLD .              NPR-3:   FIELD
 LOC .      S11 T38N R78W:   LOCATION
 CNTY.            NATRONA:   COUNTY
 STAT.            WYOMING:   STATE
 CTRY. UNITED STATES OF AMERICA:   COUNTRY
 SRVC.              WELEX:   SERVICE COMPANY
 DATE.        11-NOV-1977:   LOGDATE
 API .     49025104420000:   API NUMBER
~CURVE INFORMATION
#MNEM.UNIT       API CODE    CURVE DESCRIPTION
#----------   ------------   ------------------------------
 DEPT.F                  :   
 GRD .GAPI   45 310 01 00:   GAMMA RAY FROM DENSITY LOG
 CALD.IN     45 280 60 00:   CALIPER FROM DENSITY LOG
 CORR.G/C3   45 356 01 00:   DENSITY CORRECTION
 TEND.LBS    45 635 01 00:   TENSION FROM DENSITY LOG
 RHOB.G/C3   45 350 01 00:   BULK DENSITY
 SPR .MV     07 010 01 00:   SPONTANEOUS POTENTIAL
 ILD .OHMM   07 120 46 00:   DEEP INDUCTION RESISTIVITY
 ILM .OHMM   07 120 44 00:   INDUCTION LOG MEDIUM RESISTIVITY
 SGRD.OHMM   07 220 05 00:   SHALLOW SHORT GUARD RESISTIVITY
~PARAMETER INFORMATION
#MNEM.UNIT          VALUE    DESCRIPTION
#----------   ------------   ------------------------------
 EKB .F         5187.0000:   Kelly bushing
 EGL .F         5177.0000:   Ground level
 EDF .F            0.0000:   Drilling floor
 EPD .F         5177.0000:   Permanent datum
 TD  .F         3174.0000:   Total depth
 CLNT.            A2DTECH:   Client Code
 SL  . 1650' FSL & 840' FWL:   Surface Location
 PD  .                 GL:   Permanent Datum
 LMF .                 KB:   Log Measured From
 DMF .                 KB:   Drilling Measured From
 DAPD.F                10:   Feet Above Permanent Datum
 DATE.        11-NOV-1977:   Date Logged [DD-MMM-YYYY]
 DD  .F              3170:   Depth driller
 DL  .F              3174:   Depth logger
 BLI .F              3172:   Bottom log interval
 TLI .F               200:   Top log interval
 CS1 .              8.625:   Casing size
 CBD1.      8.625" @ 220':   Casing driller 1
 CBL1.IN              220:   Casing logger 1
 BS1 .IN            7.875:   Bit size
 BSD1.F              3170:   Depth drilled with bit1
 DFT .            KCL MUD:   Type fluid in hole
 DFD .                8.9:   Density
 DFV .                 37:   Viscosity
 DFPH.               11.0:   pH
 DFL .                6.4:   Fluid loss
 MSS .           FLOWLINE:   Source of sample
 RMS .OHMM           2.79:   Rm
 MST .F                50:   Rm Meas. temp.
 RMF .OHMM           2.16:   Rmf
 MFST.F                50:   Rmf Meas. temp.
 MFSS.               FANN:   Source Rmf.
 MCSS.               TEST:   Source Rmc.
 RMB .OHMM           1.22:   Rm. at BHT
 BHT .F               114:   BHT.
 TCS .HRS               3:   Time Circ. stopped
 MRT .F               114:   Maximum recorded temp.
 LUN .               8611:   Logging unit number
 LUL .             CASPER:   Logging unit location
 ENGI.            C. DOAK:   Recorded By
 WITN.         HARRINGTON:   Witnessed by
 ORIG.      2.5" 5" PRINT:   Origin of data
 UWI .     49025104420000:   Unique Well ID
 DICO. A2D TECHNOLOGIES, INC.:   Digitizing Company
~OTHER INFORMATION
~A   DEPT       GRD      CALD       CORR       TEND       RHOB        SPR        ILD        ILM       SGRD   
# ...
 1184.0000   119.2836     9.3944    -0.0010  1267.6924     2.5092   -76.6763     5.6431     9.8734     7.8148
 1184.5000   119.7228     9.3938     0.0020  1268.4617     2.5122   -76.6897     5.6399     9.4763     7.8669
 1185.0000   122.2790     9.3932     0.0051  1269.2308     2.5137   -76.5491     5.6761     8.8356     7.8629
 1185.5000   124.9460     9.3926     0.0097  1270.0000     2.5137   -76.5658     5.6722     8.0683     7.7511
 1186.0000   126.5632     9.3920     0.0112  1270.7693     2.5152   -76.5792     5.7086     7.4190     7.8020
 1186.5000   126.3731     9.3913     0.0064  1271.5385     2.5152   -76.4386     5.7055     7.0631     7.8532
 1187.0000   123.3969     9.3907     0.0033  1241.5104     2.5060   -76.4553     5.7023     6.8658     7.9048
 1187.5000   121.5672     9.3901     0.0001  1242.3077     2.5013   -76.4687     5.6992     6.7673     7.9567
 1188.0000   123.5504     9.3895    -0.0012  1243.0769     2.4967   -76.4820     5.6961     6.6241     7.9614
 1188.5000   125.3344     9.3889    -0.0043  1243.8462     2.4936   -76.4955     5.6930     6.5747     8.0615
 1189.0000   126.5213     9.3882    -0.0074  1244.6154     2.4905   -76.5090     5.6898     6.4356     8.0574
 1189.5000   126.0529     9.3876    -0.0104  1245.3845     2.4905   -76.3715     5.6867     6.3875     7.9982
 1190.0000   123.6418     9.3870    -0.0135  1246.1538     2.4889   -76.3882     5.6836     6.3398     7.8845
 1190.5000   121.2308     9.3864    -0.0136  1246.9230     2.4843   -76.4016     5.6805     6.3364     7.8813
 1191.0000   120.5234     9.3858    -0.0105  1247.6923     2.4812   -76.4127     5.6774     6.3329     7.8780
 1191.5000   121.1136     9.3851    -0.0074  1248.4615     2.4781   -76.4283     5.6743     6.3294     7.8199
 1192.0000   121.4328     9.4155    -0.0044  1249.2307     2.4781   -76.4417     5.6712     6.2821     7.8724
 1192.5000   121.4179     9.4308     0.0018  1249.9999     2.4842   -76.4550     5.6681     6.2786     7.8683
 1193.0000   121.4030     9.4452     0.0048  1250.7692     2.4873   -76.4684     5.6650     6.3190     7.8651
 1193.5000   121.3881     9.4446     0.0079  1251.5383     2.4842   -76.4818     5.6619     6.3147     7.8618
 1194.0000   119.8683     9.4609     0.0017  1252.3076     2.4841   -76.6457     5.6587     6.3112     7.8586
 1194.5000   117.7521     9.4743    -0.0044  1253.0769     2.4903   -76.6591     5.6950     6.3083     7.8554
 1195.0000   116.2487     9.4737     0.0017  1253.8461     2.4995   -76.6725     5.6918     6.3491     7.8522
 1195.5000   116.5522     9.4909     0.0048  1254.6154     2.5071   -76.6858     5.7284     6.3448     7.8489
 1196.0000   118.3284     9.5034     0.0047  1255.3846     2.5117   -76.8498     5.7244     6.3864     8.0112
 1196.5000   118.9104     9.5028     0.0047  1248.0575     2.5071   -77.0138     5.7213     6.4106     8.0071
 1197.0000   117.8447     9.5331     0.0047  1226.0492     2.5024   -76.8765     5.7182     6.4093     8.0038
 1197.5000   115.2955     9.5324     0.0047  1226.9231     2.4978   -76.7393     5.7150     6.3639     7.8352
 1198.0000   114.0867     9.5627    -0.0076  1227.6924     2.4963   -76.7531     5.7513     6.3626     7.7777
 1198.5000   114.0719     9.5621    -0.0138  1228.4615     2.4901   -76.7666     5.7498     6.3175     7.6140
 1199.0000   115.2511     9.5615    -0.0200  1229.2308     2.4686   -76.7827     5.7486     6.2296     7.6108
 1199.5000   115.8358     9.5920    -0.0200  1230.0000     2.4532   -76.9467     5.7475     6.1007     7.5550
 1200.0000   116.4179     9.5912    -0.0200  1230.7693     2.4593   -77.1107     5.7463     6.0158     7.5519
 1200.5000   118.1917     9.5906    -0.0200  1231.5385     2.4670   -76.9701     5.7451     5.9321     7.7643
 1201.0000   119.9686     9.5900    -0.0139  1232.3076     2.4778   -76.8328     5.7044     5.8900     7.8175
 1201.5000   122.9374     9.5894    -0.0107  1263.8462     2.4838   -76.8495     5.7032     5.8482     7.8161
 1202.0000   125.8904     9.5888    -0.0078  1264.6154     2.4774   -76.5584     5.6628     5.8468     7.8151
 1202.5000   127.0452     9.6191    -0.0173  1265.3845     2.4651   -76.4211     5.6227     5.8456     7.8140
 1203.0000   125.8269     9.6185    -0.0235  1266.1538     2.4559   -76.4378     5.5828     5.8444     7.8129
 1203.5000   124.5534     9.6179    -0.0228  1266.9231     2.4530   -76.7199     5.5051     5.8432     7.8071
 1204.0000   122.6984     9.6173    -0.0136  1267.6923     2.4568   -76.8813     5.5039     5.8421     7.7487
 1204.5000   119.7131     9.5857    -0.0078  1268.4614     2.4837   -76.8902     5.4646     5.8409     7.6481
 1205.0000   117.3731     9.5851    -0.0089  1267.9231     2.4882   -77.0497     5.4635     5.8397     7.5941
 1205.5000   117.9471     9.5845    -0.0171  1266.5260     2.4852   -77.2092     5.4624     5.7983     7.5930
 1206.0000   118.5204     9.5838    -0.0103  1267.0769     2.4848   -77.2181     5.4613     5.7971     7.5394
 1206.5000   119.1961     9.5832    -0.0048  1267.5385     2.4897   -77.2269     5.4602     5.7561     7.4861
 1207.0000   120.8608     9.5826    -0.0055  1268.0000     2.4974   -77.2358     5.4215     5.7153     7.4332
 1207.5000   120.8358     9.5820    -0.0079  1268.4615     2.4992   -77.2447     5.3830     5.7141     7.5365
 1208.0000   120.8119     9.5814    -0.0079  1268.9231     2.4958   -77.2536     5.3449     5.7130     7.6408
 1208.5000   120.1235     9.5808    -0.0075  1269.3846     2.4896   -77.2625     5.3070     5.7118     7.7471
 1209.0000   118.3761     9.6111    -0.0026  1269.8462     2.4850   -77.2714     5.3059     5.6712     7.8001
 1209.5000   117.7552     9.5118     0.0017  1270.3076     2.4819   -77.2803     5.3048     5.6311     7.7987
 1210.0000   117.7313     9.5108     0.0078  1270.7693     2.4834   -77.1386     5.3037     5.6299     7.7977
 1210.5000   117.7075     9.5099     0.0139  1271.2308     2.4895   -77.1476     5.3394     5.6288     7.7966
 1211.0000   117.5958     9.4907     0.0081  1271.6923     2.4834   -77.0057     5.3754     5.6276     7.7955
 1211.5000   116.3741     9.4769    -0.0013  1272.1538     2.4787   -77.0168     5.4132     5.6265     7.7945
 1212.0000   115.8448     9.4760    -0.0092  1272.6154     2.4833   -76.8729     5.4519     5.6253     7.7934
 1212.5000   115.2239     9.4441    -0.0123  1273.0769     2.4940   -76.7312     5.4909     5.6306     7.7923
 1213.0000   114.4994     9.4432    -0.0140  1273.5385     2.4986   -76.7423     5.5983     5.6620     7.7910
 1213.5000   113.3851     9.4113    -0.0110  1274.0000     2.4971   -76.7512     5.6360     5.6605     7.7899
 1214.0000   113.3612     9.3794    -0.0049  1274.4615     2.4955   -76.6073     5.7132     5.6989     7.9534
 1214.5000   113.3373     9.3785     0.0012  1274.9231     2.4970   -76.6184     5.7912     5.7372     8.0078
 1215.0000   113.4330     9.4085     0.0088  1275.3846     2.5047   -76.6273     5.8305     5.8561     8.0626
 1215.5000   116.0471     9.4386     0.0165  1275.8462     2.5108   -76.4855     5.9101     5.9771     8.2312
 1216.0000   118.5508     9.4996     0.0242  1276.3077     2.5154   -76.4944     5.9090     6.0176     8.1730
 1216.5000   121.6026     9.5296     0.0272  1276.7692     2.5200   -76.5033     5.9078     6.0161     8.1153
 1217.0000   120.3821     9.4977     0.0271  1277.2307     2.5230   -76.5122     5.9476     6.0565     8.1142
 1217.5000   119.6220     9.4658     0.0178  1277.6923     2.5046   -76.5211     5.9464     6.1395     8.1130
 1218.0000   117.9463     9.4649     0.0054  1278.1538     2.4923   -76.5301     5.9451     6.2236     8.1119
 1218.5000   117.0311     9.4640     0.0023  1278.6154     2.4846   -76.5392     6.0263     6.3525     8.1674
 1219.0000   115.0568     9.4940     0.0147  1279.0769     2.4907   -76.5500     6.0672     6.4842     8.2233
 1219.5000   112.6328     9.4931     0.0301  1279.5385     2.5014   -76.5589     6.0656     6.6647     8.3377
 1220.0000   110.5274     9.5231     0.0376  1280.0000     2.5137   -76.5677     6.1067     6.8056     8.5200
