~VERSION INFORMATION
 VERS.                2.0:   CWLS LOG ASCII STANDARD - VERSION 2.0
 WRAP.                 NO:   ONE LINE PER DEPTH STEP
~WELL INFORMATION
#MNEM.UNIT      DATA TYPE    INFORMATION
#----------   ------------   ------------------------------
 STRT.F          199.0000:   START DEPTH
 STOP.F         2951.0000:   STOP DEPTH
 STEP.F            0.5000:   STEP LENGTH
 NULL.          -999.2500:   NO VALUE
 COMP.    FENIX & SCISSON:   COMPANY
 WELL. FENIX & SCISSON "A" #3-21:   WELL
 FLD .              XPR-3:   FIELD
 LOC .      S21 T39N R78W:   LOCATION
 CNTY.            NATRONA:   COUNTY
 STAT.            WYOMING:   STATE
 CTRY. UNITED STATES OF AMERICA:   COUNTRY
 SRVC.              WELEX:   SERVICE COMPANY
 DATE.        27-JUN-1977:   LOGDATE
 API .     49025103880000:   API NUMBER
~CURVE INFORMATION
#MNEM.UNIT       API CODE    CURVE DESCRIPTION
#----------   ------------   ------------------------------
 DEPT.F                  :   
 CALD.IN     45 280 60 00:   CALIPER FROM DENSITY LOG
 GRD .GAPI   45 310 01 00:   GAMMA RAY FROM DENSITY LOG
 CORR.G/C3   45 356 01 00:   DENSITY CORRECTION
 RHOB.G/C3   45 350 01 00:   BULK DENSITY
 SPR .MV     07 010 01 00:   SPONTANEOUS POTENTIAL
 ILD .OHMM   07 120 46 00:   DEEP INDUCTION RESISTIVITY
 ILM .OHMM   07 120 44 00:   INDUCTION LOG MEDIUM RESISTIVITY
 SGRD.OHMM   07 220 05 00:   SHALLOW SHORT GUARD RESISTIVITY
~PARAMETER INFORMATION
#MNEM.UNIT          VALUE    DESCRIPTION
#----------   ------------   ------------------------------
 EKB .F         4981.0000:   Kelly bushing
 EGL .F         4971.0000:   Ground level
 TD  .F         2953.0000:   Total depth
 CLNT.            A2DTECH:   Client Code
 SL  . 330' FSL & 1650' FWL:   Surface Location
 DATE.        27-JUN-1977:   Date Logged [DD-MMM-YYYY]
 DD  .F              2930:   Depth driller
 DL  .F              2953:   Depth logger
 BLI .F              2951:   Bottom log interval
 TLI .F               200:   Top log interval
 CS1 .              8.625:   Casing size
 CBD1.      8.625" @ 217':   Casing driller 1
 BS1 .IN            7.875:   Bit size
 BSD1.F              2930:   Depth drilled with bit1
 DFT .            KCL MUD:   Type fluid in hole
 DFD .                9.4:   Density
 DFV .                 37:   Viscosity
 DFPH.                9.0:   pH
 DFL .               16.0:   Fluid loss
 MSS .           FLOWLINE:   Source of sample
 RMS .OHMM           1.10:   Rm
 MST .F                92:   Rm Meas. temp.
 RMF .OHMM           0.85:   Rmf
 MFST.F                92:   Rmf Meas. temp.
 MFSS.           FANN KIT:   Source Rmf.
 RMC .OHMM           1.44:   Rmc
 MCST.F                92:   Rmc Meas. temp.
 MCSS.           FANN KIT:   Source Rmc.
 RMB .OHMM           0.93:   Rm. at BHT
 BHT .F               109:   BHT.
 TCS .HRS            0230:   Time Circ. stopped
 MRT .F               109:   Maximum recorded temp.
 LUN .               8611:   Logging unit number
 LUL .             CASPER:   Logging unit location
 ENGI.         G. BENTSEN:   Recorded By
 WITN.  MR. W. PETTINGILL:   Witnessed by
 ORIG.      2.5" 5" PRINT:   Origin of data
 UWI .     49025103880000:   Unique Well ID
 DICO. A2D TECHNOLOGIES, INC.:   Digitizing Company
 PD  .                 GL:   Permanent Datum
 EPD .               4971:   Elevation Permanent Datum
 LMF .                 KB:   Log Measured From
 DMF .                 KB:   Drilling Measured From
 DAPD.                 10:   Feet Above Permanent Datum
~OTHER INFORMATION
~A   DEPT       CALD       GRD       CORR        RHOB      SPR        ILD        ILM       SGRD   
# ...
 1657.0000     8.6362   119.5046    -0.0051     2.5034   -38.6760     6.2239     6.6452    10.1865
 1657.5000     8.6355   119.5046    -0.0051     2.5003   -38.8117     6.2252     6.6475     9.8445
 1658.0000     8.6657   118.2663    -0.0052     2.4972   -39.2351     6.2265     6.6493     9.9161
 1658.5000     8.6649   117.0279    -0.0052     2.4941   -39.2188     6.2278     6.6050    10.1971
 1659.0000     8.6951   115.7895    -0.0052     2.4956   -39.3505     6.2291     6.6073     9.9229
 1659.5000     8.6943   115.1703    -0.0053     2.5002   -39.3342     6.2304     6.6091     9.7230
 1660.0000     8.6626   114.5511    -0.0022     2.5017   -39.3179     6.2316     6.6566     9.5923
 1660.5000     8.6618   113.9319     0.0017     2.5048   -39.3016     6.2329     6.7045     9.6881
 1661.0000     8.6610   113.9319     0.0040     2.4985   -39.1374     6.2342     6.7527     9.9360
 1661.5000     8.6602   113.3127     0.0071     2.4892   -38.6773     6.1502     6.7546     9.9394
 1662.0000     8.6595   112.6935     0.0070     2.4877   -38.3652     6.1515     6.7564    10.0810
 1662.5000     8.6587   112.6935     0.0061     2.4923   -38.2010     6.0270     6.7114    10.0150
 1663.0000     8.6579   112.6935     0.0039     2.4953   -38.0368     5.7844     6.5764    10.0185
 1663.5000     8.6572   113.3127     0.0038     2.5015   -38.0205     5.5134     6.2255     9.9427
 1664.0000     8.6564   113.3127     0.0038     2.5030   -38.0042     5.3280     5.9751     9.2558
 1664.5000     8.6556   113.3127     0.0038     2.5045   -37.9879     5.0435     5.8143     8.8576
 1665.0000     8.6548   113.3127     0.0037     2.4968   -37.9716     4.8073     5.6190     8.8608
 1665.5000     8.6541   112.6935     0.0037     2.4844   -37.9553     4.6456     5.3559     8.8112
 1666.0000     8.6533   112.0743     0.0037     2.4704   -37.9390     4.5203     5.0701     7.2224
 1666.5000     8.6525   107.7399     0.0037     2.4766   -38.2186     4.3985     4.9337     5.9766
 1667.0000     8.6517   102.1672     0.0036     2.4827   -38.5023     4.3095     4.9350     6.1082
 1667.5000     8.6510   102.7864     0.0036     2.4873   -38.4819     4.2808     4.9364     7.5949
 1668.0000     8.6502   107.1207     0.0036     2.4842   -38.4656     4.2523     4.8036     8.1737
 1668.5000     8.6494   111.4551     0.0035     2.4811   -38.4493     4.2826     4.6422     8.1764
 1669.0000     8.6486   114.5511     0.0035     2.4780   -38.1372     4.3130     4.5485     7.8890
 1669.5000     8.6478   117.0279     0.0035     2.4764   -37.9730     4.3737     4.5498     7.0785
 1670.0000     8.6470   120.1238     0.0034     2.4762   -38.6963     4.4353     4.6460     7.2858
 1670.5000     8.6463   119.5046     0.0046     2.4980   -39.1279     4.5600     5.1179     8.0336
 1671.0000     8.6455   117.0279     0.0065     2.5103   -39.1075     4.6242     5.3722     8.7217
 1671.5000     8.6447   115.1703     0.0096     2.5226   -38.9433     4.7217     5.0852     8.9006
 1672.0000     8.6439   113.3127     0.0127     2.5102   -38.6312     4.8212     5.1575     8.3541
 1672.5000     8.6478   112.0743     0.0157     2.4963   -39.0587     4.9228     5.2305     7.7019
 1673.0000     8.6734   112.0743     0.0169     2.4885   -39.0424     4.9578     5.2681     7.4983
 1673.5000     8.6678   115.1703     0.0200     2.4869   -38.8782     5.0276     5.3426     7.8211
 1674.0000     8.6408   119.5046     0.0219     2.4900   -38.5660     5.0634     5.3441     8.1511
 1674.5000     8.6401   123.2198     0.0250     2.4931   -38.8497     5.0994     5.3456     8.1539
 1675.0000     8.6393   125.6966     0.0262     2.4946   -38.8293     5.2069     5.3471     8.2132
 1675.5000     8.6385   126.3158     0.0280     2.4961   -38.3693     5.2079     5.3350     8.5044
 1676.0000     8.6377   125.6966     0.0311     2.4899   -38.2050     5.1025     5.3134     8.7454
 1676.5000     8.6370   124.4582     0.0324     2.4821   -37.8929     4.9650     5.2418     8.5103
 1677.0000     8.6362   122.6006     0.0377     2.4697   -37.8766     4.8311     5.1007     7.8368
 1677.5000     8.6354   120.7430     0.0395     2.4542   -37.8603     4.7009     4.9635     7.2166
 1678.0000     8.6346   118.2663     0.0414     2.4225   -37.8440     4.4499     4.6989     7.0226
 1678.5000     8.6649   116.4087     0.0434     2.3911   -37.8278     4.2124     4.5099     7.0251
 1679.0000     8.6641   115.1703     0.0402     2.3674   -37.8115     4.0428     4.3282     7.0275
 1679.5000     8.6633   113.9319     0.0402     2.3376   -37.7952     3.8800     4.0975     6.9816
 1680.0000     8.6625   112.6935     0.0371     2.3071   -37.7789     3.8015     3.9873     6.7939
 1680.5000     8.6680   113.3127     0.0339     2.2918   -37.6147     3.7762     3.8800     3.2935
 1681.0000     8.6920   114.5511     0.0339     2.3043   -37.8943     3.7770     3.9621     2.9708
 1681.5000     8.6912   114.5511     0.0307     2.3483   -38.3218     3.7518     4.0459     4.1385
 1682.0000     8.6970   113.9319     0.0307     2.4394   -38.8972     3.7013     4.0470     8.1963
 1682.5000     8.7207   117.0279     0.0307     2.4594   -39.0329     3.6514     3.9928     7.5999
 1683.0000     8.6888   120.1238     0.0307     2.4476   -39.0125     3.5286     3.9662     6.6685
 1683.5000     8.6881   116.4087     0.0306     2.4371   -38.8483     3.4335     3.8861     6.4892
 1684.0000     8.7184   113.9319     0.0275     2.4223   -38.6841     3.3410     3.4818     6.8127
 1684.5000     8.7175   111.4551     0.0150     2.3951   -38.5199     3.1844     3.1408     5.1360
 1685.0000     8.7167   109.5975     0.0056     2.3765   -38.6515     3.0353     2.9528     4.1657
 1685.5000     8.7159   108.3591     0.0025     2.3657   -39.0831     2.8931     2.9333     4.8635
 1686.0000     8.7152   107.1207    -0.0007     2.3594   -39.2107     2.8345     2.8348     5.8211
 1686.5000     8.7144   105.8824    -0.0038     2.3671   -39.1944     2.8943     2.9962     6.6387
 1687.0000     8.7136   104.0248    -0.0070     2.3872   -39.0302     3.0378     3.4875     7.4674
 1687.5000     8.7128   106.5015    -0.0070     2.4444   -38.5701     3.2104     3.7891     8.8152
 1688.0000     8.7121   109.5975    -0.0039     2.4984   -38.8497     3.3929     3.9230     7.6289
 1688.5000     8.7113   112.0743    -0.0008     2.5030   -38.9854     3.5857     4.0616     6.0776
 1689.0000     8.7105   114.5511     0.0022     2.5092   -38.9650     3.8953     4.2929     6.6502
 1689.5000     8.7098   116.4087     0.0022     2.5184   -38.9488     4.2902     4.6003     5.6764
 1690.0000     8.7090   117.6471     0.0053     2.5292   -39.0845     4.6606     4.9638     7.7992
 1690.5000     8.7082   118.2663     0.0053     2.5369   -39.0641     4.9255     5.1747     8.5340
 1691.0000     8.7074   118.2663     0.0052     2.5462   -39.0478     5.1342     5.4318     8.7758
 1691.5000     8.7067   118.2663     0.0083     2.5523   -39.0315     5.3888     5.6626     8.5982
 1692.0000     8.7059   118.8855     0.0083     2.5415   -39.1673     5.5787     5.8224     8.6019
 1692.5000     8.7051   119.5046     0.0114     2.5306   -39.1469     5.7356     5.9456     8.7849
 1693.0000     8.7043   121.9814     0.0113     2.5244   -38.8348     5.8163     6.0298     9.0338
 1693.5000     8.7036   123.8390     0.0144     2.5182   -38.5226     5.8577     6.0731     9.2898
 1694.0000     8.7028   126.3158     0.0175     2.5151   -38.0625     5.8187     6.1591     8.8549
 1694.5000     8.7020   128.7926     0.0175     2.5243   -37.6025     5.7010     6.1608     8.7963
 1695.0000     8.7013   130.0310     0.0206     2.5320   -37.4383     5.5856     6.2051     8.8610
 1695.5000     8.7005   131.8885     0.0205     2.5351   -37.2740     5.4350     6.0381     8.8640
 1696.0000     8.6997   125.0774     0.0174     2.5196   -37.1098     5.2885     5.4468     8.9285
 1696.5000     8.6989   121.9814     0.0174     2.5087   -37.0935     5.2173     5.2635     8.8702
 1697.0000     8.6982   121.9814     0.0142     2.5025   -37.5210     5.1117     5.1929     8.0563
