~VERSION INFORMATION
 VERS.                2.0:   CWLS LOG ASCII STANDARD - VERSION 2.0
 WRAP.                 NO:   ONE LINE PER DEPTH STEP
~WELL INFORMATION
#MNEM.UNIT      DATA TYPE    INFORMATION
#----------   ------------   ------------------------------
 STRT.F           60.0000:   START DEPTH
 STOP.F         3178.0000:   STOP DEPTH
 STEP.F            0.5000:   STEP LENGTH
 NULL.          -999.2500:   NO VALUE
 COMP. LAWRENCE-ALLISON & ASSOSCIATES:   COMPANY
 WELL. LAWRENCE "AX" #46-21:   WELL
 FLD .             NPR #3:   FIELD
 LOC .      S21 T39N R78W:   LOCATION
 CNTY.            NATRONA:   COUNTY
 STAT.            WYOMING:   STATE
 CTRY. UNITED STATES OF AMERICA:   COUNTRY
 SRVC.       SCHLUMBERGER:   SERVICE COMPANY
 DATE.        03-JUN-1982:   LOGDATE
 API .     49025108890000:   API NUMBER
~CURVE INFORMATION
#MNEM.UNIT       API CODE    CURVE DESCRIPTION
#----------   ------------   ------------------------------
 DEPT.F                  :   
 TEND.LBS    45 635 01 00:   TENSION FORM DENSITY LOG
 CALD.IN     45 280 60 00:   CALIPER FROM DENSITY LOG
 CORR.G/C3   45 356 01 00:   DENSITY CORRECTION
 RHOB.G/C3   45 350 01 00:   BULK DENSITY
 NPHI.DEC    42 890 03 00:   NEUTRON POROSITY SANDSTONE
 GRR .GAPI   07 310 01 00:   GAMMA RAY FROM RESISTIVITY
 SPR .MV     07 010 01 00:   SPONTANEOUS POTENTIAL
 SFL .OHMM   07 220 01 00:   SHALLOW FOCUSED LOG RESISTIVITY
 ILD .OHMM   07 120 46 00:   DEEP INDUCTION RESISTIVITY
 ILM .OHMM   07 120 44 00:   INDUCTION LOG MEDIUM RESISTIVITY
 TENR.LBS    07 635 01 00:   TENSION FROM RESISTIVITY
~PARAMETER INFORMATION
#MNEM.UNIT          VALUE    DESCRIPTION
#----------   ------------   ------------------------------
 EKB .F         5008.0000:   Kelly bushing
 EGL .F         4998.0000:   Ground level
 EDF .F         5007.0000:   Drilling floor
 TD  .F         3230.0000:   Total depth
 CLNT.            A2DTECH:   Client Code
 SL  . 1864' FSL & 2484' FWL:   Surface Location
 PD  .                 GL:   Permanent Datum
 EPD .F              4998:   Elevation Permanent Datum
 LMF .                 KB:   Log Measured From
 DMF .                 KB:   Drilling Measured From
 DAPD.F                10:   Feet Above Permanent Datum
 DATE.        03-JUN-1982:   Date Logged [DD-MMM-YYYY]
 DD  .F              3230:   Depth driller
 DL  .F              3200:   Depth logger
 BLI .F              3190:   Bottom log interval
 TLI .F               475:   Top log interval
 CS1 .IN            9.625:   Casing size
 CBD1.      9.625" @ 465':   Casing driller 1
 CBL1.F               475:   Casing logger 1
 BS1 .IN             8.75:   Bit size
 BSD1.F              3230:   Depth drilled with bit1
 DFT .   FORM WATER / AIR:   Type fluid in hole
 TCS .HRS            1530:   Time Circ. stopped
 TLAB.HRS            1900:   Time logger at bottom
 MRT .F               135:   Maximum recorded temp.
 LUN .               8035:   Logging unit number
 LUL .               CSPR:   Logging unit location
 ENGI.              PENNY:   Recorded By
 WITN.           JENNINGS:   Witnessed by
 ORIG.      2.5" 5" PRINT:   Origin of data
 UWI .     49025108890000:   Unique Well ID
 DICO. A2D TECHNOLOGIES, INC.:   Digitizing Company
~OTHER INFORMATION
~A   DEPT     TEND       CALD       CORR       RHOB       NPHI        GRR        SPR        SFL        ILD        ILM       TENR   
# ...
 2957.5000  1997.0109     8.5282     0.0671     2.5321     0.2185   110.2765   -60.9814     4.9927     4.4276     4.7077  1961.3799
 2958.0000  1994.5198     8.5141     0.0664     2.5329     0.2279   109.9606   -60.6764     4.6540     4.4345     4.7077  1961.8182
 2958.5000  1992.2269     8.5151     0.0627     2.5239     0.2363   106.5089   -60.0693     4.5249     4.6455     4.8411  1960.5222
 2959.0000  2004.7832     8.5160     0.0462     2.5075     0.2390   100.6199   -59.7643     4.5243     4.9261     4.9092  1932.3787
 2959.5000  2002.0231     8.5021     0.0304     2.4932     0.2327    96.0831   -59.4592     4.8517     5.2234     5.1266  1932.8789
 2960.0000  1999.9998     8.5030     0.0184     2.4941     0.2214    92.0009   -59.4562     6.1543     5.4973     5.3537  1933.3333
 2960.5000  2012.7721     8.5040     0.0170     2.5001     0.2021    92.4641   -59.4532     6.9994     5.7691     5.5909  1933.7878
 2961.0000  2010.1648     8.5049     0.0185     2.5055     0.1929    94.7455   -59.5498     7.1768     6.1001     5.8386  1934.3314
 2961.5000  1992.8251     8.5057     0.0170     2.5063     0.1902    97.1139   -60.0080     7.2770     6.2720     6.1410  1934.7651
 2962.0000  1990.4335     8.5214     0.0141     2.5048     0.1916    97.9446   -60.8117     7.2758     6.5397     6.4024  1935.1992
 2962.5000  1973.0945     8.5222     0.0156     2.5086     0.1907    96.9130   -61.5554     7.3261     6.7280     6.5839  1935.6332
 2963.0000  1970.4700     8.5379     0.0232     2.5210     0.1909    96.5983   -61.8546     7.3763     6.6028     6.4925  1936.0670
 2963.5000  1983.2583     8.5388     0.0277     2.5230     0.1918   100.4336   -62.1541     7.2726     6.2246     6.2259  1936.5151
 2964.0000  1980.8368     8.5396     0.0247     2.5103     0.1954   107.9836   -62.1509     6.9726     5.8677     5.9680  1936.9696
 2964.5000  1978.4757     8.5407     0.0186     2.4924     0.2055   112.0832   -62.4502     5.5447     5.5312     5.6276  1937.4242
 2965.0000  1980.9440     8.5267     0.0128     2.4849     0.2181   114.3646   -62.4824     5.1698     5.2876     5.3815  1937.8788
 2965.5000  1988.6399     8.5276     0.0113     2.4835     0.2245   115.2823   -62.7465     4.9568     5.1471     5.2413  1938.3333
 2966.0000  1986.2479     8.5285     0.0084     2.4866     0.2280   117.1092   -63.0458     4.9561     5.0040     5.1195  1938.7878
 2966.5000  1983.7590     8.5293     0.0076     2.4919     0.2310   118.0269   -63.3450     4.9554     5.0030     5.0484  1939.3215
 2967.0000  1988.3868     8.5450     0.0099     2.4942     0.2297   116.3520   -63.6435     5.0246     5.0020     5.0484  1939.6969
 2967.5000  1994.0206     8.5459     0.0160     2.4890     0.2273   111.8400   -63.9426     5.1663     5.1430     5.0484  1940.1895
 2968.0000  1991.6292     8.5469     0.0160     2.4815     0.2230   106.9759   -64.2413     5.3488     5.2261     5.1195  1940.6234
 2968.5000  1989.2375     8.5478     0.0145     2.4778     0.2177   106.9145   -64.5405     5.6164     5.3810     5.1915  1941.0605
 2969.0000  2002.2024     8.5486     0.0176     2.4901     0.2141   108.5906   -64.8397     5.6156     5.5405     5.2646  1941.5151
 2969.5000  2014.2866     8.5495     0.0237     2.5027     0.2159   111.2651   -64.8369     5.6149     5.5888     5.3486  1911.6221
 2970.0000  2026.9445     8.5799     0.0274     2.4983     0.2209   109.0010   -65.1361     5.6141     5.5100     5.4138  1912.1212
 2970.5000  2024.4623     8.5808     0.0079     2.4833     0.2215   107.1915   -65.1329     5.9367     5.3566     5.3139  1912.5758
 2971.0000  2037.0702     8.5816     0.0065     2.4773     0.2196   107.2002   -65.1299     6.1895     5.2077     5.1601  1913.0303
 2971.5000  2034.6783     8.5531     0.0073     2.4804     0.2226   108.6287   -65.1269     5.6910     5.0629     5.0107  1913.5750
 2972.0000  2032.2874     8.5540     0.0073     2.4736     0.2348   110.0908   -65.2729     5.0664     4.8537     4.7077  1914.0088
 2972.5000  2029.6755     8.5548     0.0073     2.4633     0.2406   111.8901   -65.7245     5.0168     4.6483     4.5144  1914.4429
 2973.0000  2027.5040     8.5557     0.0089     2.4716     0.2454   113.3075   -66.0237     4.9806     4.5763     4.4517  1914.8766
 2973.5000  2024.7134     8.5416     0.0112     2.4769     0.2490   115.1385   -66.3230     4.8093     4.4599     4.3899  1945.6136
 2974.0000  2022.7206     8.5426     0.0157     2.4762     0.2525   118.4642   -66.6222     4.5472     4.3970     4.3290  1946.0605
 2974.5000  2020.1324     8.5287     0.0158     2.4778     0.2549   121.3560   -66.9215     4.3599     4.3961     4.3201  1946.5151
 2975.0000  2024.1691     8.5296     0.0196     2.4876     0.2542   122.2738   -67.2456     4.2392     4.3339     4.2689  1946.9697
 2975.5000  2030.4989     8.5306     0.0271     2.4991     0.2474   120.9188   -67.5199     4.3598     4.3330     4.2481  1947.4242
 2976.0000  2028.0178     8.5315     0.0317     2.5012     0.2396   116.8366   -67.8191     4.4892     4.3322     4.2097  1947.8788
 2976.5000  2025.7101     8.5471     0.0287     2.5021     0.2327   113.6227   -67.8157     4.6370     4.2117     4.2097  1948.3334
 2977.0000  2022.8644     8.5628     0.0272     2.5051     0.2288   112.7630   -68.1148     4.8724     4.1524     4.1512  1948.8682
 2977.5000  2020.7645     8.5636     0.0325     2.5127     0.2335   114.5909   -68.1118     4.8429     4.0938     4.0936  1979.6051
 2978.0000  2023.5317     8.5793     0.0476     2.5240     0.2446   115.0531   -68.1083     4.6031     4.0360     4.0936  1980.0391
 2978.5000  2031.0912     8.5654     0.0521     2.5293     0.2475   114.6091   -68.1054     4.3550     4.0352     4.0936  1980.4729
 2979.0000  2043.5980     8.5664     0.0469     2.5196     0.2435   115.3168   -68.4046     4.2344     4.0121     4.0936  1980.9092
 2979.5000  2041.4982     8.5523     0.0289     2.4934     0.2355   117.3561   -68.4018     4.3538     3.9774     4.0842  1981.3635
 2980.0000  2054.1545     8.5534     0.0075     2.4792     0.2310   117.3648   -68.3988     4.4145     3.9764     4.0368  1981.8182
 2980.5000  2051.4199     8.5392     0.0004     2.4883     0.2318   116.9182   -68.6981     4.3527     3.9756     4.0368  1982.2727
 2981.0000  2063.5676     8.5403     0.0080     2.4988     0.2352   119.2003   -68.6949     4.3520     3.9748     4.0368  1982.7273
 2981.5000  2061.2766     8.5559     0.0185     2.4950     0.2401   121.5070   -68.9945     4.4127     4.0301     4.0368  1983.1819
 2982.0000  2058.7954     8.5568     0.0186     2.4870     0.2419   122.8540   -69.1299     4.3101     4.0293     4.0368  1983.6364
 2982.5000  2056.8015     8.5727     0.0156     2.4847     0.2365   119.6264   -69.2900     4.1716     4.0852     4.0368  1984.1615
 2983.0000  2054.4058     8.5735     0.0141     2.4841     0.2317   115.0113   -69.5891     4.2029     4.0843     4.0368  2014.8983
 2983.5000  2051.9246     8.5744     0.0103     2.4819     0.2262   112.2356   -69.8882     4.4722     4.0267     3.9808  2015.3323
 2984.0000  2049.6267     8.5752     0.0028     2.4722     0.2209   111.9818   -70.1871     4.5983     3.9471     3.9212  2015.7664
 2984.5000  2047.2344     8.5762     0.0000     2.4677     0.2283   112.4471   -70.4863     4.6076     3.8595     3.8613  2016.2122
 2985.0000  2044.8431     8.5769     0.0023     2.4730     0.2420   112.4558   -70.4985     4.2868     3.7520     3.7643  2016.6666
 2985.5000  2042.4517     8.5778     0.0046     2.4723     0.2547   115.1917   -70.7827     4.0475     3.6477     3.6606  2017.1212
 2986.0000  2040.0601     8.5789     0.0053     2.4671     0.2637   119.2913   -71.0819     3.8862     3.5463     3.5854  2017.5757
 2986.5000  2037.2268     8.5797     0.0159     2.4657     0.2703   122.0440   -71.0786     3.8719     3.4963     3.4615  2018.0303
 2987.0000  2035.2764     8.5806     0.0265     2.4703     0.2743   124.8633   -71.2096     3.7409     3.4459     3.4135  1995.3082
 2987.5000  2032.6459     8.5814     0.0348     2.4778     0.2755   127.3305   -71.3746     3.5494     3.3925     3.3661  1988.6365
