~VERSION INFORMATION
 VERS.                2.0:   CWLS LOG ASCII STANDARD - VERSION 2.0
 WRAP.                 NO:   ONE LINE PER DEPTH STEP
~WELL INFORMATION
#MNEM.UNIT      DATA TYPE    INFORMATION
#----------   ------------   ------------------------------
 STRT.F          174.0000:   START DEPTH
 STOP.F         3492.0000:   STOP DEPTH
 STEP.F            0.5000:   STEP LENGTH
 NULL.          -999.2500:   NO VALUE
 COMP.    FENIX & SCISSON:   COMPANY
 WELL.   FENIX "AX" #18-3:   WELL
 FLD .        TEAPOT DOME:   FIELD
 LOC .       S3 T38N R78W:   LOCATION
 CNTY.            NATRONA:   COUNTY
 STAT.            WYOMING:   STATE
 CTRY. UNITED STATES OF AMERICA:   COUNTRY
 SRVC.       SCHLUMBERGER:   SERVICE COMPANY
 DATE.        09-FEB-1981:   LOGDATE
 API .     49025108630000:   API NUMBER
~CURVE INFORMATION
#MNEM.UNIT       API CODE    CURVE DESCRIPTION
#----------   ------------   ------------------------------
 DEPT.F                  :   
 CALD.IN     45 280 60 00:   CALIPER FROM DENSITY LOG
 GRD .GAPI   45 310 01 00:   GAMMA RAY FROM DENSITY LOG
 RHOB.G/C3   45 350 01 00:   BULK DENSITY
 DRHO.G/C3   45 356 01 00:   DENSITY CORRECTION
 TENR.LBS    07 635 01 00:   TENSION FROM RESISTIVITY
 SPR .MV     07 010 01 00:   SPONTANEOUS POTENTIAL
 ILM .OHMM   07 120 44 00:   INDUCTION LOG MEDIUM RESISTIVITY
 ILD .OHMM   07 120 46 00:   INDUCTION LOG DEEP RESISTIVITY
 SFLU.OHMM   07 220 01 00:   SPHERICALLY FOCUSED LOG UNAVERAGED RESISTIVITY
~PARAMETER INFORMATION
#MNEM.UNIT          VALUE    DESCRIPTION
#----------   ------------   ------------------------------
 EKB .F         5267.0000:   Kelly bushing
 EGL .F         5257.0000:   Ground level
 EDF .F            0.0000:   Drilling floor
 TD  .F         3472.0000:   Total depth
 DATE.        09-FEB-1981:   Date logged
 CLNT.            A2DTECH:   Client Code
 SL  . 669' FSL & 42' FWL:   Surface Location
 PD  .                 GL:   Permanent Datum
 DD  .F              3401:   Depth driller
 DL  .F              3472:   Depth logger
 BLI .F              3466:   Bottom log interval
 CS1 .IN            8.625:   Casing size
 CBD1.      8.625" @ 200':   Casing driller 1
 CBL1.F               196:   Casing logger 1
 BS1 .IN            7.875:   Bit size
 DFT .            KCL/GEL:   Type fluid in hole
 DFD .                  9:   Density
 DFV .                 60:   Viscosity
 DFPH.                8.5:   pH
 DFL .                 10:   Fluid loss
 MSS .            MUD/PIT:   Source of sample
 RMS .OHMM           1.88:   Rm
 MST .F                75:   Rm Meas. temp.
 RMF .OHMM           1.12:   Rmf
 MFST.F                75:   Rmf Meas. temp.
 MFSS.               MEAS:   Source Rmf.
 RMB .OHMM           1.21:   Rm. at BHT
 BHT .F               120:   BHT.
 TCS .HRS            1800:   Time Circ. stopped
 MRT .F               120:   Maximum recorded temp.
 LUN .               8043:   Logging unit number
 LUL .               CSPR:   Logging unit location
 ENGI.            CONNETT:   Recorded By
 WITN.              SCOTT:   Witnessed by
 ORIG.           5" PRINT:   Origin of data
 UWI .     49025108630000:   Unique Well ID
 DICO. A2D TECHNOLOGIES, INC.:   Digitizing Company
 DAPD.F                10:   Feet Above Permanent Datum
 BSD1.F              3401:   Depth drilled with bit1
 EPD .F              5257:   Elevation Permanent Datum
 LMF .                 KB:   Log Measured From
 DMF .                 KB:   Drilling Measured From
 TLI .F               196:   Top log interval
 TLAB.               0000:   Time logger at bottom
~OTHER INFORMATION
~A   DEPT     CALD         GRD      RHOB       DRHO       TENR        SPR        ILM        ILD       SFLU   
# ...
 3422.5000     8.4550   117.3260     2.5930     0.1080  1134.0140   -27.8820     4.0960     3.9080     4.3120
 3423.0000     8.4550   117.4840     2.5860     0.1060  1133.3440   -27.9580     4.0960     3.9050     4.2270
 3423.5000     8.4540   117.5760     2.5790     0.0980  1132.6740   -28.0350     4.0960     3.9020     4.1430
 3424.0000     8.4380   117.2330     2.5730     0.0900  1132.0040   -28.1110     4.0960     3.8980     4.3420
 3424.5000     8.4340   116.8860     2.5690     0.0860  1131.3340   -28.1870     4.0960     3.8950     4.5760
 3425.0000     8.4340   116.4560     2.5700     0.0880  1130.6639   -28.2640     4.0960     3.8920     4.8800
 3425.5000     8.4340   114.0760     2.5730     0.0950  1129.9940   -28.3410     4.0960     3.8890     4.7010
 3426.0000     8.4340   111.6520     2.5760     0.1040  1129.3240   -28.4130     4.0960     3.8860     4.4090
 3426.5000     8.4340   110.1090     2.5790     0.1090  1128.6541   -28.3710     4.0960     3.8830     4.5130
 3427.0000     8.4340   111.4760     2.5650     0.0950  1127.9840   -28.3260     4.0960     3.8790     4.6280
 3427.5000     8.4340   112.7830     2.5450     0.0810  1127.3140   -28.2800     4.0960     3.8750     4.7030
 3428.0000     8.4330   114.0900     2.5240     0.0660  1126.6440   -28.2350     4.0960     3.9540     4.2890
 3428.5000     8.4290   115.4150     2.5230     0.0540  1125.9740   -28.1900     4.1330     4.0620     4.3080
 3429.0000     8.4260   115.6610     2.5310     0.0520  1125.3040   -28.1450     4.4230     4.1700     4.3450
 3429.5000     8.4220   115.3350     2.5530     0.0820  1124.6340   -28.1000     4.7130     4.2790     4.6480
 3430.0000     8.4190   116.1420     2.5930     0.0960  1123.9640   -28.0550     5.0030     4.5260     5.4830
 3430.5000     8.4150   117.0050     2.6330     0.1080  1123.2939   -28.0100     5.2930     4.8930     6.3180
 3431.0000     8.4120   116.2880     2.6380     0.1180  1122.6240   -27.9640     5.5830     5.2600     7.0650
 3431.5000     8.4080   114.5650     2.6370     0.1200  1121.9540   -27.9200     5.9560     5.6270     7.6470
 3432.0000     8.4050   112.8100     2.6230     0.1200  1121.2841   -27.8780     6.3580     5.9940     8.4850
 3432.5000     8.4010   112.6580     2.6090     0.1140  1120.6140   -27.8290     6.6080     6.4350     8.3320
 3433.0000     8.3980   113.4570     2.5940     0.1110  1119.9440   -28.0550     6.5190     6.4080     8.0420
 3433.5000     8.3950   113.1690     2.5900     0.1080  1119.2740   -28.1090     6.4470     6.3740     7.6660
 3434.0000     8.3910   112.1420     2.5850     0.1010  1118.6040   -28.1760     6.3760     6.3390     7.2910
 3434.5000     8.3880   111.5940     2.5750     0.0920  1117.9340   -28.2170     6.3170     6.2220     7.0560
 3435.0000     8.3840   113.5390     2.5650     0.0860  1117.2640   -28.2180     6.1480     5.9670     7.0560
 3435.5000     8.3810   116.4230     2.5590     0.0840  1116.5940   -28.2180     5.9310     5.7120     7.0560
 3436.0000     8.3770   118.7480     2.5760     0.0950  1115.9240   -28.2180     5.7130     5.4570     6.7940
 3436.5000     8.3740   119.9640     2.5900     0.1020  1115.2540   -28.2180     5.4960     5.2910     6.4590
 3437.0000     8.3740   119.7940     2.5960     0.1030  1114.5840   -28.2180     5.4380     5.2630     6.1240
 3437.5000     8.3650   119.3960     2.6020     0.1060  1113.9139   -28.1950     5.4210     5.2340     5.8680
 3438.0000     8.3250   117.7430     2.6080     0.1100  1113.2440   -28.1590     5.4040     5.2060     5.8680
 3438.5000     8.2850   115.6600     2.6110     0.1090  1112.5740   -28.1240     5.3880     5.1780     6.0110
 3439.0000     8.2440   116.1100     2.5990     0.1010  1111.9041   -28.0870     5.3710     5.1490     6.1210
 3439.5000     8.2660   118.0300     2.5870     0.1000  1111.2340   -28.0490     5.3540     5.1210     6.2310
 3440.0000  -999.2500   118.3540     2.5840     0.1110  1111.4210   -28.0580     5.2940     5.0760     6.3610
 3440.5000  -999.2500  -999.2500  -999.2500  -999.2500  1111.8000   -28.0380     5.2240     5.0210     6.5620
 3441.0000  -999.2500  -999.2500  -999.2500  -999.2500  1112.1790   -27.8490     5.1540     4.9660     6.6770
 3441.5000  -999.2500  -999.2500  -999.2500  -999.2500  1112.5580   -27.6520     5.0840     4.9100     5.9770
 3442.0000  -999.2500  -999.2500  -999.2500  -999.2500  1112.9370   -27.5790     5.0170     4.8380     5.3570
 3442.5000  -999.2500  -999.2500  -999.2500  -999.2500  1113.3160   -27.5130     5.0330     4.8490     4.6600
 3443.0000  -999.2500  -999.2500  -999.2500  -999.2500  1113.6949   -27.4450     5.0480     4.8700     4.7030
 3443.5000  -999.2500  -999.2500  -999.2500  -999.2500  1114.0740   -27.4080     5.0630     4.8920     5.0630
 3444.0000  -999.2500  -999.2500  -999.2500  -999.2500  1114.4530   -27.3690     5.0750     4.9130     5.6920
 3444.5000  -999.2500  -999.2500  -999.2500  -999.2500  1114.8320   -27.3310     5.1230     4.9550     6.2590
 3445.0000  -999.2500  -999.2500  -999.2500  -999.2500  1115.2111   -27.2930     5.1710     5.0210     6.2090
 3445.5000  -999.2500  -999.2500  -999.2500  -999.2500  1115.5900   -27.2560     5.2190     5.0870     6.1620
 3446.0000  -999.2500  -999.2500  -999.2500  -999.2500  1115.9690   -27.2690     5.2670     5.1530     6.1150
 3446.5000  -999.2500  -999.2500  -999.2500  -999.2500  1116.3480   -27.4400     5.3020     5.2190     6.0680
 3447.0000  -999.2500  -999.2500  -999.2500  -999.2500  1116.7271   -27.6060     5.4770     5.3310     6.0210
 3447.5000  -999.2500  -999.2500  -999.2500  -999.2500  1117.1060   -27.7710     5.6780     5.4950     5.9770
 3448.0000  -999.2500  -999.2500  -999.2500  -999.2500  1117.4850   -27.9360     5.8790     5.6590     6.1290
 3448.5000  -999.2500  -999.2500  -999.2500  -999.2500  1117.8640   -28.1010     6.0800     5.8220     6.2590
 3449.0000  -999.2500  -999.2500  -999.2500  -999.2500  1118.2430   -28.2210     6.2810     5.9860     6.9040
 3449.5000  -999.2500  -999.2500  -999.2500  -999.2500  1118.6219   -28.2180     6.4820     6.1500     7.4970
 3450.0000  -999.2500  -999.2500  -999.2500  -999.2500  1119.0010   -28.2160     6.6820     6.3140     8.0890
 3450.5000  -999.2500  -999.2500  -999.2500  -999.2500  1119.3800   -28.1730     6.8640     6.4770     8.6820
 3451.0000  -999.2500  -999.2500  -999.2500  -999.2500  1119.7590   -28.0020     6.8860     6.5830     9.2190
 3451.5000  -999.2500  -999.2500  -999.2500  -999.2500  1120.1379   -27.8360     6.9050     6.6230     9.1350
 3452.0000  -999.2500  -999.2500  -999.2500  -999.2500  1120.5170   -27.6710     6.9250     6.6770     8.8850
 3452.5000  -999.2500  -999.2500  -999.2500  -999.2500  1120.8960   -27.5060     6.7030     6.4960     8.3240
 3453.0000  -999.2500  -999.2500  -999.2500  -999.2500  1121.2750   -27.3390     6.4490     6.2330     7.7560
 3453.5000  -999.2500  -999.2500  -999.2500  -999.2500  1121.6541   -27.1620     6.1950     5.9690     7.1880
 3454.0000  -999.2500  -999.2500  -999.2500  -999.2500  1122.0330   -26.9360     5.9410     5.7060     6.6190
 3454.5000  -999.2500  -999.2500  -999.2500  -999.2500  1122.4120   -26.8480     5.6880     5.4420     6.0510
 3455.0000  -999.2500  -999.2500  -999.2500  -999.2500  1122.7910   -26.9020     5.4510     5.2430     5.9220
 3455.5000  -999.2500  -999.2500  -999.2500  -999.2500  1123.1700   -26.9540     5.3450     5.1150     5.8280
 3456.0000  -999.2500  -999.2500  -999.2500  -999.2500  1123.5490   -27.0070     5.2220     4.9880     5.7390
 3456.5000  -999.2500  -999.2500  -999.2500  -999.2500  1123.9280   -27.1390     5.0990     4.8600     5.6560
 3457.0000  -999.2500  -999.2500  -999.2500  -999.2500  1124.3070   -27.3370     4.9760     4.7180     5.8700
 3457.5000  -999.2500  -999.2500  -999.2500  -999.2500  1124.6860   -27.5350     4.8540     4.5580     6.1450
 3458.0000  -999.2500  -999.2500  -999.2500  -999.2500  1125.0649   -27.7330     4.7150     4.3970     5.9220
 3458.5000  -999.2500  -999.2500  -999.2500  -999.2500  1125.4440   -27.9320     4.5300     4.2370     5.4510
