~VERSION INFORMATION
 VERS.                2.0:   CWLS LOG ASCII STANDARD - VERSION 2.0
 WRAP.                 NO:   ONE LINE PER DEPTH STEP
~WELL INFORMATION
#MNEM.UNIT      DATA TYPE    INFORMATION
#----------   ------------   ------------------------------
 STRT.F          200.0000:   START DEPTH
 STOP.F         3209.0000:   STOP DEPTH
 STEP.F            0.5000:   STEP LENGTH
 NULL.          -999.2500:   NO VALUE
 COMP.    FENIX & SCISSON:   COMPANY
 WELL. FENIX & SCISSON "AX" #88-3:   WELL
 FLD .             NPR #3:   FIELD
 LOC .       S3 T38N R78W:   LOCATION
 CNTY.            NATRONA:   COUNTY
 STAT.            WYOMING:   STATE
 CTRY. UNITED STATES OF AMERICA:   COUNTRY
 SRVC.              WELEX:   SERVICE COMPANY
 DATE.        27-JUL-1977:   LOGDATE
 API .     49025104060000:   API NUMBER
~CURVE INFORMATION
#MNEM.UNIT       API CODE    CURVE DESCRIPTION
#----------   ------------   ------------------------------
 DEPT.F                  :   
 CALD.IN     45 280 60 00:   CALIPER FROM DENSITY LOG
 GRD .GAPI   45 310 01 00:   GAMMA RAY FROM DENSITY LOG
 RHOB.G/C3   45 350 01 00:   BULK DENSITY
 CORR.G/C3   45 356 01 00:   DENSITY CORRECTION
 NPHI.DEC    42 890 03 00:   NEUTRON POROSITY SANDSTONE
 SPR .MV     07 010 01 00:   SPONTANEOUS POTENTIAL
 SGRD.OHMM   07 220 05 00:   GUARD LOG RESISTIVITY
 FORX.OHMM   07 000 00 00:   
~PARAMETER INFORMATION
#MNEM.UNIT          VALUE    DESCRIPTION
#----------   ------------   ------------------------------
 EKB .F         5134.0000:   Kelly bushing
 EGL .F         5124.0000:   Ground level
 EDF .F            0.0000:   Drilling floor
 TD  .F         3211.0000:   Total depth
 CLNT.            A2DTECH:   Client Code
 SL  . 230' FSL & 380' FEL:   Surface Location
 PD  .                 GL:   Permanent Datum
 EPD .F              5124:   Elevation Permanent Datum
 LMF .                 KB:   Log Measured From
 DMF .                 KB:   Drilling Measured From
 DAPD.F                10:   Feet Above Permanent Datum
 DATE.        27-JUL-1977:   Date Logged [DD-MMM-YYYY]
 DD  .F              3200:   Depth driller
 DL  .F              3211:   Depth logger
 BLI .F              3210:   Bottom log interval
 TLI .F               200:   Top log interval
 CS1 .IN            8.625:   Casing size
 CBD1.      8.625" @ 218':   Casing driller 1
 CBL1.F               218:   Casing logger 1
 BS1 .IN            7.875:   Bit size
 BSD1.F              3200:   Depth drilled with bit1
 DFT .            KCL MUD:   Type fluid in hole
 DFD .                9.2:   Density
 DFV .                 36:   Viscosity
 DFPH.                9.5:   pH
 DFL .                9.6:   Fluid loss
 MSS .           FLOWLINE:   Source of sample
 RMS .OHMM           0.61:   Rm
 MST .F                85:   Rm Meas. temp.
 RMF .OHMM           0.53:   Rmf
 MFST.F                85:   Rmf Meas. temp.
 MFSS.               FANN:   Source Rmf.
 RMC .OHMM           0.48:   Rmc
 MCST.F                85:   Rmc Meas. temp.
 MCSS.                KIT:   Source Rmc.
 RMB .OHMM           0.42:   Rm. at BHT
 BHT .F               122:   BHT.
 TCS .HRS             2.5:   Time Circ. stopped
 MRT .F               122:   Maximum recorded temp.
 LUN .               8611:   Logging unit number
 LUL .             CASPER:   Logging unit location
 ENGI.            C. DOAK:   Recorded By
 WITN.      E. HARRINGTON:   Witnessed by
 ORIG.      2.5" 5" PRINT:   Origin of data
 UWI .     49025104060000:   Unique Well ID
 DICO. A2D TECHNOLOGIES, INC.:   Digitizing Company
~OTHER INFORMATION
~A   DEPT       CALD       GRD        RHOB      CORR        NPHI       SPR      SGRD         FORX 
# ...
 2387.0000     9.9467   113.9781     2.4808     0.0811     0.2885   -68.0392     3.9843     4.3454
 2387.5000     9.9487   111.9445     2.4907     0.0803     0.2843   -68.0392     3.9851     5.4094
 2388.0000     9.9508   111.6914     2.4982     0.0805     0.2801   -68.0392     4.0438     5.7389
 2388.5000     9.9377   113.2817     2.5036     0.0807     0.2771   -68.0392     4.0973     5.4358
 2389.0000     9.9298   116.8267     2.5075     0.0823     0.2753   -68.0392     4.1546     5.2912
 2389.5000     9.9121   120.4384     2.5083     0.0825     0.2765   -68.0392     4.1555     5.2214
 2390.0000     9.8916   122.6790     2.4994     0.0827     0.2867   -68.0392     4.2136     5.1530
 2390.5000     9.8860   124.3832     2.4935     0.0796     0.2914   -68.0392     4.2331     5.1551
 2391.0000     9.8296   124.7235     2.4884     0.0770     0.2951   -68.0392     4.2954     5.1571
 2391.5000     9.7856   121.7998     2.4877     0.0772     0.2967   -68.0392     4.4188     5.1592
 2392.0000     9.7563   116.7989     2.4901     0.0743     0.2943   -68.0392     4.5456     5.1613
 2392.5000     9.7109   113.8751     2.4932     0.0730     0.2937   -68.0392     4.7406     5.2345
 2393.0000     9.6880   112.4350     2.4963     0.0717     0.2942   -68.0392     4.9840     5.4560
 2393.5000     9.6599   112.3624     2.5007     0.0703     0.2990   -68.0392     5.2528     5.8448
 2394.0000     9.6323   113.7092     2.5059     0.0690     0.2995   -68.0392     5.5495     6.1762
 2394.5000     9.6194   116.1769     2.5131     0.0677     0.2942   -68.0392     5.9437     6.0946
 2395.0000     9.6211   117.7049     2.5117     0.0664     0.2912   -68.0392     6.5426     6.2896
 2395.5000     9.6230   118.8954     2.5034     0.0665     0.2859   -68.0392     6.3672     6.5828
 2396.0000     9.6398   119.6240     2.4932     0.0667     0.2871   -68.0392     5.7080     6.9972
 2396.5000     9.6525   120.7567     2.4828     0.0651     0.2924   -68.0392     5.4051     6.8502
 2397.0000     9.6735   121.4441     2.4777     0.0625     0.2942   -68.0392     5.4072     6.3905
 2397.5000     9.6845   122.0820     2.4800     0.0612     0.2935   -68.0392     5.5624     5.9939
 2398.0000     9.6968   123.2714     2.4884     0.0614     0.2916   -68.0392     6.0855     6.1439
 2398.5000     9.7241   123.9639     2.4931     0.0616     0.2899   -68.0392     6.9204     6.6870
 2399.0000     9.7408   124.5613     2.4964     0.0632     0.2894   -68.0392     6.1292     7.1111
 2399.5000     9.7576   124.8822     2.5014     0.0664     0.2928   -68.0392     5.5407     7.0173
 2400.0000     9.7743   124.6291     2.4948     0.0665     0.2982   -68.0392     5.3391     6.8311
 2400.5000     9.7966   124.6736     2.4844     0.0682     0.2948   -68.0392     5.3403     6.4698
 2401.0000     9.8077   125.6083     2.4748     0.0669     0.2924   -68.0392     5.5491     6.1276
 2401.5000     9.8097   126.5512     2.4674     0.0670     0.2920   -68.0392     6.0838     6.4750
 2402.0000     9.8116   126.8807     2.4564     0.0570     0.2960   -68.0392     6.4810     7.0319
 2402.5000     9.7863   124.5612     2.4513     0.0650     0.3013   -68.0392     6.9322     7.3296
 2403.0000     9.7614   121.4844     2.4611     0.0715     0.3060   -68.0392     7.3237     7.4335
 2403.5000     9.7364   119.0105     2.4777     0.0757     0.3101   -68.0392     7.8976     7.7702
 2404.0000     9.6874   118.5019     2.4912     0.0759     0.3125   -68.0392     6.6573     9.1347
 2404.5000     9.6177   117.7742     2.5071     0.0720     0.3124   -68.0392     6.1337     8.2989
 2405.0000     9.5869   117.6767     2.5012     0.0673     0.3110   -68.0392     6.0515     7.2266
 2405.5000     9.5774   118.0307     2.4789     0.0630     0.3074   -68.0392     5.8894     7.6498
 2406.0000     9.5798   119.2673     2.4723     0.0605     0.3070   -68.0392     5.8105     7.0491
 2406.5000     9.5822   120.1613     2.4814     0.0637     0.3086   -68.0392     5.5738     6.0616
 2407.0000     9.5848   120.8441     2.4965     0.0721     0.3109   -68.0392     5.3546     6.0816
 2407.5000     9.5869   121.7863     2.5100     0.0805     0.3102   -68.0393     5.4496     6.5364
 2408.0000     9.5897   122.5501     2.5296     0.0884     0.3052   -68.0395     5.8453     7.0952
 2408.5000     9.5917   123.9590     2.5491     0.0945     0.3011   -68.0390     6.2699     7.2811
 2409.0000     9.5943   124.8592     2.5597     0.0963     0.2981   -68.0399     6.9502     7.3894
 2409.5000     9.5964   126.7251     2.5516     0.0984     0.2946   -68.0395     6.5619     7.6393
 2410.0000     9.6138   128.1678     2.5363     0.1012     0.2916   -68.0377     6.1188     7.9949
 2410.5000     9.6160   129.4856     2.5215     0.1014     0.2839   -68.0456     5.4704     7.8045
 2411.0000     9.6287   130.4272     2.5116     0.0991     0.2809   -67.9775     4.8905     6.3828
 2411.5000     9.6505   130.7584     2.5034     0.0974     0.2821   -67.8670     4.4029     6.2081
 2412.0000     9.6569   129.0515     2.4865     0.0928     0.2859   -67.7654     4.2256     4.7597
 2412.5000     9.6704   124.5093     2.4716     0.0857     0.2905   -67.6649     4.3189     4.3857
 2413.0000     9.6729   120.1715     2.4658     0.0802     0.2916   -67.5617     4.8199     5.3872
 2413.5000     9.6787   117.3148     2.4778     0.0775     0.2907   -67.4604     7.0725     8.5820
 2414.0000     9.6921   113.2063     2.5161     0.0808     0.2879   -67.3582     8.0017     8.6259
 2414.5000     9.6945   110.5815     2.5431     0.0827     0.2820   -67.2559     7.8950     8.2423
 2415.0000     9.6969   108.8303     2.5212     0.0857     0.2712   -67.1556     7.4765     7.8058
 2415.5000     9.6993   107.4091     2.5074     0.0874     0.2661   -67.0504     7.0801     7.2920
 2416.0000     9.7071   106.6558     2.5188     0.0882     0.2679   -66.9515     6.9857     7.3067
 2416.5000     9.7193   105.7280     2.5361     0.0894     0.2779   -66.8730     7.3886     8.0727
 2417.0000     9.7250   105.1673     2.5486     0.0897     0.2809   -66.9810     7.5876     8.4851
 2417.5000     9.7385   104.9180     2.5588     0.0903     0.2803   -67.0767     7.1580     8.1029
 2418.0000     9.7486   105.1540     2.5544     0.0893     0.2803   -67.1821     6.6598     7.6889
 2418.5000     9.7581   105.9152     2.5392     0.0858     0.2868   -67.2831     6.1237     7.1186
 2419.0000     9.7755   106.6414     2.5239     0.0831     0.2862   -67.3849     5.6530     6.5771
 2419.5000     9.7777   108.0878     2.5132     0.0833     0.2838   -67.4875     5.4706     6.2547
 2420.0000     9.7801   109.6439     2.5265     0.0840     0.2808   -67.5886     5.9781     6.2870
 2420.5000     9.7754   111.4797     2.5505     0.0853     0.2760   -67.6917     7.2271     6.9958
 2421.0000     9.7554   113.2736     2.5461     0.0857     0.2749   -67.7930     7.0063     7.3492
 2421.5000     9.7280   114.5102     2.5388     0.0888     0.2774   -67.8929     6.3972     6.5630
 2422.0000     9.6987   114.8528     2.5359     0.0905     0.2804   -68.0033     5.9475     6.3011
 2422.5000     9.6542   113.1182     2.5630     0.0922     0.2895   -68.0014     5.9491     6.4781
 2423.0000     9.6240   110.4934     2.5795     0.0955     0.2950   -67.9124     6.1158     7.2301
 2423.5000     9.6014   108.9561     2.5878     0.0957     0.2913   -67.8335     6.7325     8.4075
 2424.0000     9.5709   107.3325     2.5738     0.0974     0.2827   -67.7548     7.4113     8.5262
 2424.5000     9.5489   105.4843     2.5525     0.0961     0.2702   -67.6737     8.2711     8.6466
 2425.0000     9.5215   104.4453     2.5411     0.0914     0.2622   -67.5944     7.9405     8.7686
 2425.5000     9.5090   104.5026     2.5288     0.0862     0.2559   -67.5144     7.7281     8.4008
 2426.0000     9.5416   105.7392     2.5137     0.0847     0.2557   -67.4343     7.5215     7.6196
 2426.5000     9.5725   107.3215     2.5086     0.0819     0.2612   -67.3546     7.4212     7.2470
 2427.0000     9.6205   109.9852     2.5111     0.0809     0.2665   -67.2744     7.2107     7.8323
