~VERSION INFORMATION
 VERS.                2.0:   CWLS LOG ASCII STANDARD - VERSION 2.0
 WRAP.                 NO:   ONE LINE PER DEPTH STEP
~WELL INFORMATION
#MNEM.UNIT      DATA TYPE    INFORMATION
#----------   ------------   ------------------------------
 STRT.F          200.0000:   START DEPTH
 STOP.F         3209.0000:   STOP DEPTH
 STEP.F            0.5000:   STEP LENGTH
 NULL.          -999.2500:   NO VALUE
 COMP.    FENIX & SCISSON:   COMPANY
 WELL. FENIX & SCISSON "AX" #88-3:   WELL
 FLD .             NPR #3:   FIELD
 LOC .       S3 T38N R78W:   LOCATION
 CNTY.            NATRONA:   COUNTY
 STAT.            WYOMING:   STATE
 CTRY. UNITED STATES OF AMERICA:   COUNTRY
 SRVC.              WELEX:   SERVICE COMPANY
 DATE.        27-JUL-1977:   LOGDATE
 API .     49025104060000:   API NUMBER
~CURVE INFORMATION
#MNEM.UNIT       API CODE    CURVE DESCRIPTION
#----------   ------------   ------------------------------
 DEPT.F                  :   
 CALD.IN     45 280 60 00:   CALIPER FROM DENSITY LOG
 GRD .GAPI   45 310 01 00:   GAMMA RAY FROM DENSITY LOG
 RHOB.G/C3   45 350 01 00:   BULK DENSITY
 CORR.G/C3   45 356 01 00:   DENSITY CORRECTION
 NPHI.DEC    42 890 03 00:   NEUTRON POROSITY SANDSTONE
 SPR .MV     07 010 01 00:   SPONTANEOUS POTENTIAL
 SGRD.OHMM   07 220 05 00:   GUARD LOG RESISTIVITY
 FORX.OHMM   07 000 00 00:   
~PARAMETER INFORMATION
#MNEM.UNIT          VALUE    DESCRIPTION
#----------   ------------   ------------------------------
 EKB .F         5134.0000:   Kelly bushing
 EGL .F         5124.0000:   Ground level
 EDF .F            0.0000:   Drilling floor
 TD  .F         3211.0000:   Total depth
 CLNT.            A2DTECH:   Client Code
 SL  . 230' FSL & 380' FEL:   Surface Location
 PD  .                 GL:   Permanent Datum
 EPD .F              5124:   Elevation Permanent Datum
 LMF .                 KB:   Log Measured From
 DMF .                 KB:   Drilling Measured From
 DAPD.F                10:   Feet Above Permanent Datum
 DATE.        27-JUL-1977:   Date Logged [DD-MMM-YYYY]
 DD  .F              3200:   Depth driller
 DL  .F              3211:   Depth logger
 BLI .F              3210:   Bottom log interval
 TLI .F               200:   Top log interval
 CS1 .IN            8.625:   Casing size
 CBD1.      8.625" @ 218':   Casing driller 1
 CBL1.F               218:   Casing logger 1
 BS1 .IN            7.875:   Bit size
 BSD1.F              3200:   Depth drilled with bit1
 DFT .            KCL MUD:   Type fluid in hole
 DFD .                9.2:   Density
 DFV .                 36:   Viscosity
 DFPH.                9.5:   pH
 DFL .                9.6:   Fluid loss
 MSS .           FLOWLINE:   Source of sample
 RMS .OHMM           0.61:   Rm
 MST .F                85:   Rm Meas. temp.
 RMF .OHMM           0.53:   Rmf
 MFST.F                85:   Rmf Meas. temp.
 MFSS.               FANN:   Source Rmf.
 RMC .OHMM           0.48:   Rmc
 MCST.F                85:   Rmc Meas. temp.
 MCSS.                KIT:   Source Rmc.
 RMB .OHMM           0.42:   Rm. at BHT
 BHT .F               122:   BHT.
 TCS .HRS             2.5:   Time Circ. stopped
 MRT .F               122:   Maximum recorded temp.
 LUN .               8611:   Logging unit number
 LUL .             CASPER:   Logging unit location
 ENGI.            C. DOAK:   Recorded By
 WITN.      E. HARRINGTON:   Witnessed by
 ORIG.      2.5" 5" PRINT:   Origin of data
 UWI .     49025104060000:   Unique Well ID
 DICO. A2D TECHNOLOGIES, INC.:   Digitizing Company
~OTHER INFORMATION
~A   DEPT       CALD       GRD        RHOB      CORR        NPHI       SPR      SGRD         FORX 
# ...
  969.5000    12.6183    77.8864     1.9652     0.0672     0.3275   -84.0814     9.2412     9.2027
  970.0000    12.2476    79.7626     2.0005     0.0493     0.3260   -84.3922     9.8976    10.1306
  970.5000    12.0260    81.8398     2.1377     0.0390     0.3153   -84.5853     9.7534     9.7192
  971.0000    11.6851    83.5886     2.3502     0.0737     0.3055   -84.5824     9.5033     9.5832
  971.5000    11.3144    84.5765     2.4809     0.0948     0.2993   -84.8735     9.3509     9.3206
  972.0000    11.1375    85.3630     2.4997     0.0845     0.2917   -84.8700     9.0935     9.2150
  972.5000    11.0350    85.8457     2.5292     0.0745     0.2736   -84.8672     8.7229     9.2178
  973.0000    10.9922    86.1840     2.5463     0.0683     0.2752   -84.8643     8.5997     9.2203
  973.5000    10.9946    85.9354     2.5253     0.0657     0.2799   -84.8615     8.5758     9.2228
  974.0000    10.9965    85.6829     2.5084     0.0626     0.2844   -84.8586     8.6459     9.2253
  974.5000    10.9979    84.7418     2.5077     0.0617     0.2870   -85.1499     8.7668     9.2851
  975.0000    10.9852    83.6829     2.5116     0.0600     0.2923   -85.1471     8.9609     9.5519
  975.5000    10.9870    83.1299     2.5141     0.0586     0.2961   -85.1441     9.0141     9.9013
  976.0000    10.9890    82.5769     2.5148     0.0588     0.2976   -85.1412     8.8934    10.4466
  976.5000    10.9909    82.4669     2.5125     0.0575     0.2985   -85.1677     8.5374    10.7393
  977.0000    10.9929    83.3076     2.5090     0.0562     0.2994   -85.4298     8.1956    10.5962
  977.5000    10.9948    85.6758     2.5054     0.0548     0.3005   -85.7211     8.0857    10.1726
  978.0000    10.9967    87.4966     2.5003     0.0534     0.2987   -85.7177     7.8690     9.7661
  978.5000    10.9990    89.1988     2.4977     0.0536     0.2946   -85.7604     7.6581     9.1226
  979.0000    11.0006    91.1384     2.4967     0.0546     0.2922   -85.9601     7.5532     9.1250
  979.5000    11.0028    91.4718     2.4998     0.0570     0.2892   -86.0029     7.4543     9.2532
  980.0000    11.0047    90.9226     2.5074     0.0586     0.2785   -85.9995     7.4559     9.5125
  980.5000    11.0066    89.7761     2.5128     0.0588     0.2719   -85.9967     7.5798     9.7792
  981.0000    11.0085    88.6296     2.5173     0.0590     0.2719   -86.2879     7.6660     9.6358
  981.5000    11.0011    87.4679     2.5219     0.0606     0.2719   -86.2851     7.6675     9.2631
  982.0000    10.9973    86.2908     2.5243     0.0608     0.2744   -86.2823     7.6691     9.2658
  982.5000    10.9993    85.2003     2.5251     0.0594     0.2800   -86.5735     7.6707     9.3327
  983.0000    11.0014    85.8342     2.5207     0.0581     0.2865   -86.8648     7.5203     9.7399
  983.5000    11.0180    87.4185     2.5122     0.0553     0.2904   -86.8618     7.3133    10.3049
  984.0000    11.0200    89.1793     2.5018     0.0554     0.2884   -87.1532     7.2290    10.2935
  984.5000    11.0220    89.8160     2.4942     0.0556     0.2831   -87.1500     7.0721     9.8149
  985.0000    11.0238    90.1504     2.4868     0.0558     0.2772   -87.1471     6.9773     9.4099
  985.5000    11.0258    89.8941     2.4794     0.0559     0.2746   -87.1441     6.9787     9.0889
  986.0000    11.0278    89.3374     2.4832     0.0576     0.2751   -87.1412     6.9801     8.7915
  986.5000    11.0297    89.4185     2.5035     0.0593     0.2805   -87.1382     6.9815     8.5568
  987.0000    11.0316    90.7234     2.5085     0.0595     0.2866   -87.4294     6.9829     8.3280
  987.5000    11.0335    93.3302     2.4957     0.0596     0.2884   -87.4260     6.9843     8.3303
  988.0000    11.0355    95.4478     2.4896     0.0598     0.2862   -87.4954     6.9857     8.3325
  988.5000    11.0377    96.6752     2.4970     0.0614     0.2836   -87.7144     7.0901     8.5660
  989.0000    11.0393    98.1993     2.5183     0.0616     0.2860   -87.7116     7.2815     8.9274
  989.5000    11.0415   100.3170     2.5079     0.0618     0.2931   -87.7087     7.2830     9.6940
  990.0000    11.0432   102.3539     2.4990     0.0627     0.2979   -88.0000     7.2614     9.3065
  990.5000    11.0453   105.1457     2.4946     0.0636     0.2990   -87.9971     7.0615     8.8072
  991.0000    11.0471   108.4984     2.4970     0.0643     0.2931   -87.9941     6.9941     8.6956
  991.5000    11.0491   112.3584     2.5068     0.0669     0.2853   -87.9912     7.1705     8.7161
  992.0000    11.0510   116.5531     2.5174     0.0671     0.2764   -88.2827     7.3360     8.9916
  992.5000    11.0529   120.7479     2.5212     0.0688     0.2716   -88.2794     7.3924     9.3839
  993.0000    11.0548   126.4264     2.5251     0.0689     0.2692   -88.2765     7.3939     9.7125
  993.5000    11.0571   131.5113     2.5235     0.0675     0.2692   -88.2735     7.2949     9.3635
  994.0000    11.0587   130.3649     2.5121     0.0632     0.2701   -88.2706     7.0032     9.0257
  994.5000    11.0607   119.4261     2.5015     0.0574     0.2737   -88.2671     6.9092     8.7784
  995.0000    11.0626   111.2820     2.4881     0.0531     0.2782   -88.2642     6.8168     8.6556
  995.5000    11.0647    98.8171     2.4695     0.0532     0.2829   -88.2614     6.8182     8.4818
  996.0000    11.0665    91.6577     2.4831     0.0564     0.2840   -88.5527     6.8195     8.6015
  996.5000    11.0684    89.6210     2.4925     0.0568     0.2812   -88.5498     6.9149     8.8426
  997.0000    11.0703    89.0683     2.4983     0.0598     0.2793   -88.8411     7.1082     9.2156
  997.5000    11.0724    89.2779     2.5028     0.0629     0.2798   -89.1324     7.2076     9.4739
  998.0000    11.0742    90.3739     2.5067     0.0646     0.2822   -89.1490     7.1001     9.3473
  998.5000    11.0762    91.2766     2.5091     0.0662     0.2867   -89.4208     6.9047     8.9740
  999.0000    11.0783    91.3171     2.5106     0.0688     0.2881   -89.4176     6.7146     8.2688
  999.5000    11.0800    91.2374     2.5040     0.0711     0.2869   -89.4147     6.6447     7.8304
 1000.0000    11.0821    90.8046     2.4981     0.0697     0.2869   -89.5098     6.8001     7.7260
 1000.5000    11.0839    90.1345     2.4938     0.0680     0.2887   -89.7035     6.9633     7.8624
 1001.0000    11.0859    89.4006     2.4901     0.0663     0.2928   -89.7000     7.0231     9.0631
 1001.5000    11.0878    89.4423     2.5089     0.0643     0.2930   -89.8540     6.9300     9.6548
 1002.0000    11.0897    91.0089     2.5097     0.0645     0.2904   -89.9882     6.8381     8.8681
 1002.5000    11.0920    93.6876     2.4979     0.0647     0.2886   -89.9848     6.5649     7.9911
 1003.0000    11.0939    95.8052     2.4937     0.0649     0.2857   -89.9820     6.4774     7.6371
 1003.5000    11.0832    97.6261     2.4877     0.0636     0.2803   -89.9791     6.3042     7.6397
 1004.0000    11.0641    98.5467     2.4809     0.0638     0.2761   -89.9763     6.3060     7.8543
 1004.5000    11.0449    95.0364     2.4751     0.0625     0.2743   -89.9734     6.4049     8.0750
 1005.0000    11.0269    92.4063     2.4738     0.0642     0.2781   -89.9706     6.5739     8.3018
 1005.5000    11.0293    90.1763     2.4769     0.0660     0.2945   -89.9530     6.5372     8.0804
 1006.0000    11.0430    86.9447     2.4817     0.0683     0.3053   -90.0239     6.1822     7.8648
 1006.5000    11.0478    84.3074     2.4889     0.0726     0.3077   -90.0634     5.9525     7.6549
 1007.0000    11.0497    81.9672     2.4945     0.0785     0.3048   -90.1061     5.8983     7.5535
 1007.5000    11.0369    81.7074     2.4991     0.0808     0.3006   -90.1487     5.9002     7.5569
 1008.0000    11.0387    83.8342     2.5026     0.0833     0.3000   -90.1906     6.0216     7.7799
 1008.5000    11.0425    85.9518     2.5071     0.0850     0.2981   -90.2330     6.1508     8.1189
 1009.0000    11.0537    86.8806     2.5114     0.0853     0.2970   -90.2752     6.2860     8.3407
 1009.5000    11.0597    86.6207     2.5167     0.0854     0.2971   -90.3175     6.5008     8.5582
