~VERSION INFORMATION
 VERS.                2.0:   CWLS LOG ASCII STANDARD - VERSION 2.0
 WRAP.                 NO:   ONE LINE PER DEPTH STEP
~WELL INFORMATION
#MNEM.UNIT      DATA TYPE    INFORMATION
#----------   ------------   ------------------------------
 STRT.F           10.5000:   START DEPTH
 STOP.F         5650.0000:   STOP DEPTH
 STEP.F            0.5000:   STEP LENGTH
 NULL.          -999.2500:   NO VALUE
 COMP.    FENIX & SCISSON:   COMPANY
 WELL. FENIX NPR 3 "LX" #56-3:   WELL
 FLD .              N P R:   FIELD
 LOC .       S3 T38N R78W:   LOCATION
 CNTY.            NATRONA:   COUNTY
 STAT.            WYOMING:   STATE
 CTRY. UNITED STATES OF AMERICA:   COUNTRY
 SRVC.              WELEX:   SERVICE COMPANY
 DATE.        13-JUN-1978:   LOGDATE
 API .     49025109250000:   API NUMBER
~CURVE INFORMATION
#MNEM.UNIT       API CODE    CURVE DESCRIPTION
#----------   ------------   ------------------------------
 DEPT.F                  :   
 NPHI.DEC    42 890 03 00:   NEUTRON POROSITY SANDSTONE
 SPR .MV     07 010 01 00:   SPONTANEOUS POTENTIAL
 ILD .OHMM   07 120 46 00:   DEEP INDUCTION RESISTIVITY
 ILM .OHMM   07 120 44 00:   INDUCTION LOG MEDIUM RESISTIVITY
 SFL .OHMM   07 220 01 00:   SHALLOW FOCUSED LOG RESISTIVITY
 GRD .GAPI   45 310 01 00:   GAMMA RAY FROM DENSITY LOG
 CALD.IN     45 280 60 00:   CALIPER FROM DENSITY LOG
 RHOB.G/C3   45 350 01 00:   BULK DENSITY
 CORR.G/C3   45 356 01 00:   DENSITY CORRECTION
~PARAMETER INFORMATION
#MNEM.UNIT          VALUE    DESCRIPTION
#----------   ------------   ------------------------------
 EKB .F         5181.0000:   Kelly bushing
 EGL .F         5171.0000:   Ground level
 EDF .F         5180.0000:   Drilling floor
 TD  .F         5644.0000:   Total depth
 DATE.        13-JUN-1978:   Date logged
 CLNT.            A2DTECH:   Client Code
 SL  . 1980' FSL & 2080' FEL:   Surface Location
 PD  .                 GL:   Permanent Datum
 EPD .F              5171:   Elevation Permanent Datum
 LMF .                 KB:   Log Measured From
 DMF .                 KB:   Drilling Measured From
 DD  .F              5640:   Depth driller
 DL  .F              5644:   Depth logger
 BLI .F              5638:   Bottom log interval
 TLI .F              3093:   Top log interval
 CS1 .IN            8.625:   Casing size
 CBD1.      8.625" @ 545':   Casing driller 1
 BS1 .IN            7.875:   Bit size
 DFT .                FGM:   Type fluid in hole
 DFD .                9.2:   Density
 DFV .                 52:   Viscosity
 DFPH.                 11:   pH
 DFL .                5.2:   Fluid loss
 MSS .           MUD/TANK:   Source of sample
 RMS .OHMM           0.59:   Rm
 MST .F                80:   Rm Meas. temp.
 RMF .OHMM           0.48:   Rmf
 MFST.F                80:   Rmf Meas. temp.
 MFSS.               MEAS:   Source Rmf.
 RMB .OHMM           0.29:   Rm. at BHT
 BHT .F               162:   BHT.
 TCS .HRS            1200:   Time Circ. stopped
 MRT .F               162:   Maximum recorded temp.
 LUN .               7675:   Logging unit number
 LUL .               CODY:   Logging unit location
 ENGI.               BOND:   Recorded By
 ORIG.           5" PRINT:   Origin of data
 UWI .     49025109250000:   Unique Well ID
 DICO. A2D TECHNOLOGIES, INC.:   Digitizing Company
 DAPD.F                10:   Feet Above Permanent Datum
 BSD1.F              5640:   Depth drilled with bit1
 TLAB.HRS            1630:   Time logger at bottom
~OTHER INFORMATION
~A  DEPTH     NPHI        SPR        ILD        ILM        SFL        GRD       CALD       RHOB       CORR
# ...
  850.0000     0.3520   -37.3200     8.6250     7.2920     8.0430   102.4030    10.8250     2.5590     0.0490
  850.5000     0.3640   -37.5330     8.6250     7.3100     8.0450   102.4070    10.8300     2.5490     0.0420
  851.0000     0.3780   -37.7450     8.6250     7.2790     8.0480   102.4410    10.8350     2.5420     0.0340
  851.5000     0.3850   -37.9590     8.6250     7.2560     8.0510   102.3230    10.8410     2.5430     0.0260
  852.0000     0.3830   -38.1670     8.6250     7.2330     8.0530   103.0820    10.8460     2.5350     0.0180
  852.5000     0.3810   -38.0660     8.6250     7.2090     8.0560   102.9950    10.8520     2.5230     0.0110
  853.0000     0.3780   -37.9480     8.6250     7.1860     8.0590   102.4900    10.8570     2.5310     0.0180
  853.5000     0.3760   -37.8310     8.6250     7.1770     8.0610   101.9550    10.8620     2.5350     0.0240
  854.0000     0.3680   -37.7150     8.6250     7.2220     8.0640   101.4500    10.8680     2.5370     0.0300
  854.5000     0.3550   -37.5980     8.6250     7.2980     8.0670   100.9620    10.8730     2.5390     0.0370
  855.0000     0.3420   -37.4820     8.6250     7.3740     8.0700   100.8020    10.8790     2.5440     0.0340
  855.5000     0.3330   -37.3760     8.6250     7.4450     8.0720   100.6280    10.8840     2.5570     0.0280
  856.0000     0.3320   -37.4060     8.6250     7.4140     8.0750    99.9290    10.8890     2.5340     0.0210
  856.5000     0.3340   -37.4720     8.6250     7.3470     8.0780   100.1940    10.8950     2.5270     0.0210
  857.0000     0.3320   -37.5380     8.6870     7.2800     8.0800   102.1310    10.8990     2.5210     0.0200
  857.5000     0.3280   -37.6040     8.7780     7.2130     8.0830   103.8120    10.8990     2.5240     0.0210
  858.0000     0.3300   -37.6690     8.8690     7.1460     8.0860   105.8630    10.8990     2.5320     0.0210
  858.5000     0.3340   -37.7340     8.9600     7.0780     8.0880   105.3860    10.9000     2.5330     0.0220
  859.0000     0.3380   -37.6780     9.0510     6.9810     7.9210   103.1580    10.9000     2.5290     0.0220
  859.5000     0.3390   -37.4120     9.1410     7.1160     7.7740   101.1430    10.9010     2.5300     0.0250
  860.0000     0.3390   -37.1500     9.2820     7.3560     7.6540    99.1040    10.9010     2.5320     0.0290
  860.5000     0.3390   -36.8870     9.5040     7.5970     8.8630    97.5690    10.9010     2.5340     0.0330
  861.0000     0.3310   -36.6230     9.7260     7.8380     9.3360    98.2260    10.9020     2.5350     0.0370
  861.5000     0.3250   -36.3630     9.9490     8.0780     9.6140    99.8740    10.9020     2.5430     0.0390
  862.0000     0.3180   -36.1950    10.1710     8.3190     9.9790   100.0380    10.9030     2.5430     0.0340
  862.5000     0.3240   -36.3130    10.3940     8.5600     9.9360    99.4570    10.9030     2.5430     0.0250
  863.0000     0.3290   -36.4230    10.5580     8.7850     9.8500    98.4360    10.9030     2.5380     0.0210
  863.5000     0.3350   -36.5330    10.6200     8.8410     9.7200    97.5340    10.9040     2.5410     0.0160
  864.0000     0.3400   -36.6430    10.7520     8.8930     9.7760    96.6320    10.9040     2.5510     0.0200
  864.5000     0.3470   -36.7540    10.8840     8.9450     9.8910    95.7050    10.9050     2.5650     0.0330
  865.0000     0.3400   -36.8650    11.0160     8.9980    10.0060    94.7920    10.9050     2.5610     0.0420
  865.5000     0.3300   -36.9690    11.1480     9.0500    10.0840    93.8770    10.9050     2.5480     0.0350
  866.0000     0.3250   -36.8770    11.2800     9.1030     9.9600    92.9810    10.9060     2.5360     0.0340
  866.5000     0.3180   -36.7780    11.4120     9.1550     9.9000    92.7960    10.9060     2.5330     0.0360
  867.0000     0.3120   -36.6790    11.4690     9.1980    10.0820    93.5590    10.9070     2.5420     0.0390
  867.5000     0.3040   -36.5800    11.3640     9.1490    10.2710    94.3380    10.9070     2.5490     0.0430
  868.0000     0.3040   -36.4810    11.2760     9.1850    10.1680    95.1370    10.9070     2.5390     0.0310
  868.5000     0.3040   -36.3840    11.1870     9.2210    10.0380    95.9260    10.9080     2.5290     0.0190
  869.0000     0.3070   -36.4200    11.0980     9.2570     9.9080    96.7160    10.9080     2.5300     0.0210
  869.5000     0.3100   -36.4740    11.0090     9.2930     9.8100    97.5090    10.9090     2.5240     0.0210
  870.0000     0.3120   -36.5280    10.9210     9.3290     9.7670    98.3000    10.9090     2.5240     0.0210
  870.5000     0.3150   -36.5810    10.8320     9.3640     9.7170    99.0910    10.9090     2.5270     0.0220
  871.0000     0.3180   -36.6350    10.7430     9.3690     9.6670    99.8820    10.9100     2.5380     0.0250
  871.5000     0.3200   -36.6890    10.6540     9.1340     9.6170   100.6720    10.9100     2.5480     0.0300
  872.0000     0.3200   -36.7420    10.5580     8.9660     9.5670   101.4630    10.9110     2.5590     0.0350
  872.5000     0.3190   -36.7960    10.4170     8.7990     9.3910   102.2580    10.9110     2.5680     0.0400
  873.0000     0.3210   -36.8490    10.3310     8.6310     9.1910   103.0380    10.9110     2.5610     0.0440
  873.5000     0.3240   -36.9030    10.2460     8.4640     8.9920   103.8260    10.9120     2.5460     0.0390
  874.0000     0.3270   -36.9610    10.1600     8.2960     8.8660   104.0220    10.9120     2.5300     0.0260
  874.5000     0.3300   -36.8420    10.0750     8.1280     8.8660   103.8540    10.9130     2.5150     0.0150
  875.0000     0.3330   -36.6500     9.9890     7.9610     8.8660   103.6830    10.9130     2.5100     0.0030
  875.5000     0.3360   -36.4560     9.9040     7.7960     8.8660   103.5150    10.9130     2.5090     0.0000
  876.0000     0.3390   -36.2620     9.8190     7.7960     8.8150   103.3440    10.9140     2.5090     0.0040
  876.5000     0.3410   -36.2250     9.7330     7.7800     8.7520   103.1750    10.9140     2.5110     0.0090
  877.0000     0.3400   -36.3180     9.7010     7.7650     8.7050   103.0050    10.9150     2.5180     0.0160
  877.5000     0.3370   -36.4120     9.6780     7.7500     8.7240   102.8350    10.9150     2.5350     0.0260
  878.0000     0.3320   -36.5070     9.6550     7.7350     8.7470   102.6650    10.9150     2.5550     0.0230
  878.5000     0.3290   -36.6020     9.6320     7.7200     8.7690   102.4960    10.9160     2.5580     0.0200
  879.0000     0.3280   -36.6970     9.6100     7.7050     8.7920   102.3260    10.9160     2.5480     0.0160
  879.5000     0.3300   -36.7920     9.5870     7.6900     8.8150   102.1570    10.9170     2.5390     0.0140
  880.0000     0.3320   -36.8880     9.5640     7.6750     8.8370   101.9870    10.9170     2.5310     0.0140
  880.5000     0.3280   -36.9690     9.5420     7.6540     8.8600   101.8200    10.9170     2.5230     0.0120
  881.0000     0.3200   -36.8580     9.5190     7.6620     8.8830   101.6500    10.9180     2.5260     0.0180
  881.5000     0.3170   -36.7480     9.4960     7.6780     8.9050   101.6030    10.9180     2.5380     0.0320
  882.0000     0.3130   -36.6380     9.4730     7.6930     8.9280   101.6060    10.9190     2.5560     0.0340
  882.5000     0.3090   -36.5300     9.4550     7.7080     8.9510   101.6070    10.9190     2.5540     0.0280
  883.0000     0.3070   -36.4200     9.4410     7.7230     8.9730   101.6060    10.9190     2.5440     0.0240
  883.5000     0.3100   -36.4180     9.4060     7.7390     8.9960   101.6060    10.9200     2.5410     0.0210
  884.0000     0.3140   -36.4950     9.3720     7.7540     9.0310   101.6060    10.9200     2.5390     0.0170
  884.5000     0.3170   -36.5730     9.3370     7.7690     8.9880   101.6060    10.9210     2.5370     0.0140
  885.0000     0.3200   -36.6520     9.3020     7.7850     8.8950   101.6060    10.9210     2.5370     0.0110
  885.5000     0.3220   -36.7300     9.2680     7.7960     8.8030   101.6060    10.9210     2.5380     0.0120
  886.0000     0.3230   -36.8090     9.2330     7.6250     8.7100   101.6060    10.9220     2.5430     0.0150
