~VERSION INFORMATION
 VERS.                2.0:   CWLS LOG ASCII STANDARD - VERSION 2.0
 WRAP.                 NO:   ONE LINE PER DEPTH STEP
~WELL INFORMATION
#MNEM.UNIT      DATA TYPE    INFORMATION
#----------   ------------   ------------------------------
 STRT.F          388.0000:   START DEPTH
 STOP.F         3166.0000:   STOP DEPTH
 STEP.F            0.5000:   STEP LENGTH
 NULL.          -999.2500:   NO VALUE
 COMP.    PENIX & SCISSON:   COMPANY
 WELL. PENIX NPR 3 "AX" #34-28:   WELL
 FLD .                NPR:   FIELD
 LOC .      S28 T39N R78W:   LOCATION
 CNTY.            NATRONA:   COUNTY
 STAT.            WYOMING:   STATE
 CTRY. UNITED STATES OF AMERICA:   COUNTRY
 SRVC.              WELEX:   SERVICE COMPANY
 DATE.        15-DEC-1978:   LOGDATE
 API .     49025107950000:   API NUMBER
~CURVE INFORMATION
#MNEM.UNIT       API CODE    CURVE DESCRIPTION
#----------   ------------   ------------------------------
 DEPT.F                  :   
 CALD.IN     45 280 60 00:   CALIPER FROM DENSITY LOG
 GRD .GAPI   45 310 01 00:   GAMMA RAY FROM DENSITY LOG
 RHOB.G/C3   45 350 01 00:   BULK DENSITY
 CORR.G/C3   45 356 01 00:   DENSITY CORRECTION
 NPHI.DEC    42 890 03 00:   NEUTRON POROSITY SANDSTONE
 SPR .MV     07 010 01 00:   SPONTANEOUS POTENTIAL
 SGRD.OHMM   07 220 05 00:   SHALLOW GUARD
 ILD .OHMM   07 120 46 00:   DEEP INDUCTION RESISTIVITY
 ILM .OHMM   07 120 44 00:   INDUCTION LOG MEDIUM RESISTIVITY
 TENR.LBS    07 635 01 00:   TENSION FROM RESISTIVITY
~PARAMETER INFORMATION
#MNEM.UNIT          VALUE    DESCRIPTION
#----------   ------------   ------------------------------
 EKB .F         5039.0000:   Kelly bushing
 EGL .F         5029.0000:   Ground level
 EDF .F            0.0000:   Drilling floor
 TD  .F         3159.0000:   Total depth
 DATE.        15-DEC-1978:   Date logged
 CLNT.            A2DTECH:   Client Code
 SL  . 2434' FNL & 1651' FWL:   Surface Location
 PD  .                 GL:   Permanent Datum
 EPD .F              5029:   Elevation Permanent Datum
 LMF .                 KB:   Log Measured From
 DMF .                 KB:   Drilling Measured From
 DAPD.F                10:   Feet Above Permanent Datum
 DD  .F              3155:   Depth driller
 DL  .F              3159:   Depth logger
 BLI .F              3157:   Bottom log interval
 TLI .F               350:   Top log interval
 CS1 .IN            8.625:   Casing size
 CBD1.      8.625" @ 383':   Casing driller 1
 CBL1.F               398:   Casing logger 1
 BS1 .IN            7.875:   Bit size
 BSD1.F              3155:   Depth drilled with bit1
 DFT .           CHEM/GEL:   Type fluid in hole
 DFD .                8.5:   Density
 DFV .                 55:   Viscosity
 DFPH.                 10:   pH
 DFL .               10.8:   Fluid loss
 MSS .           FLOWLINE:   Source of sample
 RMS .OHMM           1.65:   Rm
 MST .F                65:   Rm Meas. temp.
 RMF .OHMM           1.32:   Rmf
 MFST.F                65:   Rmf Meas. temp.
 RMC .OHMM           1.98:   Rmc
 MCST.F                65:   Rmc Meas. temp.
 MFSS.               CALC:   Source Rmf.
 RMB .OHMM              1:   Rm. at BHT
 BHT .F               107:   BHT.
 TCS .HRS               8:   Time Circ. stopped
 MRT .F               107:   Maximum recorded temp.
 LUN .               1892:   Logging unit number
 LUL .             CASPER:   Logging unit location
 ENGI.               REIN:   Recorded By
 WITN.              AMEND:   Witnessed by
 ORIG.           5" PRINT:   Origin of data
 UWI .     49025107950000:   Unique Well ID
 DICO. A2D TECHNOLOGIES, INC.:   Digitizing Company
~OTHER INFORMATION
~A   DEPT     CALD         GRD      RHOB       CORR       NPHI        SPR       SGRD        ILD        ILM       TENR   
# ...
 1493.5000     8.3813   116.7594     2.5874     0.0446     0.2444    -3.6493    10.1352     8.4731     9.1860  1375.3364
 1494.0000     8.3843   122.4151     2.5848     0.0385     0.2468    -3.6554    10.1331     8.4725     9.1913  1376.8987
 1494.5000     8.4246   121.2034     2.5697     0.0365     0.2536    -3.6611    10.0370     8.4705     9.1965  1378.4609
 1495.0000     8.4246   115.5484     2.5646     0.0324     0.2565    -3.6667    10.0358     8.4688     9.2018  1380.0232
 1495.5000     8.4245   109.4893     2.5616     0.0304     0.2589    -3.6724     9.9414     8.4674     9.2067  1375.9177
 1496.0000     8.4245   111.1053     2.5757     0.0487     0.2601    -3.6781     9.8475     8.4661     9.2048  1382.1351
 1496.5000     8.4244   113.9334     2.5949     0.0629     0.2601    -3.6837     9.7518     8.4644     9.2037  1362.2560
 1497.0000     8.4244   112.7217     2.5990     0.0710     0.2593    -3.6894     9.8424     8.4627     9.1756  1362.6870
 1497.5000     8.4243   111.1060     2.6000     0.0690     0.2609    -3.8997     9.9320     8.4597     9.1476  1342.8940
 1498.0000     8.4647   110.7022     2.5939     0.0731     0.2609    -3.9028     9.9304     8.4584     8.9430  1343.3250
 1498.5000     8.4444   109.0863     2.5889     0.0568     0.2609    -3.7076     9.9284     8.4573     8.9427  1343.7560
 1499.0000     8.4444   109.8946     2.5868     0.0568     0.2625    -3.7129     9.9261     8.5348     8.9406  1323.9631
 1499.5000     8.4443   110.7028     2.5868     0.0589     0.2617    -3.7178     9.9241     8.6122     8.9428  1324.3940
 1500.0000     8.4443   110.2989     2.5899     0.0650     0.2605    -3.1201     9.8305     8.6105     8.9451  1324.8250
 1500.5000     8.4442   105.1955     2.5890     0.0687     0.2595    -3.1221     9.7386     8.6085     8.9474  1385.6476
 1501.0000     8.4647   105.8541     2.5909     0.0731     0.2609    -3.1260     9.7325     8.4490     8.9504  1426.3448
 1501.5000     8.4647   109.0859     2.5939     0.0751     0.2621    -3.1300     9.7264     8.4483     8.9534  1426.5240
 1502.0000     8.4649   112.7213     2.5979     0.0649     0.2637    -3.1334     9.7203     8.4477     8.9564  1424.8077
 1502.5000     8.4649   112.7209     2.5817     0.0526     0.2617    -3.1367     9.7143     8.4465     8.9594  1423.0916
 1503.0000     8.4651   111.1045     2.5757     0.0485     0.2629    -3.1400     9.7082     8.4456     8.9624  1421.3752
 1503.5000     8.4652   111.5080     2.5696     0.0444     0.2641    -3.5458     9.7021     8.3659     8.9654  1419.6589
 1504.0000     8.4652   107.4684     2.5635     0.0505     0.2641    -3.7503     9.6961     8.3653     8.9684  1417.9426
 1504.5000     8.4653   107.4682     2.5726     0.0566     0.2609    -3.7543     9.6900     8.3637     8.9714  1416.2263
 1505.0000     8.4655   108.2757     2.5776     0.0647     0.2589    -3.7576     9.6840     8.3628     8.9744  1414.5100
 1505.5000     8.4656   109.8908     2.5776     0.0687     0.2569    -3.7610     9.6779     8.4401     8.9774  1412.7938
 1506.0000     8.4656   113.5250     2.5766     0.0646     0.2565    -3.7643     9.6719     8.4388     8.9803  1411.0775
 1506.5000     8.4860   114.3321     2.5726     0.0605     0.2545    -3.7676     9.6658     8.4378     8.9833  1409.3612
 1507.0000     8.4860   115.1430     2.5756     0.0625     0.2561    -3.7709     9.6598     8.3585     8.9863  1407.6449
 1507.5000     8.5064   113.1196     2.5796     0.0686     0.2561    -3.7743     9.6537     8.3577     8.9893  1405.9286
 1508.0000     8.5065   113.5228     2.5857     0.0604     0.2537    -2.9740     9.6477     8.3565     8.9924  1404.2123
 1508.5000     8.5065   112.7148     2.5887     0.0624     0.2508    -2.9760     9.6417     8.3553     8.9954  1402.4961
 1509.0000     8.4865   110.6956     2.5927     0.0604     0.2496    -2.9780     9.6356     8.3546     8.9984  1400.7798
 1509.5000     8.4866   105.8503     2.5785     0.0542     0.2488    -2.9814     9.6296     8.3538     8.8329  1399.0635
 1510.0000     8.4665   105.0427     2.5775     0.0522     0.2517    -2.5836     9.6236     8.3530     8.8323  1397.3472
 1510.5000     8.4666   113.9236     2.5785     0.0521     0.2509    -2.5862     9.6176     8.3516     8.7497  1395.6309
 1511.0000     8.4465   107.8681     2.5765     0.0480     0.2501    -2.1871     9.6116     8.3503     8.7526  1393.9146
 1511.5000     8.4323   111.9045     2.5654     0.0521     0.2500    -1.9899     9.6056     8.3493     8.7555  1392.1982
 1512.0000     8.4266   107.8675     2.5603     0.0338     0.2541    -1.9932     9.5996     8.3481     8.7583  1390.4821
 1512.5000     8.4266   107.0600     2.5563     0.0297     0.2557    -1.9966     9.5936     8.4260     8.7612  1388.7657
 1513.0000     8.4454   107.0596     2.5583     0.0256     0.2581    -2.0005     9.5876     8.4250     8.7641  1387.0496
 1513.5000     8.4642   109.0774     2.5552     0.0235     0.2650    -2.6082     9.5816     8.4231     8.7670  1385.3333
 1514.0000     8.4673   112.3058     2.5593     0.0255     0.2682    -2.8114     9.5756     8.4220     8.7698  1383.6169
 1514.5000     8.4570   111.0946     2.5643     0.0234     0.2666    -3.2165     9.5696     8.4209     8.7727  1381.9006
 1515.0000     8.4474   116.3403     2.5441     0.0133     0.2650    -3.6223     9.5636     8.4206     8.7756  1380.1844
 1515.5000     8.4474   117.9538     2.5340     0.0071     0.2634    -3.6256     9.5576     8.4252     8.7785  1378.4681
 1516.0000     8.4677   117.5495     2.5330     0.0193     0.2658    -4.0320     9.5517     8.4297     8.7814  1376.7518
 1516.5000     8.4477   119.5665     2.5511     0.0294     0.2646    -4.0360     9.5457     8.4343     8.7842  1375.0355
 1517.0000     8.4679   121.1797     2.5632     0.0395     0.2642    -4.0393     9.5397     8.4388     8.7871  1373.3192
 1517.5000     8.4882   122.7927     2.5632     0.0375     0.2646    -4.0413     9.5338     8.4434     8.7900  1371.6029
 1518.0000     8.4681   119.9676     2.5612     0.0334     0.2642    -4.0460     9.5278     8.4480     8.7929  1369.8867
 1518.5000     8.4682   117.5461     2.5592     0.0313     0.2642    -4.0486     9.5219     8.4525     8.7958  1368.1704
 1519.0000     8.4885   115.1249     2.5591     0.0272     0.2642    -4.0523     9.4275     8.4571     8.7987  1366.4541
 1519.5000     8.4886   114.7209     2.5712     0.0374     0.2654    -4.0560     9.5056     8.4617     8.8015  1364.7378
 1520.0000     8.4686   118.3509     2.5854     0.0414     0.2650    -4.0586     9.5843     8.4662     8.8044  1363.0215
 1520.5000     8.4686   118.7533     2.5965     0.0454     0.2650    -4.2638     9.6637     8.4708     8.8088  1361.3052
 1521.0000     8.4688   118.7531     2.6126     0.0697     0.2642    -4.2672     9.7438     8.4754     8.8081  1359.5890
 1521.5000     8.4688   113.9120     2.6196     0.0738     0.2642    -4.2705     9.8245     8.4800     8.8077  1357.8727
 1522.0000     8.4689   109.0714     2.5984     0.0595     0.2638    -4.2738     9.9059     8.4840     8.8893  1356.1564
 1522.5000     8.4691   111.4910     2.5934     0.0554     0.2630    -4.2771     9.9880     8.4830     9.0046  1354.4401
 1523.0000     8.4692   114.3135     2.5803     0.0453     0.2630    -4.2805    10.0707     8.5616     9.1215  1353.4204
 1523.5000     8.4693   116.3291     2.5782     0.0473     0.2626    -4.2838    10.2385     8.6409     9.2398  1353.5634
 1524.0000     8.4290   114.7157     2.5701     0.0574     0.2626    -4.2871    10.2375     8.8021     9.3597  1353.7421
 1524.5000     8.4121   111.0858     2.5661     0.0452     0.2602    -4.2904    10.2363     8.8832     9.5706  1374.0806
 1525.0000     8.3952   107.8597     2.5782     0.0553     0.2574    -4.2938    10.2353     8.9659     9.5694  1372.7559
 1525.5000     8.4092   109.8755     2.5842     0.0613     0.2574    -4.2971    10.2343     8.7989     9.3914  1371.4310
 1526.0000     8.4295   119.1486     2.5772     0.0451     0.2586    -4.3004    10.1379     8.7162     9.3905  1370.1061
 1526.5000     8.4474   120.3574     2.5701     0.0389     0.2602    -4.3037    10.0431     8.7156     9.3027  1368.7812
