~VERSION INFORMATION
 VERS.                2.0:   CWLS LOG ASCII STANDARD - VERSION 2.0
 WRAP.                 NO:   ONE LINE PER DEPTH STEP
~WELL INFORMATION
#MNEM.UNIT      DATA TYPE    INFORMATION
#----------   ------------   ------------------------------
 STRT.F            8.0000:   START DEPTH
 STOP.F         3021.0000:   STOP DEPTH
 STEP.F            0.5000:   STEP LENGTH
 NULL.          -999.2500:   NO VALUE
 COMP. LAWRENCE ALLISON & ASSOCIATES W:   COMPANY
 WELL. LAWRENCE ALLISON #68-28:   WELL
 FLD .              NPR 3:   FIELD
 LOC .      S28 T39N R78W:   LOCATION
 CNTY.            NATRONA:   COUNTY
 STAT.            WYOMING:   STATE
 CTRY. UNITED STATES OF AMERICA:   COUNTRY
 SRVC.      DRESSER ATLAS:   SERVICE COMPANY
 DATE.        19-DEC-1986:   LOGDATE
 API .     49025111580000:   API NUMBER
~CURVE INFORMATION
#MNEM.UNIT       API CODE    CURVE DESCRIPTION
#----------   ------------   ------------------------------
 DEPT.F                  :   
 SPR .MV     07 010 01 00:   SPONTANEOUS POTENTIAL
 TENR.LBS    07 635 01 00:   TENSION FROM RESISTIVITY
 RILD.OHMM   07 120 46 00:   DEEP INDUCTION RESISTIVITY
 RILM.OHMM   07 120 44 00:   INDUCTION LOG MEDIUM RESISTIVITY
 RFOC.OHMM   07 220 04 00:   RESISTIVITY FOCUSED LOG RES.
 CALD.IN     45 280 60 00:   CALIPER FROM DENSITY LOG
 CORR.G/C3   45 356 01 00:   DENSITY CORRECTION
 RHOB.G/C3   45 350 01 00:   BULK DENSITY
 CNC .DEC    42 890 03 00:   NEUTRON POROSITY SANDSTONE
 GRR .GAPI   07 310 01 00:   GAMMA RAY FROM RESISTIVITY
~PARAMETER INFORMATION
#MNEM.UNIT          VALUE    DESCRIPTION
#----------   ------------   ------------------------------
 EKB .F         5106.0000:   Kelly bushing
 EGL .F         5094.0000:   Ground level
 EDF .F            0.0000:   Drilling floor
 EPD .F         5094.0000:   Permanent datum
 TD  .F         3010.0000:   Total depth
 CLNT.            A2DTECH:   Client Code
 SL  . 1559'EL & 533' FSL:   Surface Location
 DATE.        19-DEC-1986:   Date Logged [DD-MMM-YYYY]
 DD  .F              3003:   Depth driller
 DL  .F              3010:   Depth logger
 BLI .F              3007:   Bottom log interval
 TLI .F                 0:   Top log interval
 CS1 .              8.625:   Casing size
 CBD1.      8.625" @ 389':   Casing driller 1
 CBL1.IN              405:   Casing logger 1
 BS1 .IN            7.875:   Bit size
 BSD1.F              3003:   Depth drilled with bit1
 DFT .        KCL POLYMER:   Type fluid in hole
 DFD .                9.0:   Density
 DFV .                 42:   Viscosity
 DFPH.                9.3:   pH
 DFL .                8.8:   Fluid loss
 MSS .           FLOWLINE:   Source of sample
 RMS .OHMM          0.484:   Rm
 MST .F                68:   Rm Meas. temp.
 RMF .OHMM          0.392:   Rmf
 MFST.F                68:   Rmf Meas. temp.
 MFSS.               MEAS:   Source Rmf.
 RMC .OHMM          0.605:   Rmc
 MCST.F                68:   Rmc Meas. temp.
 MCSS.               CALC:   Source Rmc.
 RMB .OHMM          0.269:   Rm. at BHT
 BHT .F               122:   BHT.
 TCS .HRS             3.5:   Time Circ. stopped
 MRT .F               122:   Maximum recorded temp.
 LUN .            HL-6274:   Logging unit number
 LUL .           GILLETTE:   Logging unit location
 ENGI.             RAUTIO:   Recorded By
 WITN.             STRONG:   Witnessed by
 ORIG.        2" 5" PRINT:   Origin of data
 UWI .     49025111580000:   Unique Well ID
 DICO. A2D TECHNOLOGIES, INC.:   Digitizing Company
~OTHER INFORMATION
~A    DEPT     SPR       TENR       RILD       RILM       RFOC       CALD       CORR       RHOB        CNC        GRR   
# ...
 1783.5000   -39.9865   -73.6155     7.1852     7.2525     8.6426  -999.2500  -999.2500  -999.2500  -999.2500   134.2479
 1784.0000   -39.9804   -73.3098     7.1302     7.2484     8.5788  -999.2500  -999.2500  -999.2500  -999.2500   131.5596
 1784.5000   -39.9743   -80.7931     7.2280     7.2966     8.5769  -999.2500  -999.2500  -999.2500  -999.2500   132.8114
 1785.0000   -39.9681   -80.4745     7.2768     7.3983     8.5136  -999.2500  -999.2500  -999.2500  -999.2500   134.4494
 1785.5000   -39.9620   -87.9471     7.3765     7.4476     8.3901  -999.2500  -999.2500  -999.2500  -999.2500   138.8861
 1786.0000   -39.9559   -87.6362     7.3718     7.3359     8.3281  -999.2500  -999.2500  -999.2500  -999.2500   142.8344
 1786.5000   -39.9497   -87.3250     7.3142     7.2791     8.4538  -999.2500  -999.2500  -999.2500  -999.2500   142.2577
 1787.0000   -39.7876   -87.0140     7.2050     7.2228     8.5678  -999.2500  -999.2500  -999.2500  -999.2500   137.7595
 1787.5000   -39.6255   -94.4981     7.0974     7.2187     8.6903  -999.2500  -999.2500  -999.2500  -999.2500   133.2613
 1788.0000   -39.4633   -94.1160     7.0419     7.2147     8.5638  -999.2500  -999.2500  -999.2500  -999.2500   135.7012
 1788.5000   -39.4483   -93.8103     7.0883     7.2106     8.0826  -999.2500  -999.2500  -999.2500  -999.2500   134.8229
 1789.0000   -39.2948   -93.5046     7.1867     7.2065     8.2574  -999.2500  -999.2500  -999.2500  -999.2500   130.9279
 1789.5000   -39.2874   -93.1989     7.2340     7.2555     8.9362  -999.2500  -999.2500  -999.2500  -999.2500   127.9380
 1790.0000   -39.2812   -92.8932     7.2817     7.3028     8.8065  -999.2500  -999.2500  -999.2500  -999.2500   127.5817
 1790.5000   -39.4327   -92.5875     7.2237     7.2987     8.4933  -999.2500  -999.2500  -999.2500  -999.2500   129.8013
 1791.0000   -39.7370   -92.2818     7.1672     7.2422     8.3100  -999.2500  -999.2500  -999.2500  -999.2500   132.5508
 1791.5000   -39.8884   -84.2001     7.1627     7.2381     8.2491  -999.2500  -999.2500  -999.2500  -999.2500   136.5699
 1792.0000   -40.1943   -83.8944     7.1067     7.1820     8.7359  -999.2500  -999.2500  -999.2500  -999.2500   140.8387
 1792.5000   -40.5002   -75.8127     7.0005     7.1170     9.0543  -999.2500  -999.2500  -999.2500  -999.2500   138.6627
 1793.0000   -40.4925   -75.5054     6.8960     6.9193     9.1837  -999.2500  -999.2500  -999.2500  -999.2500   134.4662
 1793.5000   -40.3304   -75.1944     6.6957     6.7676     8.5221  -999.2500  -999.2500  -999.2500  -999.2500   131.4762
 1794.0000   -39.8562   -82.6717     6.5484     6.6671     7.8823  -999.2500  -999.2500  -999.2500  -999.2500   129.9946
 1794.5000   -39.3821   -90.0656     6.4972     6.6155     7.5557  -999.2500  -999.2500  -999.2500  -999.2500   130.3229
 1795.0000   -39.2199   -81.9838     6.4931     6.6117     7.3927  -999.2500  -999.2500  -999.2500  -999.2500   131.8579
 1795.5000   -38.7457   -81.6782     6.5359     6.6080     7.2854  -999.2500  -999.2500  -999.2500  -999.2500   133.3928
 1796.0000   -38.4274   -73.5964     6.5789     6.6043     7.1797  -999.2500  -999.2500  -999.2500  -999.2500   132.8162
 1796.5000   -38.2376   -73.2907     6.6223     6.6005     7.3880  -999.2500  -999.2500  -999.2500  -999.2500   131.3345
 1797.0000   -38.1018   -72.9850     6.7142     6.6926     8.0531  -999.2500  -999.2500  -999.2500  -999.2500   130.7572
 1797.5000   -38.2532   -64.9033     6.7584     6.8348     8.7151  -999.2500  -999.2500  -999.2500  -999.2500   130.7845
 1798.0000   -38.5591   -64.5976     6.9006     6.9814     8.7767  -999.2500  -999.2500  -999.2500  -999.2500   132.0421
 1798.5000   -39.0194   -64.2919     6.9964     7.0774     8.2831  -999.2500  -999.2500  -999.2500  -999.2500   133.2519
 1799.0000   -39.3269   -56.2101     6.9417     7.0133     7.9312  -999.2500  -999.2500  -999.2500  -999.2500   132.6811
 1799.5000   -39.7887   -55.9045     6.7889     6.7695     7.8686  -999.2500  -999.2500  -999.2500  -999.2500   129.3829
 1800.0000   -40.2491   -55.5987     6.6395     6.6689     7.9851  -999.2500  -999.2500  -999.2500  -999.2500   129.1079
 1800.5000   -40.0870   -63.6120     6.6352     6.6651     7.9794  -999.2500  -999.2500  -999.2500  -999.2500   129.7445
 1801.0000   -39.9248   -70.5394     6.7273     6.7580     7.7472  -999.2500  -999.2500  -999.2500  -999.2500   130.0657
 1801.5000   -39.7627   -77.4464     6.7717     6.8040     7.6422  -999.2500  -999.2500  -999.2500  -999.2500   130.0881
 1802.0000   -39.6005   -76.9907     6.9152     6.8988     7.9779  -999.2500  -999.2500  -999.2500  -999.2500   124.9849
 1802.5000   -39.5944   -84.4252     7.0128     6.9939     8.4492  -999.2500  -999.2500  -999.2500  -999.2500   123.8308
 1803.0000   -39.5882   -83.8558     7.1269     6.9550     8.7571  -999.2500  -999.2500  -999.2500  -999.2500   128.0485
 1803.5000   -39.5819   -83.4002     7.1769     7.0078     8.6796  -999.2500  -999.2500  -999.2500  -999.2500   129.2790
 1804.0000   -39.4696   -82.9447     7.1750     7.1039     8.8019  -999.2500  -999.2500  -999.2500  -999.2500   128.3498
 1804.5000   -39.4696   -74.7130     7.1220     7.1020     8.8618  -999.2500  -999.2500  -999.2500  -999.2500   126.0134
 1805.0000   -39.3136   -74.2575     6.9182     6.9990     8.6678  -999.2500  -999.2500  -999.2500  -999.2500   125.7294
 1805.5000   -39.1576   -73.7947     6.7202     6.8975     8.3578  -999.2500  -999.2500  -999.2500  -999.2500   127.5687
 1806.0000   -39.1576   -65.5522     6.6226     6.6521     8.0588  -999.2500  -999.2500  -999.2500  -999.2500   134.5304
 1806.5000   -39.1576   -65.0009     6.5737     6.5086     7.8832  -999.2500  -999.2500  -999.2500  -999.2500   142.3971
 1807.0000   -39.1576   -64.5453     6.6674     6.5072     7.9369  -999.2500  -999.2500  -999.2500  -999.2500   139.7057
 1807.5000   -39.1576   -64.0898     6.6660     6.5058     8.1107  -999.2500  -999.2500  -999.2500  -999.2500   135.5060
 1808.0000   -39.1576   -63.6342     6.5220     6.5026     8.4093  -999.2500  -999.2500  -999.2500  -999.2500   133.4179
 1808.5000   -39.1576   -63.1787     6.4738     6.4564     8.5188  -999.2500  -999.2500  -999.2500  -999.2500   135.3063
 1809.0000   -39.1576   -62.7231     6.4260     6.4547     8.2725  -999.2500  -999.2500  -999.2500  -999.2500   138.9007
 1809.5000   -39.0016   -62.2676     6.3785     6.4534     8.0923  -999.2500  -999.2500  -999.2500  -999.2500   141.0299
 1810.0000   -39.0016   -69.5956     6.3772     6.4520     8.0309  -999.2500  -999.2500  -999.2500  -999.2500   134.4228
 1810.5000   -39.0016   -69.1291     6.3758     6.5443     8.1440  -999.2500  -999.2500  -999.2500  -999.2500   128.7148
 1811.0000   -39.0016   -68.6626     6.4670     6.7341     8.3785  -999.2500  -999.2500  -999.2500  -999.2500   124.2135
 1811.5000   -39.1576   -68.1075     6.5124     6.7327     8.6197  -999.2500  -999.2500  -999.2500  -999.2500   125.1420
 1812.0000   -39.1576   -75.5418     6.6052     6.7312     8.6128  -999.2500  -999.2500  -999.2500  -999.2500   132.4053
 1812.5000   -39.1576   -74.9724     6.6516     6.7785     8.3478  -999.2500  -999.2500  -999.2500  -999.2500   136.9537
 1813.0000   -39.3136   -82.4068     6.6502     6.8806     8.1260  -999.2500  -999.2500  -999.2500  -999.2500   139.3967
 1813.5000   -39.4696   -81.8373     6.6973     7.0748     8.0652  -999.2500  -999.2500  -999.2500  -999.2500   139.7157
 1814.0000   -39.9376   -81.3818     6.6955     7.1244     8.4169  -999.2500  -999.2500  -999.2500  -999.2500   135.2202
 1814.5000   -40.4056   -73.1502     6.7425     7.1225     8.5980  -999.2500  -999.2500  -999.2500  -999.2500   131.9255
 1815.0000   -40.7176   -72.6947     6.7899     7.1210     8.7191  -999.2500  -999.2500  -999.2500  -999.2500   127.7258
 1815.5000   -40.8736   -72.2391     6.8870     7.1710     8.8409  -999.2500  -999.2500  -999.2500  -999.2500   125.3361
 1816.0000   -40.5616   -71.7730     6.9855     7.2217     8.8372  -999.2500  -999.2500  -999.2500  -999.2500   126.8679
 1816.5000   -40.0936   -71.2141     7.0854     7.2721     8.8288  -999.2500  -999.2500  -999.2500  -999.2500   129.3047
