~VERSION INFORMATION
 VERS.                2.0:   CWLS LOG ASCII STANDARD - VERSION 2.0
 WRAP.                 NO:   ONE LINE PER DEPTH STEP
~WELL INFORMATION
#MNEM.UNIT      DATA TYPE    INFORMATION
#----------   ------------   ------------------------------
 STRT.F            5.5000:   START DEPTH
 STOP.F         3006.0000:   STOP DEPTH
 STEP.F            0.5000:   STEP LENGTH
 NULL.          -999.2500:   NO VALUE
 COMP.    FENIX & SCISSON:   COMPANY
 WELL.  FENIX "AX" #28-28:   WELL
 FLD .  TEAPOT DOME NPR-3:   FIELD
 LOC .      S28 T39N R78W:   LOCATION
 CNTY.            NATRONA:   COUNTY
 STAT.            WYOMING:   STATE
 CTRY. UNITED STATES OF AMERICA:   COUNTRY
 SRVC.           BIRDWELL:   SERVICE COMPANY
 DATE.        23-JAN-1980:   LOGDATE
 API .     49025107960000:   API NUMBER
~CURVE INFORMATION
#MNEM.UNIT       API CODE    CURVE DESCRIPTION
#----------   ------------   ------------------------------
 DEPT.F                  :   
 GRD .GAPI   45 310 01 00:   GAMMA RAY FROM DENSITY LOG
 CALD.IN     45 280 60 00:   CALIPER FROM DENSITY LOG
 DPHI.DEC    45 890 12 00:   DENSITY POROSITY SANDSTONE
 NPHI.DEC    42 890 03 00:   NEUTRON POROSITY SANDSTONE
 CORR.G/C3   45 356 01 00:   DENSITY CORRECTION
 SPR .MV     05 010 01 00:   SPONTANEOUS POTENTIAL FROM RES.
 ILD .OHMM   05 120 40 00:   INDUCTION LOG DEEP RESISTIVITY
 SN  .OHMM   05 040 16 00:   SHORT NORMAL 16"
~PARAMETER INFORMATION
#MNEM.UNIT          VALUE    DESCRIPTION
#----------   ------------   ------------------------------
 EKB .F         5120.0000:   Kelly bushing
 EGL .F         5110.0000:   Ground level
 EDF .F         5119.0000:   Drilling floor
 EPD .F         5110.0000:   Permanent datum
 TD  .F         3006.0000:   Total depth
 CLNT.            A2DTECH:   Client Code
 SL  . 600' FSL & 1300' FWL:   Surface Location
 PD  .                 GL:   Permanent Datum
 DAPD.F                 9:   Feet Above Permanent Datum
 DATE.        23-JAN-1980:   Date Logged [DD-MMM-YYYY]
 DD  .F              3006:   Depth driller
 DL  .F              3006:   Depth logger
 BLI .F              3006:   Bottom log interval
 TLI .F                10:   Top log interval
 CS1 .IN            8.625:   Casing size
 CBD1.      8.625" @ 440':   Casing driller 1
 CBL1.F               460:   Casing logger 1
 BS1 .IN            7.875:   Bit size
 BSD1.F              3006:   Depth drilled with bit1
 DFT .       GEL MUD FULL:   Type fluid in hole
 DFD .                  9:   Density
 DFV .                 46:   Viscosity
 DFPH.                 11:   pH
 DFL .               17.2:   Fluid loss
 MSS .           MUD TANK:   Source of sample
 RMS .OHMM            1.9:   Rm
 MST .F                60:   Rm Meas. temp.
 RMF .OHMM            .73:   Rmf
 MFST.F                62:   Rmf Meas. temp.
 MFSS.               MEAS:   Source Rmf.
 RMC .OHMM            .95:   Rmc
 MCST.F                62:   Rmc Meas. temp.
 TCS .HRS               5:   Time Circ. stopped
 MRT .F               110:   Maximum recorded temp.
 LUN .               3029:   Logging unit number
 LUL .             CASPER:   Logging unit location
 ENGI.           T. WOLFF:   Recorded By
 WITN.           DINSMORE:   Witnessed by
 ORIG.           5" PRINT:   Origin of data
 UWI .     49025107960000:   Unique Well ID
 DICO. A2D TECHNOLOGIES, INC.:   Digitizing Company
~OTHER INFORMATION
~A    DEPT      GRD      CALD       DPHI         NPHI     CORR        SPR        ILD         SN   
# ...
 2476.0000   109.6814     9.2911     0.2182     0.0598     0.0304   -30.9436     8.3609     9.6375
 2476.5000   111.4840     9.3675     0.2167     0.0515     0.0397   -30.9408     8.5489     9.5744
 2477.0000   117.1385     9.3994     0.2176     0.0480     0.0490   -30.9485     8.6791     9.1131
 2477.5000   117.5369     9.4461     0.2151     0.0560     0.0458   -30.6362     8.7485     9.1835
 2478.0000   111.5586     9.4631     0.2121     0.0569     0.0280   -28.9935     8.8817     9.2544
 2478.5000   111.9599     9.4653     0.2112     0.0550     0.0284   -29.7948     8.9530     9.4599
 2479.0000   118.4940     9.4675     0.2096     0.0622     0.0136   -30.8427     8.9603     9.6013
 2479.5000   119.0406     9.4845     0.2049     0.0603     0.0168   -30.6651     8.5939     9.5383
 2480.0000   117.8802     9.5312     0.1988     0.0591     0.0110   -30.2264     8.4190     9.4758
 2480.5000   120.8743     9.5631     0.2020     0.0626     0.0051   -29.7651     8.4260     9.4825
 2481.0000   123.8621     9.5801     0.2080     0.0629     0.0053   -29.8459     8.4935     9.5557
 2481.5000   120.0351     9.5675     0.2116     0.0578     0.0055   -30.4862     8.6227     9.4918
 2482.0000   108.3562     9.5697     0.2124     0.0589     0.0042   -30.9163     8.6918     9.4296
 2482.5000   105.2700     9.5551     0.2010     0.0646     0.0060   -30.6202     8.7613     9.5038
 2483.0000    98.7763     9.5444     0.1899     0.0606     0.0077   -30.1465     8.8947     9.5091
 2483.5000    99.6901     9.5472     0.1787     0.0597     0.0033   -29.7763     9.0301     9.6512
 2484.0000   108.0112     9.5642     0.1694     0.0683     0.0020   -30.0778     9.1024     9.7954
 2484.5000   109.5113     9.5812     0.1697     0.0687     0.0068   -30.0783     9.1754    10.0129
 2485.0000   105.9868     9.5834     0.1775     0.0631     0.0070   -28.8998     9.2490    10.0185
 2485.5000   108.0858     9.5999     0.1823     0.0667     0.0027   -28.9852     9.2581    10.0241
 2486.0000   111.0736     9.5873     0.1877     0.0768     0.0044   -29.7144     9.2850    10.0298
 2486.5000   111.9873     9.5598     0.1929     0.0711     0.0031   -30.5559     9.3119    10.0356
 2487.0000   111.2711     9.5477     0.1989     0.0702     0.0018   -30.3378     9.3387     9.8864
 2487.5000   111.2963     9.5345     0.2064     0.0701     0.0068   -29.5719     9.2882     9.5586
 2488.0000   112.3744     9.5372     0.2114     0.0635     0.0173   -29.3786     9.1011     9.4946
 2488.5000   110.8864     9.5394     0.2150     0.0559     0.0176   -28.9280     8.9158     9.3667
 2489.0000   110.3338     9.5713     0.2180     0.0595     0.0148   -29.6242     8.7343     9.1735
 2489.5000   109.0316     9.5735     0.2143     0.0588     0.0059   -31.0679     8.5566     8.9830
 2490.0000   108.6058     9.5757     0.2167     0.0651     0.0092   -31.5018     8.3824     8.9242
 2490.5000   111.5936     9.5779     0.2191     0.0645     0.0063   -30.9177     8.3894     8.9304
 2491.0000   108.0691     9.5653     0.2268     0.0695     0.0005   -30.1138     8.2772     8.9354
 2491.5000   108.2421     9.5675     0.2310     0.0781    -0.0024   -29.7306     8.2254     8.9402
 2492.0000   111.5262     9.5548     0.2268     0.0745     0.0039   -29.7672     8.1739     8.8819
 2492.5000   108.7362     9.5872     0.2177     0.0733     0.0011   -29.7705     8.1810     8.8869
 2493.0000   104.7611     9.5894     0.2087     0.0723     0.0013   -29.7103     8.1295     8.8919
 2493.5000   101.0760     9.5762     0.2057     0.0681     0.0136   -28.8399     8.0227     8.8336
 2494.0000   104.9589     9.5493     0.2044     0.0566     0.0259   -28.7824     7.9707     8.8387
 2494.5000   106.6134     9.5218     0.2044     0.0565     0.0186   -29.3858     7.9790     8.8447
 2495.0000   107.6753     9.4944     0.2032     0.0631     0.0052   -29.5731     7.8726     8.7856
 2495.5000   111.5520     9.4812     0.2007     0.0661     0.0084   -29.7652     7.8215     8.6659
 2496.0000   115.2806     9.4685     0.2013     0.0684     0.0192   -30.0479     7.7188     8.5480
 2496.5000   115.4536     9.4559     0.2140     0.0708     0.0210   -30.3388     7.6688     8.3133
 2497.0000   115.1821     9.4586     0.2267     0.0699     0.0121   -30.5532     7.5681     8.1990
 2497.5000   114.2588     9.4306     0.2334     0.0714     0.0171   -30.1168     7.4671     8.0874
 2498.0000   103.4091     9.4031     0.2345     0.0734     0.0185   -30.1564     7.4202     8.0344
 2498.5000    97.3061     9.3614     0.2350     0.0730     0.0061   -30.2216     7.2175     7.9829
 2499.0000    98.1026     9.3339     0.2284     0.0730    -0.0021   -29.8921     7.1722     7.9873
 2499.5000   100.3497     9.3064     0.2218     0.0720    -0.0019   -29.8648     7.0766     7.9349
 2500.0000   102.0000     9.2938     0.2202     0.0693    -0.0018   -29.9852     6.9822     7.8830
 2500.5000   102.6233     9.2221     0.2193     0.0642     0.0015   -30.1057     7.0308     7.8887
 2501.0000   104.3167     9.2095     0.2178     0.0659     0.0138   -30.2261     6.9968     7.7253
 2501.5000   109.3207     9.1971     0.2159     0.0704     0.0171   -30.3397     7.0032     7.6218
 2502.0000   109.7840     9.1846     0.2153     0.0757     0.0203   -30.3125     6.9102     7.4650
 2502.5000   109.3585     9.0979     0.2198     0.0766     0.0190   -30.4397     6.8657     7.3639
 2503.0000   108.6366     9.0536     0.2218     0.0745     0.0178   -30.5602     6.7279     7.2077
 2503.5000   105.2481     8.9251     0.2308     0.0723     0.0165   -30.6738     6.6371     7.1147
 2504.0000   102.7485     8.8384     0.2362     0.0735     0.0076   -30.4988     6.4576     7.1712
 2504.5000   102.7674     8.7665     0.2388     0.0722     0.0033   -29.7252     6.3719     7.2788
 2505.0000   105.7493     8.7243     0.2406     0.0722     0.0066   -29.5569     6.2873     7.3354
 2505.5000   108.1385     8.6377     0.2364     0.0731     0.0083   -29.8193     6.2944     7.5525
 2506.0000   107.5648     8.6097     0.2212     0.0703     0.0161   -29.6444     6.5289     7.7207
 2506.5000   103.1393     8.6126     0.2124     0.0694     0.0193   -29.4694     6.9681     8.0060
 2507.0000   100.4111     8.5847     0.2076     0.0774     0.0135   -29.1467     7.5438     8.5555
 2507.5000    90.9230     8.5727     0.1964     0.0906     0.0107   -29.1194     8.4034     9.5826
 2508.0000    80.8303     8.5602     0.1724     0.0971     0.0202   -29.5353     9.4281    10.5958
 2508.5000    80.4000     8.5626     0.1637     0.1098     0.0233   -30.0989    10.2801    11.9695
 2509.0000    81.3126     8.5650     0.1708     0.1272     0.0205   -30.8392    11.2090    13.5213
 2509.5000    87.2574     8.5827     0.1889     0.1300     0.0056   -31.3737    12.6088    14.6342
 2510.0000    94.0911     8.5696     0.1923     0.1290    -0.0078   -30.4534    14.2133    15.3932
 2510.5000    91.4433     8.5725     0.1838     0.1272    -0.0121   -31.0169    14.9547    15.8487
 2511.0000    89.0871     8.5748     0.1793     0.1266    -0.0028   -31.4328    15.4015    16.0867
 2511.5000    89.1107     8.5771     0.1807     0.1292     0.0156   -31.7078    15.7489    15.9845
 2512.0000    91.2037     8.5943     0.1891     0.1460     0.0128   -31.8282    15.8760    15.8783
 2512.5000    91.0741     8.5966     0.1945     0.1417     0.0039   -31.4987    15.7738    15.7752
 2513.0000    91.5378     8.5990     0.1836     0.1288    -0.0080   -30.5799    15.6788    15.6728
 2513.5000    92.7634     8.5863     0.1782     0.1240    -0.0123   -30.2614    15.6935    15.6850
 2514.0000    93.6504     8.5888     0.1775     0.1149     0.0016   -30.2284    15.7079    15.5832
 2514.5000    95.1548     8.5911     0.1871     0.1113     0.0109   -30.2011    15.6101    15.4821
 2515.0000   101.3959     8.5935     0.1934     0.1152     0.0081   -30.0261    15.6277    15.3816
 2515.5000   100.6741     8.5958     0.1960     0.1150    -0.0008   -29.5557    15.6418    15.3935
 2516.0000    94.4692     8.5987     0.1917     0.1127    -0.0005   -29.0921    15.6559    15.2913
