~VERSION INFORMATION
 VERS.                2.0:   CWLS LOG ASCII STANDARD - VERSION 2.0
 WRAP.                 NO:   ONE LINE PER DEPTH STEP
~WELL INFORMATION
#MNEM.UNIT      DATA TYPE    INFORMATION
#----------   ------------   ------------------------------
 STRT.F            7.5000:   START DEPTH
 STOP.F         3140.0000:   STOP DEPTH
 STEP.F            0.5000:   STEP LENGTH
 NULL.          -999.2500:   NO VALUE
 COMP. LAWRENCE ALLISON WEST:   COMPANY
 WELL. LAWRENCE NPR 3 "AX" #51-3:   WELL
 FLD .                NPR:   FIELD
 LOC .       S3 T38N R78W:   LOCATION
 CNTY.            NATRONA:   COUNTY
 STAT.            WYOMING:   STATE
 CTRY. UNITED STATES OF AMERICA:   COUNTRY
 SRVC.      DRESSER ATLAS:   SERVICE COMPANY
 DATE.        09-NOV-1986:   LOGDATE
 API .     49025111180000:   API NUMBER
~CURVE INFORMATION
#MNEM.UNIT       API CODE    CURVE DESCRIPTION
#----------   ------------   ------------------------------
 DEPT.F                  :   
 CALD.IN     45 280 60 00:   CALIPER FROM DENSITY LOG
 DEN .LBS    45 350 01 00:   BULK DENSITY
 CORR.G/C3   45 356 01 00:   DENSITY CORRECTION
 NPOR.DEC    42 890 03 00:   ALPHA PROCESSED NEUTRON POROSITY
 SPR .MV     07 010 01 00:   SPONTANEOUS POTENTIAL
 GRR .GAPI   07 310 01 00:   GAMMA RAY FROM RESISTIVITY
 SFL .OHMM   07 220 01 00:   SHALLOW FOCUSED LOG RESISTIVITY
 ILD .OHMM   07 120 46 00:   DEEP INDUCTION RESISTIVITY
 ILM .OHMM   07 120 44 00:   INDUCTION LOG MEDIUM RESISTIVITY
 TENR.LBS    07 635 01 00:   TENSION FROM RESISTIVITY
~PARAMETER INFORMATION
#MNEM.UNIT          VALUE    DESCRIPTION
#----------   ------------   ------------------------------
 EKB .F         5132.0000:   Kelly bushing
 EGL .F         5120.0000:   Ground level
 TD  .F         3141.0000:   Total depth
 DATE.        09-NOV-1986:   Date logged
 CLNT.            A2DTECH:   Client Code
 SL  . 249' FNL & 2195' FEL:   Surface Location
 PD  .                 GL:   Permanent Datum
 EPD .F              5120:   Elevation Permanent Datum
 LMF .                 KB:   Log Measured From
 DMF .                 KB:   Drilling Measured From
 DAPD.F                12:   Feet Above Permanent Datum
 DD  .F              3141:   Depth driller
 DL  .F              3132:   Depth logger
 BLI .F              3126:   Bottom log interval
 CS1 .IN            8.625:   Casing size
 CBD1.      8.625" @ 690':   Casing driller 1
 CBL1.F               690:   Casing logger 1
 BS1 .IN            7.875:   Bit size
 BSD1.F              3141:   Depth drilled with bit1
 DFT .        KCL/POLYMER:   Type fluid in hole
 DFD .                8.9:   Density
 DFV .                 34:   Viscosity
 DFPH.                9.5:   pH
 DFL .                9.5:   Fluid loss
 MSS .           FLOWLINE:   Source of sample
 RMS .OHMM           .368:   Rm
 MST .F                66:   Rm Meas. temp.
 RMF .OHMM           .296:   Rmf
 MFST.F                66:   Rmf Meas. temp.
 RMC .OHMM           .468:   Rmc
 MCST.F                66:   Rmc Meas. temp.
 MFSS.               MEAS:   Source Rmf.
 MCSS.               CALC:   Source Rmc.
 RMB .OHMM           .282:   Rm. at BHT
 BHT .F               120:   BHT.
 TCS .HRS             3.5:   Time Circ. stopped
 MRT .F               120:   Maximum recorded temp.
 LUN .            HL-6274:   Logging unit number
 LUL .           GILLETTE:   Logging unit location
 ENGI.             RAUTIO:   Recorded By
 WITN.             STRONG:   Witnessed by
 ORIG.        2" 5" PRINT:   Origin of data
 UWI .     49025111180000:   Unique Well ID
 DICO. A2D TECHNOLOGIES, INC.:   Digitizing Company
~OTHER INFORMATION
~A    DEPT    CALD        DEN       CORR       NPOR        SPR         GRR       SFL        ILD        ILM       TENR   
# ...
 2486.5000     9.2405     2.5111    -0.0068     0.2394   -63.1060   116.0649     8.0953     5.7054     6.0892   -33.4580
 2487.0000     9.2615     2.5142     0.0054     0.2446   -63.1087   111.6298     7.8712     5.9204     6.4369   -33.2590
 2487.5000     9.2625     2.5182    -0.0108     0.2422   -62.9101   112.8315     7.6536     6.2009     6.6795   -33.0600
 2488.0000     9.2432     2.5233    -0.0046     0.2434   -62.9128   113.2278     7.3051     6.4346     6.8671   -12.6795
 2488.5000     9.2240     2.5253    -0.0026     0.2438   -63.1168   114.4294     7.3038     6.4334     6.9947   -22.5712
 2489.0000     9.2451     2.5334    -0.0044     0.2542   -63.1196   116.0310     7.5787     6.5534     7.0587   -32.4629
 2489.5000     9.2259     2.5375    -0.0044     0.2574   -63.3236   115.2221     7.7194     6.4911     7.0574   -42.3546
 2490.0000     9.2268     2.5456    -0.0024     0.2594   -63.3263   114.0082     7.6466     6.4299     6.9908   -42.1555
 2490.5000     9.2277     2.5456    -0.0002     0.2444   -63.5303   114.4045     7.2310     6.3103     6.9249   -31.8658
 2491.0000     9.2287     2.5456     0.0160     0.2472   -63.5330   116.0085     6.8380     6.1357     6.6710   -31.6668
 2491.5000     9.2696     2.5427     0.0200     0.2496   -63.3344   118.8188     6.5875     6.0785     6.4263   -31.4677
 2492.0000     9.2710     2.5377     0.0260     0.2536   -63.3371   119.2150     6.5254     5.9648     6.1907   -31.2687
 2492.5000     9.2516     2.5387     0.0282     0.2500   -63.1385   118.8062     6.7085     5.8538     6.0194   -31.0299
 2493.0000     9.2526     2.5448     0.0322     0.2499   -62.9400   116.7872     7.0915     5.7986     5.9626   -30.8309
 2493.5000     9.2528     2.5458     0.0364     0.2540   -62.9433   116.7809     7.2904     5.7439     5.9615   -40.7225
 2494.0000     9.2546     2.5368     0.0204     0.2660   -62.9460   118.7872     7.2891     5.7427     5.9602   -40.5235
 2494.5000     9.2556     2.5298     0.0042     0.2672   -62.9487   122.0008     6.6414     5.7952     6.0709   -40.3245
 2495.0000     9.2362     2.5288    -0.0098     0.2668   -62.9514   121.9945     6.6402     5.9029     6.1836   -40.1254
 2495.5000     9.2373     2.5278    -0.0164     0.2660   -63.1554   119.5732     7.1508     6.1253     6.3573   -39.9264
 2496.0000     9.2382     2.5239    -0.0256     0.2574   -62.9569   116.7496     7.5591     6.2974     6.5969   -39.7274
 2496.5000     9.2593     2.5209    -0.0282     0.2469   -62.7583   111.9137     7.9906     6.4143     6.7194   -39.5284
 2497.0000     9.2597     2.5229    -0.0316     0.2445   -62.7611   109.0903     7.9891     6.5335     6.7809   -39.3293
 2497.5000     9.2433     2.5240    -0.0276     0.2408   -62.9650   109.8879     7.9877     6.5933     6.8430   -29.0396
 2498.0000     9.2420     2.5220    -0.0274     0.2392   -62.7665   109.4793     7.9124     6.5921     6.8417   -28.8406
 2498.5000     9.2631     2.5109    -0.0274     0.2424   -62.7670   112.6926     7.6928     6.5909     6.8405   -28.6416
 2499.0000     9.2506     2.5150    -0.0172     0.2456   -62.7719   113.8937     7.6923     6.5896     6.9031   -38.5332
 2499.5000     9.2246     2.5160    -0.0032     0.2480   -62.7746   114.6923     7.4796     6.5884     6.9018   -38.3342
 2500.0000     9.2255     2.5190     0.0050     0.2500   -62.7774   118.3078     7.2728     6.5872     6.9650   -38.0954
 2500.5000     9.2444     2.5222     0.0132     0.2620   -62.7806   121.8028     7.1399     6.5858     6.9635   -37.8914
 2501.0000     9.2606     2.5222     0.0012     0.2713   -62.7939   127.9307     7.2025     6.5844     6.9620   -27.4121
 2501.5000     9.2681     2.5242    -0.0008     0.2741   -62.8019   127.9180     7.5431     6.5827     6.9601   -27.1746
 2502.0000     9.2688     2.5293     0.0012     0.2716   -62.4075   124.6829     8.0474     6.5812     6.9586   -26.8183
 2502.5000     9.2692     2.5283    -0.0026     0.2522   -62.4154   117.8263     8.0456     6.5798     6.8927   -36.6116
 2503.0000     9.2533     2.5284    -0.0286     0.2466   -62.4234   115.3960     7.7506     6.5175     6.8912   -36.3145
 2503.5000     9.2711     2.5284    -0.0346     0.2421   -62.4313   116.5873     7.3975     6.5161     6.7628   -46.1075
 2504.0000     9.2517     2.5305    -0.0326     0.2514   -62.2381   117.7785     7.1927     6.3947     6.6369   -45.8104
 2504.5000     9.2722     2.5255    -0.0124     0.2558   -62.4472   116.1531     7.1911     6.3341     6.5740   -55.6031
 2505.0000     9.2532     2.5245    -0.0064     0.2578   -62.6564   115.3324     7.3926     6.2742     6.5118   -55.3059
 2505.5000     9.2337     2.5205     0.0018     0.2533   -62.4631   113.7069     7.6706     6.1573     6.4501   -55.0087
 2506.0000     9.2746     2.5165    -0.0484     0.2500   -62.6723   112.4806     7.6689     6.0426     6.3891   -54.8899
 2506.5000     9.2755     2.5146    -0.0342     0.2512   -62.4758   111.2575     7.1185     5.9300     6.2701   -64.5038
 2507.0000     9.2758     2.5116    -0.0060     0.2597   -62.4873   112.0464     6.8575     5.9288     6.2107   -64.2065
 2507.5000     9.2567     2.5066    -0.0018     0.2645   -62.6961   113.2377     6.7299     5.9275     6.2094   -63.9093
 2508.0000     9.2767     2.5056    -0.0178     0.2705   -62.9053   114.0266     6.7284     5.9262     6.2080   -43.3745
 2508.5000     9.2583     2.5016    -0.0178     0.2753   -63.1144   116.0226     6.7269     5.9249     6.2067   -43.0775
 2509.0000     9.2388     2.5007    -0.0158     0.2688   -63.1224   119.2259     7.1760     5.9789     6.2632   -42.7805
 2509.5000     9.2596     2.4997    -0.0016     0.2619   -62.7295   121.6244     7.2423     5.9776     6.2619   -42.4835
 2510.0000     9.2606     2.4997    -0.0056     0.2607   -62.7359   121.6085     7.4452     5.9763     6.3189   -42.1864
 2510.5000     9.2613     2.5098    -0.0256     0.2683   -62.7454   120.7878     7.5129     6.0305     6.3763   -51.9780
 2511.0000     9.2419     2.5169    -0.0134     0.2703   -62.6387   121.5766     7.4416     6.0292     6.4344   -41.5924
 2511.5000     9.2624     2.5240     0.0008     0.2691   -62.5601   121.5607     7.1688     6.0841     6.4930   -41.2955
 2512.0000     9.2635     2.5281    -0.0012     0.2683   -62.3669   121.5448     7.1672     6.1969     6.4916   -40.9985
 2512.5000     9.2441     2.5331    -0.0032     0.2670   -62.3749   120.3217     7.0339     6.1956     6.4902   -50.7896
 2513.0000     9.2650     2.5442    -0.0050     0.2702   -62.1816   120.7082     7.0979     6.1942     6.4290   -40.4045
 2513.5000     9.2658     2.5503     0.0414     0.2726   -62.3908   120.2899     7.1625     6.1929     6.4274   -30.0196
 2514.0000     9.2664     2.5544     0.0394     0.2786   -62.5999   119.8716     7.2277     6.1915     6.4259   -29.7227
 2514.5000     9.2672     2.5443     0.0254     0.2794   -62.4067   118.2462     7.2261     6.1910     6.3651   -29.4259
 2515.0000     9.3079     2.5373     0.0174     0.2750   -62.4114   115.4103     7.1578     6.1316     6.1883   -29.1290
 2515.5000     9.2584     2.5354     0.0034     0.2737   -62.4235   114.9920     6.9597     6.0733     6.1873   -28.8322
 2516.0000     9.2494     2.5344    -0.0288     0.2733   -62.4305   115.3785     6.8939     6.0199     6.1861   -28.5353
 2516.5000     9.2702     2.5314    -0.0326     0.2741   -62.2373   116.1674     6.8924     5.9591     6.1856   -38.2664
 2517.0000     9.2594     2.5264    -0.0326     0.2801   -62.2452   116.9563     6.9551     5.9578     6.1845   -37.9695
 2517.5000     9.2517     2.5255    -0.0446     0.2813   -62.2532   119.3547     6.9536     5.7928     6.0116   -37.6726
 2518.0000     9.2523     2.5255    -0.0002     0.2784   -62.2627   120.1436     7.0823     5.6849     6.0108   -37.3756
 2518.5000     9.2730     2.5245     0.0360     0.2723   -62.6731   120.9325     6.9506     5.5791     5.8443   -37.0787
 2519.0000     9.2739     2.5165     0.0300     0.2683   -62.6778   120.5142     6.8213     5.4245     5.6299   -36.7818
 2519.5000     9.2746     2.5166     0.0160     0.2711   -62.6881   120.9007     6.6944     5.2741     5.4231   -46.5716
