~VERSION INFORMATION
 VERS.                2.0:   CWLS LOG ASCII STANDARD - VERSION 2.0
 WRAP.                 NO:   ONE LINE PER DEPTH STEP
~WELL INFORMATION
#MNEM.UNIT      DATA TYPE    INFORMATION
#----------   ------------   ------------------------------
 STRT.F          290.0000:   START DEPTH
 STOP.F         2884.0000:   STOP DEPTH
 STEP.F            0.5000:   STEP LENGTH
 NULL.          -999.2500:   NO VALUE
 COMP.   FENNIX & SCISSON:   COMPANY
 WELL. FENIX & SCISSON AX #22-28:   WELL
 FLD .             NPR #3:   FIELD
 LOC .      S28 T39N R78W:   LOCATION
 CNTY.            NATRONA:   COUNTY
 STAT.            WYOMING:   STATE
 CTRY. UNITED STATES OF AMERICA:   COUNTRY
 SRVC.              WELEX:   SERVICE COMPANY
 DATE.        29-DEC-1979:   LOGDATE
 API .     49025107930000:   API NUMBER
~CURVE INFORMATION
#MNEM.UNIT       API CODE    CURVE DESCRIPTION
#----------   ------------   ------------------------------
 DEPT.F                  :   
 GRD .GAPI   45 310 01 00:   GAMMA RAY FROM DENSITY LOG
 CALD.IN     45 280 60 00:   CALIPER FROM DENSITY LOG
 CORR.G/C3   45 356 01 00:   DENSITY CORRECTION
 RHOB.G/C3   45 350 01 00:   BULK DENSITY
 NPHI.DEC    42 890 03 00:   NEUTRON POROSITY SANDSTONE
 SPR .MV     07 010 01 00:   SPONTANEOUS POTENTIAL
 TENR.LBS    07 635 01 00:   TENSION FROM RESISTIVITY
 ILD .OHMM   07 120 46 00:   DEEP INDUCTION RESISTIVITY
 ILM .OHMM   07 120 44 00:   INDUCTION LOG MEDIUM RESISTIVITY
 SGRD.OHMM   07 220 08 00:   LATEROLOG-8 RES.
~PARAMETER INFORMATION
#MNEM.UNIT          VALUE    DESCRIPTION
#----------   ------------   ------------------------------
 EKB .F         4988.0000:   Kelly bushing
 EGL .F         4978.0000:   Ground level
 EPD .F         4978.0000:   Permanent datum
 TD  .F         2872.0000:   Total depth
 CLNT.            A2DTECH:   Client Code
 SL  . 803' FNL & 938' FWL:   Surface Location
 DATE.        29-DEC-1979:   Date Logged [DD-MMM-YYYY]
 DD  .F              2868:   Depth driller
 DL  .F              2872:   Depth logger
 BLI .F              2870:   Bottom log interval
 TLI .F               300:   Top log interval
 CS1 .              8.625:   Casing size
 CBD1.      8.625" @ 318':   Casing driller 1
 CBL1.IN              318:   Casing logger 1
 BS1 .IN            7.875:   Bit size
 BSD1.F              2868:   Depth drilled with bit1
 DFT .          GEL-BENEX:   Type fluid in hole
 DFD .                8.8:   Density
 TCS .HRS              10:   Time Circ. stopped
 MRT .F               109:   Maximum recorded temp.
 ENGI.               REIN:   Recorded By
 WITN.          MR. AMEND:   Witnessed by
 ORIG.      2.5" 5" PRINT:   Origin of data
 UWI .     49025107930000:   Unique Well ID
 DICO. A2D TECHNOLOGIES, INC.:   Digitizing Company
 PD  .                 GL:   Permanent Datum
 LMF .                 KB:   Log Measured From
 DMF .                 KB:   Drilling Measured From
~OTHER INFORMATION
~A   DEPT       GRD        CALD     CORR         RHOB       NPHI      SPR       TENR        ILD        ILM       SGRD   
# ...
 2836.0000   116.5712     8.3155     0.0262     2.4770     0.1436   -68.5460  2015.4764     6.7066     9.0917     7.3710
 2836.5000   120.1931     8.3475     0.0325     2.4840     0.1392   -68.5460  2020.0667     6.5649     8.8591     7.1883
 2837.0000   125.0143     8.3640     0.0357     2.4833     0.1349   -68.2493  2024.6567     6.4347     8.7212     7.1110
 2837.5000   131.9345     8.3959     0.0296     2.4787     0.1292   -67.3590  2029.2469     6.3463     8.6199     7.2347
 2838.0000   141.8532     8.4124     0.0172     2.4616     0.1252   -66.4688  2033.8370     6.2588     8.5027     7.2097
 2838.5000   154.5509     8.4135     0.0095     2.4586     0.1239   -65.8754  2038.4272     6.0888     8.4789     7.2097
 2839.0000   171.2352     8.4145     0.0049     2.4586     0.1332   -65.2819  2043.0173     6.0051     8.2478     7.1110
 2839.5000   193.8419     8.4310     0.0019     2.4633     0.1444   -65.2819  2047.6075     5.8419     8.0498     7.1110
 2840.0000   227.1072     8.4321     0.0005     2.4711     0.1568   -64.9852  2052.1975     5.7616     8.0206     7.0464
 2840.5000   245.7216     8.4506     0.0006     2.4781     0.1639   -64.3917  2053.5715     5.6824     7.9095     6.0266
 2841.0000   250.2844     8.4653     0.0038     2.4890     0.1648   -64.0950  2053.5715     5.6816     7.7260     6.9054
 2841.5000   197.1952     8.4664     0.0116     2.4975     0.1635   -63.7982  2053.5715     5.6035     7.6210     7.4507
 2842.0000   141.7465     8.4675     0.0164     2.5014     0.1663   -63.5015  2053.5715     5.4513     7.4471     7.5142
 2842.5000   117.7822     8.4685     0.0212     2.5007  -999.2500   -63.2047  2053.5715     5.3763     7.1790     6.8942
 2843.0000   115.1072     8.4696     0.0244     2.5007  -999.2500   -62.9062  2053.5715     5.3024     6.8884     6.0996
 2843.5000   114.2313     8.4707     0.0245     2.5015  -999.2500   -62.6113  2053.5715     5.2295     6.5733     6.4970
 2844.0000   113.3554     8.4872     0.0214     2.5023  -999.2500   -62.6113  2053.5715     5.0875     6.2196     6.5530
 2844.5000   110.9543     8.4725     0.0184     2.5047  -999.2500   -62.5884  2053.5715     4.9492     5.9662     5.9474
 2845.0000   109.2048     8.4430     0.0154     2.5094  -999.2500   -62.2849  2053.5715     4.8147     5.7594     5.8632
 2845.5000   110.4757     8.4283     0.0139     2.5125  -999.2500   -62.0178  2053.5715     4.7486     5.6024     6.1986
 2846.0000   115.8547     8.3834     0.0140     2.5149  -999.2500   -61.7211  2053.5715     4.7479     5.4874     6.5046
 2846.5000   119.4766     8.3227     0.0157     2.5165  -999.2500   -61.7211  2053.5715     4.6189     5.4874     5.2436
 2847.0000   115.3023     8.2929     0.0173     2.5142  -999.2500   -61.7211  2053.5715     4.6183     5.4874     5.2917
 2847.5000   111.1281     8.2631     0.0112     2.5165  -999.2500   -61.7211  2053.5715     4.6176     5.5630     5.5164
 2848.0000   109.0469     8.2475     0.0082     2.5204  -999.2500   -61.6498  2053.5715     4.5542     5.6853     5.7032
 2848.5000   107.8770     8.2189     0.0207     2.5268  -999.2500   -61.4243  2053.5715     4.5535     5.7962     5.6251
 2849.0000   105.5019     8.2046     0.0317     2.5315  -999.2500   -61.4243  2053.5715     4.5529     5.8760     5.7824
 2849.5000   105.8254     8.2059     0.0380     2.5353  -999.2500   -61.4243  2053.5715     4.5523     5.8760     5.8105
 2850.0000   106.4487     8.2070     0.0412     2.5368  -999.2500   -61.4243  2053.5715     4.4897     5.7962     5.7032
 2850.5000   110.9702     8.1923     0.0351     2.5282  -999.2500   -61.4243  2053.5715     4.4270     5.4874     5.5481
 2851.0000   114.8919     8.2091     0.0227     2.5152  -999.2500   -61.5369  2053.5715     4.3651     5.1951     5.3233
 2851.5000   119.7131     8.2102     0.0151     2.4989  -999.2500   -61.7211  2053.5715     4.3071     4.9183     5.1076
 2852.0000   124.2345     8.2112     0.0058     2.4834  -999.2500   -61.7211  2053.5715     4.3065     4.9183     4.7021
 2852.5000   117.9613     8.2277    -0.0019     2.4858  -999.2500   -62.0178  2023.8096     4.3059     4.9477     5.1785
 2853.0000   112.2807     8.2131    -0.0016     2.4882  -999.2500   -62.1582  2023.8096     4.3054     4.9861     5.3972
 2853.5000   108.0380     8.2144     0.0095     2.4913  -999.2500   -62.6113  1994.0476     4.3048     5.0548     5.2504
 2854.0000   145.8116     8.2155     0.0218     2.4960  -999.2500   -62.7658  1994.0476     4.3121     5.1593     4.9006
 2854.5000   202.0678     8.2011     0.0234     2.4999  -999.2500   -63.0691  1964.2858     4.3630     5.2319     4.8335
 2855.0000   202.3434     8.1867     0.0235     2.5040  -999.2500   -63.2047  1970.7279     4.3724     5.5277     4.9687
 2855.5000   202.3670     8.1724     0.0205     2.5094  -999.2500   -63.2047  2000.6355     4.4220     6.0590     5.3233
 2856.0000   202.3907     8.1580     0.0237     2.5178  -999.2500   -63.2047  2023.8096     4.4213     6.8450     6.1103
 2856.5000   202.4143     8.1412     0.0362     2.5279  -999.2500   -63.5015  2023.8096     4.4818     6.9078     6.3683
 2857.0000   202.4380     8.1138     0.0487     2.5419  -999.2500   -63.5015  2023.8096     4.4811     4.4083     6.0266
 2857.5000   202.4616     8.0843     0.0628     2.5521  -999.2500   -63.5015  2023.8096     4.4805     5.6397     5.5999
 2858.0000   202.4853     8.0854     0.0583     2.5327  -999.2500   -63.5015  2023.8096     4.5418     6.8307     6.1951
 2858.5000   202.5089     8.0707     0.0412     2.5250  -999.2500   -63.5015  2031.3010     4.6401     6.2922     5.5481
 2859.0000   202.5326     8.0412     0.0305     2.5196  -999.2500   -63.5015  2053.5715     4.7964     5.8760     6.1103
 2859.5000   202.5562     8.0423     0.0179     2.5111  -999.2500   -63.2047  2053.5715     4.9047     7.1169     5.9441
 2860.0000   201.0787     8.0276     0.0069     2.5057  -999.2500   -62.9080  2061.5002     5.0193     7.5174     6.9175
 2860.5000   201.1082     8.0289    -0.0004     2.5142  -999.2500   -62.9080  2083.3333     5.1593     7.7260    10.0376
 2861.0000   201.1319     8.0300     0.0153     2.5251  -999.2500   -62.6113  2083.3333     5.3763     7.5174     8.8542
 2861.5000   201.1555     8.0311     0.0263     2.5298  -999.2500   -62.3145  2083.3333     5.6025     6.7378     8.0903
 2862.0000   201.1792     8.0321     0.0341     2.5298  -999.2500   -62.0178  2053.5715     5.6493     6.1223     6.5345
 2862.5000   201.2028     8.0332     0.0389     2.5275  -999.2500   -61.7211  2053.5715     5.6163     5.7174     6.9175
 2863.0000   201.2265     8.0188     0.0390     2.5284  -999.2500   -61.7211  2053.5715     5.5707     5.4874     6.3175
 2863.5000   201.2502     8.0045     0.0391     2.5369  -999.2500   -61.7211  2053.5715     5.4605     5.2667     5.3148
 2864.0000   201.2738     7.9901     0.0407     2.5501  -999.2500   -61.7211  2053.5715     5.4186     5.2667     5.1691
 2864.5000   200.9976     7.9757     0.0595     2.5595  -999.2500   -62.0178  2053.5715     5.3822     5.2667     5.0171
 2865.0000   201.0213     7.9459     0.0767     2.5533  -999.2500   -62.0178  2053.5715     5.3434     5.2667     4.9006
 2865.5000   201.0449     7.9161     0.0768     2.5456  -999.2500   -62.0178  2053.5715     5.3426     5.2667     5.6984
 2866.0000   200.7687     7.9175     0.0737     2.5386  -999.2500   -62.0178  2053.5715     5.2692     5.2667     6.6372
 2866.5000   200.7924     7.9028     0.0641     2.5317  -999.2500   -62.0178  2053.5715     5.2290     5.2667     5.8584
 2867.0000   200.8160     7.8887     0.0485     2.5247  -999.2500   -62.0178  2053.5715     5.1960     5.2677     5.2895
 2867.5000   200.8397     7.8898     0.0367     2.5240  -999.2500   -62.0178  2053.5715     5.1246     5.3392     5.1076
 2868.0000   201.1634     7.8908     0.0399     2.5352  -999.2500   -62.0178  2053.5715     5.0540     5.3392     5.5486
 2868.5000   201.1874     7.8765     0.0509     2.5453  -999.2500   -62.0178  2023.8096     5.0533     5.3392     6.5983
 2869.0000   201.2114     7.8775     0.0712     2.5512  -999.2500   -62.0178  2054.2705     5.0526     5.3392     7.8122
