~VERSION INFORMATION
 VERS.                2.0:   CWLS LOG ASCII STANDARD - VERSION 2.0
 WRAP.                 NO:   ONE LINE PER DEPTH STEP
~WELL INFORMATION
#MNEM.UNIT      DATA TYPE    INFORMATION
#----------   ------------   ------------------------------
 STRT.F           50.0000:   START DEPTH
 STOP.F         2832.5000:   STOP DEPTH
 STEP.F            0.5000:   STEP LENGTH
 NULL.          -999.2500:   NO VALUE
 COMP.    FENIX & SCISSON:   COMPANY
 WELL. FENIX NPR 3 "AX" #87-20:   WELL
 FLD .              N P R:   FIELD
 LOC .      S20 T39N R78W:   LOCATION
 CNTY.            NATRONA:   COUNTY
 STAT.            WYOMING:   STATE
 CTRY. UNITED STATES OF AMERICA:   COUNTRY
 SRVC.           BIRDWELL:   SERVICE COMPANY
 DATE.        01-AUG-1978:   LOGDATE
 API .     49025106780000:   API NUMBER
~CURVE INFORMATION
#MNEM.UNIT       API CODE    CURVE DESCRIPTION
#----------   ------------   ------------------------------
 DEPT.F                  :   
 CALD.IN     45 280 60 00:   CALIPER FROM DENSITY LOG
 CORR.G/C3   45 356 01 00:   DENSITY CORRECTION
 GRD .GAPI   45 310 01 00:   GAMMA RAY FROM DENSITY LOG
 RHOB.G/C3   45 350 01 00:   BULK DENSITY
 SPR .MV     05 010 01 00:   SPONTANEOUS POTENTIAL
 ILD .OHMM   05 120 46 00:   DEEP INDUCTION RESISTIVITY
 SN  .OHMM   05 040 00 00:   SHORT NORMAL
~PARAMETER INFORMATION
#MNEM.UNIT          VALUE    DESCRIPTION
#----------   ------------   ------------------------------
 EKB .F         5007.0000:   Kelly bushing
 EGL .F         4997.0000:   Ground level
 EDF .F            0.0000:   Drilling floor
 EPD .F            0.0000:   Permanent datum
 TD  .F         2832.0000:   Total depth
 DATE.        01-AUG-1978:   Date logged
 CLNT.            A2DTECH:   Client Code
 SL  . 940' FSL & 200' FEL:   Surface Location
 PD  .                 GL:   Permanent Datum
 DD  .F              2825:   Depth driller
 DL  .F              2832:   Depth logger
 BLI .F              2826:   Bottom log interval
 CS1 .IN            8.625:   Casing size
 CBD1.      8.625" @ 140':   Casing driller 1
 CBL1.F               240:   Casing logger 1
 BS1 .IN            7.875:   Bit size
 DFT .            KCL/GEL:   Type fluid in hole
 DFD .                  9:   Density
 DFV .                 34:   Viscosity
 DFL .                  8:   Fluid loss
 MSS .           FLOWLINE:   Source of sample
 RMS .OHMM            1.5:   Rm
 MST .F                70:   Rm Meas. temp.
 RMF .OHMM            .70:   Rmf
 MFST.F                72:   Rmf Meas. temp.
 RMC .OHMM            2.2:   Rmc
 MCST.F                75:   Rmc Meas. temp.
 MFSS.               MEAS:   Source Rmf.
 TCS .HRS               6:   Time Circ. stopped
 LUN .               3007:   Logging unit number
 LUL .               CASP:   Logging unit location
 ENGI.            POINTER:   Recorded By
 WITN.              AMEND:   Witnessed by
 ORIG.           5" PRINT:   Origin of data
 UWI .     49025106780000:   Unique Well ID
 DICO. A2D TECHNOLOGIES, INC.:   Digitizing Company
 DAPD.                 10:   Feet Above Permanent Datum
 BSD1.F              2825:   Depth drilled with bit1
 LMF .                 KB:   Log Measured From
 DMF .                 KB:   Drilling Measured From
 TLI .F               140:   Top log interval
~OTHER INFORMATION
~A   DEPT     CALD       CORR         GRD      RHOB        SPR        ILD         SN   
# ...
  141.0000     8.6960  -999.2500    65.5680  -999.2500  -999.2500  -999.2500  -999.2500
  141.5000     8.7010  -999.2500    65.3560  -999.2500  -999.2500  -999.2500  -999.2500
  142.0000     8.7070  -999.2500    65.1430  -999.2500  -999.2500  -999.2500  -999.2500
  142.5000     8.7130  -999.2500    64.9310  -999.2500  -999.2500  -999.2500  -999.2500
  143.0000     8.7170  -999.2500    64.7160  -999.2500  -999.2500  -999.2500  -999.2500
  143.5000     8.7160  -999.2500    64.4940  -999.2500  -999.2500  -999.2500  -999.2500
  144.0000     8.7150  -999.2500    64.5600  -999.2500  -999.2500  -999.2500  -999.2500
  144.5000     8.7130  -999.2500    65.4620  -999.2500  -999.2500  -999.2500  -999.2500
  145.0000     8.7120  -999.2500    66.4530  -999.2500  -999.2500  -999.2500  -999.2500
  145.5000     8.7110  -999.2500    69.4110  -999.2500  -999.2500  -999.2500  -999.2500
  146.0000     8.7090  -999.2500    72.0770  -999.2500  -999.2500  -999.2500  -999.2500
  146.5000     8.7080  -999.2500    72.2480  -999.2500  -999.2500  -999.2500  -999.2500
  147.0000     8.7070  -999.2500    72.5080  -999.2500  -999.2500  -999.2500  -999.2500
  147.5000     8.7050  -999.2500    73.2660  -999.2500  -999.2500  -999.2500  -999.2500
  148.0000     8.7040  -999.2500    72.1480  -999.2500  -999.2500  -999.2500  -999.2500
  148.5000     8.7030  -999.2500    68.4860  -999.2500  -999.2500  -999.2500  -999.2500
  149.0000     8.7010  -999.2500    68.1730  -999.2500  -999.2500  -999.2500  -999.2500
  149.5000     8.7000  -999.2500    68.8190  -999.2500  -999.2500  -999.2500  -999.2500
  150.0000     8.6990    -0.3810    69.4320     2.0320  -999.2500  -999.2500  -999.2500
  150.5000     8.6980    -0.3810    69.8690     2.0300  -999.2500  -999.2500  -999.2500
  151.0000     8.6990    -0.3810    70.2760     2.0310  -999.2500  -999.2500  -999.2500
  151.5000     8.7000    -0.3810    70.7070     2.0360  -999.2500  -999.2500  -999.2500
  152.0000     8.7020    -0.3760    70.1300     2.0280  -999.2500  -999.2500  -999.2500
  152.5000     8.7030    -0.3730    67.3260     2.0240  -999.2500  -999.2500  -999.2500
  153.0000     8.7040    -0.3780    66.3730     2.0440  -999.2500  -999.2500  -999.2500
  153.5000     8.7050    -0.3820    65.4110     2.0520  -999.2500  -999.2500  -999.2500
  154.0000     8.7060    -0.3750    64.4130     2.0420  -999.2500  -999.2500  -999.2500
  154.5000     8.7070    -0.3690    63.8090     2.0350  -999.2500  -999.2500  -999.2500
  155.0000     8.7090    -0.3720    66.8480     2.0640  -999.2500  -999.2500  -999.2500
  155.5000     8.7100    -0.3740    70.7820     2.0720  -999.2500  -999.2500  -999.2500
  156.0000     8.7110    -0.3690    71.6270     2.0710  -999.2500  -999.2500  -999.2500
  156.5000     8.7120    -0.3600    72.4010     2.0690  -999.2500  -999.2500  -999.2500
  157.0000     8.7130    -0.3500    72.5240     2.0680  -999.2500  -999.2500  -999.2500
  157.5000     8.7150    -0.3400    72.0890     2.0690  -999.2500  -999.2500  -999.2500
  158.0000     8.7160    -0.3470    70.7760     2.1040  -999.2500  -999.2500  -999.2500
  158.5000     8.7170    -0.3570    67.4180     2.1070  -999.2500  -999.2500  -999.2500
  159.0000     8.7180    -0.3590    65.2820     2.1030  -999.2500  -999.2500  -999.2500
  159.5000     8.7190    -0.3600    65.1080     2.1020  -999.2500  -999.2500  -999.2500
  160.0000     8.7200    -0.3620    65.3980     2.0850  -999.2500  -999.2500  -999.2500
  160.5000     8.7220    -0.3640    65.8450     2.0810  -999.2500  -999.2500  -999.2500
  161.0000     8.7230    -0.3580    65.4310     2.0920  -999.2500  -999.2500  -999.2500
  161.5000     8.7240    -0.3490    64.9830     2.0810  -999.2500  -999.2500  -999.2500
  162.0000     8.7250    -0.3420    61.8570     2.1150  -999.2500  -999.2500  -999.2500
  162.5000     8.7260    -0.3500    61.3020     2.1260  -999.2500  -999.2500  -999.2500
  163.0000     8.7280    -0.3570    61.6840     2.1230  -999.2500  -999.2500  -999.2500
  163.5000     8.7290    -0.3640    63.2900     2.1180  -999.2500  -999.2500  -999.2500
  164.0000     8.7300    -0.3640    65.8540     2.1070  -999.2500  -999.2500  -999.2500
  164.5000     8.7310    -0.3560    72.4670     2.1070  -999.2500  -999.2500  -999.2500
  165.0000     8.7320    -0.3590    74.3820     2.1070  -999.2500  -999.2500  -999.2500
  165.5000     8.7340    -0.3480    75.4790     2.1080  -999.2500  -999.2500  -999.2500
  166.0000     8.7350    -0.3400    75.2290     2.1150  -999.2500  -999.2500  -999.2500
  166.5000     8.7360    -0.3500    74.2860     2.1360  -999.2500  -999.2500  -999.2500
  167.0000     8.7370    -0.3560    76.2230     2.1400  -999.2500  -999.2500  -999.2500
  167.5000     8.7460    -0.3610    80.3070     2.1310  -999.2500  -999.2500  -999.2500
  168.0000     8.7550    -0.3740    81.2330     2.1200  -999.2500  -999.2500  -999.2500
  168.5000     8.7650    -0.3750    81.2800     2.1180  -999.2500  -999.2500  -999.2500
  169.0000     8.7750    -0.3720    80.4290     2.1070  -999.2500  -999.2500  -999.2500
  169.5000     8.7610    -0.3690    78.0680     2.0990  -999.2500  -999.2500  -999.2500
  170.0000     8.7410    -0.3630    72.9370     2.1060  -999.2500  -999.2500  -999.2500
  170.5000     8.7200    -0.3580    70.0630     2.1060  -999.2500  -999.2500  -999.2500
  171.0000     8.7370    -0.3540    69.1510     2.1200  -999.2500  -999.2500  -999.2500
  171.5000     8.7600    -0.3530    68.2800     2.1370  -999.2500  -999.2500  -999.2500
  172.0000     8.7680    -0.3570    67.9760     2.1510  -999.2500  -999.2500  -999.2500
  172.5000     8.7370    -0.3610    69.6700     2.1490  -999.2500  -999.2500  -999.2500
  173.0000     8.7400    -0.3620    73.2160     2.1450  -999.2500  -999.2500  -999.2500
  173.5000     8.7410    -0.3590    76.8520     2.1340  -999.2500  -999.2500  -999.2500
  174.0000     8.7430    -0.3600    78.5700     2.1310  -999.2500  -999.2500  -999.2500
  174.5000     8.7450    -0.3610    72.5910     2.1360  -999.2500  -999.2500  -999.2500
  175.0000     8.7470    -0.3610    71.0280     2.1350  -999.2500  -999.2500  -999.2500
  175.5000     8.7480    -0.3600    70.4020     2.1360  -999.2500  -999.2500  -999.2500
  176.0000     8.7500    -0.3550    71.5580     2.1430  -999.2500  -999.2500  -999.2500
  176.5000     8.7520    -0.3400    73.1640     2.1480  -999.2500  -999.2500  -999.2500
  177.0000     8.7540    -0.2910    73.2710     2.1780  -999.2500  -999.2500  -999.2500
  177.5000     8.7550    -0.3400    79.0370     2.2360  -999.2500  -999.2500  -999.2500
  178.0000     8.7590    -0.4620    81.9670     2.3800  -999.2500  -999.2500  -999.2500
  178.5000     8.7790    -0.5320    83.0040     2.2650  -999.2500  -999.2500  -999.2500
  179.0000     8.7960    -0.4590    69.8880     2.1660  -999.2500  -999.2500  -999.2500
  179.5000     8.7920    -0.3620    70.4040     2.0660  -999.2500  -999.2500  -999.2500
  180.0000     8.7880    -0.3010    69.2850     2.0100  -999.2500  -999.2500  -999.2500
  180.5000     8.7840    -0.2970    69.7970     2.1570  -999.2500  -999.2500  -999.2500
  181.0000     8.7810    -0.2940    68.4660     2.1600  -999.2500  -999.2500  -999.2500
  181.5000     8.7770    -0.2940    66.0140     2.1690  -999.2500  -999.2500  -999.2500
  182.0000     8.7730    -0.2940    65.8940     2.1690  -999.2500  -999.2500  -999.2500
  182.5000     8.7690    -0.2970    66.1610     2.1700  -999.2500  -999.2500  -999.2500
  183.0000     8.7650    -0.3010    65.8860     2.1700  -999.2500  -999.2500  -999.2500
  183.5000     8.7620    -0.3050    65.6190     2.1680  -999.2500  -999.2500  -999.2500
  184.0000     8.7580    -0.3090    64.9680     2.1640  -999.2500  -999.2500  -999.2500
  184.5000     8.7540    -0.3130    64.3200     2.1640  -999.2500  -999.2500  -999.2500
  185.0000     8.7500    -0.3170    64.6370     2.1420  -999.2500  -999.2500  -999.2500
  185.5000     8.7460    -0.3110    64.0020     2.1150  -999.2500  -999.2500  -999.2500
  186.0000     8.7420    -0.3040    63.7830     2.1070  -999.2500  -999.2500  -999.2500
