~VERSION INFORMATION
 VERS.                2.0:   CWLS LOG ASCII STANDARD - VERSION 2.0
 WRAP.                 NO:   ONE LINE PER DEPTH STEP
~WELL INFORMATION
#MNEM.UNIT      DATA TYPE    INFORMATION
#----------   ------------   ------------------------------
 STRT.F          176.0000:   START DEPTH
 STOP.F         3380.0000:   STOP DEPTH
 STEP.F            0.5000:   STEP LENGTH
 NULL.          -999.2500:   NO VALUE
 COMP.    PENIX & SCISSON:   COMPANY
 WELL.  FENIX "AX" #85-15:   WELL
 FLD .             NPR #3:   FIELD
 LOC .      S15 T38N R78W:   LOCATION
 CNTY.            NATRONA:   COUNTY
 STAT.            WYOMING:   STATE
 CTRY. UNITED STATES OF AMERICA:   COUNTRY
 SRVC.       SCHLUMBERGER:   SERVICE COMPANY
 DATE.        28-APR-1981:   LOGDATE
 API .     49025108700000:   API NUMBER
~CURVE INFORMATION
#MNEM.UNIT       API CODE    CURVE DESCRIPTION
#----------   ------------   ------------------------------
 DEPT.F                  :   
 TEND.LBS    45 635 01 00:   TENSION FROM DENSITY LOG
 CALD.IN     45 280 60 00:   CALIPER FROM DENSITY LOG
 CORR.G/C3   45 356 01 00:   DENSITY CORRECTION
 GRD .GAPI   45 310 01 00:   GAMMA RAY FROM DENSITY LOG
 RHOB.G/C3   45 350 01 00:   BULK DENSITY
 SFL .OHMM   07 220 01 00:   SHALLOW FOCUSED LOG RESISTIVITY
 ILD .OHMM   07 120 46 00:   INDUCTIONLOG DEEP RESISTIVITY
 ILM .OHMM   07 120 44 00:   INDUCTION LOG MEDIUM RESISTIVITY
 TENR.LBS    07 635 01 00:   TENSION FROM RESISTIVITY
 SPR .MV     07 010 01 00:   SPONTANEOUS POTENTIAL
~PARAMETER INFORMATION
#MNEM.UNIT          VALUE    DESCRIPTION
#----------   ------------   ------------------------------
 EKB .F         5259.0000:   Kelly bushing
 EGL .F         5249.0000:   Ground level
 EDF .F            0.0000:   Drilling floor
 TD  .F         3333.0000:   Total depth
 DATE.        28-APR-1981:   Date logged
 CLNT.            A2DTECH:   Client Code
 SL  . 1927' FSL & 140' FEL:   Surface Location
 PD  .                 GL:   Permanent Datum
 DD  .F              3333:   Depth driller
 DL  .F              3382:   Depth logger
 BLI .F              3376:   Bottom log interval
 TLI .F               182:   Top log interval
 CS1 .IN            8.625:   Casing size
 CBD1.      8.625" @ 181':   Casing driller 1
 CBL1.F               182:   Casing logger 1
 BS1 .IN            7.875:   Bit size
 BSD1.F              3333:   Depth drilled with bit1
 DFT .                GEL:   Type fluid in hole
 DFD .                8.7:   Density
 DFV .                 35:   Viscosity
 DFPH.                9.5:   pH
 DFL .                  7:   Fluid loss
 MSS .               TANK:   Source of sample
 RMS .OHMM           1.79:   Rm
 MST .F                58:   Rm Meas. temp.
 RMF .OHMM           1.43:   Rmf
 MFST.F                58:   Rmf Meas. temp.
 MFSS.               MEAS:   Source Rmf.
 RMB .OHMM            .93:   Rm. at BHT
 BHT .F               112:   BHT.
 TCS .HRS             800:   Time Circ. stopped
 TLAB.HRS             200:   Time logger at bottom
 MRT .F               112:   Maximum recorded temp.
 LUN .               8039:   Logging unit number
 LUL .               CAPR:   Logging unit location
 ENGI.           HARRINER:   Recorded By
 WITN.              SCOTT:   Witnessed by
 ORIG.           5" PRINT:   Origin of data
 UWI .     49025108700000:   Unique Well ID
 DICO. A2D TECHNOLOGIES, INC.:   Digitizing Company
 EPD .               5249:   Elevation Permanent Datum
 LMF .                 KB:   Log Measured From
 DMF .                 KB:   Drilling Measured From
 DAPD.                 10:   Feet Above Permanent Datum
~OTHER INFORMATION
~A   DEPT     TEND       CALD       CORR         GRD      RHOB        SFL        ILD        ILM       TENR        SPR   
# ...
 1214.5000  1009.9010     9.3790     0.0130   109.1060     2.5130     8.9630     8.2410     7.2660  1041.2570   -45.0730
 1215.0000  1009.9010     9.3800     0.0150   109.0440     2.5120     8.9970     8.2040     7.2550  1041.2570   -45.1490
 1215.5000  1009.9010     9.3810     0.0170   107.3140     2.5160     9.0210     8.1290     7.1830  1041.2570   -45.3130
 1216.0000  1009.9010     9.3820     0.0190   107.7210     2.5220     9.0210     8.0530     7.1160  1041.2570   -45.4680
 1216.5000  1009.9010     9.3830     0.0190   110.0430     2.5290     9.0210     7.9780     7.0500  1041.2570   -45.6250
 1217.0000  1009.9010     9.3850     0.0210   112.0320     2.5310     8.9010     7.9030     6.9820  1041.2570   -45.7820
 1217.5000  1009.9010     9.3860     0.0250   112.4220     2.5260     8.7620     7.8270     6.9140  1041.2570   -45.9380
 1218.0000  1009.9010     9.3870     0.0330   111.7780     2.5320     8.6230     7.7520     6.8770  1041.2570   -46.0960
 1218.5000  1009.9010     9.3880     0.0410   110.9380     2.5410     8.4840     7.6650     6.8770  1041.2570   -46.2500
 1219.0000  1009.9010     9.3890     0.0450   111.3290     2.5450     8.3450     7.6650     6.8770  1041.2570   -46.4090
 1219.5000  1009.9010     9.3900     0.0400   110.9630     2.5420     8.2410     7.7180     6.8770  1041.2570   -46.5720
 1220.0000  1009.9010     9.3910     0.0360   109.9390     2.5460     8.3910     7.8000     6.8950  1041.2570   -46.6470
 1220.5000  1009.9010     9.3920     0.0350   109.0960     2.5480     8.4280     7.8820     6.9370  1041.2570   -46.4330
 1221.0000  1009.9010     9.3910     0.0370   109.5600     2.5530     8.5820     7.9640     6.9790  1041.2570   -46.2350
 1221.5000  1009.9010     9.3890     0.0320   110.6900     2.5480     8.7000     8.0460     7.0210  1041.2570   -46.0260
 1222.0000  1009.9010     9.3880     0.0260   111.9290     2.5360     8.7000     8.0930     7.0630  1041.2570   -45.8190
 1222.5000  1009.9010     9.3870     0.0200   111.2070     2.5260     8.8590     8.0930     7.1300  1041.2570   -45.6140
 1223.0000  1009.9010     9.3850     0.0150   110.1620     2.5170     9.0210     8.0540     7.0940  1041.2570   -45.4100
 1223.5000  1009.9010     9.3840     0.0160   110.1710     2.5150     8.7740     8.0060     7.0090  1041.2570   -45.1890
 1224.0000  1009.9010     9.3830     0.0170   111.5140     2.5110     8.5310     7.9580     6.9240  1041.2570   -45.0690
 1224.5000  1009.9010     9.3810     0.0160   112.8230     2.5050     8.2880     7.9110     6.8390  1041.2570   -45.0820
 1225.0000  1009.9010     9.3800     0.0140   112.6210     2.5070     7.9480     7.8630     6.7530  1041.2570   -45.0790
 1225.5000  1009.9010     9.3790     0.0170   111.4270     2.5140     8.0710     7.8050     6.6320  1041.2570   -45.0790
 1226.0000  1009.9010     9.3770     0.0210   109.5310     2.5200     8.2760     7.8050     6.6320  1041.2570   -45.0760
 1226.5000  1009.9010     9.3760     0.0250   106.9250     2.5300     8.4820     7.6640     6.6320  1041.2570   -45.0860
 1227.0000  1009.9010     9.3750     0.0300   104.1040     2.5380     8.6870     7.6630     6.6320  1041.2570   -45.0710
 1227.5000  1009.9010     9.3730     0.0250   103.3670     2.5330     9.0210     7.6680     6.7320  1041.2570   -45.0760
 1228.0000  1009.9010     9.3720     0.0100   106.3440     2.5240     8.9160     7.8090     6.8330  1041.2570   -45.1570
 1228.5000  1009.9010     9.3710     0.0050   108.9340     2.5230     8.6390     7.8010     6.8770  1041.2570   -45.5110
 1229.0000  1009.9010     9.3690     0.0200   111.3400     2.5360     8.3610     7.8020     6.8770  1041.2570   -45.4550
 1229.5000  1009.9010     9.3680     0.0290   110.9870     2.5480     8.2410     7.8030     6.8770  1041.2570   -45.4890
 1230.0000  1009.9010     9.3670     0.0290   111.5900     2.5430     8.2410     7.8050     6.8770  1041.2570   -45.5990
 1230.5000  1009.9010     9.3660     0.0250   113.2330     2.5360     8.7070     7.8050     6.8770  1041.2570   -45.7070
 1231.0000  1009.9010     9.3640     0.0160   115.0360     2.5230     9.1860     7.8060     6.8460  1041.2570   -45.8190
 1231.5000  1009.9010     9.3630     0.0080   114.9690     2.5080     9.0360     7.7910     6.7590  1041.2570   -45.8420
 1232.0000  1009.9010     9.3620     0.0000   113.6000     2.5080     8.7640     7.7610     6.6720  1041.2570   -45.4790
 1232.5000  1009.9010     9.3600    -0.0030   112.8390     2.5070     8.4920     7.7320     6.6320  1041.2570   -45.1710
 1233.0000  1009.9010     9.3590     0.0000   114.3760     2.5070     8.2200     7.7030     6.6320  1041.2570   -44.8390
 1233.5000  1009.9010     9.3580     0.0020   115.3000     2.5070     8.0930     7.6740     6.6250  1041.2570   -44.4840
 1234.0000  1009.9010     9.3560     0.0000   113.1210     2.5060     8.0930     7.6450     6.6130  1041.2570   -44.3180
 1234.5000  1009.9010     9.3550    -0.0010   110.9950     2.5090     8.0930     7.6160     6.6010  1041.2570   -44.4840
 1235.0000  1009.9010     9.3540    -0.0020   110.2150     2.5040     8.1010     7.5870     6.5890  1041.2570   -44.6210
 1235.5000  1009.9010     9.3530    -0.0030   110.1700     2.5000     8.1280     7.5600     6.5760  1041.2570   -44.6920
 1236.0000  1009.9010     9.3530     0.0010   109.9240     2.5050     8.1540     7.5250     6.5640  1041.2570   -44.6540
 1236.5000  1009.9010     9.3530     0.0070   109.8510     2.5210     8.1800     7.5300     6.5520  1041.2570   -44.5560
 1237.0000  1009.9010     9.3530     0.0140   108.7860     2.5230     8.2060     7.5840     6.5390  1041.2570   -44.4570
 1237.5000  1009.9010     9.3530     0.0170   106.7260     2.5280     8.2330     7.6340     6.5270  1041.2570   -44.3590
 1238.0000  1009.9010     9.3530     0.0190   107.2760     2.5340     8.3910     7.6650     6.5110  1041.2570   -44.2790
 1238.5000  1009.9010     9.3530     0.0220   109.6550     2.5450     8.3000     7.6650     6.5160  1041.2570   -44.2890
 1239.0000  1009.9010     9.3530     0.0300   111.9790     2.5580     8.1160     7.6410     6.4800  1041.2570   -44.3700
 1239.5000  1009.9010     9.3530     0.0410   113.0080     2.5670     7.9480     7.5570     6.4250  1041.2570   -44.7380
 1240.0000  1009.9010     9.3540     0.0350   111.8110     2.5530     8.0930     7.4730     6.3720  1041.2570   -44.8580
 1240.5000  1009.9010     9.3550     0.0140   110.7750     2.5240     8.0930     7.3890     6.3200  1041.2570   -45.0480
 1241.0000  1009.9010     9.3560     0.0030   110.3150     2.5200     7.8250     7.3050     6.2820  1041.2570   -45.2210
 1241.5000  1009.9010     9.3580     0.0040   110.9330     2.5220     7.5760     7.2600     6.2820  1041.2570   -45.3870
 1242.0000  1009.9010     9.3590     0.0030   111.3760     2.5270     7.4190     7.2600     6.1690  1041.2570   -45.5680
 1242.5000  1009.9010     9.3600     0.0100   110.2620     2.5320     7.5150     7.2600     6.1690  1041.2570   -45.7360
 1243.0000  1009.9010     9.3610     0.0190   109.6640     2.5400     7.6650     7.2160     6.1690  1041.2570   -45.8550
 1243.5000  1009.9010     9.3620     0.0270   109.7430     2.5490     7.6190     7.1750     6.1640  1041.2570   -45.5860
 1244.0000  1009.9010     9.3630     0.0350   110.4740     2.5570     7.5190     7.1330     6.1570  1041.2570   -45.2610
 1244.5000  1009.9010     9.3650     0.0340   113.9780     2.5540     7.4180     7.0920     6.1490  1041.2570   -44.9320
 1245.0000  1009.9010     9.3660     0.0280   117.5830     2.5480     7.3170     7.0500     6.1400  1041.2570   -44.6060
 1245.5000  1009.9010     9.3670     0.0230   121.6260     2.5380     7.2600     7.0090     6.1320  1041.2570   -44.2790
 1246.0000  1009.9010     9.3680     0.0180   124.0750     2.5340     7.3460     6.9670     6.1240  1041.2570   -43.9590
 1246.5000  1013.5040     9.3690     0.0170   123.2520     2.5370     7.3930     6.9260     6.1150  1041.2570   -43.6120
 1247.0000  1017.3910     9.3700     0.0200   122.2270     2.5400     7.3930     6.8770     6.1070  1041.2570   -43.3230
 1247.5000  1021.2790     9.3720     0.0280   121.3060     2.5450     7.3930     6.8770     6.0990  1041.2570   -42.7750
