~VERSION INFORMATION
 VERS.                2.0:   CWLS LOG ASCII STANDARD - VERSION 2.0
 WRAP.                 NO:   ONE LINE PER DEPTH STEP
~WELL INFORMATION
#MNEM.UNIT      DATA TYPE    INFORMATION
#----------   ------------   ------------------------------
 STRT.F            0.0000:   START DEPTH
 STOP.F         3358.0000:   STOP DEPTH
 STEP.F            0.5000:   STEP LENGTH
 NULL.          -999.2500:   NO VALUE
 COMP. LAWRENCE ALLISON & ASSOC.:   COMPANY
 WELL. LAWRENCE NPR 3 "X" #14-11:   WELL
 FLD .                NPR:   FIELD
 LOC .      S11 T38N R78W:   LOCATION
 CNTY.            NATRONA:   COUNTY
 STAT.            WYOMING:   STATE
 CTRY. UNITED STATES OF AMERICA:   COUNTRY
 SRVC.      DRESSER ATLAS:   SERVICE COMPANY
 DATE.        25-SEP-1985:   LOGDATE
 API .     49025110470000:   API NUMBER
~CURVE INFORMATION
#MNEM.UNIT       API CODE    CURVE DESCRIPTION
#----------   ------------   ------------------------------
 DEPT.F                  :   
 TENR.LBS    07 635 01 00:   TENSION
 SPR .MV     07 010 01 00:   SPONTANEOUS POTENTIAL
 SFL .OHMM   07 220 01 00:   SHALLOW FOCUSED LOG RESISTIVITY
 ILD .OHMM   07 120 46 00:   DEEP INDUCTION RESISTIVITY
 ILM .OHMM   07 120 44 00:   INDUCTION LOG MEDIUM RESISTIVITY
 TENS.LBS    60 635 01 00:   TENSION FROM SONIC LOG
 DT  .US/F   60 520 00 00:   DELTA TIME
 TEND.LBS    45 635 01 00:   TENSION FROM DENSITY LOG
 RHOB.G/C3   45 350 01 00:   BULK DENSITY
 CORR.G/C3   45 356 01 00:   DENSITY CORRECTION
 NPHI.DEC    42 890 01 00:   NEUTRON POROSITY LIMESTONE
 GRR .GAPI   07 310 01 00:   GAMMA RAY FROM RESISTIVITY
~PARAMETER INFORMATION
#MNEM.UNIT          VALUE    DESCRIPTION
#----------   ------------   ------------------------------
 EKB .F         5184.0000:   Kelly bushing
 EGL .F         5173.0000:   Ground level
 EDF .F            0.0000:   Drilling floor
 TD  .F         3353.0000:   Total depth
 DATE.        25-SEP-1985:   Date logged
 CLNT.            A2DTECH:   Client Code
 SL  . 473' FWL & 2360' FNL:   Surface Location
 PD  .                 GL:   Permanent Datum
 EPD .F              5173:   Elevation Permanent Datum
 LMF .                 KB:   Log Measured From
 DMF .                 KB:   Drilling Measured From
 DAPD.F                11:   Feet Above Permanent Datum
 DD  .F              3353:   Depth driller
 DL  .F              3346:   Depth logger
 BLI .F              3344:   Bottom log interval
 CS1 .IN            8.625:   Casing size
 CBD1.      8.625" @ 586':   Casing driller 1
 CBL1.F               585:   Casing logger 1
 BS1 .IN            7.875:   Bit size
 BSD1.F              3353:   Depth drilled with bit1
 DFT .     GEL/KCL/STAFLO:   Type fluid in hole
 DFD .                8.9:   Density
 DFV .                 39:   Viscosity
 DFPH.                  8:   pH
 DFL .                8.9:   Fluid loss
 MSS .           FLOWLINE:   Source of sample
 RMS .OHMM            .45:   Rm
 MST .F                80:   Rm Meas. temp.
 RMF .OHMM            .33:   Rmf
 MFST.F                80:   Rmf Meas. temp.
 RMC .OHMM            .56:   Rmc
 MCST.F                80:   Rmc Meas. temp.
 MFSS.               CALC:   Source Rmf.
 MCSS.               CALC:   Source Rmc.
 RMB .OHMM            .27:   Rm. at BHT
 BHT .F               130:   BHT.
 TCS .HRS               3:   Time Circ. stopped
 MRT .F               135:   Maximum recorded temp.
 LUN .               6274:   Logging unit number
 LUL .               GLTE:   Logging unit location
 ENGI.               MACK:   Recorded By
 WITN.             STRONG:   Witnessed by
 ORIG.           5" PRINT:   Origin of data
 UWI .     49025110470000:   Unique Well ID
 DICO. A2D TECHNOLOGIES, INC.:   Digitizing Company
~OTHER INFORMATION
~A    DEPT    TENR        SPR        SFL        ILD        ILM       TENS         DT       TEND       RHOB       CORR       NPHI         GRR  
# ...
 2968.0000   -68.7690   -56.9550     5.7900     5.0290     5.0380   -75.5230    79.9040   -28.5840     2.5460     0.0230     0.2520    54.5140
 2968.5000   -67.7960   -56.9440     5.3070     4.8190     4.8210   -75.5230    80.8280   -28.1460     2.5390     0.0320     0.2650    54.8950
 2969.0000   -66.8230   -56.9390     5.0650     4.6020     4.6220   -75.5230    80.8280   -27.7080     2.5330     0.0250     0.2780    55.4600
 2969.5000   -65.8510   -56.9400     5.1030     4.1830     4.0570   -75.5230    80.8280   -27.2690     2.5270     0.0150     0.2910    55.7570
 2970.0000   -64.8780   -56.9490     5.1360     3.6800     3.5440   -75.5230    81.4260   -26.8310     2.5200     0.0060     0.3130    59.3670
 2970.5000   -63.9050   -56.9230     5.1590     3.1760     3.0320   -75.5230    82.7220   -26.3920     2.4730     0.0010     0.2970    67.0660
 2971.0000   -62.9320   -56.9930     4.5700     2.6730     2.1820   -75.5230    84.9650   -25.9540     2.4160     0.0140     0.2980    75.3680
 2971.5000   -61.9590   -56.4350     3.9350     2.1420     2.2030   -75.5230    94.7980   -27.8530     2.3440     0.0820     0.2980    84.1290
 2972.0000   -61.1330   -55.2450     3.3000     2.0510     2.2650   -75.5230   104.6440   -30.1050     2.2140     0.1490     0.2980    91.3260
 2972.5000   -62.9930   -54.2290     2.6650     1.9910     2.4740   -75.5230   111.6850   -32.3570     2.2450     0.1730     0.2760    85.2290
 2973.0000   -64.6090   -52.9720     2.0310     2.1550     2.9460   -75.5230   109.7660   -34.6090     2.2920     0.0600     0.2410    73.8880
 2973.5000   -66.2250   -53.1390     2.8640     2.4470     3.4180   -75.5230   103.8580   -36.8620     2.3870    -0.0210     0.2170    63.3120
 2974.0000   -67.8410   -54.3850     4.1350     2.7390     3.8900   -75.5230    90.9970   -39.1140     2.4780    -0.0170     0.2090    52.5360
 2974.5000   -69.4570   -55.6070     5.4070     3.0340     4.3620   -75.5230    78.1360   -41.3660     2.5360    -0.0070     0.2130    47.8590
 2975.0000   -71.0740   -55.8880     6.4270     3.6360     4.8340   -75.5230    75.2440   -43.6180     2.5300    -0.0030     0.2190    46.3780
 2975.5000   -72.6900   -56.2370     6.4270     4.4590     5.3060   -75.5230    75.3220   -45.8710     2.5260    -0.0170     0.2250    45.5670
 2976.0000   -74.3060   -56.5000     6.4270     5.2810     5.8640   -75.5230    75.8760   -48.1230     2.5240    -0.0050     0.2310    46.0120
 2976.5000   -75.9220   -56.2840     6.4270     5.7580     5.8640   -75.5230    76.0420   -50.3750     2.5230     0.0390     0.2330    46.4320
 2977.0000   -77.5380   -56.0590     6.3100     5.7580     5.8640   -75.5230    76.7360   -52.6270     2.5290     0.0860     0.2320    46.7060
 2977.5000   -79.1540   -55.7380     6.2160     5.7580     5.8640   -75.5230    77.3680   -54.8800     2.5260     0.1140     0.2300    46.3640
 2978.0000   -81.0140   -56.0950     5.9990     5.6540     5.6930   -75.5230    77.9360   -57.1320     2.5090     0.1370     0.2280    45.8130
 2978.5000   -81.0140   -56.5710     5.7820     5.4920     5.5280   -75.5230    78.7890   -59.3840     2.5160     0.1550     0.2260    46.4470
 2979.0000   -81.0140   -56.9240     5.4500     5.3300     5.3630   -75.5230    79.4710   -61.6360     2.5250     0.0870     0.2260    47.5220
 2979.5000   -81.0140   -57.3170     5.5510     5.1680     5.1990   -75.5230    79.9350   -63.8890     2.5260     0.0100     0.2260    48.7440
 2980.0000   -81.0140   -57.2260     5.4500     5.0070     5.0340   -75.5230    80.3990   -66.1410     2.5310     0.0210     0.2360    50.5080
 2980.5000   -81.0140   -56.9660     5.2990     4.8450     4.8830   -75.5230    80.8640   -68.3930     2.5320     0.0370     0.2470    51.7590
 2981.0000   -81.0140   -56.9500     5.1910     4.7080     4.7140   -75.5230    81.3280   -70.6450     2.5210     0.0300     0.2570    53.0340
 2981.5000   -81.0140   -57.2660     5.0830     4.3810     4.4380   -75.5230    81.7920   -72.8980     2.5110     0.0310     0.2680    54.3030
 2982.0000   -81.0140   -57.7250     4.9750     4.0160     4.1630   -75.5230    82.1240   -75.1500     2.5090     0.0310     0.2780    55.7410
 2982.5000   -81.0140   -58.1730     4.8660     3.6510     3.9200   -74.9430    82.9310   -75.4770     2.5010     0.0160     0.2890    59.0280
 2983.0000   -81.0140   -58.5170     4.7580     3.2870     3.4190   -74.4160    83.9180   -75.0820     2.4870     0.0010     0.2990    62.7480
 2983.5000   -81.0140   -58.5310     4.4580     2.9220     2.9710   -73.8880    85.2640   -74.6870     2.4620    -0.0060     0.3180    67.0970
 2984.0000   -81.0140   -58.5210     3.9900     2.5580     2.5230   -73.3600    88.6790   -74.2920     2.4360    -0.0030     0.3600    75.1920
 2984.5000   -81.0140   -58.5550     3.5210     2.1930     2.1420   -72.8330    92.9160   -73.8970     2.3890     0.0330     0.3500    83.4380
 2985.0000   -81.0140   -58.2800     3.0520     2.0650     2.1030   -72.3050    97.1540   -73.5020     2.3640     0.0870     0.3400    91.6140
 2985.5000   -81.0140   -57.7910     2.5830     2.0930     2.1510   -71.7780   102.6620   -73.1070     2.3470     0.1320     0.3070    93.4580
 2986.0000   -81.0140   -57.3800     2.1030     2.1420     2.2010   -71.2500    99.9200   -72.7120     2.3890     0.0750     0.2890    85.4510
 2986.5000   -81.0140   -56.8610     2.1030     2.1820     2.2630   -70.7230    93.4610   -72.3170     2.4330    -0.0040     0.2620    68.8030
 2987.0000   -81.0140   -56.7650     3.1700     2.5660     3.2550   -70.1950    79.8310   -71.9220     2.4770    -0.0330     0.2390    58.6930
 2987.5000   -81.0140   -57.2800     4.5770     3.0900     3.8240   -69.6670    76.1420   -71.5270     2.5110    -0.0130     0.2350    55.3500
 2988.0000   -81.0140   -57.6640     5.9730     3.5310     4.3930   -69.1400    76.8390   -71.1320     2.5230     0.0070     0.2290    52.3410
 2988.5000   -81.0140   -58.0760     6.0360     4.0410     5.0650   -68.6120    78.7340   -70.7370     2.5210     0.0250     0.2260    53.3530
 2989.0000   -81.0140   -58.5850     6.0980     4.5510     5.2480   -68.0850    79.1010   -70.3420     2.5180     0.0230     0.2350    53.5240
 2989.5000   -81.0140   -58.9620     6.1600     5.0610     5.4720   -67.5570    79.5090   -69.9470     2.5150     0.0130     0.2440    54.4640
 2990.0000   -81.0140   -58.9120     6.1960     5.6540     5.6960   -67.0300    79.9100   -69.5520     2.5150     0.0050     0.2530    55.8550
 2990.5000   -81.0140   -58.9330     6.1370     5.6400     5.8510   -66.5020    80.3090   -69.1560     2.5180     0.0290     0.2600    57.0530
 2991.0000   -81.0140   -58.9250     6.0810     5.6180     5.7980   -65.9740    80.7080   -68.7610     2.5170     0.0110     0.2640    58.4490
 2991.5000   -81.0140   -58.9270     6.0250     5.5970     5.7450   -65.4470    81.1070   -68.3660     2.5150     0.0090     0.2670    58.9640
 2992.0000   -81.0140   -58.9290     5.9730     5.5750     5.6920   -64.9190    81.3260   -67.9710     2.5170     0.0150     0.2580    58.7870
 2992.5000   -81.0140   -58.9290     6.0690     5.5510     5.6540   -64.3920    81.4260   -67.5760     2.5200     0.0200     0.2500    57.7830
 2993.0000   -81.0140   -58.9270     6.2120     5.5930     5.7200   -63.8640    80.7680   -67.1810     2.5230     0.0250     0.2450    58.6700
 2993.5000   -81.0140   -58.9340     6.3550     5.6810     5.7960   -63.3370    80.0370   -66.7860     2.5190     0.0170     0.2460    59.7440
 2994.0000   -81.0140   -58.9180     6.4270     5.7690     5.8720   -62.8090    79.2320   -66.3910     2.5130     0.0080     0.2470    60.9150
 2994.5000   -81.0140   -59.0460     6.3460     5.8640     5.9480   -62.2820    79.9050   -65.9960     2.5070    -0.0020     0.2480    61.7720
 2995.0000   -81.0140   -59.2660     6.3100     5.8640     6.0240   -61.7540    80.6530   -65.6010     2.5010    -0.0110     0.2520    62.0730
 2995.5000   -81.0140   -59.4600     6.4770     5.7890     6.1000   -61.2260    80.8770   -65.2060     2.4940    -0.0190     0.2590    62.3970
