~VERSION INFORMATION
 VERS.                2.0:   CWLS LOG ASCII STANDARD - VERSION 2.0
 WRAP.                 NO:   ONE LINE PER DEPTH STEP
~WELL INFORMATION
#MNEM.UNIT      DATA TYPE    INFORMATION
#----------   ------------   ------------------------------
 STRT.F           76.0000:   START DEPTH
 STOP.F         4972.0000:   STOP DEPTH
 STEP.F            0.5000:   STEP LENGTH
 NULL.          -999.2500:   NO VALUE
 COMP.    PENIX & SCISSON:   COMPANY
 WELL. FENIX NPR 3 "LX" #85-9:   WELL
 FLD .                NPR:   FIELD
 LOC .       S9 T38N R78W:   LOCATION
 CNTY.            NATRONA:   COUNTY
 STAT.            WYOMING:   STATE
 CTRY. UNITED STATES OF AMERICA:   COUNTRY
 SRVC.       SCHLUMBERGER:   SERVICE COMPANY
 DATE.        10-OCT-1978:   LOGDATE
 API .     49025107250000:   API NUMBER
~CURVE INFORMATION
#MNEM.UNIT       API CODE    CURVE DESCRIPTION
#----------   ------------   ------------------------------
 DEPT.F                  :   
 TENR.LBS    07 635 01 00:   TENSION FROM RESISTIVITY
 SPR .MV     07 010 01 00:   SPONTANEOUS POTENTIAL
 SFL .OHMM   07 220 01 00:   SHALLOW FOCUSED LOG RESISTIVITY
 ILD .OHMM   07 120 46 00:   DEEP INDUCTION RESISTIVITY
 ILM .OHMM   07 120 44 00:   INDUCTION LOG MEDIUM RESISTIVITY
 CALD.IN     45 280 60 00:   CALIPER FROM DENSITY LOG
 GRD .GAPI   45 310 01 00:   GAMMA RAY FROM DENSITY LOG
 CORR.G/C3   45 356 01 00:   DENSITY CORRECTION
 TEND.LBS    45 635 01 00:   TENSION FROM DENSITY LOG
 RHOB.G/C3   45 350 01 00:   BULK DENSITY
 NPHI.DEC    42 890 03 00:   NEUTRON POROSITY SANDSTONE
~PARAMETER INFORMATION
#MNEM.UNIT          VALUE    DESCRIPTION
#----------   ------------   ------------------------------
 EKB .F         5288.0000:   Kelly bushing
 EGL .F         5278.0000:   Ground level
 EDF .F            0.0000:   Drilling floor
 TD  .F         4950.0000:   Total depth
 DATE.        10-OCT-1978:   Date logged
 CLNT.            A2DTECH:   Client Code
 SL  . 2310' FSL & 230' FEL:   Surface Location
 PD  .                 GL:   Permanent Datum
 EPD .F              5278:   Elevation Permanent Datum
 LMF .                 KB:   Log Measured From
 DMF .                 KB:   Drilling Measured From
 DAPD.F                10:   Feet Above Permanent Datum
 DD  .F              4950:   Depth driller
 DL  .F              4950:   Depth logger
 BLI .F              4947:   Bottom log interval
 TLI .F               499:   Top log interval
 CS1 .IN            8.625:   Casing size
 CBD1.      8.625" @ 489':   Casing driller 1
 CBL1.F               499:   Casing logger 1
 BS1 .IN            7.875:   Bit size
 BSD1.F              4950:   Depth drilled with bit1
 DFT .            GEL/MUD:   Type fluid in hole
 DFD .                9.3:   Density
 DFV .                175:   Viscosity
 DFPH.                 12:   pH
 DFL .                  4:   Fluid loss
 MSS .               TANK:   Source of sample
 RMS .OHMM           .600:   Rm
 MST .F                71:   Rm Meas. temp.
 RMF .OHMM           .804:   Rmf
 MFST.F                71:   Rmf Meas. temp.
 MFSS.               MEAS:   Source Rmf.
 RMB .OHMM           .308:   Rm. at BHT
 BHT .F               138:   BHT.
 TCS .HRS            1200:   Time Circ. stopped
 TLAB.HRS            0330:   Time logger at bottom
 MRT .F               138:   Maximum recorded temp.
 LUN .               8035:   Logging unit number
 LUL .               CSPR:   Logging unit location
 ENGI.        CRAIG/DFARR:   Recorded By
 WITN.              AMEND:   Witnessed by
 ORIG.           5" PRINT:   Origin of data
 UWI .     49025107250000:   Unique Well ID
 DICO. A2D TECHNOLOGIES, INC.:   Digitizing Company
~OTHER INFORMATION
~A   DEPT     TENR        SPR        SFL        ILD        ILM       CALD         GRD      CORR       TEND       RHOB         NPHI 
# ...
 2577.0000  1262.2780   -21.3960     9.9400     8.5030     8.1020     9.0760   134.8250     0.0280  1402.4390     2.5030     0.3130
 2577.5000  1262.5090   -21.3010    10.2220     8.5910     8.1910     9.0680   132.7450     0.0350  1402.4390     2.5110     0.3130
 2578.0000  1262.7410   -21.2120    10.4570     8.6790     8.2800     9.0610   134.2170     0.0420  1402.4390     2.5080     0.3130
 2578.5000  1262.9720   -20.9770    10.6920     8.7670     8.3690     9.0530   135.7620     0.0480  1402.4390     2.5000     0.3110
 2579.0000  1263.2040   -20.7790    10.9280     8.8550     8.4570     9.0460   135.9480     0.0490  1402.4390     2.4920     0.3090
 2579.5000  1263.4351   -20.5680    11.1630     8.9430     8.5460     9.0390   133.7440     0.0500  1402.4390     2.4840     0.3120
 2580.0000  1263.6670   -20.3620    11.5390     9.0320     8.6350     9.0310   135.6610     0.0460  1402.4390     2.4770     0.3150
 2580.5000  1263.8979   -20.1540    11.4680     9.1200     8.7240     9.0240   138.1160     0.0410  1402.4390     2.4820     0.3180
 2581.0000  1264.1300   -19.9500    11.2930     9.2260     8.7240     9.0160   140.7060     0.0370  1402.4390     2.4940     0.3160
 2581.5000  1264.3610   -19.7400    11.1170     9.2120     8.7240     9.0090   143.1400     0.0490  1402.4390     2.5150     0.3120
 2582.0000  1264.5930   -19.5310    11.2490     9.1950     8.7250     9.0020   145.4320     0.0610  1402.4390     2.5360     0.3100
 2582.5000  1264.8250   -19.3460    11.3800     9.1780     8.7240     8.9940   145.9710     0.0700  1402.4390     2.5470     0.3120
 2583.0000  1265.0560   -19.0450    11.5390     9.1610     8.7240     8.9870   145.4830     0.0600  1402.4390     2.5350     0.3140
 2583.5000  1265.2880   -19.0640    11.3990     9.1440     8.7240     8.9790   144.0010     0.0490  1402.4390     2.5200     0.3100
 2584.0000  1265.5190   -19.3870    11.2250     9.1270     8.7230     8.9720   141.2950     0.0380  1402.4390     2.5100     0.3120
 2584.5000  1265.7510   -19.6840    11.0510     9.1090     8.7230     8.9650   137.2260     0.0360  1402.4390     2.4990     0.3170
 2585.0000  1265.9821   -19.9760    10.9110     9.0930     8.7240     8.9570   133.7720     0.0340  1402.4390     2.4910     0.3200
 2585.5000  1266.2140   -20.2780    11.0630     9.0760     8.7240     8.9500   134.2740     0.0320  1402.4390     2.4810     0.3190
 2586.0000  1266.4449   -20.5790    11.1900     9.0560     8.7240     8.9420   136.5060     0.0310  1402.4390     2.4810     0.3160
 2586.5000  1266.6770   -20.8630    11.3170     9.0970     8.8190     8.9350   139.4430     0.0290  1402.4390     2.4830     0.3110
 2587.0000  1266.9080   -21.2080    11.4440     9.1490     8.9370     8.9290   141.1320     0.0290  1402.4390     2.4840     0.3060
 2587.5000  1267.1400   -21.2070    11.5700     9.2010     9.0550     8.9310   141.1700     0.0300  1402.4390     2.4900     0.3090
 2588.0000  1267.3710   -21.4600    11.6970     9.2530     9.1740     8.9330   140.5870     0.0320  1402.4390     2.4990     0.3120
 2588.5000  1267.6030   -21.8880    11.8240     9.3050     9.2920     8.9360   140.0530     0.0330  1402.4390     2.5050     0.3130
 2589.0000  1267.8340   -22.3200    11.9510     9.3570     9.4100     8.9390   139.5610     0.0350  1402.4390     2.5110     0.3090
 2589.5000  1268.0660   -22.7040    12.0770     9.4090     9.5290     8.9410   139.5510     0.0350  1402.4390     2.5060     0.3050
 2590.0000  1268.2980   -23.1690    12.2040     9.4620     9.5760     8.9440   139.5360     0.0300  1402.4390     2.5020     0.3030
 2590.5000  1268.5291   -23.2470    12.3310     9.5140     9.5210     8.9460   139.5550     0.0260  1402.4390     2.4990     0.3040
 2591.0000  1268.7610   -22.8610    12.4320     9.5760     9.4530     8.9490   139.5290     0.0210  1402.4390     2.5010     0.3100
 2591.5000  1268.9919   -22.2850    12.4320     9.5480     9.3840     8.9510   139.4960     0.0220  1402.4390     2.5080     0.3200
 2592.0000  1269.2240   -21.8690    12.4320     9.5130     9.3160     8.9540   138.5370     0.0230  1402.4390     2.5090     0.3130
 2592.5000  1269.4550   -21.4430    12.0170     9.4780     9.2470     8.9560   137.4770     0.0170  1402.4390     2.5020     0.2980
 2593.0000  1269.6870   -21.0020    11.6720     9.4430     9.1790     8.9590   136.5360     0.0120  1402.4390     2.5020     0.3060
 2593.5000  1269.9180   -20.5740    11.3260     9.4080     9.1100     8.9610   136.3100     0.0200  1402.4390     2.5140     0.3160
 2594.0000  1270.1500   -20.1460    10.9110     9.3730     8.8880     8.9640   136.0230     0.0260  1402.4390     2.5300     0.3260
 2594.5000  1270.3810   -19.7030    11.0410     9.3380     8.9010     8.9670   137.4000     0.0340  1402.4390     2.5410     0.3360
 2595.0000  1270.6130   -19.2860    11.2040     9.3040     8.9330     8.9690   139.6040     0.0320  1402.4390     2.5330     0.3260
 2595.5000  1270.8440   -18.8840    11.3660     9.2690     8.9660     8.9720   140.8500     0.0280  1402.4390     2.5190     0.3220
 2596.0000  1271.0760   -19.0930    11.5290     9.2270     8.9980     8.9740   140.6010     0.0240  1402.4390     2.5040     0.3210
 2596.5000  1271.3070   -19.3170    11.6910     9.2610     9.0310     8.9770   139.5460     0.0220  1402.4390     2.4970     0.3210
 2597.0000  1271.5389   -19.5670    11.7560     9.3010     9.0630     8.9790   138.6320     0.0280  1402.4390     2.4990     0.3210
 2597.5000  1271.7710   -19.8010    11.7560     9.3430     9.0960     8.9820   137.4180     0.0330  1402.4390     2.5050     0.3210
 2598.0000  1272.0020   -20.0400    11.7560     9.3840     9.1280     8.9840   138.4870     0.0390  1402.4390     2.5130     0.3210
 2598.5000  1272.2340   -20.2800    11.7560     9.4260     9.1610     8.9870   141.3080     0.0350  1402.4390     2.5210     0.3180
 2599.0000  1272.4650   -20.5160    11.6710     9.4670     9.1930     8.9890   144.1140     0.0280  1402.4390     2.5250     0.3090
 2599.5000  1272.6970   -20.7580    11.5290     9.5080     9.2260     8.9920   145.3550     0.0210  1402.4390     2.4960     0.3010
 2600.0000  1272.9280   -20.9930    11.3860     9.5510     9.1160     8.9940   144.4560     0.0130  1402.4390     2.4780     0.3070
 2600.5000  1273.1600   -21.2190    11.2440     9.5760     9.0070     8.9970   143.6890     0.0090  1402.4390     2.4730     0.3130
 2601.0000  1273.3910   -21.2260    11.1020     9.4010     8.8980     8.9990   142.9810     0.0110  1402.4390     2.4780     0.3110
 2601.5000  1273.6230   -21.2440    10.9600     9.2270     8.7880     9.0020   142.2040     0.0120  1402.4390     2.4890     0.3090
 2602.0000  1273.8540   -21.1240    10.8180     9.0540     8.6790     9.0050   147.6870     0.0140  1402.4390     2.4960     0.3080
 2602.5000  1274.0861   -20.9240    10.6750     8.8800     8.5700     9.0070   150.2090     0.0160  1402.4390     2.5020     0.3080
 2603.0000  1274.3170   -20.7370    10.5120     8.7060     8.4600     9.0100   149.5770     0.0170  1402.4390     2.5070     0.3090
 2603.5000  1274.5490   -20.5520    10.4520     8.5330     8.3510     9.0130   145.6470     0.0160  1402.4390     2.5030     0.3090
 2604.0000  1274.7800   -20.3620    10.3830     8.4220     8.2420     9.0170   140.3760     0.0150  1402.4390     2.4980     0.3030
 2604.5000  1275.0120   -20.1730    10.3180     8.4910     8.0970     9.0200   137.4200     0.0130  1402.4390     2.4920     0.2990
 2605.0000  1275.2440   -20.0190    10.3620     8.5590     8.1240     9.0240   138.2260     0.0120  1402.4390     2.4920     0.3000
 2605.5000  1275.4750   -19.9490    10.4040     8.6270     8.1650     9.0270   140.0820     0.0130  1402.4390     2.5020     0.3010
 2606.0000  1275.7070   -19.8760    10.4450     8.6960     8.2050     9.0300   145.2200     0.0200  1402.4390     2.5120     0.3020
 2606.5000  1275.9380   -19.8040    10.4870     8.7640     8.2460     9.0340   146.2040     0.0330  1402.4390     2.5220     0.3020
 2607.0000  1276.1700   -19.7370    10.5280     8.8320     8.2860     9.0370   147.2860     0.0340  1402.4390     2.5240     0.3050
