~VERSION INFORMATION
 VERS.                2.0:   CWLS LOG ASCII STANDARD - VERSION 2.0
 WRAP.                 NO:   ONE LINE PER DEPTH STEP
~WELL INFORMATION
#MNEM.UNIT      DATA TYPE    INFORMATION
#----------   ------------   ------------------------------
 STRT.F          417.0000:   START DEPTH
 STOP.F         4133.0000:   STOP DEPTH
 STEP.F            0.5000:   STEP LENGTH
 NULL.          -999.2500:   NO VALUE
 COMP.    FENIX & SCISSON:   COMPANY
 WELL. FENIX  "LX" #18-11:   WELL
 FLD .              NPR 3:   FIELD
 LOC .      S11 T38N R78W:   LOCATION
 CNTY.            NATRONA:   COUNTY
 STAT.            WYOMING:   STATE
 CTRY. UNITED STATES OF AMERICA:   COUNTRY
 SRVC.       SCHLUMBERGER:   SERVICE COMPANY
 DATE.        14-JAN-1978:   LOGDATE
 API .     49025105590000:   API NUMBER
~CURVE INFORMATION
#MNEM.UNIT       API CODE    CURVE DESCRIPTION
#----------   ------------   ------------------------------
 DEPT.F                  :   
 SPR .MV     07 010 01 00:   SPONTANEOUS POTENTIAL
 SFL .OHMM   07 220 01 00:   SHALLOW FOCUSED LOG RESISTIVITY
 ILD .OHMM   07 120 46 00:   DEEP INDUCTION RESISTIVITY
 ILM .OHMM   07 120 44 00:   INDUCTION LOG MEDIUM RESISTIVITY
 CALD.IN     45 280 60 00:   CALIPER FROM DENSITY LOG
 GRD .GAPI   45 310 01 00:   GAMMA RAY FROM DENSITY LOG
 RHOB.G/C3   45 350 01 00:   BULK DENSITY
 CORR.G/C3   45 356 01 00:   DENSITY CORRECTION
 NPHI.DEC    42 890 03 00:   NEUTRON POROSITY SANDSTONE
~PARAMETER INFORMATION
#MNEM.UNIT          VALUE    DESCRIPTION
#----------   ------------   ------------------------------
 EKB .F         5220.0000:   Kelly bushing
 EGL .F         5210.0000:   Ground level
 EDF .F            0.0000:   Drilling floor
 TD  .F         4125.0000:   Total depth
 DATE.        14-JAN-1978:   Date logged
 CLNT.            A2DTECH:   Client Code
 SL  . 330' FSL & 530' FWL:   Surface Location
 PD  .                 GL:   Permanent Datum
 EPD .F              5210:   Elevation Permanent Datum
 LMF .                 KB:   Log Measured From
 DMF .                 KB:   Drilling Measured From
 DAPD.F                10:   Feet Above Permanent Datum
 DD  .F              4125:   Depth driller
 DL  .F              4121:   Depth logger
 BLI .F              4116:   Bottom log interval
 TLI .F               427:   Top log interval
 CS1 .IN            8.625:   Casing size
 CBD1.      8.625" @ 513':   Casing driller 1
 CBL1.F               427:   Casing logger 1
 BS1 .IN            7.875:   Bit size
 BSD1.F              4125:   Depth drilled with bit1
 DFT .                KCL:   Type fluid in hole
 DFD .                8.8:   Density
 DFV .                 40:   Viscosity
 DFPH.                 12:   pH
 DFL .                7.4:   Fluid loss
 MSS .           MUD TANK:   Source of sample
 RMS .OHMM           .418:   Rm
 MST .F                60:   Rm Meas. temp.
 RMF .OHMM           .343:   Rmf
 MFST.F                60:   Rmf Meas. temp.
 MFSS.               MEAS:   Source Rmf.
 RMB .OHMM            .20:   Rm. at BHT
 BHT .F               123:   BHT.
 TCS .HRS            0600:   Time Circ. stopped
 TLAB.HRS            0845:   Time logger at bottom
 MRT .F               123:   Maximum recorded temp.
 LUN .               8035:   Logging unit number
 LUL .               CSPR:   Logging unit location
 ENGI.             MARTIN:   Recorded By
 WITN.         HARRINGTON:   Witnessed by
 ORIG.      2.5" 5" PRINT:   Origin of data
 UWI .     49025105590000:   Unique Well ID
 DICO. A2D TECHNOLOGIES, INC.:   Digitizing Company
~OTHER INFORMATION
~A   DEPT      SPR        SFL        ILD        ILM       CALD         GRD      RHOB       CORR       NPHI   
# ...
 1147.0000   -35.0100     9.4860    10.1490     8.4750    12.4300   100.7380     2.5060    -0.0020     0.2850
 1147.5000   -35.2300     9.3200    10.0980     8.3370    12.4380   103.6490     2.5050    -0.0020     0.2840
 1148.0000   -35.4500     9.1540    10.0470     8.1940    12.4460   107.1650     2.5130     0.0050     0.2830
 1148.5000   -35.6340     8.9880     9.9950     8.1940    12.4540   111.0800     2.5260     0.0120     0.2860
 1149.0000   -35.6290     8.9880     9.9440     8.2090    12.4620   112.1170     2.5360     0.0190     0.2960
 1149.5000   -35.6290     8.9880     9.8930     8.2340    12.4700   111.4190     2.5260     0.0140     0.3070
 1150.0000   -35.6290     8.9880     9.8410     8.2590    12.4780   106.3420     2.5180     0.0060     0.3130
 1150.5000   -35.6370     9.1500     9.7900     8.2840    12.4860    99.0300     2.5100     0.0030     0.3100
 1151.0000   -35.2930     9.2990     9.7540     8.3090    12.4940    93.3410     2.5050     0.0020     0.2980
 1151.5000   -34.8490     9.5000     9.7310     8.3340    12.5020    93.6560     2.5220     0.0030     0.2920
 1152.0000   -34.4020     9.4160     9.7080     8.3590    12.5100    93.7840     2.5280     0.0050     0.2860
 1152.5000   -33.9390     9.2840     9.6830     8.3840    12.5180    96.5080     2.5210     0.0070     0.2930
 1153.0000   -33.8030     9.1530     9.6770     8.4090    12.5260    99.9990     2.5130     0.0080     0.3180
 1153.5000   -33.7620     9.0710     9.6780     8.4240    12.5300   102.0830     2.5050     0.0100     0.3230
 1154.0000   -33.7230     9.0710     9.6780     8.4240    12.5290   102.0810     2.5100     0.0160     0.3200
 1154.5000   -33.6830     9.0850     9.6780     8.4240    12.5290   101.1770     2.5270     0.0200     0.3010
 1155.0000   -33.6410     9.0980     9.6780     8.4240    12.5290   100.3180     2.5440     0.0280     0.2890
 1155.5000   -33.6360     9.1110     9.6780     8.4240    12.5290   100.2040     2.5510     0.0300     0.2910
 1156.0000   -33.8090     9.1240     9.6780     8.4240    12.5290   100.6360     2.5410     0.0270     0.2960
 1156.5000   -33.9950     9.1370     9.6630     8.4240    12.5290   101.0500     2.5280     0.0230     0.3070
 1157.0000   -34.1800     9.1500     9.6450     8.4240    12.5290   101.5350     2.5160     0.0200     0.3080
 1157.5000   -34.3640     9.1640     9.6270     8.4240    12.5290   101.9510     2.5070     0.0160     0.3070
 1158.0000   -34.5490     9.1770     9.6090     8.4240    12.5300   102.2250     2.5090     0.0100     0.3000
 1158.5000   -34.7330     9.1900     9.5910     8.4240    12.5280   100.6140     2.5100     0.0070     0.2960
 1159.0000   -34.9180     9.2030     9.5510     8.4250    12.5300    99.2470     2.5120     0.0050     0.2980
 1159.5000   -35.1020     9.2160     9.4920     8.4240    12.5370    97.6230     2.5140     0.0040     0.3000
 1160.0000   -35.2870     9.2290     9.4320     8.3590    12.5730    98.6930     2.5160     0.0070     0.3010
 1160.5000   -35.4710     9.2400     9.3730     8.2870    12.5670   100.8610     2.5240     0.0100     0.3020
 1161.0000   -35.6570     9.1240     9.3140     8.2140    12.5690   101.6590     2.5350     0.0130     0.3030
 1161.5000   -35.8230     8.5820     9.2540     8.1420    12.5690   101.4690     2.5460     0.0190     0.3030
 1162.0000   -35.7520     8.0400     9.1950     8.0690    12.5630   102.6180     2.5550     0.0210     0.3030
 1162.5000   -35.6740     7.6800     9.1550     7.9970    12.5420   104.4770     2.5500     0.0210     0.3010
 1163.0000   -35.4840     8.1990     9.1880     7.8960    12.5210   106.3800     2.5380     0.0150     0.2970
 1163.5000   -35.0910     8.7440     9.2130     8.0050    12.5000   106.8480     2.5270     0.0090     0.2970
 1164.0000   -34.7070     9.2890     9.2380     8.1830    12.4790   106.0340     2.5150     0.0090     0.3080
 1164.5000   -34.4090     9.8340     9.2630     8.3620    12.4570   101.5860     2.5080     0.0080     0.3100
 1165.0000   -34.3520    10.3790     9.2870     8.5810    12.4370    96.7580     2.5160     0.0070     0.3070
 1165.5000   -34.2900    10.7140     9.3120     8.4910    12.4130    91.4050     2.5220     0.0060     0.2910
 1166.0000   -34.2290    10.4940     9.3270     8.3720    12.4120    89.8810     2.5290     0.0060     0.2800
 1166.5000   -34.1680     9.5560     9.2800     8.2540    12.4120    92.1680     2.5350     0.0050     0.2700
 1167.0000   -34.1060     8.6190     9.2360     8.1360    12.4320    97.8350     2.5390     0.0040     0.2940
 1167.5000   -34.0430     8.1180     9.1920     8.0180    12.4550   101.7230     2.5300     0.0030     0.2850
 1168.0000   -34.0790     8.2420     9.1480     7.8960    12.4780   103.5180     2.5220     0.0020     0.3030
 1168.5000   -34.1400     8.4020     9.1040     7.8230    12.5010   103.6080     2.5150     0.0020     0.3030
 1169.0000   -34.2020     8.4940     9.0600     7.8230    12.5240   104.0390     2.5070     0.0020     0.2980
 1169.5000   -34.2630     8.5740     9.0160     7.8230    12.5300   104.4860     2.5080     0.0040     0.2940
 1170.0000   -34.3240     8.6550     8.9880     7.8230    12.5290   104.7740     2.5110     0.0050     0.2980
 1170.5000   -34.3850     8.7360     8.9050     7.8230    12.5250   107.8590     2.5140     0.0060     0.3090
 1171.0000   -34.4890     8.8170     8.9060     7.8230    12.5190   112.0540     2.5160     0.0070     0.3090
 1171.5000   -34.7570     8.9050     8.9050     7.8230    12.5130   114.5970     2.5210     0.0080     0.3030
 1172.0000   -35.0170     8.9880     8.9050     7.8230    12.5070   111.1120     2.5280     0.0080     0.2980
 1172.5000   -35.2770     8.9880     8.9050     7.8240    12.5010   106.2680     2.5350     0.0080     0.3010
 1173.0000   -35.5380     8.9300     8.9050     7.8100    12.4950   105.6230     2.5410     0.0080     0.3100
 1173.5000   -35.7990     8.7920     8.9050     7.7880    12.4890   106.6080     2.5370     0.0080     0.3150
 1174.0000   -36.0200     8.6530     8.9050     7.7660    12.4670   107.2000     2.5250     0.0070     0.3110
 1174.5000   -35.8760     8.5150     8.9050     7.6800    12.4520   107.1820     2.5150     0.0070     0.3000
 1175.0000   -35.7360     8.3760     8.9050     7.6800    12.4580   102.5710     2.5010     0.0060     0.2970
 1175.5000   -35.5490     8.1940     8.9050     7.6090    12.4630   100.3070     2.5010     0.0060     0.2950
 1176.0000   -35.1630     8.3090     8.9050     7.6090    12.4690    99.0850     2.5040     0.0050     0.2870
 1176.5000   -34.7840     8.4450     8.9050     7.6090    12.4740    97.9180     2.5070     0.0050     0.2820
 1177.0000   -34.4040     8.5810     8.9050     7.6090    12.4800    96.8800     2.5140     0.0040     0.2850
 1177.5000   -34.0430     8.7420     8.9050     7.5390    12.4850    95.9960     2.5210     0.0040     0.2960
 1178.0000   -34.0800     8.4080     8.9050     7.5400    12.4910    96.8840     2.5280     0.0030     0.3010
 1178.5000   -34.1330     8.1940     8.9050     7.5390    12.4960    98.7110     2.5270     0.0030     0.3040
 1179.0000   -34.1830     8.1940     8.9050     7.5260    12.5020   100.5890     2.5220     0.0020     0.3070
 1179.5000   -34.2340     8.1940     8.9050     7.5070    12.5070   101.4810     2.5160     0.0020     0.3100
 1180.0000   -34.2840     8.1940     8.9050     7.4870    12.5130   100.8510     2.5100     0.0040     0.3090
 1180.5000   -34.3340     8.1940     8.9050     7.4680    12.5180   100.3520     2.5160     0.0060     0.2960
 1181.0000   -34.3850     8.1700     8.9040     7.4490    12.5240   100.2690     2.5230     0.0070     0.2930
 1181.5000   -34.4350     8.1430     8.9350     7.4300    12.5310   101.2300     2.5300     0.0090     0.2910
 1182.0000   -34.4850     8.1160     8.9790     7.4110    12.5560   102.3240     2.5360     0.0110     0.3100
 1182.5000   -34.5350     8.0890     9.1540     7.3910    12.5790   104.2460     2.5350     0.0120     0.3110
 1183.0000   -34.5850     8.0620     9.3630     7.3720    12.6050   105.8520     2.5310     0.0130     0.2960
