~VERSION INFORMATION
 VERS.                2.0:   CWLS LOG ASCII STANDARD - VERSION 2.0
 WRAP.                 NO:   ONE LINE PER DEPTH STEP
~WELL INFORMATION
#MNEM.UNIT      DATA TYPE    INFORMATION
#----------   ------------   ------------------------------
 STRT.F          200.0000:   START DEPTH
 STOP.F         3160.0000:   STOP DEPTH
 STEP.F            0.5000:   STEP LENGTH
 NULL.          -999.2500:   NO VALUE
 COMP.    FENIX & SCISSON:   COMPANY
 WELL. FENIX NPR 3 "AX" #72-3:   WELL
 FLD .             TEAPOT:   FIELD
 LOC .       S3 T38N R78W:   LOCATION
 CNTY.            NATRONA:   COUNTY
 STAT.            WYOMING:   STATE
 CTRY. UNITED STATES OF AMERICA:   COUNTRY
 SRVC.           BIRDWELL:   SERVICE COMPANY
 DATE.        10-JAN-1978:   LOGDATE
 API .     49025105530000:   API NUMBER
~CURVE INFORMATION
#MNEM.UNIT       API CODE    CURVE DESCRIPTION
#----------   ------------   ------------------------------
 DEPT.F                  :   
 CALD.IN     45 280 60 00:   CALIPER FROM DENSITY LOG
 GRD .GAPI   45 310 01 00:   GAMMA RAY FROM DENSITY LOG
 DEN .LBS    45 635 01 00:   BUCK DENSITY
 CORR.G/C3   45 356 01 00:   DENSITY CORRECTION
 SPR .MV     07 010 01 00:   SPONTANEOUS POTENTIAL
 ILD .OHMM   07 120 46 00:   DEEP INDUCTION RESISTIVITY
 ILM .OHMM   07 120 44 00:   INDUCTION LOG MEDIUM RESISTIVITY
~PARAMETER INFORMATION
#MNEM.UNIT          VALUE    DESCRIPTION
#----------   ------------   ------------------------------
 EKB .F         5164.0000:   Kelly bushing
 EGL .F         5153.0000:   Ground level
 TD  .F         3157.0000:   Total depth
 DATE.        10-JAN-1978:   Date logged
 CLNT.            A2DTECH:   Client Code
 SL  . 900' FNL & 900' FEL:   Surface Location
 PD  .                 GL:   Permanent Datum
 EPD .F              5153:   Elevation Permanent Datum
 LMF .                 KB:   Log Measured From
 DMF .                 KB:   Drilling Measured From
 DAPD.F                11:   Feet Above Permanent Datum
 DD  .F              3156:   Depth driller
 DL  .F              3157:   Depth logger
 BLI .F              3157:   Bottom log interval
 TLI .F               200:   Top log interval
 CS1 .IN            8.625:   Casing size
 CBD1.      8.625" @ 222':   Casing driller 1
 CBL1.F               220:   Casing logger 1
 BS1 .IN            7.875:   Bit size
 BSD1.F              3156:   Depth drilled with bit1
 DFT .                KCL:   Type fluid in hole
 DFD .                8.5:   Density
 DFV .                 36:   Viscosity
 DFPH.                 10:   pH
 DFL .                8.8:   Fluid loss
 MSS .           FLOWLINE:   Source of sample
 RMS .OHMM            1.4:   Rm
 MST .F                66:   Rm Meas. temp.
 RMF .OHMM            .85:   Rmf
 MFST.F                74:   Rmf Meas. temp.
 RMC .OHMM            1.4:   Rmc
 MCST.F                72:   Rmc Meas. temp.
 MFSS.               MEAS:   Source Rmf.
 MCSS.               MEAS:   Source Rmc.
 RMB .OHMM            .83:   Rm. at BHT
 BHT .F               112:   BHT.
 TCS .HRS               4:   Time Circ. stopped
 MRT .F               112:   Maximum recorded temp.
 LUN .               2958:   Logging unit number
 LUL .             CASPER:   Logging unit location
 ENGI.            POINTER:   Recorded By
 WITN.         HARRINGTON:   Witnessed by
 ORIG.           5" PRINT:   Origin of data
 UWI .     49025105530000:   Unique Well ID
 DICO. A2D TECHNOLOGIES, INC.:   Digitizing Company
~OTHER INFORMATION
~A   DEPT     CALD        GRD          DEN     CORR        SPR        ILD        ILM   
# ...
 2930.0000     8.9699   114.6347     2.5526     0.0594   -45.3580    12.0357     8.6169
 2930.5000     8.9501   118.4101     2.5556     0.0594   -45.1578    11.9260     8.2286
 2931.0000     8.9501   120.3973     2.5576     0.0554   -45.1568    11.8172     7.9307
 2931.5000     8.9303   122.7818     2.5536     0.0535   -44.5582    11.7095     7.8582
 2932.0000     8.9304   123.5768     2.5516     0.0515   -44.3579    11.7101     7.8586
 2932.5000     8.9503   123.5770     2.5506     0.0455   -43.9585    11.7107     7.8591
 2933.0000     8.9504   122.7826     2.5507     0.0375   -44.1567    11.7113     7.9537
 2933.5000     8.9504   121.1934     2.5497     0.0395   -44.1557    11.7119     7.9542
 2934.0000     8.9505   120.7964     2.5487     0.0376   -44.1547    11.7125     7.9546
 2934.5000     8.9505   120.5980     2.5467     0.0316   -44.7514    11.7131     7.9550
 2935.0000     8.9506   120.5983     2.5467     0.0316   -44.7504    11.7137     7.9555
 2935.5000     8.9507   120.2013     2.5497     0.0316   -44.7494    11.7143     7.9559
 2936.0000     8.9308   119.2082     2.5467     0.0316   -45.5452    11.7149     7.9564
 2936.5000     8.9508   118.0166     2.5387     0.0317   -45.5442    11.8239     7.9568
 2937.0000     8.9508   119.0102     2.5377     0.0317   -45.5432    11.8245     7.9573
 2937.5000     8.9509   121.1958     2.5387     0.0297   -45.5422    11.8252     7.9577
 2938.0000     8.9311   123.5799     2.5478     0.0277   -45.5412    11.7173     7.9581
 2938.5000     8.9312   125.1694     2.5438     0.0257   -45.5402    11.8262     8.0322
 2939.0000     8.9312   124.5737     2.5418     0.0238   -45.5392    11.8269     7.9590
 2939.5000     8.9313   121.5942     2.5378     0.0238   -45.5382    11.8275     8.0331
 2940.0000     8.9313   119.4080     2.5298     0.0238   -45.5372    11.8281     8.3351
 2940.5000     8.9314   118.6137     2.5228     0.0178   -44.9386    11.8287     8.1083
 2941.0000     8.9315   118.8127     2.5208     0.0158   -44.9376    11.8293     8.1838
 2941.5000     8.9315   120.2035     2.5198     0.0139   -44.9366    11.8299     8.1092
 2942.0000     8.9316   125.7671     2.5218     0.0119   -44.9356    11.8305     8.3370
 2942.5000     8.9316   126.3633     2.5228     0.0139   -45.1338    11.8311     7.9621
 2943.0000     8.9317   125.9662     2.5179     0.0139   -44.9336    11.7233     7.9626
 2943.5000     8.9317   124.5760     2.5109     0.0159   -44.9326    11.6164     7.8900
 2944.0000     8.9318   123.3845     2.5069     0.0120   -44.9316    11.5105     7.8181
 2944.5000     8.9319   124.1793     2.5019     0.0160   -44.9306    11.6176     7.6758
 2945.0000     8.9319   125.7685     2.5029     0.0140   -44.3320    11.6182     7.4671
 2945.5000     8.9320   127.3578     2.5149     0.0140   -44.3310    11.5123     7.4675
 2946.0000     8.9320   127.3580     2.5159     0.0140   -44.3300    11.6194     7.3316
 2946.5000     8.9321   126.9610     2.5089     0.0241   -44.5282    11.5135     7.2648
 2947.0000     8.9322   127.1599     2.4949     0.0261   -44.7264    11.5141     7.1986
 2947.5000     8.9322   127.9546     2.4829     0.0261   -44.7254    11.4091     7.1990
 2948.0000     8.9323   129.1465     2.4750     0.0261   -44.7244    11.4936     7.2660
 2948.5000     8.9545   129.9412     2.4880     0.0221   -44.7234    11.4942     7.1998
 2949.0000     8.9557   130.7358     2.4970     0.0222   -44.9216    11.4947     7.2002
 2949.5000     8.9721   131.7291     2.5020     0.0202   -44.9206    11.4954     7.2007
 2950.0000     8.9734   131.7293     2.4990     0.0222   -45.5172    11.4960     7.2011
 2950.5000     8.9747   130.7364     2.5040     0.0262   -44.5202    11.4127     7.2015
 2951.0000     8.9609   128.7505     2.4980     0.0282   -44.1208    11.4133     7.2019
 2951.5000     8.9624   126.1689     2.4910     0.0363   -43.9206    11.5194     7.2023
 2952.0000     8.9189   125.7719     2.4950     0.0403   -44.1188    11.5200     7.3366
 2952.5000     8.9053   125.7722     2.4950     0.0403   -43.9186    11.5206     7.4734
 2953.0000     8.8621   125.3752     2.4961     0.0403   -43.9176    11.5212     7.6831
 2953.5000     8.8636   125.3755     2.5081     0.0403   -43.9166    11.5218     7.6836
 2954.0000     8.8649   125.9715     2.5211     0.0404   -43.3180    11.7366     7.8268
 2954.5000     8.8664   125.9717     2.5261     0.0404   -43.9146    11.7372     7.7555
 2955.0000     8.8826   123.9861     2.5261     0.0384   -43.9136    11.7378     7.8276
 2955.5000     8.8987   119.0217     2.5281     0.0424   -43.9126    11.7384     7.9004
 2956.0000     8.9001   114.8517     2.5241     0.0424   -43.9116    11.7390     8.1222
 2956.5000     8.9162   110.8803     2.5261     0.0425   -44.9066    11.7396     7.9744
 2957.0000     8.9178   110.6821     2.5241     0.0425   -45.1048    11.7402     8.0486
 2957.5000     8.9190   111.8740     2.5261     0.0425   -45.1038    11.8494     8.1235
 2958.0000     8.9203   112.6687     2.5262     0.0445   -45.3021    11.7414     8.3515
 2958.5000     8.9216   113.6620     2.5152     0.0545   -45.5003    11.9603     8.1244
 2959.0000     8.9380   116.0452     2.5132     0.0586   -45.4993    11.9609     8.1249
 2959.5000     8.9242   118.8255     2.5152     0.0586   -45.4983    11.9615     7.9771
 2960.0000     8.9257   122.4001     2.5212     0.0586   -44.8996    11.9621     8.4306
 2960.5000     8.9270   127.1661     2.5352     0.0586   -45.4963    11.7445     7.8324
 2961.0000     8.9285   129.1520     2.5332     0.0586   -45.4953    11.6374     7.6194
 2961.5000     8.9298   130.7407     2.5372     0.0587   -45.4943    11.4257     7.5500
 2962.0000     8.9162   131.9323     2.5412     0.0587   -44.8957    11.4263     7.0792
 2962.5000     8.8875   135.3066     2.5412     0.0587   -44.6955    11.2184     7.4131
 2963.0000     8.8740   135.3066     2.5403     0.0587   -44.2960    11.2190     7.3456
 2963.5000     8.8757   134.7111     2.5393     0.0587   -44.2950    11.4281     7.4825
 2964.0000     8.8470   131.5344     2.5403     0.0588   -44.2940    11.5344     7.2791
 2964.5000     9.1164   119.8214     2.5393     0.0588   -44.2930    11.6417     7.6224
 2965.0000     8.9689   117.0420     2.5373     0.0588   -44.0928    11.7499     7.8363
 2965.5000     8.8807   116.6452     2.5463     0.0588   -44.0918    11.7505     7.9092
 2966.0000     8.8821   116.8441     2.5483     0.0588   -43.8916    12.0802     8.2064
 2966.5000     8.8837   116.2488     2.5483     0.0589   -44.0898    11.7518     8.1316
 2967.0000     8.8850   115.8521     2.5463     0.0589   -44.6865    11.7524     8.1321
 2967.5000     8.8862   115.8524     2.5443     0.0589   -44.6855    11.7530     8.1325
 2968.0000     8.8876   116.0513     2.5414     0.0589   -44.6845    11.8623     8.1330
 2968.5000     8.8889   117.2428     2.5404     0.0589   -45.8787    11.7542     8.1334
 2969.0000     8.8904   119.2285     2.5394     0.0590   -45.4793    11.7548     8.2091
 2969.5000     8.8917   120.2215     2.5364     0.0590   -45.0799    11.7554     8.1343
 2970.0000     8.8929   120.2218     2.5354     0.0590   -45.6765    11.8647     8.2100
 2970.5000     8.8943   120.0236     2.5264     0.0610   -45.8747    11.7566     8.2105
 2971.0000     8.8956   120.0239     2.5264     0.0690   -45.8737    11.7572     8.1357
 2971.5000     8.8969   120.4212     2.5264     0.0751   -45.8729    11.7578     8.2114
 2972.0000     8.8984   120.6200     2.5124     0.0771   -45.4735    11.7583     7.9881
 2972.5000     8.8997   120.4218     2.5055     0.0771   -44.6757    11.5444     7.8942
 2973.0000     8.9010   120.6206     2.5115     0.0751   -44.4755    11.4392     7.7238
 2973.5000     8.8872   122.0106     2.5185     0.0731   -44.4745    11.5458     7.5570
 2974.0000     8.8889   124.3930     2.5175     0.0712   -44.0751    11.1288     6.2896
 2974.5000     8.8902   128.7605     2.5165     0.0712   -44.6717    10.4350     5.8432
 2975.0000     8.8615   137.4953     2.5155     0.0692   -44.6707    10.4356     5.2809
