~VERSION INFORMATION
 VERS.                2.0:   CWLS LOG ASCII STANDARD - VERSION 2.0
 WRAP.                 NO:   ONE LINE PER DEPTH STEP
~WELL INFORMATION
#MNEM.UNIT      DATA TYPE    INFORMATION
#----------   ------------   ------------------------------
 STRT.F          540.0000:   START DEPTH
 STOP.F         4100.0000:   STOP DEPTH
 STEP.F            0.5000:   STEP LENGTH
 NULL.          -999.2500:   NO VALUE
 COMP. LAWRENCE ALISON & ASSOC.,WEST:   COMPANY
 WELL. LAWRENCE "X" #15-11:   WELL
 FLD .              N P R:   FIELD
 LOC .      S11 T38N R78W:   LOCATION
 CNTY.            NATRONA:   COUNTY
 STAT.            WYOMING:   STATE
 CTRY. UNITED STATES OF AMERICA:   COUNTRY
 SRVC.      DRESSER ATLAS:   SERVICE COMPANY
 DATE.        18-MAY-1985:   LOGDATE
 API .     49025110220000:   API NUMBER
~CURVE INFORMATION
#MNEM.UNIT       API CODE    CURVE DESCRIPTION
#----------   ------------   ------------------------------
 DEPT.F                  :   
 NPHI.DEC    42 890 03 00:   NEUTRON POROSITY SANDSTONE
 RHOB.G/C3   45 350 01 00:   BULK DENSITY
 CORR.G/C3   45 356 01 00:   DENSITY CORRECTION
 TEND.LBS    45 635 01 00:   TENSION FROM DENSITY LOG
 GRD .GAPI   45 310 01 00:   GAMMA RAY FROM DENSITY LOG
 CALD.IN     45 280 60 00:   CALIPER FROM DENSITY LOG
 SPR .MV     07 010 01 00:   SPONTANEOUS POTENTIAL
 RILD.OHMM   07 120 46 00:   DEEP INDUCTION RESISTIVITY
 RILM.OHMM   07 120 44 00:   INDUCTION LOG MEDIUM RESISTIVITY
 RFOC.OHMM   07 220 04 00:   RESISTIVITY FOCUSED LOG RES.
 TENR.LBS    07 635 01 00:   TENSION FROM RESISTIVITY
~PARAMETER INFORMATION
#MNEM.UNIT          VALUE    DESCRIPTION
#----------   ------------   ------------------------------
 EKB .F         5201.0000:   Kelly bushing
 EGL .F         5189.0000:   Ground level
 EDF .F         5200.0000:   Drilling floor
 TD  .F         4095.0000:   Total depth
 DATE.        18-MAY-1985:   Date logged
 CLNT.            A2DTECH:   Client Code
 SL  . 2203' FSL & 377' FWL:   Surface Location
 PD  .                 GL:   Permanent Datum
 EPD .F              5189:   Elevation Permanent Datum
 LMF .                 KB:   Log Measured From
 DMF .                 KB:   Drilling Measured From
 DAPD.F                12:   Feet Above Permanent Datum
 DD  .F              4095:   Depth driller
 DL  .F              4093:   Depth logger
 BLI .F              4091:   Bottom log interval
 TLI .F                 0:   Top log interval
 CS1 .IN            8.625:   Casing size
 CBD1.      8.625" @ 565':   Casing driller 1
 CBL1.F               565:   Casing logger 1
 BS1 .IN            7.875:   Bit size
 BSD1.F              4095:   Depth drilled with bit1
 DFT .            GEL KCL:   Type fluid in hole
 DFD .                9.2:   Density
 DFV .                 40:   Viscosity
 DFPH.                8.0:   pH
 DFL .                9.0:   Fluid loss
 MSS .            MUDTANK:   Source of sample
 RMS .OHMM            .57:   Rm
 MST .F                69:   Rm Meas. temp.
 RMF .OHMM            .49:   Rmf
 MFST.F                69:   Rmf Meas. temp.
 RMC .OHMM            .71:   Rmc
 MCST.F                69:   Rmc Meas. temp.
 MFSS.               MEAS:   Source Rmf.
 MCSS.               CALC:   Source Rmc.
 RMB .OHMM            .30:   Rm. at BHT
 BHT .F               139:   BHT.
 TCS .HRS               4:   Time Circ. stopped
 MRT .F               139:   Maximum recorded temp.
 LUN .            HL 6302:   Logging unit number
 LUL .               CODY:   Logging unit location
 ENGI.              GETTY:   Recorded By
 WITN.              FIVAS:   Witnessed by
 ORIG.           5" PRINT:   Origin of data
 UWI .     49025110220000:   Unique Well ID
 DICO. A2D TECHNOLOGIES, INC.:   Digitizing Company
~OTHER INFORMATION
~A   DEPT     NPHI       RHOB       CORR        TEND        GRD      CALD        SPR       RILD       RILM       RFOC       TENR   
# ...
 3346.0000     0.1690     2.5310    -0.0130   -77.3530   103.9010     9.1370   -10.1720     9.9990    11.3560    11.3060   -56.7390
 3346.5000     0.1840     2.5250    -0.0200   -76.9310   106.6170     9.1370   -10.4200    10.7390    11.3240    11.9960   -56.7390
 3347.0000     0.1950     2.5280    -0.0190   -76.5080   109.2600     9.1370   -10.6670    10.6620    11.2960    11.3080   -55.8940
 3347.5000     0.2070     2.5310    -0.0080   -76.0860   111.8950     9.1370   -10.9140    10.7320    11.2670    10.6990   -53.2970
 3348.0000     0.2180     2.5340    -0.0100   -73.8350   114.4950     9.1370   -11.1710    10.8030    11.0390    10.0890   -50.6990
 3348.5000     0.2180     2.5280    -0.0140   -69.6900   115.9120     9.1370   -11.1340    10.8730    10.6850     9.6320   -48.1010
 3349.0000     0.2030     2.5230    -0.0110   -65.5440   113.8750     9.1370   -11.0030    10.9490    10.3310     9.9160   -44.8090
 3349.5000     0.1890     2.5200    -0.0060   -61.3990   112.4610     9.1370   -10.8690    10.7840     9.9560    10.2930   -40.8480
 3350.0000     0.1760     2.5190     0.0000   -57.2540   112.4880     9.1370   -10.7340    10.1590     9.5290    10.5570   -36.8880
 3350.5000     0.1760     2.5180    -0.0100   -53.1080   112.5790     9.1370   -10.6000     9.5330     9.1030     9.9860   -32.9280
 3351.0000     0.1770     2.5160    -0.0400   -48.9630   114.3350     9.1370   -10.4660     8.9070     8.6360     9.3510   -28.9670
 3351.5000     0.1920     2.5150    -0.0390   -44.8170   118.0700     9.1370   -10.3320     8.2810     8.1660     8.7160   -27.9360
 3352.0000     0.2020     2.5140    -0.0380   -40.6720   122.6370     9.1370   -10.1980     7.6550     7.5000     8.0210   -29.7750
 3352.5000     0.2110     2.5060    -0.0370   -36.5270   126.5450     9.1370   -10.0640     7.0300     6.8330     7.2680   -31.6140
 3353.0000     0.2180     2.5000    -0.0280   -39.7900   128.6000     9.1370    -9.9300     6.4040     6.3480     6.4480   -33.4530
 3353.5000     0.2300     2.4930    -0.0170   -45.1870   131.4130     9.1370    -9.8390     5.7780     6.0370     6.1610   -35.2920
 3354.0000     0.2400     2.4860    -0.0040   -50.5840   134.6140     9.1370    -9.8370     5.1520     5.6680     5.7680   -37.1310
 3354.5000     0.2400     2.4790     0.0100   -55.9810   137.0510     9.1370    -9.8410     4.5570     5.2460     5.2970   -38.9700
 3355.0000     0.2400     2.4770     0.0110   -61.3780   135.8130     9.1370    -9.5830     4.1920     4.8230     4.6000   -40.8090
 3355.5000     0.2450     2.4760     0.0110   -66.7750   133.3990     9.1370    -9.4880     3.8270     4.4010     4.6600   -42.6480
 3356.0000     0.2470     2.4750     0.0070   -72.1720   132.6240     9.1370    -9.3810     3.4620     3.9780     4.7130   -44.4870
 3356.5000     0.2480     2.4740    -0.0010   -77.5690   135.8540     9.1370    -9.2790     3.0970     3.5560     4.7710   -46.3260
 3357.0000     0.2640     2.4720    -0.0110   -82.9660   142.8860     9.1370    -8.8850     2.7320     3.1330     4.5600   -48.1650
 3357.5000     0.2980     2.4640    -0.0040   -84.5110   161.4140     9.1370    -8.4300     2.3410     2.7110     4.3150   -50.0040
 3358.0000     0.3080     2.4380     0.0060   -81.7310   184.0560     9.1370    -7.9710     2.3410     2.4280     3.5850   -51.8430
 3358.5000     0.2780     2.4050     0.0160   -78.9500   197.0320     9.1370    -7.5100     2.3740     2.5880     2.8000   -53.6820
 3359.0000     0.2660     2.3790     0.0470   -76.1700   183.5780     9.1370    -7.0650     2.3990     3.0600     2.2780   -55.5210
 3359.5000     0.2620     2.4180     0.0540   -73.3890   162.1900     9.1370    -6.9330     2.7030     3.5650     2.8990   -54.7690
 3360.0000     0.2530     2.4590     0.0350   -70.6090   142.7510     9.1370    -6.9690     3.2560     4.0710     4.2300   -48.9270
 3360.5000     0.2390     2.5010     0.0220   -67.8280   137.5700     9.1370    -7.5190     3.8080     4.5760     5.3720   -43.0860
 3361.0000     0.2290     2.5120     0.0570   -65.0480   138.8680     9.1370    -8.0610     4.3610     5.0810     5.1730   -36.9180
 3361.5000     0.2290     2.5100     0.0440   -62.2670   134.0880     9.1370    -8.6010     4.9140     5.5860     5.0400   -36.6150
 3362.0000     0.2320     2.5150     0.0180   -59.4870   125.4090     9.1370    -9.1410     5.4670     6.0910     6.1660   -36.2950
 3362.5000     0.2310     2.5400     0.0090   -56.7060   116.7720     9.1370    -9.6590     6.0200     6.5960     7.3950   -35.9750
 3363.0000     0.2210     2.5480    -0.0010   -53.9260   117.1760     9.1370   -10.1480     6.5720     7.1020     7.2810   -35.6540
 3363.5000     0.2110     2.5560    -0.0040   -51.1450   119.6610     9.1380   -10.6370     7.1250     7.4950     7.1950   -35.3340
 3364.0000     0.2050     2.5640     0.0010   -48.3650   120.6160     9.1500   -11.1250     7.4360     7.7970     7.7370   -35.0140
 3364.5000     0.2060     2.5710     0.0060   -45.5840   119.0850     9.1620   -11.6130     7.6680     8.0990     8.3040   -34.6930
 3365.0000     0.2090     2.5680     0.0120   -42.8040   118.2540     9.1740   -12.1010     7.9000     8.4020     8.8720   -34.3730
 3365.5000     0.2180     2.5640     0.0240   -40.0230   117.8690     9.1860   -12.5890     8.1320     8.7040     9.4610   -34.0530
 3366.0000     0.2320     2.5640     0.0360   -37.2430   117.4840     9.1990   -13.0740     8.3640     8.9570     9.2670   -33.7320
 3366.5000     0.2450     2.5650     0.0500   -34.4620   117.1010     9.2110   -13.4280     8.5580     8.9150     8.9230   -33.4120
 3367.0000     0.2390     2.5600     0.0590   -31.6820   116.7160     9.2230   -13.4060     8.5580     8.8600     8.6360   -33.0920
 3367.5000     0.2280     2.5560     0.0460   -28.9010   116.3250     9.2350   -13.2820     8.5580     8.8050     8.7180   -32.7710
 3368.0000     0.2160     2.5550     0.0200   -26.1210   115.5610     9.2480   -13.1560     8.5580     8.7500     8.8030   -32.4510
 3368.5000     0.2080     2.5550     0.0090   -23.3400   114.0730     9.2600   -13.0260     8.2090     8.5830     8.8870   -32.1310
 3369.0000     0.2130     2.5580     0.0040   -20.5600   113.4320     9.2720   -12.9050     7.8510     8.2780     9.0390   -31.8100
 3369.5000     0.2220     2.5630     0.0080   -17.7800   115.8300     9.2840   -12.7790     7.4930     7.9740     8.8820   -31.4900
 3370.0000     0.2320     2.5640     0.0150   -16.5960   118.2140     9.2970   -12.6530     7.1350     7.6690     8.4670   -31.1690
 3370.5000     0.2410     2.5620     0.0210   -17.6090   120.4070     9.3090   -12.5270     6.7770     7.3640     8.0510   -30.8490
 3371.0000     0.2500     2.5550     0.0270   -18.6220   121.4410     9.3210   -12.4010     6.5670     7.0600     7.6350   -30.5290
 3371.5000     0.2610     2.5470     0.0340   -19.6350   122.4660     9.3340   -12.2740     6.5380     6.6880     7.2240   -30.2080
 3372.0000     0.2550     2.5390     0.0220   -20.6490   123.4690     9.3390   -12.1480     6.5080     6.8490     6.6060   -29.8880
 3372.5000     0.2440     2.5310     0.0060   -21.6620   121.9820     9.3440   -12.0220     6.4790     7.0190     6.1050   -29.5680
 3373.0000     0.2340     2.5340     0.0000   -22.6750   117.5720     9.3480   -11.8960     6.4490     7.1900     6.7170   -29.2470
 3373.5000     0.2290     2.5450     0.0060   -23.6890   113.7410     9.3530   -11.7700     6.4200     7.4450     7.7520   -28.9270
 3374.0000     0.2310     2.5610     0.0130   -24.7020   111.9690     9.3570   -11.6430     6.3900     7.2730     9.2060   -28.6070
 3374.5000     0.2310     2.5760     0.0190   -25.7150   112.4840     9.3620   -11.5170     6.1650     6.7930     9.0810   -28.2860
 3375.0000     0.2240     2.5800     0.0150   -26.7290   115.4010     9.3660   -11.3910     5.9400     6.3130     8.4680   -27.9660
 3375.5000     0.2190     2.5690     0.0050   -27.7420   118.6200     9.3710   -11.2650     5.7150     6.0290     7.5140   -27.6460
 3376.0000     0.2300     2.5570     0.0000   -28.7550   120.6030     9.3760   -11.1380     5.4900     5.7930     6.5600   -27.3250
