~VERSION INFORMATION
 VERS.                2.0:   CWLS LOG ASCII STANDARD - VERSION 2.0
 WRAP.                 NO:   ONE LINE PER DEPTH STEP
~WELL INFORMATION
#MNEM.UNIT      DATA TYPE    INFORMATION
#----------   ------------   ------------------------------
 STRT.F          712.0000:   START DEPTH
 STOP.F         3352.0000:   STOP DEPTH
 STEP.F            0.5000:   STEP LENGTH
 NULL.          -999.2500:   NO VALUE
 COMP.    FENIX & SCISSON:   COMPANY
 WELL. FENIX & SCISSON "AX" #24-14:   WELL
 FLD .              NPR 3:   FIELD
 LOC .      S14 T38N R78W:   LOCATION
 CNTY.            NATRONA:   COUNTY
 STAT.            WYOMING:   STATE
 CTRY. UNITED STATES OF AMERICA:   COUNTRY
 SRVC.       SCHLUMBERGER:   SERVICE COMPANY
 DATE.        19-JUN-1981:   LOGDATE
 API .     49025108750000:   API NUMBER
~CURVE INFORMATION
#MNEM.UNIT       API CODE    CURVE DESCRIPTION
#----------   ------------   ------------------------------
 DEPT.F                  :   
 TENR.LBS    07 635 01 00:   TENSION
 ILD .OHMM   07 120 46 00:   DEEP INDUCTION RESISTIVITY
 SFL .OHMM   07 220 01 00:   SHALLOW FOCUSED LOG RESISTIVITY
 ILM .OHMM   07 120 44 00:   INDUCTION LOG MEDIUM RESISTIVITY
 SPR .MV     07 010 01 00:   SPONTANEOUS POTENTIAL
 TEND.LBS    45 635 01 00:   TENSION FROM DENSITY LOG
 DRHO.G/C3   45 356 01 00:   DENSITY CORRECTION
 CALD.IN     45 280 60 00:   CALIPER FROM DENSITY LOG
 GRD .GAPI   45 310 01 00:   GAMMA RAY FROM DENSITY LOG
 RHOB.G/C3   45 350 01 00:   BULK DENSITY
~PARAMETER INFORMATION
#MNEM.UNIT          VALUE    DESCRIPTION
#----------   ------------   ------------------------------
 EKB .F         5216.0000:   Kelly bushing
 EGL .F         5206.0000:   Ground level
 EDF .F         5215.0000:   Drilling floor
 EPD .F            0.0000:   Permanent datum
 TD  .F         3360.0000:   Total depth
 DATE.        19-JUN-1981:   Date logged
 CLNT.            A2DTECH:   Client Code
 SL  . 2413' FNL & 827' FWL:   Surface Location
 PD  .                 GL:   Permanent Datum
 DAPD.F                10:   Feet Above Permanent Datum
 DD  .F              3360:   Depth driller
 DL  .F              3348:   Depth logger
 BLI .F              3342:   Bottom log interval
 TLI .F               728:   Top log interval
 CS1 .IN            8.625:   Casing size
 CBD1.      8.625" @ 728':   Casing driller 1
 CBL1.F               728:   Casing logger 1
 BS1 .IN            7.875:   Bit size
 BSD1.F              3360:   Depth drilled with bit1
 DFT .                FGM:   Type fluid in hole
 DFD .                  9:   Density
 DFV .                 45:   Viscosity
 DFPH.                9.5:   pH
 DFL .                 10:   Fluid loss
 MSS .               TANK:   Source of sample
 RMS .OHMM           5.71:   Rm
 MST .F                68:   Rm Meas. temp.
 RMF .OHMM           1.27:   Rmf
 MFST.F                68:   Rmf Meas. temp.
 MFSS.               MEAS:   Source Rmf.
 RMB .OHMM           3.29:   Rm. at BHT
 BHT .F               118:   BHT.
 TCS .HRS            0800:   Time Circ. stopped
 TLAB.HRS            1130:   Time logger at bottom
 MRT .F               118:   Maximum recorded temp.
 LUN .               8039:   Logging unit number
 LUL .               CSPR:   Logging unit location
 ENGI.           G. PFARR:   Recorded By
 WITN.           R. SCOTT:   Witnessed by
 ORIG.           5" PRINT:   Origin of data
 UWI .     49025108750000:   Unique Well ID
 DICO. A2D TECHNOLOGIES, INC.:   Digitizing Company
~OTHER INFORMATION
~A   DEPT     TENR        ILD        SFL        ILM        SPR       TEND       DRHO       CALD         GRD      RHOB   
  712.0000  -999.2500  -999.2500  -999.2500  -999.2500  -999.2500  -999.2500  -999.2500  -999.2500    64.9500  -999.2500
  712.5000  -999.2500  -999.2500  -999.2500  -999.2500  -999.2500  -999.2500  -999.2500  -999.2500    65.4910  -999.2500
  713.0000  -999.2500  -999.2500  -999.2500  -999.2500  -999.2500  -999.2500  -999.2500  -999.2500    64.8440  -999.2500
  713.5000  -999.2500  -999.2500  -999.2500  -999.2500  -999.2500  -999.2500  -999.2500  -999.2500    62.5210  -999.2500
  714.0000  -999.2500  -999.2500  -999.2500  -999.2500  -999.2500  -999.2500  -999.2500  -999.2500    61.6700  -999.2500
  714.5000  -999.2500  -999.2500  -999.2500  -999.2500  -999.2500  -999.2500  -999.2500  -999.2500    64.4720  -999.2500
  715.0000  -999.2500  -999.2500  -999.2500  -999.2500  -999.2500  -999.2500  -999.2500  -999.2500    66.5040  -999.2500
  715.5000  -999.2500  -999.2500  -999.2500  -999.2500  -999.2500  -999.2500  -999.2500  -999.2500    66.6970  -999.2500
  716.0000  -999.2500  -999.2500  -999.2500  -999.2500  -999.2500  -999.2500  -999.2500  -999.2500    65.0220  -999.2500
  716.5000  -999.2500  -999.2500  -999.2500  -999.2500  -999.2500  -999.2500  -999.2500  -999.2500    63.1170  -999.2500
  717.0000  -999.2500  -999.2500  -999.2500  -999.2500  -999.2500  -999.2500  -999.2500  -999.2500    62.7760  -999.2500
  717.5000  -999.2500  -999.2500  -999.2500  -999.2500  -999.2500  -999.2500  -999.2500  -999.2500    63.9420  -999.2500
  718.0000  -999.2500  -999.2500  -999.2500  -999.2500  -999.2500  -999.2500  -999.2500  -999.2500    66.0380  -999.2500
  718.5000  -999.2500  -999.2500  -999.2500  -999.2500  -999.2500  -999.2500  -999.2500  -999.2500    67.3810  -999.2500
  719.0000  -999.2500  -999.2500  -999.2500  -999.2500  -999.2500  -999.2500  -999.2500  -999.2500    67.4760  -999.2500
  719.5000  -999.2500  -999.2500  -999.2500  -999.2500  -999.2500  -999.2500  -999.2500  -999.2500    67.6270  -999.2500
  720.0000  -999.2500  -999.2500  -999.2500  -999.2500  -999.2500  -999.2500  -999.2500  -999.2500    68.8970  -999.2500
  720.5000  -999.2500  -999.2500  -999.2500  -999.2500  -999.2500  -999.2500  -999.2500  -999.2500    70.1450  -999.2500
  721.0000  -999.2500  -999.2500  -999.2500  -999.2500  -999.2500  -999.2500  -999.2500  -999.2500    70.8430  -999.2500
  721.5000  -999.2500  -999.2500  -999.2500  -999.2500  -999.2500  -999.2500  -999.2500  -999.2500    71.5540  -999.2500
  722.0000  -999.2500  -999.2500  -999.2500  -999.2500  -999.2500  -999.2500  -999.2500  -999.2500    71.0450  -999.2500
  722.5000  -999.2500  -999.2500  -999.2500  -999.2500  -999.2500  -999.2500  -999.2500  -999.2500    69.0150  -999.2500
  723.0000  -999.2500  -999.2500  -999.2500  -999.2500  -999.2500  -999.2500  -999.2500  -999.2500    65.9280  -999.2500
  723.5000  -999.2500  -999.2500  -999.2500  -999.2500  -999.2500  -999.2500  -999.2500  -999.2500    63.3840  -999.2500
  724.0000  -999.2500  -999.2500  -999.2500  -999.2500  -999.2500  -999.2500  -999.2500  -999.2500    63.8420  -999.2500
  724.5000  -999.2500  -999.2500  -999.2500  -999.2500  -999.2500  -999.2500  -999.2500  -999.2500    64.4150  -999.2500
  725.0000  -999.2500  -999.2500  -999.2500  -999.2500  -999.2500  -999.2500  -999.2500  -999.2500    64.7220  -999.2500
  725.5000  -999.2500  -999.2500  -999.2500  -999.2500  -999.2500  -999.2500  -999.2500  -999.2500    65.5610  -999.2500
  726.0000  -999.2500  -999.2500  -999.2500  -999.2500  -999.2500  -999.2500  -999.2500  -999.2500    67.0530  -999.2500
  726.5000  -999.2500  -999.2500  -999.2500  -999.2500  -999.2500  -999.2500  -999.2500  -999.2500    68.1760  -999.2500
  727.0000  -999.2500  -999.2500  -999.2500  -999.2500  -999.2500  -999.2500  -999.2500  -999.2500    66.1870  -999.2500
  727.5000   687.6230  -999.2500  -999.2500  -999.2500  -999.2500  -999.2500  -999.2500  -999.2500    63.0910     2.2730
  728.0000   687.6230  -999.2500  -999.2500  -999.2500   -27.7910  -999.2500  -999.2500     8.8650    60.5480     2.3720
  728.5000   687.6230  -999.2500     0.3600  -999.2500   -51.3570  -999.2500     0.0980     9.0660    70.0680     2.3570
  729.0000   687.6230  -999.2500     1.1010  -999.2500   -69.8900  -999.2500     0.1500     9.2680    83.2450     2.2980
  729.5000   687.6230  -999.2500     2.8330  -999.2500   -75.3880   778.7700     0.1600     9.5760    89.6680     2.2580
  730.0000   687.6230  1981.9871     6.4630   958.6380   -72.5400   783.7300     0.1680     9.8310    91.6670     2.2360
  730.5000   687.6230   862.1990    10.2390   587.9530   -67.5080   783.7300     0.1490    10.3070    89.5210     2.2410
  731.0000   688.5510     2.5420     9.1820   199.0970   -62.4760   783.7300     0.1170    11.2250    88.0620     2.2770
  731.5000   687.6230     4.5010     7.6650    31.4410   -59.8140   783.7300     0.0810    12.0990    88.6920     2.3270
  732.0000   687.6230    18.3550     7.7600    11.0080   -58.8470   783.7300     0.0560    12.2480    89.3900     2.3770
  732.5000   687.6230   301.5160     7.7510     5.9500   -57.8430   783.7300     0.0530    12.3730    89.6820     2.4110
  733.0000   687.6230   978.6280     8.0870     6.1790   -57.6990   783.7300     0.0700    12.3980    89.9030     2.4340
  733.5000   687.6230   838.5370     8.3110     6.4320   -58.0090   783.7300     0.0960    12.3630    91.4600     2.3940
  734.0000   687.6230   307.2440     8.5440     7.2600   -58.2980   783.7300     0.1200    12.1580    93.7720     2.2540
  734.5000   687.6230    21.0970     7.2300     6.2510   -58.5960   783.7300     0.1370    11.8450    96.0730     2.1490
  735.0000   687.6230     6.1140     5.8620     4.7890   -58.8920   783.7300     0.0880    11.4870    97.7070     2.1030
  735.5000   687.6230     5.9500     4.9610     5.2390   -59.1890   783.7300     0.0490    11.1250    96.9990     2.1440
  736.0000   687.6230     6.4230     5.7590     5.9500   -59.4860   783.7300     0.0490    10.7650    96.3410     2.2300
  736.5000   687.6230     6.9980     6.5570    11.0240   -59.7670   783.7300     0.0600    10.5860    96.0280     2.3250
  737.0000   687.6230     7.5280     7.3550    15.5240   -60.0470   783.7300     0.0710    10.4080    98.1000     2.3790
  737.5000   687.6230     7.8670     8.1530    10.9070   -60.3240   783.7300     0.0760    10.1380   100.4620     2.4100
  738.0000   687.6230     8.1810     8.6630     7.1300   -60.5900   783.7300     0.0610     9.8870   101.9760     2.4410
  738.5000   687.6230     8.4070     8.8970     7.2600   -60.8760   783.7300     0.0410     9.7410   100.7750     2.4790
  739.0000   687.6230     8.4560     9.1310     7.3470   -61.1210   783.7300     0.0200     9.6250    99.4140     2.5160
  739.5000   687.6230     8.5050     9.1860     7.4400   -61.3040   783.7300     0.0130     9.5090   100.5080     2.5210
  740.0000   687.6230     8.5440     9.1860     7.5330   -61.6000   783.7300     0.0100     9.3880   102.5020     2.5090
  740.5000   687.6230     8.6760     9.2320     7.6250   -62.0930   783.7300     0.0060     9.2680   103.5260     2.5010
  741.0000   687.6230     8.7870     9.2710     7.7180   -62.5800   783.7300     0.0010     9.2640   102.8240     2.4980
  741.5000   687.6230     8.8970     9.3100     7.8050   -63.0490   783.7300     0.0000     9.2660   103.1420     2.4960
  742.0000   687.6230     9.0210     9.3530     7.7660   -63.6100   783.7300    -0.0010     9.2680   108.0240     2.4930
  742.5000   687.6230     8.9610     9.2910     7.7290   -63.4600   783.7300    -0.0020     9.2690   113.0210     2.4870
  743.0000   687.6230     8.8940     9.2200     7.6910   -63.2940   783.7300    -0.0030     9.2710   114.0250     2.4800
  743.5000   687.6230     8.8260     9.1500     7.6540   -63.1830   783.7300    -0.0040     9.2730   110.9720     2.4720
  744.0000   687.6230     8.7590     9.0790     7.6170   -63.1100   783.7300    -0.0010     9.2740   108.0210     2.4740
  744.5000   687.6230     8.6910     9.0210     7.5800   -62.9940   783.7300     0.0010     9.2760   105.0850     2.4820
  745.0000   687.6230     8.6240     9.0620     7.5420   -63.1260   783.7300     0.0080     9.2770   102.2630     2.4890
