~VERSION INFORMATION
 VERS.                2.0:   CWLS LOG ASCII STANDARD - VERSION 2.0
 WRAP.                 NO:   ONE LINE PER DEPTH STEP
~WELL INFORMATION
#MNEM.UNIT      DATA TYPE    INFORMATION
#----------   ------------   ------------------------------
 STRT.F         2185.0000:   START DEPTH
 STOP.F         5688.0000:   STOP DEPTH
 STEP.F            0.5000:   STEP LENGTH
 NULL.          -999.2500:   NO VALUE
 COMP.       FLUOR DANIEL:   COMPANY
 WELL.   FLUOR "X" #53-10:   WELL
 FLD .           N.P.R #3:   FIELD
 LOC .      S10 T38N R78W:   LOCATION
 CNTY.            NATRONA:   COUNTY
 STAT.            WYOMING:   STATE
 CTRY. UNITED STATES OF AMERICA:   COUNTRY
 SRVC.      WESTERN ATLAS:   SERVICE COMPANY
 DATE.        23-MAR-1997:   LOGDATE
 API .     49025228470000:   API NUMBER
~CURVE INFORMATION
#MNEM.UNIT       API CODE    CURVE DESCRIPTION
#----------   ------------   ------------------------------
 DEPT.F                  :   
 CNC .DEC    42 890 03 00:   NEUTRON POROSITY SANDSTONE
 TEND.LBS    45 635 01 00:   TENSION FORM DENSITY LOG
 GRD .GAPI   45 310 01 00:   GAMMA RAY FROM DENSITY LOG
 CALD.IN     45 280 60 00:   CALIPER FROM DENSITY LOG
 ZDEN.G/C3   45 350 01 00:   BULK DENSITY
 ZCOR.G/C3   45 356 01 00:   DENSITY CORRECTION
 PE  .B/E    45 358 01 00:   PHOTOELECTRIC FACTOR
 R4SL.OHMM   07 000 00 00:   RESISTIVITY DEL 4
 R2SL.OHMM   07 000 00 00:   RESISTIVITY DEL 2
~PARAMETER INFORMATION
#MNEM.UNIT          VALUE    DESCRIPTION
#----------   ------------   ------------------------------
 EKB .F         5182.0000:   Kelly bushing
 EGL .F         5172.0000:   Ground level
 EDF .F         5181.0000:   Drilling floor
 EPD .F         5172.0000:   Permanent datum
 TD  .F         5690.0000:   Total depth
 CLNT.            A2DTECH:   Client Code
 SL  . 1183' FNL & 2118' FEL:   Surface Location
 PD  .                 GL:   Permanent Datum
 LMF .                 KB:   Log Measured From
 DMF .                 KB:   Drilling Measured From
 DAPD.F                10:   Feet Above Permanent Datum
 DATE.        23-MAR-1997:   Date Logged [DD-MMM-YYYY]
 DD  .F              5690:   Depth driller
 DL  .F              5688:   Depth logger
 BLI .F              5648:   Bottom log interval
 TLI .F              2200:   Top log interval
 CS1 .IN            9.625:   Casing size
 CBD1.      9.625" @ 446':   Casing driller 1
 CBL1.F               452:   Casing logger 1
 BS1 .IN             8.75:   Bit size
 BSD1.F              5690:   Depth drilled with bit1
 DFT .           GEL CHEM:   Type fluid in hole
 DFD .                9.8:   Density
 DFV .                 66:   Viscosity
 DFPH.                8.5:   pH
 DFL .                8.4:   Fluid loss
 MSS .              CIRC.:   Source of sample
 RMS .OHMM            1.1:   Rm
 MST .F                73:   Rm Meas. temp.
 RMF .OHMM           0.87:   Rmf
 MFST.F                73:   Rmf Meas. temp.
 MFSS.               CALC:   Source Rmf.
 RMC .OHMM           1.35:   Rmc
 MCST.F                73:   Rmc Meas. temp.
 MCSS.               CALC:   Source Rmc.
 RMB .OHMM           0.46:   Rm. at BHT
 BHT .F               174:   BHT.
 TCS .HRS               5:   Time Circ. stopped
 MRT .F               174:   Maximum recorded temp.
 LUN .            HL 6530:   Logging unit number
 LUL .          CASPER WY:   Logging unit location
 ENGI.           BROWNLOW:   Recorded By
 WITN.              HARDY:   Witnessed by
 ORIG.     2.5", 5" PRINT:   Origin of data
 UWI .     49025228470000:   Unique Well ID
 DICO. A2D TECHNOLOGIES, INC.:   Digitizing Company
~OTHER INFORMATION
~A  DEPTH      CNC       TEND        GRD       CALD       ZDEN       ZCOR         PE       R4SL       R2SL
# ...
 2878.5000     0.1595   -28.3295    56.5384     8.7625     2.3529     0.0815     2.2574    41.5833    29.8579
 2879.0000     0.1469   -20.7600    45.3239     8.7925     2.3828     0.0845     2.2726    53.3298    44.2594
 2879.5000     0.1222   -20.6867    38.7179     8.8074     2.4075     0.0904     2.3177    86.5211    58.8902
 2880.0000     0.0874   -20.6135    40.9665     8.8524     2.4614     0.0964     2.5278   132.8130    72.4771
 2880.5000     0.0754   -13.0435    42.8693     8.8523     2.5717     0.0919     2.8427   167.9906    84.3965
 2881.0000     0.0568   -12.9685    40.4064     8.8672     2.6332     0.0619     3.1877   179.1449   103.8658
 2881.5000     0.0417   -12.8792    35.9158     8.8670     2.6487     0.0558     3.3978   185.0210   117.6480
 2882.0000     0.0348   -12.8059    33.8313     8.8518     2.6619     0.0498     3.5778   156.7045   124.3559
 2882.5000     0.0307   -20.2472    35.9572     8.8366     2.6739     0.0483     3.6829   127.3280   109.8196
 2883.0000     0.0279   -35.1481    36.8802     8.8364     2.6866     0.0347     3.7289   104.9015    95.3121
 2883.5000     0.0285   -35.0749    37.2016     8.8514     2.6949     0.0197     3.7732    81.9981    76.6724
 2884.0000     0.0285   -42.5162    37.2240     8.8663     2.6934     0.0137     3.7733    64.4514    55.7903
 2884.5000     0.0288   -42.4246    38.4477     8.8510     2.6889     0.0137     3.7735    49.9347    37.3639
 2885.0000     0.0294   -42.3514    38.4684     8.8208     2.6769     0.0181     3.7736    34.2022    27.5663
 2885.5000     0.0303   -42.2781    39.0906     8.7761     2.6626     0.0241     3.6688    23.8693    19.5113
 2886.0000     0.0340   -42.2039    40.6151     8.7444     2.6387     0.0436     3.4741    20.7837    14.5954
 2886.5000     0.0443   -42.1289    42.4403     8.7127     2.6057     0.0660     3.4142    17.6028    10.3308
 2887.0000     0.0560   -34.5438    43.6640     8.6997     2.5720     0.0810     3.3994    13.5335     9.2501
 2887.5000     0.0688   -34.4705    42.7824     8.7146     2.5319     0.0915     3.2946    11.3051     8.4764
 2888.0000     0.1086   -34.3973    41.2993     8.7295     2.4773     0.0959     2.8150    10.1197     7.8375
 2888.5000     0.1362   -34.3240    42.5735     8.7294     2.3797     0.0912     2.4253     9.7072     7.6249
 2889.0000     0.1584   -34.2508    45.0268     8.7292     2.3422     0.0854     2.1706     9.7057     7.4180
 2889.5000     0.1766   -34.1776    46.7801     8.7291     2.3198     0.0793     2.0508     9.5711     7.3170
 2890.0000     0.1965   -34.1043    47.1015     8.7289     2.3070     0.0778     2.1169     9.5698     7.0207
 2890.5000     0.2050   -34.0310    47.4230     8.7288     2.3078     0.0763     2.2161     9.5686     6.6438
 2891.0000     0.2080   -33.9578    48.3459     8.7286     2.3093     0.0777     2.1413     9.9726     6.0316
 2891.5000     0.2083   -33.8831    49.2689     8.7285     2.3048     0.0777     2.0215    10.3934     5.8083
 2892.0000     0.2077   -33.8081    49.5903     8.7283     2.2965     0.0792     1.9167    10.6837     5.7880
 2892.5000     0.2059   -33.7197    48.4028     8.7320     2.2890     0.0762     1.9018    10.5917     6.3773
 2893.0000     0.2023   -33.6465    46.9249     8.7325     2.3085     0.0701     2.0819    10.5337     7.0266
 2893.5000     0.1975   -41.0878    45.7374     8.7331     2.3272     0.0596     2.2769    10.5323     7.3253
 2894.0000     0.1951   -40.9962    51.1768     8.7337     2.3446     0.0445     2.3970    11.1301     7.2052
 2894.5000     0.1952   -40.9229    55.1073     8.7343     2.3451     0.0556     2.3372    11.9251     7.1046
 2895.0000     0.1987   -33.3534    56.9325     8.7349     2.3219     0.0715     2.2774    12.2581     7.0039
 2895.5000     0.1972   -33.2802    56.3292     8.7355     2.3114     0.0820     2.2625    12.0876     6.9346
 2896.0000     0.1975   -33.2069    54.1708     8.7361     2.3084     0.0909     2.2627    11.9200     6.9358
 2896.5000     0.1993   -33.1334    51.8295     8.7367     2.3264     0.0939     2.2778    11.9184     6.8413
 2897.0000     0.1999   -25.5622    50.6995     8.7373     2.3436     0.0849     2.2930    11.9169     6.7483
 2897.5000     0.1987   -25.4726    51.9283     8.7380     2.3533     0.0654     2.3381    12.0809     6.5652
 2898.0000     0.1885   -25.3993    53.4528     8.7386     2.3578     0.0683     2.3532    12.0793     6.4757
 2898.5000     0.1891   -17.8298    54.6765     8.7392     2.3563     0.0698     2.2634    12.0149     6.3878
 2899.0000     0.1916   -17.7566    53.7898     8.7398     2.3526     0.0668     2.1736    11.8434     6.3888
 2899.5000     0.1936   -17.6833    52.9134     8.7404     2.3496     0.0607     2.1288    11.6719     6.4788
 2900.0000     0.1948   -17.5714    52.3274     8.7410     2.3443     0.0614     2.0989    11.4232     6.5336
 2900.5000     0.1966   -17.2214    53.2555     8.7417     2.3292     0.0628     2.1291    10.9066     6.5706
 2901.0000     0.1990    -9.3543    55.3815     8.7422     2.3140     0.0675     2.1442    10.5105     6.5715
 2901.5000     0.1997    -8.9868    59.0643     8.7579     2.3106     0.0702     2.1744    10.3648     6.5724
 2902.0000     0.1944    -8.6196    58.7719     8.7736     2.3113     0.0642     2.2345    10.3632     6.5734
 2902.5000     0.1895    -8.2459    59.9856     8.7892     2.3068     0.0552     2.2654    10.3618     6.6659
 2903.0000     0.1907   -15.3809    60.2957     8.8049     2.2934     0.0476     2.2817    10.3604     6.7597
 2903.5000     0.1925   -22.4178    60.0034     8.7904     2.2814     0.0461     2.3249    10.5034     6.8547
 2904.0000     0.1949   -22.0503    57.9039     8.7458     2.2664     0.0505     2.3251    10.6479     7.0480
 2904.5000     0.1979   -29.2709    54.2983     8.7313     2.2604     0.0550     2.2952    11.0975     7.0490
 2905.0000     0.1955   -28.8116    47.9616     8.7319     2.2612     0.0579     2.3104    11.5661     7.0498
 2905.5000     0.1898   -28.4441    47.0563     8.7476     2.2694     0.0564     2.3255    12.2223     7.0509
 2906.0000     0.1859   -13.0842    45.3820     8.7634     2.2769     0.0474     2.2957    13.2776     7.3507
 2906.5000     0.1811    -5.2204    39.5770     8.7488     2.2798     0.0383     2.2209    14.0309     7.7698
 2907.0000     0.1756     2.6433    37.7764     8.7495     2.2854     0.0323     2.1610    14.3227     8.3272
 2907.5000     0.1655    10.5070    37.1829     8.7501     2.3079     0.0382     2.1584    14.4209     8.3283
 2908.0000     0.1415     3.3733    39.3024     8.7355     2.3599     0.0505     2.3862    13.0883     7.6661
 2908.5000     0.1223    -3.7505    42.6246     8.7362     2.4220     0.0608     2.5937    11.3961     6.3177
 2909.0000     0.1193   -10.8793    46.5491     8.7216     2.4452     0.0546     2.7586    10.0611     5.9784
 2909.5000     0.1259   -25.5044    49.8712     8.7374     2.4482     0.0358     2.8636     9.1315     5.6575
 2910.0000     0.1488   -25.0450    51.6873     8.7380     2.3913     0.0275     2.9025     8.4033     5.4283
 2910.5000     0.1632   -24.6775    53.5034     8.7386     2.3254     0.0275     2.3688     8.1728     5.5048
 2911.0000     0.1795   -16.8138    53.2111     8.7392     2.2895     0.0320     2.2180     8.1717     5.6599
 2911.5000     0.1974   -16.4464    52.3164     8.7548     2.2820     0.0334     2.1439     8.1706     5.7395
 2912.0000     0.2065   -23.6670    54.4463     8.7403     2.2850     0.0319     2.1615     8.1695     5.9013
 2912.5000     0.2077   -23.2078    58.1074     8.7410     2.2887     0.0318     2.2339     8.1684     5.9842
 2913.0000     0.2047   -30.4285    60.1744     8.7417     2.2917     0.0318     2.2939     8.2813     6.0685
 2913.5000     0.1993   -29.9691    57.7758     8.7423     2.2955     0.0317     2.3238     8.3955     5.9857
 2914.0000     0.2000   -22.1054    55.6763     8.7429     2.2986     0.0362     2.3388     8.5111     5.9044
 2914.5000     0.2009   -14.2417    55.9863     8.7435     2.3014     0.0316     2.3388     8.7484     5.8241
