~VERSION INFORMATION
 VERS.                2.0:   CWLS LOG ASCII STANDARD - VERSION 2.0
 WRAP.                 NO:   ONE LINE PER DEPTH STEP
~WELL INFORMATION
#MNEM.UNIT      DATA TYPE    INFORMATION
#----------   ------------   ------------------------------
 STRT.F          198.0000:   START DEPTH
 STOP.F         3140.0000:   STOP DEPTH
 STEP.F            0.5000:   STEP LENGTH
 NULL.          -999.2500:   NO VALUE
 COMP.    FENIX & SCISSON:   COMPANY
 WELL. FENIX NPR 3 "AX" #43-34:   WELL
 FLD .                NPR:   FIELD
 LOC .      S34 T39N R78W:   LOCATION
 CNTY.            NATRONA:   COUNTY
 STAT.            WYOMING:   STATE
 CTRY. UNITED STATES OF AMERICA:   COUNTRY
 SRVC.              WELEX:   SERVICE COMPANY
 DATE.        02-JUL-1977:   LOGDATE
 API .     49025103890000:   API NUMBER
~CURVE INFORMATION
#MNEM.UNIT       API CODE    CURVE DESCRIPTION
#----------   ------------   ------------------------------
 DEPT.F                  :   
 CALD.IN     45 280 60 00:   CALIPER FROM DENSITY LOG
 GRD .GAPI   45 310 01 00:   GAMMA RAY FROM DENSITY LOG
 RHOB.G/C3   45 350 01 00:   BULK DENSITY
 CORR.G/C3   45 356 01 00:   DENSITY CORRECTION
 SPR .MV     07 010 01 00:   SPONTANEOUS POTENTIAL
 SFLU.OHMM   07 220 01 00:   SPHERICALLY FOCUSED LOG UNAVERAGED RESISTIVITY
 ILD .OHMM   07 120 46 00:   DEEP INDUCTION RESISTIVITY
 ILM .OHMM   07 120 44 00:   INDUCTION LOG MEDIUM RESISTIVITY
~PARAMETER INFORMATION
#MNEM.UNIT          VALUE    DESCRIPTION
#----------   ------------   ------------------------------
 EKB .F         5118.0000:   Kelly bushing
 EGL .F         5108.0000:   Ground level
 TD  .F         3145.0000:   Total depth
 DATE.        02-JUL-1977:   Date logged
 CLNT.            A2DTECH:   Client Code
 SL  . 1650' FNL & 2310' FWL:   Surface Location
 PD  .                 GL:   Permanent Datum
 EPD .F              5108:   Elevation Permanent Datum
 LMF .                 KB:   Log Measured From
 DMF .                 KB:   Drilling Measured From
 DAPD.F                10:   Feet Above Permanent Datum
 DD  .F              3145:   Depth driller
 DL  .F              3143:   Depth logger
 BLI .F              3141:   Bottom log interval
 TLI .F               200:   Top log interval
 CS1 .IN            8.625:   Casing size
 CBD1.      8.625" @ 203':   Casing driller 1
 CBL1.F               224:   Casing logger 1
 BS1 .IN            7.875:   Bit size
 BSD1.F              3145:   Depth drilled with bit1
 DFT .            KCL/MUD:   Type fluid in hole
 DFD .                  9:   Density
 DFV .                 34:   Viscosity
 DFPH.                7.5:   pH
 DFL .                9.2:   Fluid loss
 MSS .           FLOWLINE:   Source of sample
 RMS .OHMM            .18:   Rm
 MST .F                75:   Rm Meas. temp.
 RMF .OHMM            .16:   Rmf
 MFST.F                75:   Rmf Meas. temp.
 RMC .OHMM            .30:   Rmc
 MCST.F                75:   Rmc Meas. temp.
 MFSS.               FANN:   Source Rmf.
 MCSS.                KIT:   Source Rmc.
 RMB .OHMM            .11:   Rm. at BHT
 BHT .F               118:   BHT.
 TCS .HRS            3.75:   Time Circ. stopped
 MRT .F               118:   Maximum recorded temp.
 LUN .               8766:   Logging unit number
 LUL .             CASPER:   Logging unit location
 ENGI.          T. JOYNER:   Recorded By
 WITN.     W. PETTNG/GILL:   Witnessed by
 ORIG.           5" PRINT:   Origin of data
 UWI .     49025103890000:   Unique Well ID
 DICO. A2D TECHNOLOGIES, INC.:   Digitizing Company
~OTHER INFORMATION
~A   DEPT     CALD         GRD        RHOB     CORR        SPR       SFLU        ILD        ILM   
# ...
 1737.0000     8.4641   141.4799     2.5200     0.0303   -49.7479     9.1853     5.8485     6.5226
 1737.5000     8.4641   141.8801     2.5200     0.0303   -49.7503     9.1834     5.8937     6.6349
 1738.0000     8.4642   142.6778     2.5260     0.0303   -49.7518     9.1805     5.9393     6.7689
 1738.5000     8.4642   142.2832     2.5340     0.0343   -49.7542     9.1786     6.0631     6.7675
 1739.0000     8.4643   142.2860     2.5380     0.0384   -49.7558     9.1758     6.0613     6.4037
 1739.5000     8.4643   145.8660     2.5420     0.0384   -49.7582     9.1739     6.0596     6.4021
 1740.0000     8.4643   144.2790     2.5420     0.0384   -49.7598     9.1720     5.9483     6.4004
 1740.5000     8.4644   145.0768     2.5420     0.0424   -49.3651     8.6799     5.9471     6.3988
 1741.0000     8.4644   146.6696     2.5440     0.0464   -49.3667     8.6772     5.9459     6.3972
 1741.5000     8.4645   146.6725     2.5450     0.0504   -49.3691     8.6754     5.9447     6.3955
 1742.0000     8.4645   145.4830     2.5400     0.0464   -49.3707     8.6737     5.9435     6.3939
 1742.5000     8.4646   143.8958     2.5390     0.0464   -49.3731     9.1597     5.9417     6.3923
 1743.0000     8.4448   146.2838     2.5440     0.0464   -49.3747     9.1569     6.0491     6.3908
 1743.5000     8.4448   145.4916     2.5460     0.0464   -49.3771     9.1550     6.1597     6.2736
 1744.0000     8.4449   147.8797     2.5500     0.0465   -49.3787     9.1522     6.1579     6.2717
 1744.5000     8.4449   146.2925     2.5530     0.0544   -49.3811     9.3190     6.2330     6.2704
 1745.0000     8.4450   145.5003     2.5560     0.0584   -49.3827     9.3161     6.2692     6.3844
 1745.5000     8.4450   146.6958     2.5590     0.0545   -49.3851     9.3142     6.2673     6.5018
 1746.0000     8.4451   143.5183     2.5630     0.0545   -49.3867     9.6580     6.4991     6.6193
 1746.5000     8.4451   145.9065     2.5660     0.0625   -49.3892     9.6560     6.4978     6.7402
 1747.0000     8.4452   147.4997     2.5630     0.0665   -49.3908     9.4782     6.4965     6.7389
 1747.5000     8.4452   148.2978     2.5540     0.0585   -49.3932     9.3046     6.4952     6.8613
 1748.0000     8.4452   149.4905     2.5490     0.0505   -49.3948     9.3017     6.4926     6.8599
 1748.5000     8.4453   149.4929     2.5451     0.0545   -49.3972     9.3008     6.4919     6.8579
 1749.0000     8.4453   147.7081     2.5361     0.0506   -49.3988     9.4684     6.3716     6.8558
 1749.5000     8.4454   147.9067     2.5281     0.0466   -49.4012     9.4664     6.2547     6.8544
 1750.0000     8.4454   146.7220     2.5262     0.0346   -49.4028     9.4635     6.0286     6.7287
 1750.5000     8.4455   147.1226     2.5262     0.0426   -49.4052     8.5101     5.9221     6.4947
 1751.0000     8.4455   145.9326     2.5242     0.0426   -49.4139     8.6352     5.8098     6.4862
 1751.5000     8.4456   146.7308     2.5232     0.0466   -49.4186     8.6344     5.8092     6.4842
 1752.0000     8.4456   147.1313     2.5242     0.0466   -49.4257     8.6333     5.8087     6.3656
 1752.5000     8.4457   147.9290     2.5322     0.0576   -49.0336     8.6326     5.8076     6.2496
 1753.0000     8.4457   148.7273     2.5302     0.0586   -49.0407     8.4751     5.8073     6.2484
 1753.5000     8.4458   147.5372     2.5302     0.0586   -49.0455     8.4744     5.8068     6.2478
 1754.0000     8.4458   147.9378     2.5322     0.0626   -49.0526     8.3198     5.8060     6.2470
 1754.5000     8.4459   147.9408     2.5362     0.0627   -49.0573     8.3191     5.8054     6.1330
 1755.0000     8.4459   147.9437     2.5302     0.0627   -49.0644     8.4714     5.6990     6.1322
 1755.5000     8.4460   147.9466     2.5262     0.0667   -48.6722     8.6269     5.6985     6.2450
 1756.0000     8.4460   148.7450     2.5143     0.0667   -47.8853     8.6258     5.4928     5.8027
 1756.5000     8.4461   149.1457     2.5143     0.0707   -47.8900     8.6251     5.2950     5.6972
 1757.0000     8.4461   149.1487     2.5004     0.0707   -47.8970     8.6240     5.1035     5.5930
 1757.5000     8.4462   148.3561     2.4884     0.0667   -47.9017     8.6232     5.0104     5.3913
 1758.0000     8.4462   147.9613     2.4804     0.0667   -47.9088     8.6221     4.9188     5.2927
 1758.5000     8.4463   147.1687     2.4705     0.0667   -47.9135     9.1069     4.8290     5.1961
 1759.0000     8.4463   147.5694     2.4286     0.0628   -47.9205     8.7792     4.7407     5.1011
 1759.5000     8.4464   148.3679     2.4087     0.0548   -47.9252     3.9275     4.6544     5.1006
 1760.0000     8.4464   149.9620     2.3928     0.0429   -47.9323     4.8855     4.5691     5.1001
 1760.5000     8.4465   149.9650     2.3689     0.0429   -48.7313     6.0771     4.5686     5.0994
 1761.0000     8.4465   148.7746     2.3699     0.0349   -49.1356     7.5594     4.6524     5.1930
 1761.5000     8.4466   147.5841     2.3629     0.0190   -49.1403     9.4399     4.9148     5.1927
 1762.0000     8.4466   147.5870     2.4088     0.0190   -49.1474     9.4395     5.1917     5.5865
 1762.5000     8.4466   145.2030     2.5164     0.0350   -49.1522     9.4387     5.5859     6.0106
 1763.0000     8.4467   146.3994     2.5283     0.0429   -49.1593     9.4375     6.1209     6.4667
 1763.5000     8.4467   146.4023     2.5284     0.0429   -49.1640     9.4367     6.2335     6.7075
 1764.0000     8.4468   144.8138     2.5284     0.0469   -49.1711     9.2642     6.3479     6.9569
 1764.5000     8.4468   144.8167     2.5264     0.0509   -49.1759     9.4343     6.3476     6.9562
 1765.0000     8.4469   146.0132     2.5244     0.0510   -49.1830     9.4331     6.2312     6.5833
 1765.5000     8.4469   144.4246     2.5184     0.0510   -49.1878     9.2614     6.0068     6.3459
 1766.0000     8.4470   145.2232     2.5184     0.0510   -49.1949     9.6047     5.5812     6.0062
 1766.5000     8.4470   146.0219     2.5164     0.0629   -49.1996     9.4307     5.2822     5.7890
 1767.0000     8.4471   144.4332     2.5164     0.0630   -49.2068     7.7104     5.1856     5.4789
 1767.5000     8.4471   144.8340     2.5145     0.0709   -49.2115     6.3040     5.0910     5.3789
 1768.0000     8.4472   142.4500     2.5065     0.0749   -49.2186     5.3482     5.0905     5.3781
 1768.5000     8.4472   142.4528     2.4926     0.0710   -49.2234     6.5533     5.0897     5.3774
 1769.0000     8.4473   142.4556     2.4856     0.0670   -49.2305     8.0300     5.0893     5.4760
 1769.5000     8.4473   144.4475     2.4856     0.0590   -49.2353     9.0858     5.1826     5.6799
 1770.0000     8.4275   148.0319     2.4976     0.0511   -49.2424     9.2527     5.2777     6.0004
 1770.5000     8.4275   147.6369     2.5065     0.0431   -49.2471     9.2519     5.3751     6.1108
 1771.0000     8.4276   148.4357     2.5145     0.0431   -49.2543     9.2503     5.7828     6.5747
 1771.5000     8.4276   148.0407     2.5205     0.0392   -49.2590     9.2499     5.8892     7.0738
 1772.0000     8.4277   148.0436     2.5225     0.0352   -49.2661     9.2480     6.2212     7.3369
 1772.5000     8.4277   148.0466     2.5245     0.0312   -49.6684     9.2476     6.2207     7.6094
 1773.0000     8.4278   147.6515     2.5305     0.0352   -49.2780     9.2463     6.3348     7.0712
 1773.5000     8.4278   146.4605     2.5325     0.0352   -49.2828     9.2456     6.3345     6.8161
 1774.0000     8.4279   147.2594     2.5434     0.0432   -49.2899     9.2444     6.4508     6.6920
 1774.5000     8.4279   146.4663     2.5484     0.0512   -49.2947     9.2436     6.4503     6.6908
 1775.0000     8.4280   145.2743     2.5455     0.0512   -49.3018     9.4126     6.4491     6.6899
 1775.5000     8.4280   150.0536     2.5405     0.0472   -49.3066     8.9093     6.3311     6.8127
 1776.0000     8.4281   148.8613     2.5245     0.0393   -49.3137     8.7474     6.3304     6.9381
 1776.5000     8.4281   143.2936     2.5226     0.0393   -49.3185     8.5874     6.3302     7.0658
 1777.0000     8.4281   142.8984     2.5226     0.0393   -49.3256     8.4310     6.2141     7.0649
