~VERSION INFORMATION
 VERS.                2.0:   CWLS LOG ASCII STANDARD - VERSION 2.0
 WRAP.                 NO:   ONE LINE PER DEPTH STEP
~WELL INFORMATION
#MNEM.UNIT      DATA TYPE    INFORMATION
#----------   ------------   ------------------------------
 STRT.F           27.5000:   START DEPTH
 STOP.F         5889.0000:   STOP DEPTH
 STEP.F            0.5000:   STEP LENGTH
 NULL.          -999.2500:   NO VALUE
 COMP.   LAWRENCE ALLISON:   COMPANY
 WELL. LAWRENCE "X" #25-11:   WELL
 FLD .        N.P.R NO. 3:   FIELD
 LOC .      S11 T38N R78W:   LOCATION
 CNTY.            NATRONA:   COUNTY
 STAT.            WYOMING:   STATE
 CTRY. UNITED STATES OF AMERICA:   COUNTRY
 SRVC.      DRESSER ATLAS:   SERVICE COMPANY
 DATE.        09-FEB-1983:   LOGDATE
 API .     49025109170000:   API NUMBER
~CURVE INFORMATION
#MNEM.UNIT       API CODE    CURVE DESCRIPTION
#----------   ------------   ------------------------------
 DEPT.F                  :   
 CN  .DEC    42 890 03 00:   NEUTRON POROSITY
 GRD .GAPI   45 310 01 00:   GAMMA RAY FROM DENSITY LOG
 CORR.G/C3   45 356 01 00:   DENSITY CORRECTION
 DEN .G/C3   45 350 01 00:   BULK DENSITY
 CALD.IN     45 280 60 00:   CALIPER FROM DENSITY LOG
 TEND.LBS    45 635 01 00:   TENSION FORM DENSITY LOG
 GRS .GAPI   60 310 01 00:   GAMMA RAY FROM SONIC LOG
 TENS.LBS    60 635 01 00:   TENSION FROM SONIC
 DT  .US/F   60 520 00 00:   DELTA TIME
 SPR .MV     11 010 01 00:   SPONTANEOUS POTENTIAL FROM RES.
 RD  .OHMM   11 220 10 00:   RESISTIVITY DEEP
 RS  .OHMM   11 220 09 00:   RESISTIVITY SHALLOW
 RMLL.OHMM   11 270 04 00:   MICRO LATEROLOG
 TENR.LBS    11 635 01 00:   TENSION FROM RES.
~PARAMETER INFORMATION
#MNEM.UNIT          VALUE    DESCRIPTION
#----------   ------------   ------------------------------
 EKB .F         5196.0000:   Kelly bushing
 EGL .F         5186.0000:   Ground level
 TD  .F         5883.0000:   Total depth
 CLNT.            A2DTECH:   Client Code
 SL  . 1989' FSL & 1148' FWL:   Surface Location
 PD  .                 GL:   Permanent Datum
 EPD .F              5186:   Elevation Permanent Datum
 LMF .                 KB:   Log Measured From
 DMF .                 KB:   Drilling Measured From
 DAPD.F                10:   Feet Above Permanent Datum
 DATE.        09-FEB-1983:   Date Logged [DD-MMM-YYYY]
 DD  .F              5883:   Depth driller
 DL  .F              5882:   Depth logger
 BLI .F              5871:   Bottom log interval
 TLI .F               700:   Top log interval
 CS1 .IN            9.625:   Casing size
 CBD1.      9.625" @ 701':   Casing driller 1
 CBL1.F               700:   Casing logger 1
 BS1 .IN             8.75:   Bit size
 BSD1.F              5883:   Depth drilled with bit1
 DFT .    HEC/DRISPAC/KCL:   Type fluid in hole
 DFD .                  9:   Density
 DFV .                 35:   Viscosity
 DFPH.                  8:   pH
 DFL .                6.4:   Fluid loss
 MSS .           FLOWLINE:   Source of sample
 RMS .OHMM           0.23:   Rm
 MST .F                50:   Rm Meas. temp.
 RMF .OHMM           0.17:   Rmf
 MFST.F                54:   Rmf Meas. temp.
 MFSS.               MEAS:   Source Rmf.
 BHT .F               176:   BHT.
 TCS .HRS              10:   Time Circ. stopped
 MRT .F               176:   Maximum recorded temp.
 LUN .               6274:   Logging unit number
 LUL .               GLTE:   Logging unit location
 ENGI.          TOLLEFSON:   Recorded By
 WITN.           JENNINGS:   Witnessed by
 ORIG.           5" PRINT:   Origin of data
 UWI .     49025109170000:   Unique Well ID
 DICO. A2D TECHNOLOGIES, INC.:   Digitizing Company
 RMC .OHMM           0.41:   Rmc
 MCST.F                54:   Rmc Meas. temp.
 MCSS.               MEAS:   Source Rmc.
~OTHER INFORMATION
~A  DEPTH       CN        GRD       CORR        DEN       CALD       TEND        GRS       TENS         DT        SPR         RD         RS       RMLL       TENR
# ...
 3090.0000     0.2210   147.5801     0.0335     2.5111     9.0100    -5.5881   114.5617   -31.5938    81.4965   -93.3036     7.3364     7.2276     6.4666   -46.2407
 3090.5000     0.2246   146.6697     0.0229     2.5126     9.0109    -5.5707   117.4886   -31.8908    81.2673   -93.4580     7.4347     7.3750     6.7753   -46.9171
 3091.0000     0.2280   146.3682     0.0214     2.5164     9.0130    -5.5739   117.1991   -32.1876    80.9629   -93.6134     7.5840     7.6302     7.0088   -47.7020
 3091.5000     0.2316   146.6763     0.0333     2.5248     9.0152    -5.6198   116.3241   -32.4845    80.5835   -93.6177     7.6312     7.6806     7.0526   -48.3374
 3092.0000     0.2301   147.5924     0.0498     2.5306     9.0173    -0.7265   118.6669   -25.2110    79.9790   -93.6216     7.7321     7.6232     7.0472   -48.9729
 3092.5000     0.2262   150.0306     0.0618     2.5336     9.0195     5.3785   121.8862   -25.5820    79.6848   -93.6262     7.7802     7.6198     7.2386   -49.6239
 3093.0000     0.2241   153.0777     0.0678     2.5290     9.0217    11.4835   123.9359   -25.8788    80.0791   -93.6315     7.8286     7.7820     7.6452   -50.4025
 3093.5000     0.2229   157.1981     0.0632     2.5267     9.0238    12.8377   125.9856   -22.7629    80.8771   -93.6351     7.9308     7.9897     7.8555   -43.5191
 3094.0000     0.2232   162.2166     0.0481     2.5282     9.0260    10.0072   127.4505   -18.9656    82.4176   -93.5380     8.1461     7.9860     7.9030   -44.1543
 3094.5000     0.2385   163.4372     0.0360     2.5274     9.0281     7.1767   126.2838   -11.7691    83.6940   -93.3439     7.7550     7.4487     7.4707   -44.8120
 3095.0000     0.2379   164.0489     0.0374     2.5229     9.0303     4.3463   122.4855   -12.0740    84.4739   -93.3492     7.2310     7.0900     6.9181   -53.1030
 3095.5000     0.2358   164.6606     0.0234     2.5168     9.0324     1.5158   120.4417   -12.3708    84.7712   -93.3534     6.9317     6.7540     6.4065   -53.7381
 3096.0000     0.2334   164.9680    -0.0003     2.5123     9.0346    -1.3147   120.3899   -12.6686    84.3177   -93.2065     6.8788     6.5666     6.0991   -54.3736
 3096.5000     0.2397   162.5363     0.0222     2.5145     9.0368    -4.1452   122.4943   -12.9685    83.5640   -93.0616     6.8727     6.6550     6.0528   -47.6492
 3097.0000     0.2512   159.7995     0.0282     2.5152     9.0389    -6.9756   123.3744   -13.2683    81.6841   -93.0520     6.9168     6.8387     6.2171   -48.1954
 3097.5000     0.2545   157.0626     0.0417     2.5197     9.0411    -9.8129   123.9621   -13.5682    80.1796   -92.7698     6.9598     6.9789     6.3870   -41.2420
 3098.0000     0.2536   154.9346     0.0569     2.5272     9.0432   -12.6367   123.6726   -13.8681    79.7269   -92.7751     6.9535     6.9749     6.4725   -42.0365
 3098.5000     0.2503   154.0243     0.0475     2.5310     9.0454   -15.5378   119.2895   -21.7225    80.1744   -92.7794     6.8994     6.9717     6.5116   -35.1531
 3099.0000     0.2461   154.3316     0.0355     2.5302     9.0476   -10.4781   113.7369   -22.0195    80.2465   -92.7847     7.0391     6.9686     6.5058   -35.9472
 3099.5000     0.2421   153.1176     0.0234     2.5264     9.0497    -5.5777   110.2310   -22.3163    79.9424   -92.7889     7.2819     7.0187     6.5917   -44.1015
 3100.0000     0.2362   150.6852     0.0233     2.5233     9.0463    -6.2825   109.8375   -15.0427    78.3629   -92.7931     7.4294     7.4601     7.0601   -52.2557
 3100.5000     0.2302   147.3395     0.0413     2.5267     9.0385    -6.9502   108.9637   -15.4139    77.1587   -92.7989     8.0109     7.9359     7.4546   -53.0498
 3101.0000     0.2208   144.2634     0.0473     2.5282     9.0308    -7.6179   107.7948   -15.7107    76.4049   -92.8060     8.5205     8.3838     7.8738   -61.2041
 3101.5000     0.2124   141.5622     0.0442     2.5290     9.0230    -8.2855   106.6244   -16.0075    76.1016   -92.5113     9.0000     8.8583     8.3165   -54.1618
 3102.0000     0.2118   140.3474     0.0288     2.5297     9.0153    -8.9532   109.8622   -16.5838    75.8734   -92.5170     9.5064     9.3557     8.6634   -54.9625
 3102.5000     0.2140   140.9592     0.0122     2.5304     9.0075    -9.6208   111.0428   -17.3972    75.7203   -92.2222     9.8448     9.6806     8.9007   -48.0726
 3103.0000     0.2098   141.8753     0.0166     2.5327     8.9998   -10.2885   109.5802   -18.2254    75.7931   -92.0793    10.0348     9.9478     8.8321   -41.2781
 3103.5000     0.2071   142.8008     0.0180     2.5372     8.9920   -10.9561   107.8239   -18.7444    75.6392   -92.0528    10.0979     9.9432     8.7655   -34.3059
 3104.0000     0.1979   144.3172     0.0178     2.5409     8.9843   -11.6238   105.7739   -26.7617    75.1858   -91.9390    10.1614     9.8322     8.8205   -35.1129
 3104.5000     0.1952   142.5770     0.0207     2.5424     8.9765   -12.2915   108.4380   -27.2864    74.8825   -91.6456    10.2947    10.0353     9.1251   -35.8944
 3105.0000     0.1955   139.5443     0.0326     2.5507     8.9698   -12.9591   110.2303   -27.8111    75.0296   -91.3525    10.5752    10.3800     9.2462   -36.5296
 3105.5000     0.1992   138.3379     0.0460     2.5567     8.9700   -13.6268   110.7841   -28.3357    75.8309   -91.3582    10.7157    10.6634     9.2386   -37.1650
 3106.0000     0.2025   138.4317     0.0655     2.5597     8.9686   -14.2944   111.1271   -21.3400    77.1938   -91.0621    10.4161    10.2929     9.0429   -37.8197
 3106.5000     0.2051   142.3215     0.0929     2.5468     8.9653   -14.9621   114.7604   -21.9891    78.4643   -91.0692    10.1249     9.6633     8.7297   -38.5946
 3107.0000     0.2086   146.2903     0.1043     2.5182     8.9621   -15.1793   118.1450   -22.5081    80.8630   -91.0763     8.8693     8.8838     8.2528   -39.2301
 3107.5000     0.2150   150.8681     0.0621     2.5046     8.9588   -12.5747   116.9746   -23.0271    81.5359   -91.0819     8.1005     8.2826     7.6960   -39.8655
 3108.0000     0.2222   155.2019     0.0078     2.5099     8.9555    -9.9701   112.2829   -23.5464    80.7055   -91.0876     7.6589     7.7760     7.2767   -40.6596
 3108.5000     0.2296   157.8955     0.0074     2.5212     8.9522    -7.3655   113.1698   -24.0654    80.1012   -91.0931     7.4448     7.5058     6.9762   -41.2951
 3109.0000     0.2310   158.8202     0.0316     2.5242     8.9490    -5.5777   114.3504   -24.5845    79.8722   -91.1003     7.3885     7.3421     6.9715   -41.9306
 3109.5000     0.2254   157.3096     0.0406     2.5219     8.9457    -5.5777   115.8246   -25.1037    79.4931   -91.1059     7.4855     7.3914     7.1615   -50.0848
 3110.0000     0.2197   156.1035     0.0149     2.5234     8.9424    -3.2537   116.1241   -18.1265    79.1891   -91.2617     7.6376     7.4898     7.3577   -50.8688
 3110.5000     0.2201   155.8106    -0.0213     2.5301     8.9392     2.5343   114.6615   -18.6455    78.5848   -91.4175     7.7928     7.6424     7.5071   -51.7009
 3111.0000     0.2222   153.9985    -0.0214     2.5354     8.9360     4.3825   113.1974   -11.5388    76.8336   -91.4246     8.0097     7.8524     7.6079   -52.5331
 3111.5000     0.2231   151.2703     0.0070     2.5391     8.9327     4.3825   114.6731   -12.1876    72.3219   -91.4303     8.2818     8.1230     7.7612   -53.3652
 3112.0000     0.2154   150.0641     0.0430     2.5374     8.9217     2.6029   115.5600   -12.7066    67.3424   -91.4359     8.4515     8.1755     7.8642   -54.1974
 3112.5000     0.2046   152.2094     0.0609     2.5338     8.8746     0.2877   114.3911   -15.2509    66.1075   -91.4416     8.3284     8.1123     7.8036   -55.0295
 3113.0000     0.2016   152.5224     0.0668     2.5330     8.8500    -2.0274   113.8081   -17.9934    68.9557   -91.1469     8.1518     7.9399     7.6383   -55.8616
 3113.5000     0.2041   151.0148     0.0664     2.5323     8.8522    -4.3426   114.4027   -20.7359    72.3304   -90.8537     8.0344     7.8797     7.3725   -56.6938
 3114.0000     0.2013   147.6777     0.0440     2.5307     8.8592    -6.6578   114.7008   -23.4784    74.9543   -90.5086     8.2533     7.9282     7.2163   -64.9126
