~VERSION INFORMATION
 VERS.                2.0:   CWLS LOG ASCII STANDARD - VERSION 2.0
 WRAP.                 NO:   ONE LINE PER DEPTH STEP
~WELL INFORMATION
#MNEM.UNIT      DATA TYPE    INFORMATION
#----------   ------------   ------------------------------
 STRT.F          200.0000:   START DEPTH
 STOP.F         3120.0000:   STOP DEPTH
 STEP.F            0.5000:   STEP LENGTH
 NULL.          -999.2500:   NO VALUE
 COMP.    FENIX & SCISSON:   COMPANY
 WELL. FENIX NPR 3 "AX" #83-28:   WELL
 FLD .                NPR:   FIELD
 LOC .      S28 T39N R78W:   LOCATION
 CNTY.            NATRONA:   COUNTY
 STAT.            WYOMING:   STATE
 CTRY. UNITED STATES OF AMERICA:   COUNTRY
 SRVC.              WELEX:   SERVICE COMPANY
 DATE.        29-SEP-1977:   LOGDATE
 API .     49025104240000:   API NUMBER
~CURVE INFORMATION
#MNEM.UNIT       API CODE    CURVE DESCRIPTION
#----------   ------------   ------------------------------
 DEPT.F                  :   
 CALD.IN     45 280 60 00:   CALIPER FROM DENSITY LOG
 GRD .GAPI   45 310 01 00:   GAMMA RAY FROM DENSITY LOG
 RHOB.G/C3   45 350 01 00:   BULK DENSITY
 CORR.G/C3   45 356 01 00:   DENSITY CORRECTION
 SPR .MV     07 010 01 00:   SPONTANEOUS POTENTIAL
 SGRD.MV     07 220 05 00:   SHLLOW GUARD
 ILD .OHMM   07 120 46 00:   DEEP INDUCTION RESISTIVITY
 ILM .OHMM   07 120 44 00:   INDUCTION LOG MEDIUM RESISTIVITY
~PARAMETER INFORMATION
#MNEM.UNIT          VALUE    DESCRIPTION
#----------   ------------   ------------------------------
 EKB .F         5034.0000:   Kelly bushing
 EGL .F         5024.0000:   Ground level
 TD  .F         3110.0000:   Total depth
 DATE.        29-SEP-1977:   Date logged
 CLNT.            A2DTECH:   Client Code
 SL  . 1650' FNL & 330' FEL:   Surface Location
 PD  .                 GL:   Permanent Datum
 EPD .F              5024:   Elevation Permanent Datum
 LMF .                 KB:   Log Measured From
 DMF .                 KB:   Drilling Measured From
 DAPD.F                10:   Feet Above Permanent Datum
 DD  .F              3110:   Depth driller
 DL  .F              3110:   Depth logger
 BLI .F              3108:   Bottom log interval
 TLI .F               210:   Top log interval
 CS1 .IN            8.625:   Casing size
 CBD1.      8.625" @ 201':   Casing driller 1
 CBL1.F               210:   Casing logger 1
 BS1 .IN            7.875:   Bit size
 BSD1.F              3110:   Depth drilled with bit1
 DFT .          KCL/WATER:   Type fluid in hole
 DFD .                  9:   Density
 DFV .                 40:   Viscosity
 DFPH.                 11:   pH
 DFL .                6.4:   Fluid loss
 MSS .            MUD/PIT:   Source of sample
 RMS .OHMM            .56:   Rm
 MST .F                60:   Rm Meas. temp.
 RMF .OHMM            .34:   Rmf
 MFST.F                60:   Rmf Meas. temp.
 RMC .OHMM            .61:   Rmc
 MCST.F                60:   Rmc Meas. temp.
 MFSS.               MEAS:   Source Rmf.
 MCSS.               MEAS:   Source Rmc.
 RMB .OHMM            .28:   Rm. at BHT
 BHT .F               120:   BHT.
 TCS .HRS               3:   Time Circ. stopped
 MRT .F               120:   Maximum recorded temp.
 LUN .               9685:   Logging unit number
 LUL .             CASPER:   Logging unit location
 ENGI. G. BENTSEN/T. JOYNER:   Recorded By
 WITN.         PETTINGILL:   Witnessed by
 ORIG.   1" 2.5" 5" PRINT:   Origin of data
 UWI .     49025104240000:   Unique Well ID
 DICO. A2D TECHNOLOGIES, INC.:   Digitizing Company
~OTHER INFORMATION
~A   DEPT     CALD         GRD      RHOB       CORR        SPR       SGRD        ILD        ILM   
# ...
  767.0000     9.9837   101.0530     2.4808     0.0616   -79.3323     6.1170     5.5281     5.7357
  767.5000     9.9843   101.8499     2.4828     0.0617   -79.3281     6.1185     5.5805     5.8436
  768.0000     9.9853   102.2468     2.4908     0.0658   -79.3239     6.0639     5.6331     5.8988
  768.5000     9.9859   102.2595     2.4928     0.0659   -79.3188     6.0648     5.6337     5.9542
  769.0000     9.9869   102.2658     2.4929     0.0620   -78.9150     6.1789     5.6867     6.0106
  769.5000     9.9875   100.3070     2.4929     0.0620   -78.9125     6.2947     5.7408     6.0673
  770.0000     9.9884    99.9165     2.4890     0.0581   -78.9074     6.4131     5.7422     6.1815
  770.5000     9.9891    99.9260     2.4850     0.0582   -78.9032     6.4737     5.7964     6.2974
  771.0000     9.9900   100.7198     2.4831     0.0543   -78.8989     6.5952     5.7972     6.2987
  771.5000     9.9907   101.1230     2.4791     0.0544   -78.6945     6.5964     5.8521     6.2998
  772.0000     9.9523   101.5262     2.4792     0.0584   -78.4909     6.5974     5.8528     6.3010
  772.5000     9.9529   101.5326     2.4792     0.0545   -78.0879     6.5990     5.9078     6.3023
  773.0000     9.9538   100.7548     2.4812     0.0586   -77.8851     6.6002     5.9642     6.3034
  773.5000     9.9545   100.3643     2.4932     0.0666   -77.6798     6.6016     5.9652     6.3045
  774.0000     9.9551    98.6094     2.4992     0.0667   -77.6755     6.6028     6.0217     6.3057
  774.5000     9.9561    98.6158     2.5052     0.0667   -77.4719     6.6039     6.0779     6.1914
  775.0000     9.9567    98.2284     2.5072     0.0708   -77.2691     6.6660     6.1927     6.1927
  775.5000     9.9577    98.2380     2.5132     0.0748   -77.2640     6.7917     6.2509     6.3092
  776.0000     9.9583    97.8506     2.5112     0.0710   -77.2597     6.9190     6.3099     6.4273
  776.5000     9.9986    98.2538     2.5129     0.0710   -77.2554     6.9845     6.1967     6.6091
  777.0000     9.9993    98.2602     2.5133     0.0751   -77.2503     7.1816     6.3124     6.7332
  777.5000    10.0002    97.0887     2.5113     0.0752   -77.2435     7.3847     6.5506     6.9229
  778.0000    10.0008    96.7013     2.5114     0.0752   -77.2410     7.5928     6.7982     7.1187
  778.5000    10.0018    95.5298     2.5154     0.0753   -77.2375     7.8790     7.0544     7.2522
  779.0000    10.0024    95.1425     2.5174     0.0754   -77.0338     8.1762     7.1872     7.4570
  779.5000    10.0428    95.5457     2.5214     0.0755   -77.0296     8.4066     7.3900     7.5968
  780.0000    10.0434    95.9457     2.5215     0.0715   -77.0244     8.5648     7.4597     7.8114
  780.5000    10.1231    94.7742     2.5195     0.0716   -77.0202     8.5666     7.5298     7.9584
  781.0000    10.1237    93.5995     2.5156     0.0677   -76.8156     8.4899     7.6014     8.0335
  781.5000    10.1247    92.8217     2.5116     0.0678   -76.8105     8.4908     7.6028     8.0349
  782.0000    10.0466    92.0407     2.5057     0.0679   -76.8088     8.4926     7.7461     8.1108
  782.5000    10.1656    91.6566     2.5018     0.0640   -76.8045     8.4941     7.7467     8.1122
  783.0000    10.1663    91.6629     2.4998     0.0640   -76.5982     8.4950     7.8195     8.3411
  783.5000    10.2066    92.0661     2.4999     0.0641   -76.5939     8.4977     7.9669     8.4195
  784.0000    10.0888    92.8598     2.4999     0.0682   -76.3902     8.4986     8.0424     8.4989
  784.5000    10.2082    92.4725     2.5039     0.0683   -76.1864     8.5004     8.1177     8.5004
  785.0000    10.2088    92.0883     2.5039     0.0683   -75.9835     8.5810     8.2707     8.5803
  785.5000    10.2098    92.0947     2.5060     0.0684   -75.9775     8.5819     8.3482     8.7424
  786.0000    10.2104    92.8916     2.5060     0.0645   -75.7737     8.5843     8.4279     8.7440
  786.5000    10.2110    93.2916     2.5060     0.0645   -75.5699     8.5858     8.4294     8.7458
  787.0000    10.2120    93.3011     2.5001     0.0647   -75.3661     8.6662     8.4309     8.7471
  787.5000    10.1733    92.9138     2.4981     0.0608   -75.1623     8.6681     8.4318     8.6678
  788.0000    10.0952    90.9549     2.4933     0.0608   -75.1572     8.7499     8.3565     8.6703
  788.5000    10.2142    91.3550     2.4885     0.0530   -75.1512     8.7514     8.2561     8.6718
  789.0000    10.2152    91.7582     2.4837     0.0530   -75.3481     8.7536     8.2579     8.6736
  789.5000    10.1764    91.7645     2.4784     0.0491   -75.3438     8.7552     8.2567     8.6746
  790.0000     9.9805    90.5930     2.4765     0.0492   -75.3395     8.8375     8.2556     8.6764
  790.5000     9.9415    90.5994     2.4765     0.0453   -75.3343     8.8391     8.2545     8.5198
  791.0000     9.9815    91.3962     2.4706     0.0494   -75.3300     9.0894     8.2533     8.6002
  791.5000    10.0603    91.0089     2.4706     0.0494   -75.3257     9.0907     8.2522     8.6817
  792.0000    10.1806    89.4437     2.4738     0.0495   -75.3214     9.2611     8.2511     8.8447
  792.5000    10.1812    89.0564     2.4769     0.0496   -75.3171     9.5227     8.2500     8.8463
  793.0000    10.1822    88.6723     2.4806     0.0497   -75.3119     9.7913     8.2488     8.8479
  793.5000    10.2222    88.2849     2.4826     0.0497   -75.3076     9.7931     8.2477     8.8491
  794.0000    10.1047    87.9008     2.4867     0.0538   -75.3033     9.6160     8.2466     8.6897
  794.5000    10.1844    88.3008     2.4876     0.0538   -75.2990     8.9352     8.2454     8.4543
  795.0000    10.2247    88.7008     2.4886     0.0579   -75.2947     8.6130     8.2443     8.3782
  795.5000    10.2253    88.7104     2.4895     0.0580   -75.2896     8.6140     8.2432     8.3028
  796.0000    10.0685    89.1104     2.4904     0.0620   -75.2853     8.6155     8.2421     8.3040
  796.5000    10.2007    89.5136     2.4908     0.0621   -75.2810     8.6167     8.2409     8.3058
  797.0000    10.2276    90.3073     2.4928     0.0582   -75.2766     8.5401     8.2398     8.2311
  797.5000    10.2285    90.3168     2.4929     0.0583   -75.2723     8.5413     8.2387     8.2325
  798.0000    10.2685    90.3232     2.4909     0.0584   -75.0676     8.5425     8.2375     8.2334
  798.5000    10.3088    89.9390     2.4929     0.0584   -74.8637     8.5447     8.2364     8.1599
  799.0000    10.3095    89.9454     2.4989     0.0625   -74.8602     8.5456     8.2353     8.0126
  799.5000    10.3104    90.7423     2.5030     0.0626   -74.8559     8.5480     8.2342     8.0143
  800.0000    10.3111    91.1423     2.5070     0.0626   -74.6511     8.5495     8.2330     8.0158
  800.5000    10.3121    91.1522     2.5005     0.0593   -74.6460     8.5512     8.2319     8.0173
  801.0000    10.3123    90.3701     2.4951     0.0588   -74.6484     8.5513     8.2300     8.0172
  801.5000    10.3130    89.9854     2.4891     0.0548   -74.4491     8.5517     8.2282     8.0176
  802.0000    10.3134    90.3851     2.4872     0.0470   -74.4489     8.5526     8.2263     8.0185
  802.5000    10.3141    91.1817     2.4832     0.0470   -74.4483     8.6326     8.2244     8.1688
  803.0000    10.2752    91.1877     2.4813     0.0471   -74.4478     8.6333     8.2225     8.1671
  803.5000    10.2758    91.5906     2.4793     0.0471   -74.4475     8.5555     8.2207     8.1654
  804.0000    10.2763    91.5966     2.4793     0.0511   -74.4468     8.5558     8.2188     8.1637
  804.5000    10.2770    91.6057     2.4794     0.0552   -74.4464     8.5634     8.2169     8.1620
  805.0000    10.3168    91.6117     2.4873     0.0552   -74.6451     8.5710     8.2150     8.1603
  805.5000    10.3175    90.4393     2.4953     0.0593   -74.6449     8.5785     8.2132     8.1586
  806.0000    10.3179    90.0515     2.4914     0.0593   -74.6444     8.5861     8.2113     8.1569
  806.5000    10.3186    90.0605     2.4874     0.0593   -74.4443     8.5937     8.2094     8.1552
  807.0000    10.3191    90.0665     2.4914     0.0634   -74.4439     8.6013     8.2075     8.1535
