~VERSION INFORMATION
 VERS.                2.0:   CWLS LOG ASCII STANDARD - VERSION 2.0
 WRAP.                 NO:   ONE LINE PER DEPTH STEP
~WELL INFORMATION
#MNEM.UNIT      DATA TYPE    INFORMATION
#----------   ------------   ------------------------------
 STRT.F          216.0000:   START DEPTH
 STOP.F         3184.0000:   STOP DEPTH
 STEP.F            0.5000:   STEP LENGTH
 NULL.          -999.2500:   NO VALUE
 COMP.    FENIX & SCISSON:   COMPANY
 WELL. FENIX & SCISSON INCNRP "A" #311-14:   WELL
 FLD .                NPR:   FIELD
 LOC .      S14 T38N R78W:   LOCATION
 CNTY.            NATRONA:   COUNTY
 STAT.            WYOMING:   STATE
 CTRY. UNITED STATES OF AMERICA:   COUNTRY
 SRVC.              WELEX:   SERVICE COMPANY
 DATE.        22-JUN-1977:   LOGDATE
 API .     49025103810000:   API NUMBER
~CURVE INFORMATION
#MNEM.UNIT       API CODE    CURVE DESCRIPTION
#----------   ------------   ------------------------------
 DEPT.F                  :   
 CALD.IN     45 280 60 00:   CALIPER FROM DENSITY LOG
 GRD .GAPI   45 310 01 00:   GAMMA RAY FROM DENSITY LOG
 DPHI.DEC    45 890 12 00:   DENSITY POROSITY SANDSTONE
 RHOB.G/C3   45 350 01 00:   BULK DENSITY
 CORR.G/C3   45 356 01 00:   DENSITY CORRECTION
 SPR .MV     07 010 01 00:   SPONTANEOUS POTENTIAL
 SFLU.OHMM   07 220 01 00:   SPHERICALLY FOCUSED LOG UNAVERAGED RESISTIVITY
 ILD .OHMM   07 120 46 00:   DEEP INDUCTION RESISTIVITY
 ILM .OHMM   07 120 44 00:   INDUCTION LOG MEDIUM RESISTIVITY
~PARAMETER INFORMATION
#MNEM.UNIT          VALUE    DESCRIPTION
#----------   ------------   ------------------------------
 EKB .F         5225.0000:   Kelly bushing
 EGL .F         5215.0000:   Ground level
 TD  .F         3183.0000:   Total depth
 DATE.        22-JUN-1977:   Date logged
 CLNT.            A2DTECH:   Client Code
 CTRY.                USA:   Country
 SL  . 330' FNL & 330' FWL:   Surface Location
 PD  .                 GL:   Permanent Datum
 EPD .F              5215:   Elevation Permanent Datum
 LMF .                 KB:   Log Measured From
 DMF .                 KB:   Drilling Measured From
 DAPD.F                10:   Feet Above Permanent Datum
 DD  .F              3178:   Depth driller
 DL  .F              3183:   Depth logger
 BLI .F              3181:   Bottom log interval
 TLI .F                20:   Top log interval
 CS1 .IN            8.625:   Casing size
 CBD1.      8.625" @ 217':   Casing driller 1
 BS1 .IN            7.875:   Bit size
 BSD1.F              3178:   Depth drilled with bit1
 DFT .            KCL MUD:   Type fluid in hole
 DFD .                9.5:   Density
 DFV .                 40:   Viscosity
 DFPH.                7.5:   pH
 DFL .               13.6:   Fluid loss
 MSS .           FLOWLINE:   Source of sample
 RMS .OHMM            .36:   Rm
 MST .F                80:   Rm Meas. temp.
 RMF .OHMM            .30:   Rmf
 MFST.F                80:   Rmf Meas. temp.
 RMC .OHMM            .86:   Rmc
 MCST.F                80:   Rmc Meas. temp.
 MFSS.               FANN:   Source Rmf.
 MCSS.                KIT:   Source Rmc.
 RMB .OHMM            .25:   Rm. at BHT
 BHT .F               114:   BHT.
 TCS .HRS             2.5:   Time Circ. stopped
 MRT .F               114:   Maximum recorded temp.
 LUN .               8766:   Logging unit number
 LUL .             CASPER:   Logging unit location
 ENGI.          T. TOYNER:   Recorded By
 WITN.      B. HARRINGTON:   Witnessed by
 PWI .                  -:   Primary Well Identifier
 ORIG.           5" PRINT:   Origin of data
 UWI .     49025103810000:   Unique Well ID
 DICO. A2D TECHNOLOGIES, INC.:   Digitizing Company
~OTHER INFORMATION
~A   DEPT       CALD       GRD        DPHI       RHOB       CORR      SPR         SFLU      ILD        ILM   
# ...
  800.0000     9.5914    88.8916     0.1062     2.4794     0.0196   -61.7153     7.5373     7.3319     7.0551
  800.5000     9.5917    88.8980     0.1074     2.4784     0.0177   -61.9985     7.4763     7.3337     7.0568
  801.0000     9.5722    88.5084     0.1074     2.4774     0.0177   -62.1053     7.5396     7.3341     7.0573
  801.5000     9.5924    87.7214     0.1078     2.4775     0.0197   -62.4979     7.5407     7.2013     6.9936
  802.0000     9.5729    86.1408     0.1078     2.4765     0.0178   -62.1002     7.6116     7.2024     7.0594
  802.5000     9.5732    85.7508     0.1078     2.4755     0.0178   -62.4927     7.5429     7.1374     6.9957
  803.0000     9.5736    85.7576     0.1082     2.4755     0.0178   -62.4906     7.4749     7.1385     6.9323
  803.5000     9.5737    86.1612     0.1090     2.4755     0.0158   -62.4876     7.4760     7.1396     6.6830
  804.0000     9.5741    86.5650     0.1076     2.4755     0.0159   -62.4855     7.4081     7.0752     6.6220
  804.5000     9.5745    86.9686     0.1066     2.4775     0.0159   -62.4824     7.3417     7.0114     6.5102
  805.0000     9.5748    86.1816     0.1038     2.4825     0.0219   -62.4803     7.2755     6.9481     6.4002
  805.5000     9.5753    86.1884     0.0992     2.4895     0.0219   -62.4773     7.1438     6.8855     6.3264
  806.0000     9.5755    86.1952     0.0968     2.4935     0.0280   -62.4752     7.0794     6.8865     6.2691
  806.5000     9.5759    86.9958     0.0956     2.4965     0.0280   -62.4721     7.0155     6.8873     6.2698
  807.0000     9.5563    87.3994     0.0976     2.4976     0.0280   -62.4701     7.0166     6.9097     6.2621
  807.5000     9.5765    87.4064     0.0995     2.4946     0.0261   -62.4670     7.0825     6.9321     6.2544
  808.0000     9.5768    87.8100     0.1023     2.4856     0.0261   -62.4649     7.0836     6.9546     6.2467
  808.5000     9.5772    87.8168     0.1051     2.4826     0.0243   -62.4618     7.1506     6.9772     6.2390
  809.0000     9.5776    87.8236     0.1069     2.4776     0.0241   -62.4597     7.1508     6.9999     6.2313
  809.5000     9.5779    87.4336     0.1085     2.4727     0.0222   -62.4567     7.2074     7.0226     6.2237
  810.0000     9.5782    86.6464     0.1101     2.4707     0.0202   -62.4546     7.2644     7.0454     6.2160
  810.5000     9.5786    86.2564     0.1105     2.4697     0.0202   -62.4515     7.3219     7.0683     6.2083
  811.0000     9.5988    86.6600     0.1105     2.4697     0.0183   -62.4494     7.3799     7.0913     6.2007
  811.5000     9.5991    87.4608     0.1101     2.4737     0.0183   -62.4464     7.4382     7.1143     6.1931
  812.0000     9.5994    87.4676     0.1089     2.4787     0.0203   -62.4443     7.4971     7.1374     6.1854
  812.5000     9.5997    87.8714     0.1057     2.4817     0.0223   -62.4412     7.5564     7.2253     6.1778
  813.0000     9.6199    89.0690     0.1029     2.4837     0.0264   -62.4391     7.6162     7.2256     6.1680
  813.5000     9.6401    89.4728     0.1021     2.4887     0.0320   -62.4360     7.6765     7.2395     6.2253
  814.0000     9.6404    89.8766     0.1005     2.4917     0.0324   -62.4340     7.8526     7.2535     6.3025
  814.5000     9.6408    90.6772     0.0997     2.4918     0.0384   -62.8268     7.8538     7.2675     6.3807
  815.0000     9.6411    91.0810     0.1009     2.4898     0.0385   -62.8247     7.8549     7.2816     6.4598
  815.5000     9.6414    91.0878     0.1033     2.4828     0.0385   -62.8216     7.8561     7.2956     6.5399
  816.0000     9.6616    90.3008     0.1057     2.4798     0.0365   -62.4237     7.7139     7.3097     6.6462
  816.5000     9.6620    90.7046     0.1069     2.4778     0.0325   -62.8165     7.6443     7.3238     6.5918
  817.0000     9.6623    91.1084     0.1069     2.4778     0.0294   -62.8144     7.6455     7.3380     6.5258
  817.5000     9.7023    91.5122     0.1037     2.4799     0.0286   -62.4154     7.7887     7.3522     6.5271
  818.0000     9.6828    91.9160     0.1013     2.4859     0.0286   -62.4133     7.8619     7.3664     6.5285
  818.5000     9.6434    92.7170     0.0989     2.4929     0.0287   -62.4103     7.8630     7.3806     6.5287
  819.0000     9.6239    93.1208     0.0977     2.4919     0.0287   -62.8041     7.7921     7.3949     6.5297
  819.5000     9.5846    93.5246     0.0961     2.4929     0.0267   -62.4051     7.7212     7.4092     6.5959
  820.0000     9.5650    94.7224     0.0961     2.4949     0.0267   -62.4030     7.7944     7.4235     6.6628
  820.5000     9.5654    95.5234     0.0976     2.4959     0.0268   -62.3999     7.7951     7.4378     6.7304
  821.0000     9.5657    95.9272     0.0988     2.4959     0.0248   -62.7939     7.7967     7.4456     6.7796
  821.5000     9.5859    95.9342     0.1016     2.4909     0.0229   -62.3948     7.8700     7.4773     6.7806
  822.0000     9.5664    95.1470     0.1052     2.4830     0.0209   -62.3927     7.9440     7.5091     6.7194
  822.5000     9.5469    94.3598     0.1052     2.4820     0.0209   -62.3896     8.0186     7.5411     6.7827
  823.0000     9.5273    94.7638     0.1044     2.4840     0.0209   -62.3876     8.0198     7.5732     6.7837
  823.5000     9.5277    94.7706     0.1036     2.4860     0.0229   -62.3845     8.0952     7.6054     6.7841
  824.0000     9.5280    93.5864     0.1036     2.4850     0.0230   -62.7784     8.0964     7.6378     6.7685
  824.5000     9.5283    93.5934     0.1040     2.4820     0.0230   -62.3793     8.0976     7.7333     6.7530
  825.0000     9.5284    92.8102     0.1072     2.4800     0.0211   -62.3773     8.1736     7.8060     6.7375
  825.5000     9.5091    92.0188     0.1048     2.4841     0.0211   -62.7702     8.0999     7.8071     6.7265
  826.0000     9.5094    93.2168     0.1020     2.4871     0.0231   -62.7671     8.1011     7.8083     6.6657
  826.5000     9.5448    94.0178     0.1020     2.4861     0.0231   -62.7651     7.9545     7.7379     6.5682
  827.0000     9.5498    94.4218     0.1024     2.4861     0.0232   -62.7620     7.9557     7.7390     6.4722
  827.5000     9.5502    95.2228     0.1032     2.4871     0.0232   -62.3638     7.8117     7.4603     6.4271
  828.0000     9.5505    96.0238     0.1036     2.4831     0.0232   -62.7568     7.8129     7.4615     6.3469
  828.5000     9.5508    96.4278     0.1020     2.4841     0.0272   -62.7548     7.7424     7.3264     6.2677
  829.0000     9.5710    96.4346     0.1008     2.4861     0.0284   -62.7517     7.6726     7.2604     6.1895
  829.5000     9.5515    96.8386     0.1004     2.4871     0.0293   -62.7496     7.6035     7.2615     6.1122
  830.0000     9.5518    97.6396     0.0995     2.4901     0.0273   -62.7466     7.4659     7.1958     6.0360
  830.5000     9.5720    96.0582     0.0983     2.4912     0.0273   -62.7445     7.3308     6.9337     5.9606
  831.0000     9.5922    95.2710     0.0975     2.4942     0.0294   -62.7414     7.1322     6.8709     5.8862
  831.5000     9.5925    93.6896     0.0975     2.4928     0.0294   -62.7394     7.0679     6.8087     5.8128
  832.0000     9.5730    92.9022     0.0979     2.4915     0.0274   -62.7363     7.0042     6.7510     5.7619
  832.5000     9.5336    93.3062     0.0979     2.4902     0.0275   -62.7342     6.8774     6.6895     5.6573
  833.0000     9.5141    93.3130     0.1003     2.4882     0.0255   -63.1273     6.8785     6.6724     5.7637
  833.5000     9.5343    94.1142     0.1051     2.4872     0.0235   -63.1253     6.8165     6.6553     5.6592
  834.0000     9.5346    95.3124     0.1083     2.4773     0.0192   -63.1222     6.8175     6.6382     5.6078
  834.5000     9.5350    96.1134     0.1115     2.4683     0.0156   -63.1201     6.8185     6.6212     5.5575
  835.0000     9.5173    98.1060     0.1123     2.4643     0.0116   -63.1171     6.8826     6.6042     5.5073
  835.5000     9.5158    98.1128     0.1123     2.4663     0.0117   -63.1150     7.0115     6.5872     5.3705
  836.0000     9.5160    98.9140     0.1091     2.4723     0.0177   -63.1119     7.0125     6.4553     5.2608
