~VERSION INFORMATION
 VERS.                2.0:   CWLS LOG ASCII STANDARD - VERSION 2.0
 WRAP.                 NO:   ONE LINE PER DEPTH STEP
~WELL INFORMATION
#MNEM.UNIT      DATA TYPE    INFORMATION
#----------   ------------   ------------------------------
 STRT.F          500.0000:   START DEPTH
 STOP.F         2517.0000:   STOP DEPTH
 STEP.F            0.5000:   STEP LENGTH
 NULL.          -999.2500:   NO VALUE
 COMP.    FENIX & SCISSON:   COMPANY
 WELL. FENIX & SCISSON SHX #46-33:   WELL
 FLD .  TEAPOT DOME NPR-3:   FIELD
 LOC .      S33 T39N R78W:   LOCATION
 CNTY.            NATRONA:   COUNTY
 STAT.            WYOMING:   STATE
 CTRY. UNITED STATES OF AMERICA:   COUNTRY
 SRVC.           BIRDWELL:   SERVICE COMPANY
 DATE.        04-APR-1979:   LOGDATE
 API .     49025107670000:   API NUMBER
~CURVE INFORMATION
#MNEM.UNIT       API CODE    CURVE DESCRIPTION
#----------   ------------   ------------------------------
 DEPT.F                  :   
 GRD .GAPI   45 310 01 00:   GAMMA RAY FROM DENSITY LOG
 CALD.IN     45 280 60 00:   CALIPER FROM DENSITY LOG
 CORR.G/C3   45 356 01 00:   DENSITY CORRECTION
 RHOB.G/C3   45 350 01 00:   BULK DENSITY
~PARAMETER INFORMATION
#MNEM.UNIT          VALUE    DESCRIPTION
#----------   ------------   ------------------------------
 EKB .F         5217.0000:   Kelly bushing
 EGL .F         5207.0000:   Ground level
 EDF .F            0.0000:   Drilling floor
 TD  .F         2630.0000:   Total depth
 CLNT.            A2DTECH:   Client Code
 SL  . 1955' FSL & 1970' FWL:   Surface Location
 PD  .                 GL:   Permanent Datum
 EPD .F              5207:   Elevation Permanent Datum
 LMF .                 KB:   Log Measured From
 DMF .                 KB:   Drilling Measured From
 DAPD.                 10:   Feet Above Permanent Datum
 DATE.        04-APR-1979:   Date Logged [DD-MMM-YYYY]
 DD  .F              2630:   Depth driller
 DL  .F              2517:   Depth logger
 BLI .F              2517:   Bottom log interval
 TLI .F               504:   Top log interval
 CS1 .              9.625:   Casing size
 CBD1.      9.625" @ 300':   Casing driller 1
 CBL1.IN              306:   Casing logger 1
 BS1 .IN            7.875:   Bit size
 BSD1.F              2630:   Depth drilled with bit1
 DFT .                OIL:   Type fluid in hole
 LUL .             CASPER:   Logging unit location
 ENGI.            ROLLINS:   Recorded By
 ORIG.           5" PRINT:   Origin of data
 UWI .     49025107670000:   Unique Well ID
 DICO. A2D TECHNOLOGIES ,INC.:   Digitizing Company
 WITN.              AMUND:   Witnessed by
~OTHER INFORMATION
~A   DEPT      GRD       CALD       CORR       RHOB   
# ...
  792.0000   149.8766     9.5199    -0.1032     2.3078
  792.5000   150.1870     9.5197    -0.1030     2.3087
  793.0000   151.2403     9.5195    -0.1027     2.3148
  793.5000   151.5507     9.5193    -0.1040     2.3276
  794.0000   151.2667     9.5192    -0.1053     2.3338
  794.5000   148.3082     9.5190    -0.1111     2.3331
  795.0000   146.6869     9.5188    -0.1123     2.3332
  795.5000   145.8086     9.5186    -0.1136     2.3333
  796.0000   147.6049     9.5184    -0.1149     2.3296
  796.5000   147.3200     9.5182    -0.1202     2.3162
  797.0000   146.2863     9.5180    -0.1229     2.2989
  797.5000   146.0101     9.5178    -0.1225     2.2893
  798.0000   146.6399     9.5176    -0.1221     2.2796
  798.5000   145.5940     9.5182    -0.1202     2.2699
  799.0000   145.4554     9.5193    -0.1153     2.2617
  799.5000   147.8493     9.5202    -0.1103     2.2580
  800.0000   148.9026     9.5211    -0.1039     2.2604
  800.5000   148.2497     9.5220    -0.1020     2.2672
  801.0000   146.8202     9.5229    -0.1031     2.2763
  801.5000   145.0371     9.5387    -0.1072     2.2824
  802.0000   146.0773     9.5396    -0.1099     2.2855
  802.5000   149.0490     9.5319    -0.1124     2.2879
  803.0000   151.7236     9.5231    -0.1120     2.2955
  803.5000   152.0381     9.5144    -0.1176     2.3068
  804.0000   147.8603     9.5056    -0.1220     2.3032
  804.5000   145.6091     9.5141    -0.1334     2.2062
  805.0000   146.6716     9.5599    -0.1325     2.0528
  805.5000   150.0892    10.0099    -0.0629     1.9881
  806.0000   155.5869     9.8004     0.4899     1.8678
  806.5000   159.1530     9.7721  -999.2500     1.8145
  807.0000   161.9762     9.8342  -999.2500     1.6964
  807.5000   164.5022     9.9105  -999.2500     1.5731
  808.0000   166.8796    10.0509  -999.2500     1.3241
  808.5000   168.8113    10.3429  -999.2500     1.2347
  809.0000   169.7899    11.3487  -999.2500     1.1859
  809.5000   169.3952    11.6639  -999.2500     1.1671
  810.0000     1.0484    11.7696  -999.2500     1.1649
  810.5000     0.6855    11.7855  -999.2500     1.1695
  811.0000     1.0996    11.8013  -999.2500     1.1937
  811.5000     3.5460    11.7873  -999.2500     1.2164
  812.0000     6.9868    11.2492  -999.2500     1.4046
  812.5000    10.6857    11.1453  -999.2500     1.7997
  813.0000    13.9540    10.9816  -999.2500     2.0813
  813.5000    18.3277    10.4884  -999.2500     2.5252
  814.0000    23.0114    10.2498  -999.2500     2.7374
  814.5000    23.4619    10.2205     0.3848     2.7447
  815.0000    23.0229    10.2065     0.2035     2.6345
  815.5000    22.8973    10.2225     0.1753     2.5872
  816.0000    24.2497    10.2384     0.1666     2.5730
  816.5000    22.9214    10.2692     0.1595     2.5475
  817.0000    21.8769    10.3150     0.1509     2.5130
  817.5000    18.9409    10.3758     0.1514     2.4799
  818.0000    18.2103    10.4516     0.1472     2.4048
  818.5000    16.7386    10.5273     0.1446     2.2438
  819.0000    14.0755    10.6929     0.1917     2.1363
  819.5000    10.0843    10.8434     0.2674     2.1131
  820.0000     8.4695    10.9940     0.3295     2.1613
  820.5000     8.7816    10.7554     0.3299     2.2719
  821.0000     9.9852    10.4569     0.2908     2.4103
  821.5000     9.8515    10.3231     0.2363     2.5272
  822.0000    10.4607    10.2491     0.1489     2.5614
  822.5000    13.2988    10.2199     0.1554     2.5497
  823.0000    17.6227    10.1903     0.1559     2.5393
  823.5000    19.8664    10.1620     0.1626     2.5344
  824.0000    20.3271    10.1629     0.1945     2.5708
  824.5000    20.7877    10.1637     0.2657     2.6059
  825.0000    21.6941    10.1646     0.2984     2.6185
  825.5000    21.8576    10.2107     0.3120     2.6260
  826.0000    22.1696    10.2415     0.3239     2.6033
  826.5000    23.6704    10.2723     0.3304     2.5966
  827.0000    25.4683    10.2882     0.3368     2.5839
  827.5000    25.9290    10.3490     0.3447     2.5727
  828.0000    25.3492    10.3798     0.3557     2.5457
  828.5000    25.8102    10.4256     0.3666     2.5013
  829.0000    28.9454    10.4714     0.3941     2.4834
  829.5000    28.2173    10.5022     0.4759     2.4857
  830.0000    28.2322    10.5480     0.4959     2.5008
  830.5000    28.4126    10.6088     0.4963     2.5152
  831.0000    26.6275    10.6995     0.4967     2.5206
  831.5000    26.0475    10.7902     0.4971     2.5274
  832.0000    25.0228    10.9109     0.4959     2.5869
  832.5000    23.9975    11.0016     0.4662     2.6036
  833.0000    21.6350    11.0174     0.4124     2.5788
  833.5000    18.8267    11.0333     0.3887     2.5729
  834.0000    25.2309    11.1989     0.3756     2.5662
  834.5000    27.9204    11.1249     0.3654     2.5723
  835.0000    28.5296    11.1707     0.3598     2.5837
  835.5000    28.8417    11.2465     0.3196     2.5875
  836.0000    28.5594    11.2623     0.2733     2.5658
  836.5000    27.8313    11.2033     0.2571     2.5373
  837.0000    26.3603    11.0845     0.2500     2.4907
  837.5000    24.2949    11.3249     0.2745     2.4524
  838.0000    21.7838    11.5054     0.3352     2.4578
  838.5000    18.2326    11.2967     0.3672     2.4699
  839.0000    14.2356    11.3127     0.3646     2.4767
  839.5000    13.2066    11.4676     0.2867     2.4701
  840.0000    14.2653    12.0179     0.2555     2.4160
  840.5000    16.9548    11.3950     0.2423     2.3528
  841.0000    17.8575    11.1814     0.2411     2.2890
  841.5000    16.2416    11.2469     0.2778     2.2431
  842.0000    15.5098    11.3179     0.3806     2.2681
  842.5000    19.8375    11.0795     0.3899     2.4028
  843.0000    22.6755    10.7361     0.2974     2.4985
  843.5000    25.0678    10.6172     0.2101     2.5166
  844.0000    23.0025    10.5283     0.2391     2.5099
  844.5000    22.2707    10.5292     0.3133     2.4897
  845.0000    25.2611    10.5451     0.4101     2.4913
  845.5000    31.9624    10.5609     0.4738     2.5222
  846.0000    33.6118    10.5468     0.5000     2.5644
  846.5000    33.7715    10.5477     0.5000     2.5796
  847.0000    30.5212    10.5334     0.4644     2.5556
  847.5000    27.2671    10.5044     0.3760     2.4992
  848.0000    26.6876    10.4755     0.4125     2.5000
  848.5000    25.2166    10.4612     0.4551     2.6642
  849.0000    22.5569    10.4472     0.4571     2.6765
  849.5000    21.5317    10.4183     0.3716     2.6387
  850.0000    20.3579    10.3743     0.2801     2.6268
  850.5000    18.8868    10.3301     0.2670     2.6201
  851.0000    17.7130    10.2863     0.2475     2.6133
  851.5000    18.0251    10.2720     0.2223     2.5960
  852.0000    19.8230    10.2731     0.1969     2.5548
  852.5000    22.2153    10.2728     0.2028     2.5700
  853.0000    24.9048    10.2721     0.2273     2.5896
  853.5000    29.7093    10.2715     0.2457     2.6077
  854.0000    30.7837    10.2719     0.2517     2.6070
  854.5000    31.3539    10.2722     0.2457     2.5913
  855.0000    29.8841    10.2425     0.2340     2.5673
  855.5000    27.8199    10.2128     0.2253     2.5508
  856.0000    26.7959    10.2132     0.2535     2.5772
  856.5000    25.0290    10.2135     0.2760     2.5961
  857.0000    21.3304    10.2287     0.2881     2.6067
  857.5000    20.7521    10.2440     0.2865     2.6000
  858.0000    20.0253    10.2593     0.2838     2.5933
  858.5000    22.5674    10.2596     0.2858     2.5978
  859.0000    25.2581    10.2150     0.2902     2.6122
  859.5000    24.0855    10.2303     0.2766     2.6236
  860.0000    23.4868    10.2306     0.2447     2.6114
  860.5000    25.0092    10.2458     0.2464     2.6048
  861.0000    26.3626    10.2461     0.2511     2.6053
  861.5000    26.2234    10.2464     0.2467     2.6080
  862.0000    25.9491    10.2467     0.2285     2.6059
  862.5000    26.5595    10.2470     0.2087     2.5976
  863.0000    25.9813    10.2323     0.2058     2.5985
  863.5000    27.3387    10.2177     0.2335     2.6226
  864.0000    25.7203    10.2030     0.2230     2.6347
  864.5000    23.9534    10.2033     0.2002     2.6220
