~VERSION INFORMATION
 VERS.                2.0:   CWLS LOG ASCII STANDARD - VERSION 2.0
 WRAP.                 NO:   ONE LINE PER DEPTH STEP
~WELL INFORMATION
#MNEM.UNIT      DATA TYPE    INFORMATION
#----------   ------------   ------------------------------
 STRT.F          200.0000:   START DEPTH
 STOP.F         3038.0000:   STOP DEPTH
 STEP.F            0.5000:   STEP LENGTH
 NULL.          -999.2500:   NO VALUE
 COMP.    FENIX & SCISSON:   COMPANY
 WELL. FENIX NPR 3 "A" #63-28:   WELL
 FLD .            WILDCAT:   FIELD
 LOC .      S28 T39N R78W:   LOCATION
 CNTY.            NATRONA:   COUNTY
 STAT.            WYOMING:   STATE
 CTRY. UNITED STATES OF AMERICA:   COUNTRY
 SRVC.              WELEX:   SERVICE COMPANY
 DATE.        29-MAY-1977:   LOGDATE
 API .     49025103740000:   API NUMBER
~CURVE INFORMATION
#MNEM.UNIT       API CODE    CURVE DESCRIPTION
#----------   ------------   ------------------------------
 DEPT.F                  :   
 SPR .MV     07 010 01 00:   SPONTANEOUS POTENTIAL
 ILM .OHMM   07 120 44 00:   INDUCTION LOG MEDIUM RESISTIVITY
 ILD .OHMM   07 120 46 00:   DEEP INDUCTION RESISTIVITY
 SGRD.OHMM   07 220 05 00:   SHALLOW SHORT GUARD RESISTIVITY
 GRD .GAPI   45 310 01 00:   GAMMA RAY FROM DENSITY LOG
 CALD.IN     45 280 60 00:   CALIPER FROM DENSITY LOG
 RHOB.G/C3   45 350 01 00:   BULK DENSITY
 CORR.G/C3   45 356 01 00:   DENSITY CORRECTION
~PARAMETER INFORMATION
#MNEM.UNIT          VALUE    DESCRIPTION
#----------   ------------   ------------------------------
 EKB .F         5040.0000:   Kelly bushing
 EGL .F         5029.0000:   Ground level
 EDF .F            0.0000:   Drilling floor
 EPD .F         5029.0000:   Permanent datum
 TD  .F         3040.0000:   Total depth
 DATE.        29-MAY-1977:   Date logged
 CLNT.            A2DTECH:   Client Code
 SL  . 1650' FNL & 1650' FEL:   Surface Location
 PD  .                 GL:   Permanent Datum
 LMF .                 KB:   Log Measured From
 DMF .                 KB:   Drilling Measured From
 DD  .F              3040:   Depth driller
 DL  .F              3038:   Depth logger
 BLI .F              3036:   Bottom log interval
 TLI .F               200:   Top log interval
 CS1 .IN            8.625:   Casing size
 BSD1.F              3040:   Depth drilled with bit1
 DFT .            KCL MUD:   Type fluid in hole
 ORIG.     2.5", 5" PRINT:   Origin of data
 UWI .     49025103740000:   Unique Well ID
 DICO. A2D TECHNOLOGIES, INC.:   Digitizing Company
 DAPD.                 11:   Feet Above Permanent Datum
 CBD1.      8.625" @ 220':   Casing driller 1
 BS1 .              7.875:   Bit size
 DFD .                8.7:   Density
 MRT .                108:   Maximum recorded temp.
 ENGI.            C. DOAK:   Recorded By
 WITN.      W. PETTINGILL:   Witnessed by
~OTHER INFORMATION
~A   DEPT      SPR        ILM          ILD     SGRD         GRD        CALD       RHOB      CORR  
# ...
  767.0000   -57.9220     8.6980     8.1670    10.2590    92.6070    10.1280     2.4160     0.0230
  767.5000   -57.4500     8.7700     8.2380    10.2710    92.2180    10.1280     2.4180     0.0250
  768.0000   -56.9800     8.8420     8.3560    10.2710    91.4620    10.1280     2.4180     0.0270
  768.5000   -56.4420     8.9820     8.4480    10.2710    90.2840    10.1280     2.4150     0.0360
  769.0000   -55.8490     9.1570     8.5410    10.2710    89.3550    10.1280     2.4070     0.0430
  769.5000   -55.2550     9.3320     8.6250    10.2710    88.3530    10.1290     2.4010     0.0510
  770.0000   -54.6570     9.4550     8.9500    10.2710    87.4320    10.1290     2.3860     0.0580
  770.5000   -54.0580     8.5460     9.2490    10.2220    86.4050    10.1670     2.3680     0.0670
  771.0000   -53.5070     7.8030     9.5480     9.7730    85.4690    10.2130     2.3450     0.0790
  771.5000   -52.9880     6.9870     9.6310     9.3230    83.0840    10.2670     2.3190     0.0910
  772.0000   -52.4670     6.2690     9.2840     8.8170    81.0120    10.3190     2.2890     0.1050
  772.5000   -51.9480     5.6390     8.9770     8.2630    78.9230    10.3820     2.2550     0.1310
  773.0000   -51.7370     5.1080     8.6700     7.7520    76.5220    10.5250     2.2010     0.1640
  773.5000   -51.5880     5.2650     8.3630     7.4750    74.4330    10.7180     2.1820     0.1960
  774.0000   -51.4400     5.4710     8.0560     7.1970    72.4980    12.0550     2.0970     0.2120
  774.5000   -51.2910     5.6780     7.7810     6.9180    72.5360    12.5430     2.1010     0.2100
  775.0000   -51.1590     5.8840     7.5560     6.8550    72.3850    12.9360     2.0980     0.2060
  775.5000   -51.0300     6.0910     7.3310     6.7920    73.6780    13.3850     2.1100     0.1990
  776.0000   -50.9010     6.2520     7.1110     7.1750    76.7890    13.9380     2.1400     0.1930
  776.5000   -50.7710     6.2520     7.1270     7.3100    76.4200    15.3690     2.1740     0.1870
  777.0000   -50.6740     5.8520     7.1430     7.3100    74.2860    15.4910     2.1690     0.1820
  777.5000   -50.6390     5.3700     7.1590     6.9510    73.1600    15.7860     2.1610     0.1750
  778.0000   -50.6030     5.1080     7.1740     6.6030    73.3530    15.8000     2.1500     0.1770
  778.5000   -50.5670     5.7810     7.2870     6.3300    75.6130    15.7840     2.0900     0.1860
  779.0000   -50.5330     7.2320     7.6990     6.2520    77.7110    15.8390     2.0520     0.1890
  779.5000   -50.5030     8.8020     8.1110     6.3040    78.1970    15.9120     2.0210     0.1880
  780.0000   -50.3040    12.3440     8.2380     6.4860    75.4070    15.7170     2.0160     0.1700
  780.5000   -50.0760    11.2180     8.6250     7.0460    74.0910    14.3310     2.0190     0.1510
  781.0000   -49.8470     8.9880     8.7070     6.7840    73.1580    13.9970     2.0430     0.1600
  781.5000   -49.6180     7.1430     8.7850     6.2750    72.4000    14.0790     2.0890     0.1730
  782.0000   -49.3800     8.2380     8.9270     6.1380    71.3990    14.8710     2.0830     0.1720
  782.5000   -49.2780     7.9660     9.0100     6.1950    70.6470    15.6460     2.0630     0.1570
  783.0000   -49.1960     6.6480     9.0310     6.0630    70.0360    15.0970     2.0630     0.1520
  783.5000   -49.1170     5.3300     8.5510     5.6630    69.3770    14.0220     2.0810     0.1510
  784.0000   -49.0390     3.9850     8.2230     5.1090    68.7320    14.0290     2.0980     0.1750
  784.5000   -48.9590     4.5510     7.8950     4.6590    68.0920    13.9630     2.0780     0.1800
  785.0000   -48.9820     5.0150     7.5670     4.7360    67.4240    13.8180     2.0720     0.1750
  785.5000   -49.0910     4.8880     7.2380     5.1220    66.7590    14.2150     2.0790     0.1610
  786.0000   -49.2010     4.2800     7.1630     5.3480    66.0870    14.8060     2.1010     0.1720
  786.5000   -49.3130     3.5690     7.1300     4.7170    65.4000    14.3230     2.0870     0.1920
  787.0000   -49.4120     3.7480     7.0070     4.4090    64.6860    14.1300     2.0670     0.1950
  787.5000   -49.5060     4.0070     6.7670     4.5030    64.0350    13.9430     2.0390     0.1980
  788.0000   -49.4840     4.2500     6.5270     4.7180    63.2420    15.9890     2.0550     0.2000
  788.5000   -49.4560     4.2500     6.2870     4.8340    63.4250    15.7520     2.0470     0.2020
  789.0000   -49.4290     3.4130     6.0470     4.7960    63.6380    15.8590     2.0340     0.2030
  789.5000   -49.4030     2.9420     5.9710     4.2890    63.9610    15.7960     2.0250     0.2050
  790.0000   -49.3760     3.2220     6.0900     4.1340    64.1190    15.8390     2.0350     0.1760
  790.5000   -49.3490     3.4780     6.3290     4.1780    66.0960    15.8240     2.0430     0.1650
  791.0000   -49.3220     3.7350     6.5670     4.2650    67.7590    15.8190     2.0580     0.1520
  791.5000   -49.3820     4.4310     6.8060     4.5540    69.5660    15.8300     2.0570     0.1420
  792.0000   -49.5180     5.3480     6.9180     4.9200    70.8990    15.8340     2.1440     0.1390
  792.5000   -49.6540    10.1770     6.7690     5.7330    70.9220    15.7310     2.1290     0.1620
  793.0000   -49.7910     9.9920     6.6580     6.6070    71.1600    14.8920     2.1130     0.1830
  793.5000   -49.9280     6.5130     6.5470     6.6680    71.3560    12.5610     2.0880     0.2040
  794.0000   -50.0620     3.4600     6.4360     5.6170    71.5770    11.3880     2.0650     0.2090
  794.5000   -50.2870     3.1380     6.3580     4.7320    71.7420    11.4910     2.0480     0.1970
  795.0000   -50.5340     3.4660     6.3310     4.4290    71.7380    11.7640     2.0520     0.1780
  795.5000   -50.7860     4.1460     6.3100     4.3290    73.4440    12.8430     2.0710     0.1590
  796.0000   -51.0770     7.5090     6.2520     4.6590    75.6590    15.6020     2.0940     0.1410
  796.5000   -51.5670    12.5580     6.2720     5.9170    77.8420    14.5390     2.1340     0.1220
  797.0000   -52.0740    32.3350     6.2970     6.4500    80.0930    13.1010     2.1690     0.1180
  797.5000   -52.5660    49.4590     6.3100     6.9050    82.1780    11.6550     2.3060     0.1330
  798.0000   -53.0980    20.8770     6.8150     7.3540    84.6800    10.4270     2.2900     0.1160
  798.5000   -53.6760     2.8100     7.4080     7.7870    84.9070    10.3360     2.2760     0.0980
  799.0000   -54.2350     4.8320     8.0020     8.6640    85.9530    10.4490     2.2750     0.1080
  799.5000   -54.8990     7.8350     8.5950     9.6990    86.4480    10.5660     2.3570     0.1150
  800.0000   -55.5420     8.2090     9.1880    10.1770    86.4410    10.6840     2.4020     0.1180
  800.5000   -56.1960     8.2380     9.6520    10.2710    86.4200    10.7990     2.4130     0.1130
  801.0000   -56.6350     7.6680     8.9970    10.1770    86.4430    10.9090     2.4210     0.1070
  801.5000   -57.0170     7.0800     8.3140     9.6510    86.5180    10.9790     2.4300     0.0980
  802.0000   -57.3830     7.3830     8.0950     9.1140    87.8700    10.9300     2.4400     0.0890
  802.5000   -57.6640     7.6870     7.7960     9.7200    89.3270    10.8230     2.4430     0.0790
  803.0000   -57.9450     8.0140     7.9430     9.6330    90.9800    10.7230     2.4360     0.0690
  803.5000   -58.2280     8.0320     8.1030     9.4550    91.9080    10.6240     2.4350     0.0580
  804.0000   -58.5140     8.0510     8.2630     9.9300    91.9120    10.5230     2.4440     0.0350
  804.5000   -58.6730     8.0710     8.4230    10.2710    91.2380    10.4230     2.4490     0.0250
  805.0000   -58.8670     8.0880     8.5840    10.2180    91.0690    10.3230     2.4500     0.0200
  805.5000   -59.0710     7.9760     8.6250    10.1770    90.8000    10.2210     2.4510     0.0210
  806.0000   -58.9970     7.8570     8.5790    10.2640    90.6070    10.1290     2.4570     0.0280
  806.5000   -58.8360     7.7380     8.4940    10.4220    90.3420    10.0550     2.4670     0.0350
  807.0000   -58.6720     7.6190     8.4100    10.4610    90.0990    10.0460     2.4760     0.0390
