~VERSION INFORMATION
 VERS.                2.0:   CWLS LOG ASCII STANDARD - VERSION 2.0
 WRAP.                 NO:   ONE LINE PER DEPTH STEP
~WELL INFORMATION
#MNEM.UNIT      DATA TYPE    INFORMATION
#----------   ------------   ------------------------------
 STRT.F          640.0000:   START DEPTH
 STOP.F         2792.0000:   STOP DEPTH
 STEP.F            0.5000:   STEP LENGTH
 NULL.          -999.2500:   NO VALUE
 COMP.    FENIX & SCISSON:   COMPANY
 WELL.   FENIX SHX #41-11:   WELL
 FLD .        TEAPOT DOME:   FIELD
 LOC .      S11 T38N R78W:   LOCATION
 CNTY.            NATRONA:   COUNTY
 STAT.            WYOMING:   STATE
 CTRY. UNITED STATES OF AMERICA:   COUNTRY
 SRVC.           BIRDWELL:   SERVICE COMPANY
 DATE.        07-JUL-1979:   LOGDATE
 API .     49025107880000:   API NUMBER
~CURVE INFORMATION
#MNEM.UNIT       API CODE    CURVE DESCRIPTION
#----------   ------------   ------------------------------
 DEPT.F                  :   
 CALD.IN     45 280 60 00:   CALIPER FROM DENSITY LOG
 RHOB.G/C3   45 350 01 00:   BULK DENSITY
 CORR.G/C3   45 356 01 00:   DENSITY CORRECTION
 GRD .GAPI   45 310 01 00:   GAMMA RAY FROM DENSITY LOG
~PARAMETER INFORMATION
#MNEM.UNIT          VALUE    DESCRIPTION
#----------   ------------   ------------------------------
 EKB .F         5168.0000:   Kelly bushing
 EGL .F         5158.0000:   Ground level
 EDF .F            0.0000:   Drilling floor
 EPD .F            0.0000:   Permanent datum
 TD  .F         2801.0000:   Total depth
 DATE.        07-JUL-1979:   Date logged
 CLNT.            A2DTECH:   Client Code
 SL  . 95' FNL & 2414' FWL:   Surface Location
 PD  .                 GL:   Permanent Datum
 DAPD.F                10:   Feet Above Permanent Datum
 DD  .F              2801:   Depth driller
 DL  .F              2791:   Depth logger
 BLI .F              2790:   Bottom log interval
 TLI .F               640:   Top log interval
 CS1 .IN            9.625:   Casing size
 CBD1.      9.625" @ 909':   Casing driller 1
 CBL1.F               910:   Casing logger 1
 BS1 .IN             8.75:   Bit size
 BSD1.F              2801:   Depth drilled with bit1
 DFT .                AIR:   Type fluid in hole
 LUN .               2959:   Logging unit number
 LUL .             CASPER:   Logging unit location
 ENGI.         B. RULLINS:   Recorded By
 WITN.           GINSMORE:   Witnessed by
 ORIG.           5" PRINT:   Origin of data
 UWI .     49025107880000:   Unique Well ID
 DICO. A2D TECHNOLOGIES, INC.:   Digitizing Company
~OTHER INFORMATION
~A   DEPT     CALD       RHOB       CORR         GRD  
# ...
 2319.0000     9.4050     2.4430     0.0310   161.1660
 2319.5000     9.4020     2.4480     0.0300   149.9290
 2320.0000     9.3880     2.4540     0.0340   150.2050
 2320.5000     9.3810     2.4580     0.0430   151.0430
 2321.0000     9.3810     2.4580     0.0510   149.1230
 2321.5000     9.3790     2.4550     0.0540   148.0670
 2322.0000     9.3400     2.4500     0.0410   151.3030
 2322.5000     9.3000     2.4440     0.0270   153.0300
 2323.0000     9.2600     2.4420     0.0130   151.3380
 2323.5000     9.2200     2.4450     0.0100   152.1650
 2324.0000     9.1800     2.4470     0.0100   154.9520
 2324.5000     9.1400     2.4500     0.0100   150.6820
 2325.0000     9.1000     2.4520     0.0100   144.7880
 2325.5000     9.0590     2.4530     0.0100   138.8890
 2326.0000     9.0400     2.4540     0.0100   134.6580
 2326.5000     9.0400     2.4560     0.0150   136.2250
 2327.0000     9.0400     2.4570     0.0270   135.6830
 2327.5000     9.0400     2.4580     0.0240   134.0230
 2328.0000     9.0400     2.4460     0.0150   143.1560
 2328.5000     9.0400     2.4350     0.0060   148.8760
 2329.0000     9.0400     2.4320    -0.0020   147.2760
 2329.5000     9.0400     2.4300    -0.0020   144.2930
 2330.0000     9.0400     2.4290     0.0010   143.1070
 2330.5000     9.0400     2.4310     0.0030   146.9110
 2331.0000     9.0400     2.4340     0.0050   151.4460
 2331.5000     9.0400     2.4360     0.0070   156.0010
 2332.0000     9.0400     2.4370     0.0080   160.1470
 2332.5000     9.0400     2.4290     0.0080   160.9250
 2333.0000     9.0400     2.4220     0.0050   162.6960
 2333.5000     9.0400     2.4170     0.0030   167.1120
 2334.0000     9.0400     2.4200     0.0000   171.4070
 2334.5000     9.0400     2.4240     0.0000   173.9380
 2335.0000     9.0400     2.4250     0.0000   176.4890
 2335.5000     9.0400     2.4260     0.0050   179.2720
 2336.0000     9.0400     2.4340     0.0110   184.3030
 2336.5000     9.0400     2.4400     0.0170   189.7670
 2337.0000     9.0400     2.4300     0.0190   185.8980
 2337.5000     9.0400     2.4170     0.0100   179.0690
 2338.0000     9.0400     2.4030     0.0000   172.2230
 2338.5000     9.0400     2.4010     0.0020   165.2980
 2339.0000     9.0400     2.4040     0.0040   162.0810
 2339.5000     9.0400     2.4050     0.0070   160.2790
 2340.0000     9.0400     2.4030     0.0090   157.4090
 2340.5000     9.0400     2.4020     0.0110   150.6350
 2341.0000     9.0400     2.4070     0.0120   143.9670
 2341.5000     9.0400     2.4120     0.0120   140.4700
 2342.0000     9.0400     2.4170     0.0080   141.5660
 2342.5000     9.0440     2.4080     0.0050   147.1970
 2343.0000     9.0780     2.4050     0.0040   149.5780
 2343.5000     9.1120     2.4080     0.0040   146.6130
 2344.0000     9.1450     2.4110     0.0160   142.5730
 2344.5000     9.1790     2.4130     0.0330   138.4930
 2345.0000     9.2130     2.4270     0.0500   136.6300
 2345.5000     9.2470     2.4440     0.0650   138.2230
 2346.0000     9.2550     2.4570     0.0520   143.1780
 2346.5000     9.2470     2.4340     0.0360   147.9460
 2347.0000     9.2380     2.4220     0.0210   150.4660
 2347.5000     9.2290     2.4150     0.0100   158.5840
 2348.0000     9.2200     2.4070     0.0110   171.2800
 2348.5000     9.2110     2.4030     0.0140   170.9610
 2349.0000     9.2030     2.4020     0.0170   163.9330
 2349.5000     9.1940     2.4050     0.0180   156.0920
 2350.0000     9.1850     2.4080     0.0180   150.1720
 2350.5000     9.1760     2.4110     0.0170   148.9370
 2351.0000     9.1680     2.4150     0.0160   147.6580
 2351.5000     9.1570     2.4160     0.0160   146.3950
 2352.0000     9.1380     2.4160     0.0200   145.5600
 2352.5000     9.1180     2.4150     0.0230   147.1940
 2353.0000     9.0980     2.4140     0.0270   151.8260
 2353.5000     9.0790     2.4190     0.0300   153.3000
 2354.0000     9.0590     2.4220     0.0280   151.6550
 2354.5000     9.0400     2.4220     0.0200   151.1980
 2355.0000     9.0200     2.4220     0.0130   160.2570
 2355.5000     9.0010     2.4230     0.0060   155.3100
 2356.0000     8.9810     2.4250     0.0060   148.5270
 2356.5000     8.9610     2.4270     0.0060   141.7100
 2357.0000     8.9420     2.4280     0.0060   136.6670
 2357.5000     8.9220     2.4370     0.0100   132.7370
 2358.0000     8.9020     2.4450     0.0170   128.8180
 2358.5000     8.9020     2.4530     0.0240   125.9300
 2359.0000     8.9040     2.4620     0.0310   126.0150
 2359.5000     8.9070     2.4680     0.0340   127.5660
 2360.0000     8.9090     2.4620     0.0320   126.9420
 2360.5000     8.9110     2.4430     0.0150   126.2990
 2361.0000     8.9140     2.4380     0.0060   127.2820
 2361.5000     8.9160     2.4350     0.0060   133.0710
 2362.0000     8.9190     2.4280     0.0060   139.1470
 2362.5000     8.9210     2.4190     0.0060   145.2060
 2363.0000     8.9240     2.4240     0.0080   150.7440
 2363.5000     8.9260     2.4320     0.0100   149.8080
 2364.0000     8.9280     2.4380     0.0130   148.5710
 2364.5000     8.9310     2.4280     0.0150   147.3300
 2365.0000     8.9330     2.4280     0.0150   146.0910
 2365.5000     8.9360     2.4300     0.0130   144.8600
 2366.0000     8.9370     2.4280     0.0110   142.1810
 2366.5000     8.9250     2.4180     0.0080   140.0910
 2367.0000     8.9280     2.4090     0.0060   147.8160
 2367.5000     8.9360     2.4100     0.0060   149.3700
 2368.0000     8.9440     2.4110     0.0060   147.2390
 2368.5000     8.9520     2.4210     0.0070   141.6670
 2369.0000     8.9600     2.4300     0.0090   136.2890
 2369.5000     8.9690     2.4350     0.0110   130.9050
 2370.0000     8.9770     2.4350     0.0120   125.5220
 2370.5000     8.9850     2.4410     0.0140   120.1430
 2371.0000     8.9930     2.4400     0.0140   114.7580
 2371.5000     9.0010     2.4370     0.0140   109.1070
 2372.0000     9.0090     2.4340     0.0100   106.8590
 2372.5000     9.0170     2.4310     0.0070   111.5770
 2373.0000     9.0250     2.4270     0.0040   124.3530
 2373.5000     9.0330     2.4240     0.0000   136.7340
 2374.0000     9.0410     2.4210     0.0000   151.8160
 2374.5000     9.0590     2.4180     0.0000   150.2370
 2375.0000     9.0790     2.4180     0.0020   147.9910
 2375.5000     9.1000     2.4240     0.0050   145.6610
 2376.0000     9.1200     2.4300     0.0060   143.3560
 2376.5000     9.1400     2.4320     0.0060   141.0570
 2377.0000     9.1600     2.4320     0.0050   138.7570
 2377.5000     9.1800     2.4330     0.0020   136.4580
 2378.0000     9.2000     2.4350     0.0010   134.1570
 2378.5000     9.2210     2.4390     0.0040   131.8560
 2379.0000     9.2410     2.4430     0.0070   129.5720
 2379.5000     9.2610     2.4470     0.0100   128.1340
 2380.0000     9.2800     2.4450     0.0100   128.9250
 2380.5000     9.2740     2.4390     0.0100   132.0830
 2381.0000     9.2670     2.4330     0.0100   141.3950
 2381.5000     9.2600     2.4340     0.0160   146.2140
 2382.0000     9.2530     2.4360     0.0220   145.9360
 2382.5000     9.2460     2.4390     0.0280   145.2600
 2383.0000     9.2390     2.4410     0.0280   141.8170
 2383.5000     9.2330     2.4430     0.0240   137.5270
 2384.0000     9.2260     2.4430     0.0200   133.1950
 2384.5000     9.2190     2.4410     0.0170   128.8260
 2385.0000     9.1950     2.4330     0.0130   128.4430
 2385.5000     9.1700     2.4260     0.0090   134.5250
 2386.0000     9.1450     2.4190     0.0050   139.0760
 2386.5000     9.1200     2.4220     0.0060   143.6270
 2387.0000     9.0950     2.4310     0.0060   145.1210
 2387.5000     9.0700     2.4380     0.0080   135.6010
 2388.0000     9.0450     2.4430     0.0100   128.8590
 2388.5000     9.0420     2.4490     0.0120   122.2720
 2389.0000     9.0440     2.4530     0.0140   122.0000
 2389.5000     9.0470     2.4520     0.0160   124.9630
 2390.0000     9.0500     2.4510     0.0180   127.4230
 2390.5000     9.0530     2.4530     0.0200   128.5250
 2391.0000     9.0560     2.4580     0.0200   122.1580
 2391.5000     9.0580     2.4620     0.0200   118.4690
