~VERSION INFORMATION
 VERS.                2.0:   CWLS LOG ASCII STANDARD - VERSION 2.0
 WRAP.                 NO:   ONE LINE PER DEPTH STEP
~WELL INFORMATION
#MNEM.UNIT      DATA TYPE    INFORMATION
#----------   ------------   ------------------------------
 STRT.F            4.0000:   START DEPTH
 STOP.F         3266.0000:   STOP DEPTH
 STEP.F            0.5000:   STEP LENGTH
 NULL.          -999.2500:   NO VALUE
 COMP. LAWRENCE ALLISON & ASSOSCIATES:   COMPANY
 WELL. LAWRENCE "X" #27-11:   WELL
 FLD .          N.P.R. #3:   FIELD
 LOC .      S11 T38N R78W:   LOCATION
 CNTY.            NATRONA:   COUNTY
 STAT.            WYOMING:   STATE
 CTRY. UNITED STATES OF AMERICA:   COUNTRY
 SRVC.      DRESSER ATLAS:   SERVICE COMPANY
 DATE.        22-AUG-1986:   LOGDATE
 API .     49025111070000:   API NUMBER
~CURVE INFORMATION
#MNEM.UNIT       API CODE    CURVE DESCRIPTION
#----------   ------------   ------------------------------
 DEPT.F                  :   
 SPR .MV     07 010 01 00:   SPONTANEOUS POTENTIAL
 TENR.LBS    06 635 01 00:   TENSION FROM RESISTIVITY
 GRR .GAPI   07 310 01 00:   GAMMA RAY FROM RESISTIVITY
 RILD.OHMM   07 120 46 00:   DEEP INDUCTION RESISTIVITY
 RILM.OHMM   07 120 44 00:   INDUCTION LOG MEDIUM RESISTIVITY
 RFOC.OHMM   07 220 04 00:   RESISTIVITY FOCUSED LOG RES.
 NPHI.DEC    42 890 03 00:   NEUTRON POROSITY SANDSTONE
 CALD.IN     45 280 60 00:   CALIPER FROM DENSITY LOG
 RHOB.G/C3   45 350 01 00:   BULK DENSITY
 CORR.G/C3   45 356 01 00:   DENSITY CORRECTION
 TEND.LBS    45 635 01 00:   TENSION FORM DENSITY LOG
~PARAMETER INFORMATION
#MNEM.UNIT          VALUE    DESCRIPTION
#----------   ------------   ------------------------------
 EKB .F         5206.0000:   Kelly bushing
 EGL .F         5194.0000:   Ground level
 EDF .F         5205.0000:   Drilling floor
 EPD .F         5194.0000:   Permanent datum
 TD  .F         3250.0000:   Total depth
 CLNT.            A2DTECH:   Client Code
 SL  . 1197' FSL & 1088' FWL:   Surface Location
 PD  .                 GL:   Permanent Datum
 DAPD.F                12:   Feet Above Permanent Datum
 DATE.        22-AUG-1986:   Date Logged [DD-MMM-YYYY]
 DD  .F              3250:   Depth driller
 DL  .F              3246:   Depth logger
 BLI .F              3243:   Bottom log interval
 TLI .F               683:   Top log interval
 CS1 .IN            8.625:   Casing size
 CBD1.      8.625" @ 672':   Casing driller 1
 CBL1.F               673:   Casing logger 1
 BS1 .IN            7.875:   Bit size
 BSD1.F              3250:   Depth drilled with bit1
 DFT .            KCL-GEL:   Type fluid in hole
 DFD .                8.9:   Density
 DFV .                 35:   Viscosity
 MSS .               TANK:   Source of sample
 RMS .OHMM           0.31:   Rm
 MST .F                70:   Rm Meas. temp.
 RMF .OHMM           0.29:   Rmf
 MFST.F                67:   Rmf Meas. temp.
 MFSS.               CALC:   Source Rmf.
 RMC .OHMM           0.46:   Rmc
 MCST.F                70:   Rmc Meas. temp.
 MCSS.               CALC:   Source Rmc.
 RMB .OHMM           0.16:   Rm. at BHT
 BHT .F               136:   BHT.
 TCS .HRS               4:   Time Circ. stopped
 MRT .F               136:   Maximum recorded temp.
 LUN .            HL-6426:   Logging unit number
 LUL .          RK. SPGS.:   Logging unit location
 ENGI.               RALL:   Recorded By
 WITN.             STRONG:   Witnessed by
 ORIG.           5" PRINT:   Origin of data
 UWI .     49025111070000:   Unique Well ID
 DICO. A2D TECHNOLOGIES, INC.:   Digitizing Company
~OTHER INFORMATION
~A    DEPT     SPR       TENR         GRR      RILD       RILM       RFOC       NPHI       CALD       RHOB       CORR       TEND   
# ...
 3206.5000   -38.5017   -49.0933   128.4673     3.5572     3.9570     4.4452     0.2322     8.1865     2.4720    -0.0010    -4.9427
 3207.0000   -38.4944   -49.3930   125.4423     3.5582     3.9588     4.4470     0.2313     8.1863     2.4713     0.0119    -4.6394
 3207.5000   -38.4872   -49.7513   122.4173     3.5840     3.9329     4.4492     0.2352     8.1862     2.4766     0.0270   -11.8663
 3208.0000   -38.4799   -50.0438   121.8237     3.5850     3.9347     4.4823     0.2390     8.1860     2.4836     0.0262   -19.0932
 3208.5000   -38.3206   -50.3363   123.0906     3.5860     3.9365     4.4528     0.2395     8.1859     2.4879     0.0247   -18.7141
 3209.0000   -38.1385   -43.0417   124.2883     3.5870     3.8561     4.4546     0.2392     8.1857     2.4871     0.0232     4.1794
 3209.5000   -37.8483   -35.7470   123.6949     3.5382     3.7513     4.4564     0.2392     8.1703     2.4864     0.0249   -10.6533
 3210.0000   -37.3851   -36.0395   124.0134     3.4420     3.6486     4.4583     0.2398     8.1702     2.4871     0.0233   -17.8803
 3210.5000   -37.0739   -28.7447   125.5477     3.3716     3.5993     4.3678     0.2461     8.1700     2.4834     0.0104   -17.5012
 3211.0000   -36.9146   -29.1103   127.3966     3.3026     3.5510     4.2191     0.2562     8.1699     2.4788    -0.0032   -24.7281
 3211.5000   -36.6033   -36.9902   128.3159     3.2351     3.5269     3.9909     0.2722     8.1697     2.4827     0.0066   -24.3491
 3212.0000   -36.4423   -44.8699   128.0265     3.1689     3.4080     3.9365     0.2765     8.1696     2.4887     0.0150   -24.0459
 3212.5000   -36.2831   -45.1624   126.8252     3.1041     3.3616     3.9941     0.2686     8.1695     2.4902     0.0180   -16.2125
 3213.0000   -36.2758   -45.4549   123.8002     3.0408     3.3634     4.0521     0.2504     8.1845     2.4871     0.0188   -15.9093
 3213.5000   -36.2685   -45.7474   120.1674     3.0203     3.3414     4.0216     0.2394     8.1843     2.4818     0.0219   -15.6060
 3214.0000   -36.2612   -38.4527   120.9115     2.9792     3.3195     3.9671     0.2425     8.1690     2.4728     0.0256   -15.3028
 3214.5000   -36.6261   -31.1581   126.2791     2.9389     3.2977     3.9178     0.2519     8.1688     2.4644     0.0279   -14.9975
 3215.0000   -37.2340   -31.5237   126.5939     2.9397     3.2762     3.9194     0.2616     8.1687     2.4637     0.0287    -7.1536
 3215.5000   -37.8552   -31.8162   123.8765     2.9405     3.3011     3.9209     0.2649     8.1685     2.4637     0.0287     0.7429
 3216.0000   -38.6018   -24.4483   120.8515     2.9828     3.3729     3.9225     0.2616     8.1532     2.4614     0.0166     8.5763
 3216.5000   -38.9058   -24.8139   118.7237     3.0467     3.4463     3.9241     0.2564     8.1530     2.4629     0.0067     1.2736
 3217.0000   -39.2097   -32.7011   117.8411     3.1120     3.4967     3.8983     0.2491     8.1529     2.4660     0.0075    -5.9533
 3217.5000   -39.2097   -40.6466  -999.2500     3.2234     3.6233     3.9003     0.2452     8.1679     2.4705     0.0090   -13.1045
 3218.0000   -39.3617   -48.5264  -999.2500     3.3155     3.8149     4.0127     0.2458     8.1678     2.4788     0.0098   -12.8012
 3218.5000   -39.2097   -41.2316  -999.2500     3.4106     4.0018     4.3663     0.2454     8.1676     2.4909     0.0038   -20.0281
 3219.0000   -39.0578   -41.5243  -999.2500     3.5610     4.0036     4.8861     0.2372     8.1675     2.4985     0.0075   -27.2550
 3219.5000   -38.7538   -34.2295  -999.2500     3.6845     4.0908     4.9224     0.2333     8.1673     2.4992     0.0129   -26.8760
 3220.0000   -38.2979   -34.5220  -999.2500     3.7898     4.2092     4.7549     0.2348     8.1672     2.4939     0.0159   -19.0426
 3220.5000   -37.6900   -33.6866  -999.2500     3.8441     4.2408     4.7237     0.2375     8.1822     2.4781     0.0068   -11.2093
 3221.0000   -37.0821   -27.5198  -999.2500     3.8452     4.2428     4.6926     0.2345     8.1820     2.4697     0.0006   -10.9060
 3221.5000   -36.3222   -27.8855  -999.2500     3.8482     4.1566     4.6617     0.2366     8.1819     2.4675     0.0023   -10.6028
 3222.0000   -35.8663   -20.5175  -999.2500     3.7918     3.9868     4.6311     0.2457     8.1817     2.4750     0.0114   -17.8296
 3222.5000   -35.5623   -13.2229  -999.2500     3.6396     3.8240     4.5371     0.2491     8.1816     2.4788     0.0144   -25.0567
 3223.0000   -35.4103   -13.5885  -999.2500     3.5157     3.6678     4.4119     0.2460     8.1815     2.4771     0.0137   -24.6776
 3223.5000   -35.2584   -13.8847  -999.2500     3.4199     3.5428     4.2045     0.2457     8.1813     2.4690     0.0107   -24.3743
 3224.0000   -35.1064   -14.9492  -999.2500     3.3267     3.5180     4.0331     0.2444     8.1812     2.4599     0.0039   -24.0711
 3224.5000   -35.1064   -22.1265  -999.2500     3.2814     3.4965     3.9228     0.2439     8.1810     2.4554    -0.0014   -23.7678
 3225.0000   -34.9544   -22.4190  -999.2500     3.2595     3.5480     3.9248     0.2460     8.1808     2.4584     0.0057   -23.4647
 3225.5000   -34.9544   -30.2987  -999.2500     3.2604     3.5746     3.9540     0.2487     8.1807     2.4637     0.0137   -23.1552
 3226.0000   -35.1064   -30.5912  -999.2500     3.2843     3.6024     4.0114     0.2442     8.1805     2.4705     0.0122   -22.7824
 3226.5000   -35.5623   -30.8837  -999.2500     3.3547     3.7849     4.0769     0.2442     8.1804     2.4781     0.0084   -22.4791
 3227.0000   -35.8663   -31.1836  -999.2500     3.4506     3.8946     4.2168     0.2457     8.1802     2.4766     0.0052   -22.1759
 3227.5000   -36.4742   -31.5420  -999.2500     3.5492     3.9793     4.3081  -999.2500     8.1801     2.4750     0.0062   -14.3427
 3228.0000   -36.7781   -39.4217  -999.2500     3.6252     4.0092     4.4014  -999.2500     8.1799     2.4849     0.0130   -14.0394
 3228.5000   -37.2340   -39.7142  -999.2500     3.6772     4.0110     4.5283  -999.2500     8.1798     2.4970     0.0168    -6.2060
 3229.0000   -37.3860   -40.0067  -999.2500     3.7042     4.0128     4.6915  -999.2500     8.1796     2.5008     0.0176   -13.4329
 3229.5000   -37.3860   -40.2994  -999.2500     3.7051     3.9313     4.6607  -999.2500     8.1795     2.4962     0.0176   -13.0540
 3230.0000   -37.3860   -40.5918  -999.2500     3.6804     3.9331     4.5338  -999.2500     8.1793     2.4902     0.0161   -12.7507
 3230.5000   -37.3860   -40.8953  -999.2500     3.6051     3.8216     4.3190  -999.2500     8.1792     2.4848     0.0138    -4.9173
 3231.0000   -37.2340   -33.5896  -999.2500     3.5314     3.7466     4.1140  -999.2500     8.1790     2.4818     0.0131    33.0365
 3231.5000   -37.0821   -33.9552  -999.2500     3.5078     3.7216     4.0580  -999.2500     8.1637     2.4879     0.0153   108.6410
 3232.0000   -36.7559   -34.2478  -999.2500     3.4566     3.7232     4.1755  -999.2500     8.1635     2.4924     0.0222   277.1084
 3232.5000   -36.1702   -34.5403  -999.2500     3.3893     3.6725     4.2658  -999.2500     8.1633     2.4902     0.0298   470.7184
 3233.0000   -35.5623   -27.2456  -999.2500     3.3202     3.6225     4.1788  -999.2500     8.1632     2.4849     0.0260   538.7927
 3233.5000   -35.1064   -19.5698  -999.2500     3.2751     3.6237     4.0940  -999.2500     8.1479     2.4781     0.0192   539.0960
 3234.0000   -34.8024    17.6197  -999.2500     3.2760     3.5727     4.0101  -999.2500     8.1477     2.4811     0.0154   540.2460
 3234.5000   -34.4985    78.0253  -999.2500     3.2769     3.5013     4.0403  -999.2500     8.1476     2.4856     0.0146   554.8384
 3235.0000   -34.4985   153.6053  -999.2500     3.3007     3.4534     4.0704  -999.2500     8.1474     2.4864     0.0184   562.6718
 3235.5000   -34.3465   229.1853  -999.2500     3.2560     3.4303     4.0154  -999.2500     8.1473     2.4849     0.0192   570.5052
 3236.0000   -34.3465   282.0036  -999.2500     3.2340     3.4318     3.9324  -999.2500     8.1471     2.4796     0.0200   578.3386
 3236.5000   -34.3465   312.0601  -999.2500     3.2124     3.4089     3.8000  -999.2500     8.1622     2.4713     0.0162   578.6418
