~VERSION INFORMATION
 VERS.                2.0:   CWLS LOG ASCII STANDARD - VERSION 2.0
 WRAP.                 NO:   ONE LINE PER DEPTH STEP
~WELL INFORMATION
#MNEM.UNIT      DATA TYPE    INFORMATION
#----------   ------------   ------------------------------
 STRT.F           30.0000:   START DEPTH
 STOP.F         5698.0000:   STOP DEPTH
 STEP.F            0.5000:   STEP LENGTH
 NULL.          -999.2500:   NO VALUE
 COMP. LAWRRENCE-ALLISON & ASSOCIATES:   COMPANY
 WELL. LAWERNCE "X" #41-3:   WELL
 FLD .           N P R #3:   FIELD
 LOC .       S3 T38N R78W:   LOCATION
 CNTY.            NATRONA:   COUNTY
 STAT.            WYOMING:   STATE
 CTRY. UNITED STATES OF AMERICA:   COUNTRY
 SRVC.      DRESSER ATLAS:   SERVICE COMPANY
 DATE.        04-JUN-1983:   LOGDATE
 API .     49025109200000:   API NUMBER
~CURVE INFORMATION
#MNEM.UNIT       API CODE    CURVE DESCRIPTION
#----------   ------------   ------------------------------
 DEPT.F                  :   
 TENS.LBS    60 635 01 00:   TENSION FROM SONIC
 DT  .US/F   60 520 00 00:   DELTA TIME
 SPR .MV     11 010 01 00:   SPONTANEOUS POTENTIAL FROM RES.
 TENR.LBS    11 635 01 00:   TENSION FROM RES. LOG
 GRR .GAPI   11 310 01 00:   GAMMA RAY FROM RES.
 CALR.IN     11 280 01 00:   CALIPER FROM RES.
 RMLL.OHMM   11 270 04 00:   MICRO LATEROLOG
 RD  .OHMM   11 220 10 00:   RESISTIVITY DEEP
 RS  .OHMM   11 220 09 00:   RESISTIVITY SHALLOW
 TEND.LBS    45 635 01 00:   TENSION FROM DENSITY LOG
 CORR.G/C3   45 356 01 00:   DENSITY CORRECTION
 RHOB.G/C3   45 350 01 00:   BULK DENSITY
 NPHI.DEC    42 890 03 00:   NEUTRON POROSITY SANDSTONE
~PARAMETER INFORMATION
#MNEM.UNIT          VALUE    DESCRIPTION
#----------   ------------   ------------------------------
 EKB .F         5157.5000:   Kelly bushing
 EGL .F         5147.5000:   Ground level
 EDF .F            0.0000:   Drilling floor
 TD  .F         5690.0000:   Total depth
 DATE.        04-JUN-1983:   Date logged
 CLNT.            A2DTECH:   Client Code
 SL  . 2218' FWL & 287' FNL:   Surface Location
 PD  .                 GL:   Permanent Datum
 EPD .F            5147.5:   Elevation Permanent Datum
 LMF .                 KB:   Log Measured From
 DMF .                 KB:   Drilling Measured From
 DD  .F              5690:   Depth driller
 DL  .F              5685:   Depth logger
 BLI .F              5682:   Bottom log interval
 CS1 .IN            9.625:   Casing size
 CBD1.       9.625 @ 568':   Casing driller 1
 CBL1.F               568:   Casing logger 1
 BS1 .IN             8.75:   Bit size
 DFT .        KCL-DRISPAC:   Type fluid in hole
 DFD .                9.1:   Density
 DFV .                 37:   Viscosity
 DFPH.                  8:   pH
 DFL .                3.8:   Fluid loss
 MSS .               TANK:   Source of sample
 RMS .OHMM           0.41:   Rm
 MST .F                75:   Rm Meas. temp.
 RMF .OHMM           0.28:   Rmf
 MFST.F                70:   Rmf Meas. temp.
 RMC .OHMM           0.53:   Rmc
 MCST.F                75:   Rmc Meas. temp.
 MFSS.               MEAS:   Source Rmf.
 RMB .OHMM           0.18:   Rm. at BHT
 BHT .F               160:   BHT.
 TCS .HRS               5:   Time Circ. stopped
 MRT .F               166:   Maximum recorded temp.
 LUN .               6274:   Logging unit number
 LUL .               GLTE:   Logging unit location
 ENGI.             RAUTIO:   Recorded By
 WITN.             STRONG:   Witnessed by
 ORIG.     2.5", 5" PRINT:   Origin of data
 UWI .     49025109200000:   Unique Well ID
 DICO. A2D TECHNOLOGIES, INC.:   Digitizing Company
 MCSS.               CALC:   Source Rmc.
 DAPD.                 10:   Feet Above Permanent Datum
 BSD1.               5690:   Depth drilled with bit1
~OTHER INFORMATION
~A   DEPT     TENS         DT        SPR       TENR         GRR      CALR       RMLL         RD         RS       TEND       CORR       RHOB       NPHI   
# ...
 1252.0000  -999.2500  -999.2500   -85.5250   -61.3270    81.9950     9.8170     6.5580     9.3660     7.8980  -999.2500  -999.2500  -999.2500  -999.2500
 1252.5000  -999.2500  -999.2500   -85.6310   -61.4070    81.9810     9.8190     6.5580     9.3490     7.8870  -999.2500  -999.2500  -999.2500  -999.2500
 1253.0000  -999.2500  -999.2500   -85.7440   -61.4870    80.4510     9.8220     6.3250     9.3310     7.8750  -999.2500  -999.2500  -999.2500  -999.2500
 1253.5000  -999.2500  -999.2500   -85.8530   -61.5670    79.7920     9.8240     6.2920     9.3140     7.8650  -999.2500  -999.2500  -999.2500  -999.2500
 1254.0000  -999.2500  -999.2500   -85.9630   -61.6470    81.0060     9.8260     6.2560     9.2970     7.7860  -999.2500  -999.2500  -999.2500  -999.2500
 1254.5000  -999.2500  -999.2500   -86.0720   -61.7270    82.0270     9.8280     6.2200     9.2800     7.6800  -999.2500  -999.2500  -999.2500  -999.2500
 1255.0000  -999.2500  -999.2500   -86.1830   -61.8070    83.0910     9.8310     6.2110     9.2630     7.5750  -999.2500  -999.2500  -999.2500  -999.2500
 1255.5000  -999.2500  -999.2500   -86.2920   -61.8870    84.2990     9.8330     6.3510     9.2550     7.4690  -999.2500  -999.2500  -999.2500  -999.2500
 1256.0000  -999.2500  -999.2500   -86.4010   -61.9660    83.3070     9.8580     6.5970     9.2550     7.5250  -999.2500  -999.2500  -999.2500  -999.2500
 1256.5000  -999.2500  -999.2500   -86.5190   -62.0460    80.3490     9.8910     6.8430     9.2550     7.6260  -999.2500  -999.2500  -999.2500  -999.2500
 1257.0000  -999.2500  -999.2500   -86.5810   -62.1260    77.6470     9.9240     7.1800     9.2550     7.7280  -999.2500  -999.2500  -999.2500  -999.2500
 1257.5000  -999.2500  -999.2500   -86.5740   -62.2060    79.2090     9.9590     7.1480     9.2550     7.8300  -999.2500  -999.2500  -999.2500  -999.2500
 1258.0000  -999.2500  -999.2500   -86.5510   -62.2860    80.7470     9.9840     7.0100     9.2550     7.9310  -999.2500  -999.2500  -999.2500  -999.2500
 1258.5000  -999.2500  -999.2500   -86.5210   -62.3660    81.1290    10.0110     6.8720     9.2550     8.0060  -999.2500  -999.2500  -999.2500  -999.2500
 1259.0000  -999.2500  -999.2500   -86.4900   -62.4460    80.6960     9.9860     6.8000     9.2550     7.9490  -999.2500  -999.2500  -999.2500  -999.2500
 1259.5000  -999.2500  -999.2500   -86.4610   -62.5260    83.3620     9.9540     6.9450     9.2550     7.8300  -999.2500  -999.2500  -999.2500  -999.2500
 1260.0000  -999.2500  -999.2500   -86.4310   -62.6060    84.5120     9.9190     6.9740     9.2550     7.7120  -999.2500  -999.2500  -999.2500  -999.2500
 1260.5000  -999.2500  -999.2500   -86.4010   -62.6860    84.4250     9.8870     7.0030     9.2550     7.5930  -999.2500  -999.2500  -999.2500  -999.2500
 1261.0000  -999.2500  -999.2500   -86.3710   -62.7660    84.3300     9.8540     7.0330     9.2550     7.4740  -999.2500  -999.2500  -999.2500  -999.2500
 1261.5000  -999.2500  -999.2500   -86.3400   -62.8450    83.1430     9.8200     7.0510     9.2560     7.4460  -999.2500  -999.2500  -999.2500  -999.2500
 1262.0000  -999.2500  -999.2500   -86.3120   -62.9250    82.1600     9.7940     7.0510     9.2550     7.5120  -999.2500  -999.2500  -999.2500  -999.2500
 1262.5000  -999.2500  -999.2500   -86.2800   -63.0050    80.7780     9.7900     7.0510     9.2540     7.6290  -999.2500  -999.2500  -999.2500  -999.2500
 1263.0000  -999.2500  -999.2500   -86.2510   -63.0850    82.1300     9.7850     7.0510     9.2600     7.7200  -999.2500  -999.2500  -999.2500  -999.2500
 1263.5000  -999.2500  -999.2500   -86.2250   -63.1650    85.4260     9.7810     7.0510     9.1950     7.5830  -999.2500  -999.2500  -999.2500  -999.2500
 1264.0000  -999.2500  -999.2500   -86.1760   -63.2450    87.1000     9.7760     6.8500     9.0390     7.4140  -999.2500  -999.2500  -999.2500  -999.2500
 1264.5000  -999.2500  -999.2500   -86.3280   -63.3250    85.4530     9.7710     6.6780     8.8880     7.2460  -999.2500  -999.2500  -999.2500  -999.2500
 1265.0000  -999.2500  -999.2500   -86.6720   -63.4050    83.8480     9.7670     6.6780     8.7360     7.0770  -999.2500  -999.2500  -999.2500  -999.2500
 1265.5000  -999.2500  -999.2500   -86.9520   -63.4850    83.6920     9.7620     6.6340     8.5850     6.9250  -999.2500  -999.2500  -999.2500  -999.2500
 1266.0000  -999.2500  -999.2500   -86.9550   -63.5650    84.3400     9.7570     6.5420     8.4340     6.8000  -999.2500  -999.2500  -999.2500  -999.2500
 1266.5000  -999.2500  -999.2500   -86.9890   -63.6450    83.5240     9.7550     6.4510     8.3010     6.8000  -999.2500  -999.2500  -999.2500  -999.2500
 1267.0000  -999.2500  -999.2500   -86.9220   -63.7250    82.5770     9.7560     6.3600     8.3140     6.8000  -999.2500  -999.2500  -999.2500  -999.2500
 1267.5000  -999.2500  -999.2500   -87.2640   -63.8040    81.5370     9.7570     6.2110     8.3320     6.8860  -999.2500  -999.2500  -999.2500  -999.2500
 1268.0000  -999.2500  -999.2500   -87.1210   -63.8840    81.4090     9.7580     6.2230     8.3490     6.9770  -999.2500  -999.2500  -999.2500  -999.2500
 1268.5000  -999.2500  -999.2500   -86.9400   -63.9640    81.7390     9.7580     6.2550     8.3670     7.0510  -999.2500  -999.2500  -999.2500  -999.2500
 1269.0000  -999.2500  -999.2500   -86.7220   -64.0440    81.8840     9.7590     6.2870     8.3840     6.9760  -999.2500  -999.2500  -999.2500  -999.2500
 1269.5000  -999.2500  -999.2500   -86.5350   -64.1240    83.1470     9.7600     6.3250     8.4020     6.9120  -999.2500  -999.2500  -999.2500  -999.2500
 1270.0000  -999.2500  -999.2500   -86.3300   -64.2040    84.8700     9.7610     6.1490     8.4190     6.8160  -999.2500  -999.2500  -999.2500  -999.2500
 1270.5000  -999.2500  -999.2500   -86.2110   -64.2840    86.6250     9.7620     5.9900     8.4370     6.8320  -999.2500  -999.2500  -999.2500  -999.2500
 1271.0000  -999.2500  -999.2500   -86.3020   -64.3640    87.1080     9.7630     6.0200     8.4530     6.9600  -999.2500  -999.2500  -999.2500  -999.2500
 1271.5000  -999.2500  -999.2500   -86.3890   -64.4440    88.2780     9.7640     6.0540     8.3720     7.0510  -999.2500  -999.2500  -999.2500  -999.2500
 1272.0000  -999.2500  -999.2500   -86.4770   -64.5240    89.7280     9.7640     6.0990     8.2960     6.9400  -999.2500  -999.2500  -999.2500  -999.2500
 1272.5000  -999.2500  -999.2500   -86.5700   -64.6040    90.8110     9.7650     6.0140     8.2200     6.8150  -999.2500  -999.2500  -999.2500  -999.2500
 1273.0000  -999.2500  -999.2500   -86.5750   -64.6830    90.0470     9.7660     5.6730     8.1450     6.6890  -999.2500  -999.2500  -999.2500  -999.2500
 1273.5000  -999.2500  -999.2500   -86.5770   -64.7630    88.7600     9.7670     5.7070     8.0690     6.5580  -999.2500  -999.2500  -999.2500  -999.2500
 1274.0000  -999.2500  -999.2500   -86.5750   -64.8430    87.5240     9.7680     5.8050     8.0060     6.6770  -999.2500  -999.2500  -999.2500  -999.2500
 1274.5000  -999.2500  -999.2500   -86.5760   -64.9230    86.0500     9.7690     5.9040     8.0720     6.8030  -999.2500  -999.2500  -999.2500  -999.2500
 1275.0000  -999.2500  -999.2500   -86.5760   -65.0030    85.2350     9.7700     6.0020     8.2470     6.9280  -999.2500  -999.2500  -999.2500  -999.2500
 1275.5000  -999.2500  -999.2500   -86.5760   -65.0830    84.2870     9.7700     6.0990     8.4230     7.0510  -999.2500  -999.2500  -999.2500  -999.2500
 1276.0000  -999.2500  -999.2500   -86.5760   -65.1630    83.9800     9.7710     6.2340     8.5980     7.0510  -999.2500  -999.2500  -999.2500  -999.2500
 1276.5000  -999.2500  -999.2500   -86.5760   -65.2430    85.6480     9.7720     6.4400     8.7650     7.0510  -999.2500  -999.2500  -999.2500  -999.2500
 1277.0000  -999.2500  -999.2500   -86.5760   -65.3230    86.6930     9.7730     6.3590     8.6790     7.0510  -999.2500  -999.2500  -999.2500  -999.2500
 1277.5000  -999.2500  -999.2500   -86.5760   -65.4030    85.0270     9.7740     6.2360     8.5470     7.0510  -999.2500  -999.2500  -999.2500  -999.2500
