~VERSION INFORMATION
 VERS.                2.0:   CWLS LOG ASCII STANDARD - VERSION 2.0
 WRAP.                 NO:   ONE LINE PER DEPTH STEP
~WELL INFORMATION
#MNEM.UNIT      DATA TYPE    INFORMATION
#----------   ------------   ------------------------------
 STRT.F           50.0000:   START DEPTH
 STOP.F         3270.0000:   STOP DEPTH
 STEP.F            0.5000:   STEP LENGTH
 NULL.          -999.2500:   NO VALUE
 COMP.   LAWRENCE ALLISON:   COMPANY
 WELL. LAWRENCE NPR 3 "AX" #12-11:   WELL
 FLD .                NPR:   FIELD
 LOC .      S11 T38N R78W:   LOCATION
 CNTY.            NATRONA:   COUNTY
 STAT.            WYOMING:   STATE
 CTRY. UNITED STATES OF AMERICA:   COUNTRY
 SRVC.      DRESSER ATLAS:   SERVICE COMPANY
 DATE.        18-JUL-1985:   LOGDATE
 API .     49025110460000:   API NUMBER
~CURVE INFORMATION
#MNEM.UNIT       API CODE    CURVE DESCRIPTION
#----------   ------------   ------------------------------
 DEPT.F                  :   
 TEND.LBS    45 635 01 00:   TENSION FROM DENSITY LOG
 RHOB.G/C3   45 350 01 00:   BULK DENSITY
 CORR.G/C3   45 356 01 00:   DENSITY CORRECTION
 NPHI.DEC    42 890 03 00:   NEUTRON POROSITY SANDSTONE
 TENR.LBS    07 635 01 00:   TENSION
 GRR .GAPI   07 310 01 00:   GAMMA RAY FROM RESISTIVITY
 RFOC.OHMM   07 220 01 00:   RESISTIVITY FOCUSED LOG RES.
 RILD.OHMM   07 120 46 00:   INDUCTION LOG DEEP RESISTIVITY
 RILM.OHMM   07 120 44 00:   INDUCTION LOG MEDIUM RESISTIVITY
 SN  .OHMM   01 040 00 00:   SHORT NORMAL
 ILD .OHMM   07 120 46 00:   INDUCTION LOG DEEP RESISTIVITY
 TENS.LBS    60 635 01 00:   TENSION FROM SONIC LOG
 DT  .US/F   60 520 00 00:   DELTA TIME
 SPR .MV     07 010 01 00:   SPONTANEOUS POTENTIAL
~PARAMETER INFORMATION
#MNEM.UNIT          VALUE    DESCRIPTION
#----------   ------------   ------------------------------
 EKB .F         5152.0000:   Kelly bushing
 EGL .F         5140.0000:   Ground level
 EDF .F            0.0000:   Drilling floor
 TD  .F         3271.0000:   Total depth
 DATE.        18-JUL-1985:   Date logged
 CLNT.            A2DTECH:   Client Code
 SL  . 1050' FNL & 150' FWL:   Surface Location
 PD  .                 GL:   Permanent Datum
 EPD .F              5140:   Elevation Permanent Datum
 LMF .                 KB:   Log Measured From
 DMF .                 KB:   Drilling Measured From
 DAPD.F                12:   Feet Above Permanent Datum
 DD  .F              3271:   Depth driller
 DL  .F              3262:   Depth logger
 BLI .F              3259:   Bottom log interval
 CS1 .IN            8.625:   Casing size
 CBD1.      8.625" @ 560':   Casing driller 1
 CBL1.F               560:   Casing logger 1
 BS1 .IN            7.875:   Bit size
 BSD1.F              3271:   Depth drilled with bit1
 DFT .            GEL/KCL:   Type fluid in hole
 DFD .                8.8:   Density
 DFV .                 40:   Viscosity
 DFPH.                  8:   pH
 DFL .                  8:   Fluid loss
 MSS .           MUD/TANK:   Source of sample
 RMS .OHMM            .31:   Rm
 MST .F                82:   Rm Meas. temp.
 RMF .OHMM            .25:   Rmf
 MFST.F                82:   Rmf Meas. temp.
 RMC .OHMM            .39:   Rmc
 MCST.F                82:   Rmc Meas. temp.
 MFSS.               MEAS:   Source Rmf.
 MCSS.               CALC:   Source Rmc.
 RMB .OHMM           .198:   Rm. at BHT
 BHT .F               128:   BHT.
 TCS .HRS               3:   Time Circ. stopped
 MRT .F               128:   Maximum recorded temp.
 LUN .            HL-6274:   Logging unit number
 LUL .           GILLETTE:   Logging unit location
 ENGI.             RAUTIO:   Recorded By
 WITN.             STRONG:   Witnessed by
 ORIG.           5" PRINT:   Origin of data
 UWI .     49025110460000:   Unique Well ID
 DICO. A2D TECHNOLOGIES, INC.:   Digitizing Company
~OTHER INFORMATION
~A   DEPT     TEND       RHOB       CORR       NPHI       TENR        GRR       RFOC       RILD       RILM           SN        ILD     TENS         DT         SPR  
# ...
 2279.5000   -61.9970     2.4220    -0.0210     0.2980   -69.6290   104.4410    10.7840     9.9130     9.5020  -999.2500  -999.2500   -70.6140    90.8110    51.6020
 2280.0000   -65.9200     2.4120    -0.0210     0.2950   -69.5320   102.8960    11.2150     9.7720     9.3640  -999.2500  -999.2500   -70.7090    89.9500    51.5740
 2280.5000   -81.6720     2.4000    -0.0200     0.2900   -69.4340   106.0050    11.3180     9.9530     9.2480  -999.2500  -999.2500   -70.8040    90.1700    52.8420
 2281.0000  -108.6760     2.3960    -0.0180     0.2850   -69.3360   109.1520    10.7460     9.9740     9.2960  -999.2500  -999.2500   -70.9000    90.5770    53.8690
 2281.5000  -135.5720     2.4010    -0.0120     0.2800   -69.2380   109.6420    10.3220    10.0330     9.3830  -999.2500  -999.2500   -70.9950    90.9830    54.1410
 2282.0000  -124.5580     2.4110    -0.0020     0.2750   -69.1410   106.7810    10.1370    10.0910     9.4970  -999.2500  -999.2500   -71.0910    91.2060    53.8330
 2282.5000  -113.5880     2.4160    -0.0020     0.2810   -69.0430   105.5470    10.4880    10.1500     9.7500  -999.2500  -999.2500   -71.1860    91.1450    53.5250
 2283.0000  -102.6180     2.4170    -0.0050     0.2900   -68.9450   106.9290    10.8400    10.2310     9.6550  -999.2500  -999.2500   -71.2810    90.1510    53.4730
 2283.5000   -91.6480     2.4220    -0.0050     0.2990   -68.8470   108.2950    11.3180    10.2030     9.4650  -999.2500  -999.2500   -71.3770    89.1150    53.4720
 2284.0000   -80.6780     2.4340    -0.0100     0.2970   -68.7500   109.2520    11.0450    10.1410     9.2750  -999.2500  -999.2500   -71.4720    88.2860    53.4720
 2284.5000   -69.7080     2.4350    -0.0260     0.2960   -68.6520   106.5550    10.4320    10.0780     9.2480  -999.2500  -999.2500   -71.5670    88.4560    53.4720
 2285.0000   -66.2080     2.4290    -0.0290     0.2890   -68.5540   106.4850    10.1370     9.9530     9.4190  -999.2500  -999.2500   -71.6630    88.1710    53.4720
 2285.5000   -66.6480     2.4290    -0.0080     0.2790   -68.4560   106.1230    10.3080     9.8030     9.3510  -999.2500  -999.2500   -71.7580    87.8800    53.4720
 2286.0000   -67.0880     2.4400    -0.0050     0.2740   -68.3580   105.7910    10.4560     9.5990     9.2100  -999.2500  -999.2500   -71.8540    87.7060    53.4720
 2286.5000   -67.5280     2.4500    -0.0140     0.2800   -68.2610   105.4410    10.6130     9.3330     9.0700  -999.2500  -999.2500   -71.9490    87.6150    53.4720
 2287.0000   -67.9680     2.4610    -0.0280     0.2830   -68.1630   105.4020    10.6130     9.3330     8.9300  -999.2500  -999.2500   -72.0440    87.6580    53.4670
 2287.5000   -68.4080     2.4620    -0.0270     0.2770   -68.0650   106.6300    10.1050     9.2570     8.7900  -999.2500  -999.2500   -72.1400    87.9080    53.6970
 2288.0000   -68.8480     2.4630    -0.0150     0.2680   -67.9670   107.9850     9.7230     9.1760     8.5930  -999.2500  -999.2500   -72.2350    88.1580    54.0170
 2288.5000   -69.2880     2.4700    -0.0060     0.2710   -67.8700   105.5080     9.3330     9.0940     8.6620  -999.2500  -999.2500   -72.3300    88.4080    54.3380
 2289.0000   -69.7280     2.4860     0.0040     0.2720   -67.7720   103.8010     9.2480     9.0130     8.8330  -999.2500  -999.2500   -72.4260    88.6580    54.6600
 2289.5000   -70.1680     2.5020     0.0140     0.2700   -67.6740   100.6870     9.1630     8.8720     8.5170  -999.2500  -999.2500   -72.5210    88.6900    54.9800
 2290.0000   -70.6070     2.5180     0.0180     0.2670   -67.5760    97.3230     9.3510     8.4750     7.9890  -999.2500  -999.2500   -72.6170    88.5850    55.2610
 2290.5000   -71.0470     2.5340    -0.0020     0.2640   -67.4790    93.9750     9.5370     7.9330     7.4600  -999.2500  -999.2500   -72.7120    88.4800    55.4560
 2291.0000   -71.4870     2.5440     0.0090     0.2610   -67.3810    94.3620     9.7230     7.3900     6.9570  -999.2500  -999.2500   -72.8070    88.3750    55.6670
 2291.5000   -71.9270     2.5370     0.0190     0.2600   -67.2830    97.9080     9.8620     6.8480     6.3370  -999.2500  -999.2500   -72.9030    88.7480    55.8760
 2292.0000   -72.3670     2.5170     0.0350     0.2630   -67.1850   100.5390     8.8020     6.3460     5.7900  -999.2500  -999.2500   -72.9980    89.2200    56.0700
 2292.5000   -72.8070     2.4960     0.0390     0.2640   -67.0880   100.8810     7.8040     6.2610     5.7370  -999.2500  -999.2500   -73.0930    89.6920    56.1510
 2293.0000   -73.2470     2.4940     0.0340     0.2610   -66.9900    99.8890     6.8060     6.2310     5.9510  -999.2500  -999.2500   -73.1890    90.0500    56.2530
 2293.5000   -73.6870     2.4940     0.0210     0.2610   -66.8920    98.0990     5.8070     6.2880     6.1190  -999.2500  -999.2500   -73.2840    90.0890    55.9210
 2294.0000   -74.1270     2.4930     0.0070     0.2630   -66.7940    92.7310     5.4790     6.4960     6.2310  -999.2500  -999.2500   -73.3800    89.8810    55.7130
 2294.5000   -74.5670     2.4930    -0.0080     0.2710   -66.6970    88.6540     6.9710     6.7810     6.2310  -999.2500  -999.2500   -73.4750    90.0780    55.4970
 2295.0000   -75.0070     2.4940    -0.0110     0.2680   -66.5990    87.7070     8.0950     7.0860     6.5230  -999.2500  -999.2500   -73.5700    89.7610    55.3160
 2295.5000   -75.4460     2.4990    -0.0110     0.2630   -66.5010    87.3660     9.2480     7.2680     6.8310  -999.2500  -999.2500   -73.6660    89.1700    55.0890
 2296.0000   -75.8710     2.5060    -0.0010     0.2530   -66.4030    87.3070     8.8520     7.4580     7.0210  -999.2500  -999.2500   -73.7610    88.8550    54.8630
 2296.5000   -74.7590     2.5120     0.0030     0.2510   -66.3060    89.0570     8.4470     7.6480     7.2880  -999.2500  -999.2500   -73.8560    88.8190    54.6420
 2297.0000   -73.6850     2.5060     0.0030     0.2510   -66.2080    91.8750     8.0410     7.8370     7.5580  -999.2500  -999.2500   -73.9520    88.7860    54.4340
 2297.5000   -72.6110     2.4980     0.0040     0.2480   -66.1100    92.9850     7.5110     8.0750     7.8390  -999.2500  -999.2500   -74.0470    88.7550    53.7010
 2298.0000   -71.5380     2.4950     0.0020     0.2450   -66.0120    91.5620     7.5560     8.4750     8.2710  -999.2500  -999.2500   -74.1430    88.2510    52.9780
 2298.5000   -70.4640     2.5050    -0.0020     0.2500   -65.9150    88.6420     8.4530     8.8760     8.6910  -999.2500  -999.2500   -74.2380    87.5110    52.2220
 2299.0000   -69.3910     2.5140    -0.0050     0.2540   -65.8170    84.5940     9.5140     9.2480     9.1630  -999.2500  -999.2500   -74.3330    86.7710    51.4730
 2299.5000   -68.3170     2.5230     0.0040     0.2610   -65.7190    80.6660    11.1120     9.1250     8.9140  -999.2500  -999.2500   -74.4290    86.0310    50.7230
 2300.0000   -67.2430     2.5300     0.0150     0.2710   -65.6210    80.3860    10.8250     8.9840     8.4360  -999.2500  -999.2500   -74.5240    85.2920    49.9720
 2300.5000   -66.1700     2.5360     0.0260     0.2810   -65.5530    80.4160    10.3250     8.8330     8.5790  -999.2500  -999.2500   -74.6190    85.1390    49.2160
 2301.0000   -65.0960     2.5360     0.0270     0.2740   -65.5530    82.0580     9.4380     8.9690     8.7090  -999.2500  -999.2500   -74.7150    85.4550    48.5400
 2301.5000   -64.0220     2.5320     0.0220     0.2650   -65.5530    86.0850     8.5510     9.1610     8.8380  -999.2500  -999.2500   -74.8100    85.8620    48.5080
 2302.0000   -62.9490     2.5230     0.0250     0.2580   -65.5530    88.2370     8.1320     9.3530     8.9680  -999.2500  -999.2500   -74.9060    86.1760    48.5100
 2302.5000   -61.8750     2.5110     0.0250     0.2600   -65.5530    87.3510     8.1320     9.5450     9.0790  -999.2500  -999.2500   -75.0010    86.3980    48.5150
 2303.0000   -60.8010     2.4980     0.0260     0.2630   -65.5530    86.7090     8.8390     9.7370     9.1930  -999.2500  -999.2500   -75.0960    86.4850    48.6690
 2303.5000   -59.7280     2.4860     0.0230     0.2600   -65.5530    87.2410     9.8630     9.8360     9.2480  -999.2500  -999.2500   -75.1920    86.5260    48.8340
