~VERSION INFORMATION
 VERS.                2.0:   CWLS LOG ASCII STANDARD - VERSION 2.0
 WRAP.                 NO:   ONE LINE PER DEPTH STEP
~WELL INFORMATION
#MNEM.UNIT      DATA TYPE    INFORMATION
#----------   ------------   ------------------------------
 STRT.F          176.0000:   START DEPTH
 STOP.F         3380.0000:   STOP DEPTH
 STEP.F            0.5000:   STEP LENGTH
 NULL.          -999.2500:   NO VALUE
 COMP.    PENIX & SCISSON:   COMPANY
 WELL.  FENIX "AX" #85-15:   WELL
 FLD .             NPR #3:   FIELD
 LOC .      S15 T38N R78W:   LOCATION
 CNTY.            NATRONA:   COUNTY
 STAT.            WYOMING:   STATE
 CTRY. UNITED STATES OF AMERICA:   COUNTRY
 SRVC.       SCHLUMBERGER:   SERVICE COMPANY
 DATE.        28-APR-1981:   LOGDATE
 API .     49025108700000:   API NUMBER
~CURVE INFORMATION
#MNEM.UNIT       API CODE    CURVE DESCRIPTION
#----------   ------------   ------------------------------
 DEPT.F                  :   
 TEND.LBS    45 635 01 00:   TENSION FROM DENSITY LOG
 CALD.IN     45 280 60 00:   CALIPER FROM DENSITY LOG
 CORR.G/C3   45 356 01 00:   DENSITY CORRECTION
 GRD .GAPI   45 310 01 00:   GAMMA RAY FROM DENSITY LOG
 RHOB.G/C3   45 350 01 00:   BULK DENSITY
 SFL .OHMM   07 220 01 00:   SHALLOW FOCUSED LOG RESISTIVITY
 ILD .OHMM   07 120 46 00:   INDUCTIONLOG DEEP RESISTIVITY
 ILM .OHMM   07 120 44 00:   INDUCTION LOG MEDIUM RESISTIVITY
 TENR.LBS    07 635 01 00:   TENSION FROM RESISTIVITY
 SPR .MV     07 010 01 00:   SPONTANEOUS POTENTIAL
~PARAMETER INFORMATION
#MNEM.UNIT          VALUE    DESCRIPTION
#----------   ------------   ------------------------------
 EKB .F         5259.0000:   Kelly bushing
 EGL .F         5249.0000:   Ground level
 EDF .F            0.0000:   Drilling floor
 TD  .F         3333.0000:   Total depth
 DATE.        28-APR-1981:   Date logged
 CLNT.            A2DTECH:   Client Code
 SL  . 1927' FSL & 140' FEL:   Surface Location
 PD  .                 GL:   Permanent Datum
 DD  .F              3333:   Depth driller
 DL  .F              3382:   Depth logger
 BLI .F              3376:   Bottom log interval
 TLI .F               182:   Top log interval
 CS1 .IN            8.625:   Casing size
 CBD1.      8.625" @ 181':   Casing driller 1
 CBL1.F               182:   Casing logger 1
 BS1 .IN            7.875:   Bit size
 BSD1.F              3333:   Depth drilled with bit1
 DFT .                GEL:   Type fluid in hole
 DFD .                8.7:   Density
 DFV .                 35:   Viscosity
 DFPH.                9.5:   pH
 DFL .                  7:   Fluid loss
 MSS .               TANK:   Source of sample
 RMS .OHMM           1.79:   Rm
 MST .F                58:   Rm Meas. temp.
 RMF .OHMM           1.43:   Rmf
 MFST.F                58:   Rmf Meas. temp.
 MFSS.               MEAS:   Source Rmf.
 RMB .OHMM            .93:   Rm. at BHT
 BHT .F               112:   BHT.
 TCS .HRS             800:   Time Circ. stopped
 TLAB.HRS             200:   Time logger at bottom
 MRT .F               112:   Maximum recorded temp.
 LUN .               8039:   Logging unit number
 LUL .               CAPR:   Logging unit location
 ENGI.           HARRINER:   Recorded By
 WITN.              SCOTT:   Witnessed by
 ORIG.           5" PRINT:   Origin of data
 UWI .     49025108700000:   Unique Well ID
 DICO. A2D TECHNOLOGIES, INC.:   Digitizing Company
 EPD .               5249:   Elevation Permanent Datum
 LMF .                 KB:   Log Measured From
 DMF .                 KB:   Drilling Measured From
 DAPD.                 10:   Feet Above Permanent Datum
~OTHER INFORMATION
~A   DEPT     TEND       CALD       CORR         GRD      RHOB        SFL        ILD        ILM       TENR        SPR   
# ...
  812.5000   970.2970     9.3770     0.0500   104.6370     2.4660     4.8460     4.6460     3.8930   962.6720   -35.1110
  813.0000   970.2970     9.4440     0.0690   103.0480     2.3810     4.1220     3.9990     3.3400   962.6720   -35.0650
  813.5000   970.2970     9.5940     0.0930    99.3900     2.3110     3.3980     3.3520     2.7860   962.6720   -35.0030
  814.0000   970.2970     9.6600     0.0780    89.8190     2.1510     2.6740     2.7050     2.2330   962.6720   -34.9660
  814.5000   970.2970    11.3840     0.0430    82.6860     2.0010     1.9030     2.5420     1.7700   962.6720   -34.9130
  815.0000   970.2970    13.2670     0.0100    76.7640     2.0180     1.8690     2.5420     1.8690   962.6720   -34.7770
  815.5000   970.2970    14.1290    -0.0100    76.5720     2.0280     2.7390     2.7680     2.2190   962.6720   -34.4110
  816.0000   970.2970    14.1740    -0.0050    81.4980     2.1820     3.5150     3.1950     2.5320   962.6720   -34.4830
  816.5000   970.2970     9.0380    -0.0010    86.3440     2.3310     4.2910     3.6230     2.8850   962.6720   -34.7160
  817.0000   970.2970     9.4110     0.0040    91.3330     2.4490     5.0670     4.0500     3.3970   962.6720   -34.9450
  817.5000   970.2970     9.2140     0.0080    96.3980     2.4730     5.5440     4.4770     4.0340   962.6720   -35.2180
  818.0000   970.2970     9.2640     0.0130    99.5550     2.4950     5.8600     4.9050     4.6710   962.6720   -35.2330
  818.5000   970.2970     9.2970     0.0180   101.3140     2.5080     6.1770     5.2970     5.3080   962.6720   -35.2400
  819.0000   970.2970     9.2680     0.0220   101.5590     2.5150     6.4930     5.5590     5.9500   962.6720   -35.2340
  819.5000   970.2970     9.2740     0.0270   103.0800     2.5220     6.7530     5.8200     6.0590   962.6720   -35.2400
  820.0000   970.2970     9.2780     0.0290   104.4240     2.5300     7.1310     6.0810     6.1690   962.6720   -35.2260
  820.5000   970.2970     9.2750     0.0250   105.9230     2.5300     7.4520     6.3420     6.1690   962.6720   -35.3480
  821.0000   970.2970     9.2750     0.0200   107.3250     2.5230     7.8050     6.6040     6.1840   962.6720   -35.5880
  821.5000   970.2970     9.2750     0.0150   108.7950     2.5170     7.9480     6.8650     6.2040   962.6720   -35.8030
  822.0000   970.2970     9.2750     0.0090   110.1800     2.5100     7.9180     7.1260     6.2230   962.6720   -36.0360
  822.5000   970.2970     9.2750     0.0070   111.6300     2.5030     7.8910     7.3930     6.2430   962.6720   -36.2500
  823.0000   970.2970     9.2750     0.0100   111.5460     2.4990     7.8640     7.3570     6.2630   962.6720   -36.4140
  823.5000   970.2970     9.2750     0.0130   110.4280     2.4970     7.8370     7.3030     6.2820   962.6720   -36.4920
  824.0000   970.2970     9.2750     0.0170   111.5200     2.4950     7.8050     7.2500     6.2820   962.6720   -36.8510
  824.5000   970.2970     9.2750     0.0200   113.6830     2.4920     7.6650     7.1970     6.2820   962.6720   -36.7930
  825.0000   970.2970     9.2740     0.0240   115.9560     2.5090     7.8050     7.1430     6.2580   962.6720   -36.8160
  825.5000   970.2970     9.2750     0.0210   115.5870     2.5120     7.8050     7.0900     6.2170   962.6720   -36.8100
  826.0000   970.2970     9.2740     0.0160   114.9580     2.5040     7.8050     7.0360     6.1750   962.6720   -36.8160
  826.5000   970.2970     9.2990     0.0120   114.0390     2.4980     7.9480     7.0020     6.1340   962.6720   -36.7160
  827.0000   970.2970     9.3140     0.0080   114.6320     2.4980     7.9480     6.8770     6.0930   962.6720   -36.4350
  827.5000   970.2970     9.3030     0.0080   116.4260     2.4960     7.9480     6.8770     6.0530   962.6720   -36.1490
  828.0000   970.2970     9.2940     0.0120   118.3990     2.4950     7.6410     7.0020     6.0130   962.6720   -36.0130
  828.5000   970.2970     9.2840     0.0170   120.4690     2.5090     7.3200     6.9660     5.9720   962.6720   -36.0280
  829.0000   970.2970     9.2750     0.0180   122.3380     2.5170     7.0000     6.8440     5.8870   962.6720   -36.0200
  829.5000   970.2970     9.2750     0.0130   119.7020     2.5090     6.6320     6.6320     5.8430   962.6720   -36.0610
  830.0000   970.2970     9.2740     0.0120   116.9630     2.5030     6.7530     6.6320     5.8630   962.6720   -36.1330
  830.5000   970.2970     9.2750     0.0140   113.7980     2.4960     7.1380     6.8870     5.9070   962.6720   -36.1960
  831.0000   970.2970     9.2750     0.0110   111.3990     2.4920     7.5080     6.9310     5.9510   962.6720   -36.2600
  831.5000   970.2970     9.2750     0.0060   109.9870     2.4890     7.8050     6.9750     5.9950   962.6720   -36.3240
  832.0000   970.2970     9.2750     0.0010   108.4070     2.4860     7.6530     7.0020     6.0390   962.6720   -36.3910
  832.5000   970.2970     9.2750    -0.0030   106.6590     2.4820     7.5250     7.1300     6.0590   962.6720   -36.4200
  833.0000   970.2970     9.2750    -0.0080   106.9580     2.4760     7.3970     7.1060     6.0590   962.6720   -36.4150
  833.5000   970.2970     9.2750    -0.0080   108.5570     2.4680     7.2690     7.0370     6.0590   962.6720   -36.4360
  834.0000   970.2970     9.2750    -0.0070   109.9290     2.4720     7.1300     6.9670     6.0590   962.6720   -36.4770
  834.5000   970.2970     9.2750    -0.0020   111.4640     2.4810     7.1300     6.8980     6.0590   962.6720   -36.5150
  835.0000   970.2970     9.2750     0.0000   111.9350     2.4830     7.2000     6.8090     5.9960   962.6720   -36.5540
  835.5000   970.2970     9.2750     0.0040   111.3510     2.4760     7.2600     6.5730     5.7740   962.6720   -36.5930
  836.0000   970.2970     9.2750     0.0100   109.1830     2.4730     7.2600     6.3370     5.5530   962.6720   -36.6310
  836.5000   970.2970     9.2750     0.0490   109.0450     2.4690     6.9150     6.1000     5.3310   962.6720   -36.6720
  837.0000   970.2970     9.2750     0.1060   111.2870     2.4640     6.5070     5.8640     5.1100   962.6720   -36.7080
  837.5000   970.2970     9.2750     0.1020   114.1330     2.4070     6.0990     5.6270     4.8880   962.6720   -36.7470
  838.0000   970.2970     9.2750     0.0610   115.9700     2.3380     5.4350     5.4350     4.6670   962.6720   -36.7960
  838.5000   970.2970     9.2750     0.0240   116.5310     2.3530     5.5340     5.3380     4.6180   962.6720   -36.7950
  839.0000   970.2970     9.2750     0.0030   116.4630     2.4120     5.9250     5.6440     4.9440   962.6720   -36.8450
  839.5000   970.2970     9.2750     0.0040   116.0120     2.4710     6.3280     5.9610     5.2800   962.6720   -36.5100
  840.0000   970.2970     9.2750     0.0030   115.5630     2.5020     6.7310     6.2780     5.6170   962.6720   -36.2400
  840.5000   970.2970     9.2750     0.0000   115.1690     2.4900     7.1340     6.5950     5.9530   962.6720   -35.8500
  841.0000   970.2970     9.2750    -0.0020   114.4930     2.4830     7.5370     6.9120     6.2900   962.6720   -35.5070
  841.5000   970.2970     9.2750    -0.0040   112.5920     2.4770     7.8050     7.2290     6.6320   962.6720   -35.1340
  842.0000   970.2970     9.2750     0.0050   110.7630     2.4880     8.0180     7.5280     6.6320   962.6720   -34.7730
  842.5000   970.2970     9.2750     0.0120   108.5940     2.5090     8.2630     7.9480     6.7520   962.6720   -34.4130
  843.0000   970.2970     9.2750     0.0190   108.0360     2.5300     8.5070     7.9480     6.8660   962.6720   -34.0650
  843.5000   970.2970     9.2750     0.0250   107.3470     2.5430     8.7000     8.0070     7.0020   962.6720   -34.2380
  844.0000   970.2970     9.2750     0.0270   107.1380     2.5370     8.7000     8.0640     7.1300   962.6720   -34.9950
  844.5000   970.2970     9.2750     0.0270   106.8280     2.5360     8.8590     8.1210     7.1300   962.6720   -35.7700
  845.0000   970.2970     9.2750     0.0270   108.0030     2.5360     8.8590     8.1790     7.1380   962.6720   -36.5500
  845.5000   970.2970     9.2750     0.0260   109.4230     2.5370     8.8590     8.2360     7.1590   962.6720   -37.1780
