~VERSION INFORMATION
 VERS.                2.0:   CWLS LOG ASCII STANDARD - VERSION 2.0
 WRAP.                 NO:   ONE LINE PER DEPTH STEP
~WELL INFORMATION
#MNEM.UNIT      DATA TYPE    INFORMATION
#----------   ------------   ------------------------------
 STRT.F            0.0000:   START DEPTH
 STOP.F         3358.0000:   STOP DEPTH
 STEP.F            0.5000:   STEP LENGTH
 NULL.          -999.2500:   NO VALUE
 COMP. LAWRENCE ALLISON & ASSOC.:   COMPANY
 WELL. LAWRENCE NPR 3 "X" #14-11:   WELL
 FLD .                NPR:   FIELD
 LOC .      S11 T38N R78W:   LOCATION
 CNTY.            NATRONA:   COUNTY
 STAT.            WYOMING:   STATE
 CTRY. UNITED STATES OF AMERICA:   COUNTRY
 SRVC.      DRESSER ATLAS:   SERVICE COMPANY
 DATE.        25-SEP-1985:   LOGDATE
 API .     49025110470000:   API NUMBER
~CURVE INFORMATION
#MNEM.UNIT       API CODE    CURVE DESCRIPTION
#----------   ------------   ------------------------------
 DEPT.F                  :   
 TENR.LBS    07 635 01 00:   TENSION
 SPR .MV     07 010 01 00:   SPONTANEOUS POTENTIAL
 SFL .OHMM   07 220 01 00:   SHALLOW FOCUSED LOG RESISTIVITY
 ILD .OHMM   07 120 46 00:   DEEP INDUCTION RESISTIVITY
 ILM .OHMM   07 120 44 00:   INDUCTION LOG MEDIUM RESISTIVITY
 TENS.LBS    60 635 01 00:   TENSION FROM SONIC LOG
 DT  .US/F   60 520 00 00:   DELTA TIME
 TEND.LBS    45 635 01 00:   TENSION FROM DENSITY LOG
 RHOB.G/C3   45 350 01 00:   BULK DENSITY
 CORR.G/C3   45 356 01 00:   DENSITY CORRECTION
 NPHI.DEC    42 890 01 00:   NEUTRON POROSITY LIMESTONE
 GRR .GAPI   07 310 01 00:   GAMMA RAY FROM RESISTIVITY
~PARAMETER INFORMATION
#MNEM.UNIT          VALUE    DESCRIPTION
#----------   ------------   ------------------------------
 EKB .F         5184.0000:   Kelly bushing
 EGL .F         5173.0000:   Ground level
 EDF .F            0.0000:   Drilling floor
 TD  .F         3353.0000:   Total depth
 DATE.        25-SEP-1985:   Date logged
 CLNT.            A2DTECH:   Client Code
 SL  . 473' FWL & 2360' FNL:   Surface Location
 PD  .                 GL:   Permanent Datum
 EPD .F              5173:   Elevation Permanent Datum
 LMF .                 KB:   Log Measured From
 DMF .                 KB:   Drilling Measured From
 DAPD.F                11:   Feet Above Permanent Datum
 DD  .F              3353:   Depth driller
 DL  .F              3346:   Depth logger
 BLI .F              3344:   Bottom log interval
 CS1 .IN            8.625:   Casing size
 CBD1.      8.625" @ 586':   Casing driller 1
 CBL1.F               585:   Casing logger 1
 BS1 .IN            7.875:   Bit size
 BSD1.F              3353:   Depth drilled with bit1
 DFT .     GEL/KCL/STAFLO:   Type fluid in hole
 DFD .                8.9:   Density
 DFV .                 39:   Viscosity
 DFPH.                  8:   pH
 DFL .                8.9:   Fluid loss
 MSS .           FLOWLINE:   Source of sample
 RMS .OHMM            .45:   Rm
 MST .F                80:   Rm Meas. temp.
 RMF .OHMM            .33:   Rmf
 MFST.F                80:   Rmf Meas. temp.
 RMC .OHMM            .56:   Rmc
 MCST.F                80:   Rmc Meas. temp.
 MFSS.               CALC:   Source Rmf.
 MCSS.               CALC:   Source Rmc.
 RMB .OHMM            .27:   Rm. at BHT
 BHT .F               130:   BHT.
 TCS .HRS               3:   Time Circ. stopped
 MRT .F               135:   Maximum recorded temp.
 LUN .               6274:   Logging unit number
 LUL .               GLTE:   Logging unit location
 ENGI.               MACK:   Recorded By
 WITN.             STRONG:   Witnessed by
 ORIG.           5" PRINT:   Origin of data
 UWI .     49025110470000:   Unique Well ID
 DICO. A2D TECHNOLOGIES, INC.:   Digitizing Company
~OTHER INFORMATION
~A    DEPT    TENR        SPR        SFL        ILD        ILM       TENS         DT       TEND       RHOB       CORR       NPHI         GRR  
# ...
 3332.0000   519.1450   -54.7340     5.9600     4.0660     4.1300   555.4430  -999.2500   421.8000     2.4660     0.0380     0.1980  -999.2500
 3332.5000   523.3880   -54.8940     4.6400     3.9080     4.0130   559.9540  -999.2500   428.3760     2.4600     0.0320     0.2000  -999.2500
 3333.0000   527.6310   -54.8180     4.2960     3.7400     3.8960   564.4650  -999.2500   434.9520     2.4620     0.0260     0.2020  -999.2500
 3333.5000   531.8740   -54.3710     4.2960     3.5720     3.7790   568.9760  -999.2500   441.5280     2.4710     0.0200     0.2080  -999.2500
 3334.0000   536.1180   -53.9180     4.6140     3.4040     3.6620   573.4860  -999.2500   448.1040     2.4800     0.0120     0.2070  -999.2500
 3334.5000   540.3610   -53.5330     4.9730     3.3240     3.5180   577.9970  -999.2500   454.6800     2.4870     0.0040     0.2070  -999.2500
 3335.0000   544.6040   -53.0680     4.9310     3.3450     3.5320   582.5080  -999.2500   461.2560     2.4880     0.0030     0.2100  -999.2500
 3335.5000   548.8470   -53.3320     4.7990     3.3630     3.5590   587.0190  -999.2500   467.8320     2.4860     0.0030     0.2110  -999.2500
 3336.0000   553.0900   -53.7320     4.7080     3.3810     3.5860   591.5290  -999.2500   474.4080     2.4810     0.0030     0.2080  -999.2500
 3336.5000   557.3330   -53.7080     4.7080     3.3990     3.6130   596.0400  -999.2500   480.9840     2.4840     0.0030     0.1980  -999.2500
 3337.0000   561.5760   -52.9050     4.7880     3.4170     3.6430   600.5510  -999.2500   487.5600     2.4840     0.0170     0.2010  -999.2500
 3337.5000   565.8190   -52.1720     4.8610     3.4360     3.6560   605.0610  -999.2500   494.1360     2.4910     0.0340     0.2060  -999.2500
 3338.0000   570.0620   -51.3450     4.9290     3.4480     3.6700   609.5720  -999.2500   500.7120     2.4880     0.0470     0.2090  -999.2500
 3338.5000   574.3060   -50.9840     4.7950     3.4510     3.6840   614.0830  -999.2500   507.2880     2.4860     0.0550     0.2080  -999.2500
 3339.0000   578.5490   -51.2490     4.6220     3.4550     3.6980   618.5940  -999.2500   513.8640     2.4950     0.0640  -999.2500  -999.2500
 3339.5000   582.7920   -51.4460     5.0900     3.4600     3.7100   623.1040  -999.2500   520.4400     2.5090     0.0680  -999.2500  -999.2500
 3340.0000   587.0350   -51.6780     6.0540     3.4650     3.7100   627.6150  -999.2500   527.0160     2.5210     0.0640  -999.2500  -999.2500
 3340.5000   591.2780   -51.8880     7.0180     3.4690     3.7110   632.1260  -999.2500   531.8730     2.5240     0.0600  -999.2500  -999.2500
 3341.0000   595.5210   -52.1160     7.7180     3.4740     3.7100   636.6370  -999.2500   492.0320     2.5200     0.0570  -999.2500  -999.2500
 3341.5000   599.7640   -52.3230     8.0360     3.4790     3.7100   641.1470  -999.2500   357.4810     2.5140     0.0530  -999.2500  -999.2500
 3342.0000   604.0070   -52.5440     8.5050     3.4830     3.7100   645.6580  -999.2500   213.3240  -999.2500     0.0500  -999.2500  -999.2500
 3342.5000   608.2500   -52.3020     9.2600     3.4880     3.7100   650.1690  -999.2500    69.1680  -999.2500  -999.2500  -999.2500  -999.2500
 3343.0000   612.4940   -51.9500    10.0150     3.4930     3.7100   646.8430  -999.2500   -56.1750  -999.2500  -999.2500  -999.2500  -999.2500
 3343.5000   634.6920   -51.7680    10.7700     3.4970     3.7100   547.9260  -999.2500  -113.3220  -999.2500  -999.2500  -999.2500  -999.2500
 3344.0000   458.3960   -51.7950    11.5470     3.5020     3.7100   368.8240  -999.2500  -135.4580  -999.2500  -999.2500  -999.2500  -999.2500
 3344.5000   290.8470   -51.7820    11.5470     3.5070     3.7100   189.7210  -999.2500  -144.9320  -999.2500  -999.2500  -999.2500  -999.2500
 3345.0000   123.2990   -51.7940  -999.2500     3.5120     3.7100    10.6180  -999.2500  -153.7380  -999.2500  -999.2500  -999.2500  -999.2500
 3345.5000   -44.2500   -51.7750  -999.2500  -999.2500     3.7100  -103.7060  -999.2500  -162.5440  -999.2500  -999.2500  -999.2500  -999.2500
 3346.0000  -240.0600   -51.9200  -999.2500  -999.2500     3.7100  -192.1510  -999.2500  -165.3390  -999.2500  -999.2500  -999.2500  -999.2500
 3346.5000  -244.6320   -52.1760  -999.2500  -999.2500  -999.2500  -235.4660  -999.2500  -165.3390  -999.2500  -999.2500  -999.2500  -999.2500
 3347.0000  -250.1330   -52.4050  -999.2500  -999.2500  -999.2500  -239.1510  -999.2500  -165.3390  -999.2500  -999.2500  -999.2500  -999.2500
 3347.5000  -255.6330   -52.6390  -999.2500  -999.2500  -999.2500  -242.8360  -999.2500  -165.3390  -999.2500  -999.2500  -999.2500  -999.2500
 3348.0000  -259.9400   -52.8790  -999.2500  -999.2500  -999.2500  -246.5220  -999.2500  -186.1890  -999.2500  -999.2500  -999.2500  -999.2500
 3348.5000  -203.7150   -53.1050  -999.2500  -999.2500  -999.2500  -250.2070  -999.2500  -208.3670  -999.2500  -999.2500  -999.2500  -999.2500
 3349.0000  -211.9750   -53.3500  -999.2500  -999.2500  -999.2500  -253.8920  -999.2500  -217.4760  -999.2500  -999.2500  -999.2500  -999.2500
 3349.5000  -220.2350   -53.5810  -999.2500  -999.2500  -999.2500  -254.1130  -999.2500  -222.1950  -999.2500  -999.2500  -999.2500  -999.2500
 3350.0000  -228.4950   -53.7280  -999.2500  -999.2500  -999.2500  -252.8740  -999.2500  -226.9150  -999.2500  -999.2500  -999.2500  -999.2500
 3350.5000  -236.7560   -53.3820  -999.2500  -999.2500  -999.2500  -251.6350  -999.2500  -231.6350  -999.2500  -999.2500  -999.2500  -999.2500
 3351.0000  -240.0600  -999.2500  -999.2500  -999.2500  -999.2500  -250.3950  -999.2500  -236.3540  -999.2500  -999.2500  -999.2500  -999.2500
 3351.5000  -237.7210  -999.2500  -999.2500  -999.2500  -999.2500  -249.1560  -999.2500  -241.0740  -999.2500  -999.2500  -999.2500  -999.2500
 3352.0000  -234.7970  -999.2500  -999.2500  -999.2500  -999.2500  -247.9170  -999.2500  -254.9800  -999.2500  -999.2500  -999.2500  -999.2500
 3352.5000  -231.8730  -999.2500  -999.2500  -999.2500  -999.2500  -246.6770  -999.2500  -258.8810  -999.2500  -999.2500  -999.2500  -999.2500
 3353.0000  -228.9500  -999.2500  -999.2500  -999.2500  -999.2500  -245.4380  -999.2500  -263.9440  -999.2500  -999.2500  -999.2500  -999.2500
 3353.5000  -226.0260  -999.2500  -999.2500  -999.2500  -999.2500  -246.1570  -999.2500  -269.0070  -999.2500  -999.2500  -999.2500  -999.2500
 3354.0000  -223.1030  -999.2500  -999.2500  -999.2500  -999.2500  -250.4150  -999.2500  -274.0700  -999.2500  -999.2500  -999.2500  -999.2500
 3354.5000  -220.1790  -999.2500  -999.2500  -999.2500  -999.2500  -254.9850  -999.2500  -274.9000  -999.2500  -999.2500  -999.2500  -999.2500
 3355.0000  -240.0600  -999.2500  -999.2500  -999.2500  -999.2500  -254.9850  -999.2500  -274.9000  -999.2500  -999.2500  -999.2500  -999.2500
 3355.5000  -259.9400  -999.2500  -999.2500  -999.2500  -999.2500  -253.6050  -999.2500  -274.9000  -999.2500  -999.2500  -999.2500  -999.2500
 3356.0000  -259.9400  -999.2500  -999.2500  -999.2500  -999.2500  -251.7800  -999.2500  -274.9000  -999.2500  -999.2500  -999.2500  -999.2500
 3356.5000  -250.0000  -999.2500  -999.2500  -999.2500  -999.2500  -249.9550  -999.2500  -999.2500  -999.2500  -999.2500  -999.2500  -999.2500
 3357.0000  -240.0600  -999.2500  -999.2500  -999.2500  -999.2500  -248.1310  -999.2500  -999.2500  -999.2500  -999.2500  -999.2500  -999.2500
 3357.5000  -240.0600  -999.2500  -999.2500  -999.2500  -999.2500  -246.3060  -999.2500  -999.2500  -999.2500  -999.2500  -999.2500  -999.2500
 3358.0000  -240.0600  -999.2500  -999.2500  -999.2500  -999.2500  -245.0150  -999.2500  -999.2500  -999.2500  -999.2500  -999.2500  -999.2500
