~VERSION INFORMATION
 VERS.                2.0:   CWLS LOG ASCII STANDARD - VERSION 2.0
 WRAP.                 NO:   ONE LINE PER DEPTH STEP
~WELL INFORMATION
#MNEM.UNIT      DATA TYPE    INFORMATION
#----------   ------------   ------------------------------
 STRT.F           60.0000:   START DEPTH
 STOP.F         3758.0000:   STOP DEPTH
 STEP.F            0.5000:   STEP LENGTH
 NULL.          -999.2500:   NO VALUE
 COMP. LAWRENCE ALLISON & ASSOCIATES:   COMPANY
 WELL. LAWRENCE "MX" #72-10:   WELL
 FLD .            N P R 3:   FIELD
 LOC .      S10 T38N R78W:   LOCATION
 CNTY.            NATRONA:   COUNTY
 STAT.            WYOMING:   STATE
 CTRY. UNITED STATES OF AMERICA:   COUNTRY
 SRVC.       SCHLUMBERGER:   SERVICE COMPANY
 DATE.        03-JUL-1982:   LOGDATE
 API .     49025108910000:   API NUMBER
~CURVE INFORMATION
#MNEM.UNIT       API CODE    CURVE DESCRIPTION
#----------   ------------   ------------------------------
 DEPT.F                  :   
 GRD .GAPI   45 310 01 00:   GAMMA RAY FROM DENSITY LOG
 NPHI.DEC    42 890 03 00:   NEUTRON POROSITY SANDSTONE
 CALD.IN     45 280 60 00:   CALIPER FROM DENSITY LOG
 RHOB.G/C3   45 350 01 00:   BULK DENSITY
 DRHO.G/C3   45 356 01 00:   DENSITY CORRECTION
 TEND.LBS    45 635 01 00:   TENSION FROM DENSITY LOG
 SPR .MV     07 010 01 00:   SPONTANEOUS POTENTIAL
 SFL .OHMM   07 220 01 00:   SHALLOW FOCUSED LOG RESISTIVITY
 ILD .OHMM   07 120 46 00:   DEEP INDUCTION RESISTIVITY
 ILM .OHMM   07 120 44 00:   INDUCTION LOG MEDIUM RESISTIVITY
 TENR.LBS    07 635 01 00:   TENSION FROM RESISTIVITY
~PARAMETER INFORMATION
#MNEM.UNIT          VALUE    DESCRIPTION
#----------   ------------   ------------------------------
 EKB .F         5182.0000:   Kelly bushing
 EGL .F         5172.0000:   Ground level
 EDF .F            0.0000:   Drilling floor
 EPD .F            0.0000:   Permanent datum
 TD  .F         3770.0000:   Total depth
 DATE.        03-JUL-1982:   Date logged
 CLNT.            A2DTECH:   Client Code
 SL  . 1119' FNL & 21' FEL:   Surface Location
 PD  .                 GL:   Permanent Datum
 DD  .F              3770:   Depth driller
 DL  .F              3750:   Depth logger
 BLI .F              3744:   Bottom log interval
 CS1 .IN            9.625:   Casing size
 CBD1.      9.625" @ 473':   Casing driller 1
 CBL1.F               482:   Casing logger 1
 BS1 .IN            7.875:   Bit size
 DFT .                GEL:   Type fluid in hole
 DFD .                9.1:   Density
 DFV .                 34:   Viscosity
 DFPH.               10.5:   pH
 DFL .                 12:   Fluid loss
 MSS .            MUD PIT:   Source of sample
 RMS .OHMM           1.50:   Rm
 MST .F                84:   Rm Meas. temp.
 RMF .OHMM           1.37:   Rmf
 MFST.F                83:   Rmf Meas. temp.
 RMC .OHMM           1.20:   Rmc
 MCST.F                83:   Rmc Meas. temp.
 MFSS.               MEAS:   Source Rmf.
 RMB .OHMM              1:   Rm. at BHT
 BHT .F               130:   BHT.
 TCS .HRS            1500:   Time Circ. stopped
 MRT .F               130:   Maximum recorded temp.
 LUN .               8039:   Logging unit number
 LUL .               CSPR:   Logging unit location
 ENGI. CONOSCENTI/PIRAKIS:   Recorded By
 WITN.             STRONG:   Witnessed by
 ORIG.       2.5"5" PRINT:   Origin of data
 UWI .     49025108910000:   Unique Well ID
 DICO. A2D TECHNOLOGIES, INC.:   Digitizing Company
 DAPD.                 10:   Feet Above Permanent Datum
 BSD1.               3770:   Depth drilled with bit1
 MCSS.               CALC:   Source Rmc.
 TLI .                482:   Top log interval
 TLAB.HR             1800:   Time logger at bottom
~OTHER INFORMATION
~A   DEPT      GRD       NPHI       CALD       RHOB       DRHO       TEND        SPR        SFL        ILD        ILM       TENR   
# ...
 1981.5000   133.5670     0.3690    10.8490     2.4300     0.0050  1370.0570   -58.9520    14.3350    11.5490    11.0280  1268.3199
 1982.0000   138.5560     0.3690    10.8550     2.4350     0.0030  1370.1949   -59.0130    14.2350    11.4750    10.9930  1268.5410
 1982.5000   145.2190     0.3660    10.8620     2.4340     0.0020  1370.3330   -59.0730    14.1430    11.4190    10.9270  1268.7629
 1983.0000   152.0960     0.3630    10.8690     2.4280     0.0020  1370.4709   -59.1340    14.1020    11.3620    10.8610  1268.9840
 1983.5000   151.6310     0.3650    10.8760     2.4190     0.0030  1370.6080   -59.1940    14.0610    11.3170    10.7950  1269.2061
 1984.0000   145.7100     0.3720    10.8810     2.4050     0.0030  1370.7460   -59.2550    14.0190    11.2790    10.7270  1269.4270
 1984.5000   139.4490     0.3690    10.8910     2.3960     0.0030  1370.8840   -59.3160    14.0930    11.2420    10.7160  1269.6490
 1985.0000   135.0090     0.3550    10.9070     2.4040     0.0040  1371.0220   -59.3760    14.1870    11.2340    10.6870  1269.8700
 1985.5000   131.5870     0.3420    10.9220     2.4190     0.0040  1371.1600   -59.4370    14.2800    11.2340    10.6570  1270.0909
 1986.0000   128.7530     0.3300    10.9370     2.4330     0.0040  1371.2980   -59.4980    14.0600    11.4250    10.6290  1270.3130
 1986.5000   125.3450     0.3400    10.9510     2.4240     0.0040  1371.4351   -59.5580    13.7630    11.7370    11.0280  1270.5341
 1987.0000   122.6260     0.3350    10.9660     2.4110     0.0050  1371.5730   -59.6190    14.1240    12.0490    11.3360  1270.7560
 1987.5000   118.1280     0.3300    10.9810     2.4100     0.0120  1371.7111   -59.6790    14.9530    12.3610    11.6360  1270.9771
 1988.0000   116.4340     0.3240    10.9960     2.4140     0.0190  1371.8490   -59.7400    15.7810    12.6730    11.9350  1271.1990
 1988.5000   114.6310     0.3190    11.0100     2.4070     0.0140  1371.9871   -59.8020    16.5530    12.9020    12.2070  1271.4200
 1989.0000   114.3710     0.3140    11.0250     2.3900     0.0090  1372.1250   -59.7810    16.5530    12.9020    12.3200  1271.6420
 1989.5000   116.3920     0.3110    11.0400     2.3850     0.0030  1372.2629   -59.7160    16.5530    12.5960    11.9530  1271.8630
 1990.0000   119.7130     0.3130    11.0550     2.3990     0.0030  1372.4000   -59.6510    16.0860    12.2480    11.6130  1272.0850
 1990.5000   122.6030     0.3220    11.0690     2.4150     0.0040  1372.5380   -59.5850    15.0270    11.9010    11.2730  1272.3060
 1991.0000   120.5170     0.3410    11.0840     2.4240     0.0040  1372.6760   -59.5190    13.9680    11.5530    10.9330  1272.5450
 1991.5000   118.0810     0.3440    11.0990     2.4220     0.0050  1372.8140   -59.4530    12.9090    11.2060    10.5930  1271.0890
 1992.0000   115.4700     0.3420    11.1140     2.4250     0.0070  1372.9520   -59.3880    12.2070    10.8580    10.2530  1269.5081
 1992.5000   113.1220     0.3370    11.1290     2.4300     0.0140  1373.0900   -59.3220    12.3250    10.5110     9.8720  1267.9260
 1993.0000   110.3060     0.3320    11.1430     2.4280     0.0190  1373.2280   -59.2560    12.4340    10.1490     9.6710  1266.3450
 1993.5000   110.0740     0.3270    11.1580     2.4200     0.0130  1373.3650   -59.1900    11.8770    10.1720     9.5440  1264.7640
 1994.0000   110.1200     0.3180    11.1730     2.4080     0.0080  1373.5031   -59.1250    11.1310    10.2020     9.4270  1263.1830
 1994.5000   113.0290     0.3220    11.1880     2.3980     0.0020  1373.6410   -59.0590    11.6610    10.2310     9.5160  1261.6010
 1995.0000   116.7210     0.3340    11.2020     2.3970     0.0020  1373.7791   -58.9930    12.0950    10.3850     9.7450  1260.0200
 1995.5000   120.6330     0.3450    11.2180     2.4060     0.0080  1373.9170   -58.9280    11.8490    10.6230     9.9750  1258.4390
 1996.0000   121.8430     0.3640    11.2320     2.4060     0.0110  1374.0551   -58.8620    11.6560    10.8600    10.2040  1256.8571
 1996.5000   121.0650     0.3610    11.2640     2.4010     0.0080  1374.1920   -58.7960    13.2510    11.0980    10.4340  1255.2760
 1997.0000   120.6120     0.3510    11.3000     2.3970     0.0050  1374.3300   -58.7300    14.5610    11.3360    10.6630  1253.6949
 1997.5000   119.9290     0.3420    11.3370     2.3990     0.0020  1374.4680   -58.6650    15.8060    11.6560    10.8930  1252.6470
 1998.0000   118.5510     0.3320    11.3660     2.4060    -0.0010  1374.6060   -58.5990    15.9360    11.5090    11.0280  1253.2220
 1998.5000   117.0150     0.3240    11.4680     2.4130     0.0010  1374.7440   -58.5330    15.1560    11.2830    10.7550  1253.7970
 1999.0000   115.5180     0.3200    11.5740     2.4220     0.0050  1374.8820   -58.4670    14.2310    11.0580    10.4960  1254.3719
 1999.5000   114.3930     0.3160    11.6330     2.4340     0.0090  1375.0200   -58.4020    13.3050    10.8330    10.2380  1254.9470
 2000.0000   117.1960     0.3150    11.6230     2.4520     0.0130  1375.1570   -58.3360    12.2110    10.6070     9.9800  1255.5220
 2000.5000   120.5550     0.3390    11.5610     2.4620     0.0170  1375.2950   -58.2690    11.0430    10.3820     9.7220  1256.0970
 2001.0000   122.9800     0.3400    11.4730     2.4540     0.0190  1375.4330   -58.2370     9.7820    10.1560     9.3400  1256.6720
 2001.5000   124.7440     0.3410    11.3850     2.4420     0.0100  1375.5710   -58.2160     9.7820     9.9310     9.3770  1257.2469
 2002.0000   123.0710     0.3420    11.3520     2.4280     0.0010  1375.7090   -58.1950    10.9100     9.6030     9.4450  1257.8220
 2002.5000   119.1790     0.3450    11.3590     2.4120    -0.0010  1375.8470   -58.1750    12.1220     9.7030     9.5140  1258.3970
 2003.0000   115.4350     0.3480    11.3610     2.4070    -0.0010  1375.9850   -58.1540    13.1420     9.8890     9.5830  1258.9720
 2003.5000   114.2020     0.3520    11.3650     2.4150    -0.0020  1376.1219   -58.1330    13.1420    10.0740     9.6520  1259.5480
 2004.0000   113.0800     0.3500    11.3680     2.4270     0.0000  1376.2600   -58.1130    12.7640    10.2590     9.7210  1260.1230
 2004.5000   112.0900     0.3470    11.3710     2.4300     0.0080  1376.3979   -58.0920    12.3740    10.4440     9.7900  1260.6980
 2005.0000   110.3800     0.3420    11.3750     2.4330     0.0080  1376.5360   -58.0710    11.9840    10.6290     9.8590  1261.2729
 2005.5000   107.9990     0.3460    11.3780     2.4380     0.0040  1376.6740   -58.0540    12.1380    10.6150     9.9640  1261.8480
 2006.0000   105.3790     0.3560    11.3810     2.4430     0.0030  1376.8120   -58.0550    12.3200    10.5970     9.9640  1262.4230
 2006.5000   106.1130     0.3640    11.3850     2.4440     0.0030  1376.9490   -58.0550    12.2110    10.5790     9.9260  1262.9980
 2007.0000   107.3720     0.3600    11.3870     2.4460     0.0020  1377.0870   -58.0550    12.0780    10.5620     9.8800  1263.5730
 2007.5000   108.6630     0.3560    11.3920     2.4460     0.0010  1377.2250   -58.0550    11.8730    10.5440     9.8720  1264.1479
 2008.0000   109.0880     0.3510    11.3830     2.4430     0.0010  1377.3630   -58.0550    12.0180    10.5320    10.0190  1264.7230
 2008.5000   109.0590     0.3530    11.3660     2.4410     0.0000  1377.5010   -58.0550    12.3370    10.5640    10.1370  1265.2980
 2009.0000   109.3360     0.3550    11.3500     2.4390     0.0040  1377.6390   -58.0550    12.6550    10.6140    10.2550  1265.8730
 2009.5000   111.5230     0.3520    11.3340     2.4440     0.0080  1377.7770   -58.0550    12.9740    10.6640    10.4340  1266.4480
 2010.0000   114.6120     0.3480    11.3190     2.4500     0.0130  1377.9139   -58.0550    13.2920    10.7130    10.5130  1267.0229
 2010.5000   118.0420     0.3450    11.3030     2.4570     0.0190  1378.0520   -58.0550    13.5110    10.7630    10.4230  1267.5980
 2011.0000   120.5240     0.3520    11.2870     2.4550     0.0200  1378.1899   -58.0550    13.1680    10.8130    10.3030  1268.1730
 2011.5000   121.3370     0.3590    11.2710     2.4480     0.0210  1378.3280   -58.0550    12.7920    10.8350    10.1830  1268.7480
