~VERSION INFORMATION
 VERS.                2.0:   CWLS LOG ASCII STANDARD - VERSION 2.0
 WRAP.                 NO:   ONE LINE PER DEPTH STEP
~WELL INFORMATION
#MNEM.UNIT      DATA TYPE    INFORMATION
#----------   ------------   ------------------------------
 STRT.F         2290.0000:   START DEPTH
 STOP.F         2806.5000:   STOP DEPTH
 STEP.F            0.5000:   STEP LENGTH
 NULL.          -999.2500:   NO VALUE
 COMP.  FENIX AND SCISSON:   COMPANY
 WELL. FENIX & SCISSON INC "A" #405-20:   WELL
 FLD .                NPR:   FIELD
 LOC .      S20 T39N R78W:   LOCATION
 CNTY.            NATRONA:   COUNTY
 STAT.            WYOMING:   STATE
 CTRY. UNITED STATES OF AMERICA:   COUNTRY
 SRVC.         McCULLOUGH:   SERVICE COMPANY
 DATE.        23-NOV-1977:   LOGDATE
 API .     49025104440000:   API NUMBER
~CURVE INFORMATION
#MNEM.UNIT       API CODE    CURVE DESCRIPTION
#----------   ------------   ------------------------------
 DEPT.F                  :   
 GRN .GAPI   35 310 01 00:   GAMMA RAY
 NEUT.NAPI   35 330 01 00:   NEUTRON
~PARAMETER INFORMATION
#MNEM.UNIT          VALUE    DESCRIPTION
#----------   ------------   ------------------------------
 EDF .F         4974.0000:   Drilling floor
 TD  .F         2807.0000:   Total depth
 DATE.        23-NOV-1977:   Date logged
 CLNT.            A2DTECH:   Client Code
 CTRY.                USA:   Country
 PD  .                 DF:   Permanent Datum
 EPD .F              4974:   Elevation Permanent Datum
 LMF .                 GL:   Log Measured From
 DMF .                 GL:   Drilling Measured From
 DD  .F              2800:   Depth driller
 DL  .F              2807:   Depth logger
 BLI .F              2806:   Bottom log interval
 TLI .F              2300:   Top log interval
 CS1 .IN                7:   Casing size
 CBD1.         7" @ 2624':   Casing driller 1
 CBL1.F              2624:   Casing logger 1
 BSD1.F              2800:   Depth drilled with bit1
 DFT .        WATER & OIL:   Type fluid in hole
 ENGI.             CONLEY:   Recorded By
 WITN.          WOLVERTON:   Witnessed by
 ORIG.           5" PRINT:   Origin of data
 UWI .     49025104440000:   Unique Well ID
 DICO. A2D TECHNOLOGIES, INC.:   Digitizing Company
~OTHER INFORMATION
~A  DEPT        GRN      NEUT   
# ...
 2533.0000    64.1930   851.2550
 2533.5000    60.9400   821.1780
 2534.0000    62.7660   773.4760
 2534.5000    64.4640   744.2040
 2535.0000    63.6780   743.1600
 2535.5000    64.2160   821.0310
 2536.0000    64.7330   892.6010
 2536.5000    65.2380   904.6790
 2537.0000    66.3480   898.7710
 2537.5000    66.0070   891.1080
 2538.0000    63.9740   883.6320
 2538.5000    60.4340   888.3060
 2539.0000    60.0180   893.6120
 2539.5000    61.0270   898.8460
 2540.0000    62.1660   902.5340
 2540.5000    63.4840   895.3000
 2541.0000    65.2500   884.7780
 2541.5000    65.3610   874.1040
 2542.0000    65.4350   871.6560
 2542.5000    65.9910   871.5610
 2543.0000    66.7920   871.3310
 2543.5000    65.9280   860.5840
 2544.0000    66.6150   841.4070
 2544.5000    68.5440   838.4110
 2545.0000    67.2580   838.6500
 2545.5000    64.6560   845.7360
 2546.0000    64.4760   862.4620
 2546.5000    67.0060   875.3800
 2547.0000    69.0420   882.2420
 2547.5000    70.0450   887.2370
 2548.0000    69.7060   889.0510
 2548.5000    69.1560   893.8360
 2549.0000    68.6550   900.2700
 2549.5000    69.1190   906.7120
 2550.0000    67.3930   913.1560
 2550.5000    67.5020   919.6420
 2551.0000    64.7020   928.8270
 2551.5000    63.7750   946.5990
 2552.0000    60.7070   962.1510
 2552.5000    62.1850   973.3970
 2553.0000    58.0880   984.2230
 2553.5000    56.8150   987.9900
 2554.0000    56.5610  1013.7700
 2554.5000    56.2580  1033.0720
 2555.0000    56.9570  1046.0140
 2555.5000    59.6590  1053.7120
 2556.0000    61.2370  1054.4380
 2556.5000    62.6820  1036.5670
 2557.0000    62.8210  1003.9030
 2557.5000    61.8220   953.0400
 2558.0000    58.2320   902.2060
 2558.5000    57.2960   874.9750
 2559.0000    61.3100   871.7080
 2559.5000    62.1440   876.6740
 2560.0000    63.0250   883.5320
 2560.5000    64.8740   889.4900
 2561.0000    66.7500   887.3990
 2561.5000    69.5640   880.2100
 2562.0000    69.4250   829.2510
 2562.5000    69.8160   785.0000
 2563.0000    68.9310   772.3270
 2563.5000    68.0540   739.7080
 2564.0000    68.9680   703.3240
 2564.5000    68.9910   666.5760
 2565.0000    71.2210   633.6150
 2565.5000    74.1790   603.9340
 2566.0000    78.9130   586.9980
 2566.5000    86.1700   579.4030
 2567.0000    88.0540   583.9870
 2567.5000    89.4290   589.6540
 2568.0000    93.0650   595.4140
 2568.5000    95.2780   598.3420
 2569.0000    94.4520   591.0520
 2569.5000    93.6410   572.7630
 2570.0000    92.7370   553.5620
 2570.5000    90.7240   500.7330
 2571.0000    90.3750   449.6850
 2571.5000    83.1060   398.5560
 2572.0000    82.0240   372.5800
 2572.5000    82.0900   359.0790
 2573.0000    79.2250   361.5560
 2573.5000    73.9240   388.3690
 2574.0000    62.3230   402.2330
 2574.5000    55.4420   405.9490
 2575.0000    56.7010   407.5970
 2575.5000    55.1850   413.4120
 2576.0000    53.1360   464.3620
 2576.5000    54.2360   520.8110
 2577.0000    55.9070   580.1820
 2577.5000    58.2470   631.7500
 2578.0000    60.3820   635.4170
 2578.5000    61.3430   638.9670
 2579.0000    62.2310   641.6260
 2579.5000    61.3100   644.8550
 2580.0000    61.5330   659.9070
 2580.5000    61.7730   675.1770
 2581.0000    60.9160   687.2560
 2581.5000    60.6380   703.4100
 2582.0000    62.5200   723.5570
 2582.5000    60.4810   746.0640
 2583.0000    53.8790   770.7180
 2583.5000    52.8280   803.0340
 2584.0000    54.8030   843.5680
 2584.5000    55.7340   882.2770
 2585.0000    56.5760   895.7600
 2585.5000    56.8180   901.7880
 2586.0000    60.1590   907.7400
 2586.5000    57.5010   913.6850
 2587.0000    53.2960   919.6740
 2587.5000    50.9260   927.3880
 2588.0000    45.9690   952.8760
 2588.5000    44.4740   967.2560
 2589.0000    44.1510   978.6590
 2589.5000    42.6920   991.5820
 2590.0000    40.8460  1039.1110
 2590.5000    39.9370  1083.8480
 2591.0000    38.1410  1131.9449
 2591.5000    37.6070  1220.3051
 2592.0000    41.5510  1277.9180
 2592.5000    46.8810  1281.9640
 2593.0000    53.2400  1252.6080
 2593.5000    60.3330  1119.0830
 2594.0000    69.1730   994.5370
 2594.5000    74.0370   870.4130
 2595.0000    77.8430   743.3620
 2595.5000    81.0970   674.3930
 2596.0000    82.3670   625.5500
 2596.5000    81.4570   583.9260
 2597.0000    80.6000   581.0480
 2597.5000    83.4130   584.8440
 2598.0000    83.7450   589.6080
 2598.5000    80.5190   593.0690
 2599.0000    79.4230   593.8740
 2599.5000    79.9890   596.2340
 2600.0000    80.9990   604.0080
 2600.5000    78.6950   610.4510
 2601.0000    79.1380   614.2540
 2601.5000    80.8280   618.0140
 2602.0000    81.4480   620.2110
 2602.5000    86.8550   622.5310
 2603.0000    87.8640   624.9210
 2603.5000    88.8650   627.3560
 2604.0000    88.9840   630.7190
 2604.5000    88.5720   637.7990
 2605.0000    88.1420   644.7930
 2605.5000    87.8520   645.2620
 2606.0000    83.6810   644.7840
 2606.5000    76.8160   648.2060
 2607.0000    73.8790   668.4200
 2607.5000    71.9050   726.1770
 2608.0000    72.1090   734.2350
 2608.5000    73.3890   739.7630
 2609.0000    74.8410   742.7710
 2609.5000    78.7800   742.7430
 2610.0000    80.2820   740.2290
 2610.5000    81.8320   732.0490
 2611.0000    82.3040   701.0100
 2611.5000    82.5510   672.5230
 2612.0000    81.8400   671.9850
 2612.5000    80.9940   696.4490
 2613.0000    82.4430   720.9540
 2613.5000    84.3850   725.5490
 2614.0000    87.3610   729.1570
 2614.5000    95.1480   732.8710
 2615.0000    91.5160   715.3860
 2615.5000    90.7120   685.8660
 2616.0000    90.8700   673.3000
 2616.5000    88.0120   648.0200
 2617.0000    88.8560   622.0690
 2617.5000    89.6470   606.4600
 2618.0000    90.4010   610.0790
 2618.5000    90.7870   614.7480
 2619.0000    90.4980   611.8470
 2619.5000    89.6390   600.2120
 2620.0000    96.1150   589.6500
 2620.5000    97.8480   590.1780
 2621.0000    97.7200   594.2350
 2621.5000    96.1050   595.2000
 2622.0000    92.1270   593.9470
 2622.5000    90.9980   592.0500
 2623.0000    95.9190   575.5540
 2623.5000   101.1770   559.8070
 2624.0000   109.3570   555.8570
 2624.5000   116.2470   558.4100
 2625.0000   118.8270   572.6510
 2625.5000   122.7210   637.4100
 2626.0000   125.2360   720.7180
 2626.5000   125.2910   807.1720
 2627.0000   124.7290   852.3060
 2627.5000   121.9470   862.5670
 2628.0000   117.5480   860.1860
 2628.5000   120.1580   815.2470
 2629.0000   121.2880   772.0870
 2629.5000   119.3590   744.6970
 2630.0000   118.0190   741.6020
 2630.5000   125.1000   772.8820
 2631.0000   126.7530   803.3010
 2631.5000   122.3640   814.3940
 2632.0000   122.4750   818.8540
 2632.5000   123.7150   825.9740
 2633.0000   127.3690   833.9800
 2633.5000   125.5990   841.9300
 2634.0000   122.1830   849.9020
 2634.5000   120.2790   854.2410
 2635.0000   123.5020   837.0060
 2635.5000   122.6810   813.4580
 2636.0000   121.6700   816.2930
 2636.5000   124.9760   820.9190
 2637.0000   127.6390   825.2520
 2637.5000   128.1180   812.6310
 2638.0000   128.4580   796.8940
 2638.5000   129.5180   795.9710
 2639.0000   131.0510   795.3250
 2639.5000   129.8060   797.4860
 2640.0000   127.3420   802.5630
 2640.5000   131.0790   807.3050
 2641.0000   132.7310   795.2340
 2641.5000   125.9640   782.8140
 2642.0000   127.1700   766.8580
 2642.5000   129.9560   737.9230
 2643.0000   130.4810   736.1810
 2643.5000   130.1630   738.7000
 2644.0000   129.8080   738.6960
 2644.5000   125.1650   710.6590
 2645.0000   124.2850   687.7720
 2645.5000   123.7740   664.6380
 2646.0000   126.0030   645.0410
 2646.5000   123.1450   634.1720
 2647.0000   122.0680   639.7530
 2647.5000   117.0790   659.2600
 2648.0000   116.1660   679.3060
 2648.5000   120.3210   693.7880
 2649.0000   118.5820   700.9880
 2649.5000   117.4040   708.1300
 2650.0000   119.6450   729.5960
 2650.5000   123.2590   756.0770
 2651.0000   124.3490   776.3350
 2651.5000   121.9930   796.6170
 2652.0000   123.8440   809.7330
 2652.5000   121.5820   817.7990
 2653.0000   119.3930   825.8900
 2653.5000   117.3350   834.1880
 2654.0000   119.0110   839.9770
