~VERSION INFORMATION
 VERS.                2.0:   CWLS LOG ASCII STANDARD - VERSION 2.0
 WRAP.                 NO:   ONE LINE PER DEPTH STEP
~WELL INFORMATION
#MNEM.UNIT      DATA TYPE    INFORMATION
#----------   ------------   ------------------------------
 STRT.F            0.0000:   START DEPTH
 STOP.F         4700.0000:   STOP DEPTH
 STEP.F            0.5000:   STEP LENGTH
 NULL.          -999.2500:   NO VALUE
 COMP. LAWRENCE ALLISON & ASSOCIATES:   COMPANY
 WELL. LAWRENCE NPR 3 "X" #33-23:   WELL
 FLD .                NPR:   FIELD
 LOC .      S23 T38N R78W:   LOCATION
 CNTY.            NATRONA:   COUNTY
 STAT.            WYOMING:   STATE
 CTRY. UNITED STATES OF AMERICA:   COUNTRY
 SRVC.      DRESSER ATLAS:   SERVICE COMPANY
 DATE.        12-NOV-1984:   LOGDATE
 API .     49025109930000:   API NUMBER
~CURVE INFORMATION
#MNEM.UNIT       API CODE    CURVE DESCRIPTION
#----------   ------------   ------------------------------
 DEPT.F                  :   
 TEND.LBS    45 635 01 00:   TENSION FROM DENSITY LOG
 CALD.IN     45 280 60 00:   CALIPER FROM DENSITY LOG
 CORR.G/C3   45 356 01 00:   DENSITY CORRECTION
 DEN .G/C3   45 350 01 00:   BULK DENSITY
 CNC .DEC    42 890 03 00:   NEUTRON PORISITY SANDSTONE
 SPR .MV     07 010 01 00:   SPONTANEOUS POTENTIAL
 GRR .GAPI   07 310 01 00:   GAMMA RAY FROM RESISTIVITY
 RFOC.OHMM   07 220 01 00:   RESISTIVITY FOCUSED LOG RES.
 ILM .OHMM   07 120 44 00:   INDUCTION LOG MEDIUM RESISTIVITY
 ILD .OHMM   07 120 46 00:   INDUCTION LOG DEEP RESISTIVITY
 TENS.LBS    60 635 01 00:   TENSION FROM SONIC LOG
 DT  .US/F   60 520 00 00:   DELTA TIME
 TENR.LBS    07 635 01 00:   TENSION
~PARAMETER INFORMATION
#MNEM.UNIT          VALUE    DESCRIPTION
#----------   ------------   ------------------------------
 EKB .F         5308.0000:   Kelly bushing
 EGL .F         5296.0000:   Ground level
 EDF .F            0.0000:   Drilling floor
 EPD .F            0.0000:   Permanent datum
 TD  .F         4695.0000:   Total depth
 DATE.        12-NOV-1984:   Date logged
 CLNT.            A2DTECH:   Client Code
 SL  . 1415' FNL & 1874' FWL:   Surface Location
 PD  .                 GL:   Permanent Datum
 LMF .                 KB:   Log Measured From
 DMF .                 KB:   Drilling Measured From
 DAPD.F                12:   Feet Above Permanent Datum
 DD  .F              4695:   Depth driller
 DL  .F              4694:   Depth logger
 BLI .F              4691:   Bottom log interval
 TLI .F              1205:   Top log interval
 CS1 .IN            8.625:   Casing size
 CBD1.     8.625" @ 1206':   Casing driller 1
 CBL1.F              1205:   Casing logger 1
 BS1 .IN            7.875:   Bit size
 BSD1.F              4695:   Depth drilled with bit1
 DFT .     GFL/KCL/STAFLO:   Type fluid in hole
 DFD .                9.2:   Density
 DFV .                 45:   Viscosity
 DFPH.                  8:   pH
 DFL .                 10:   Fluid loss
 MSS .           FLOWLINE:   Source of sample
 RMS .OHMM            .51:   Rm
 MST .F                72:   Rm Meas. temp.
 RMF .OHMM            .43:   Rmf
 MFST.F                70:   Rmf Meas. temp.
 RMC .OHMM            .64:   Rmc
 MCST.F                72:   Rmc Meas. temp.
 MFSS.               MEAS:   Source Rmf.
 MCSS.               CALC:   Source Rmc.
 RMB .OHMM           .272:   Rm. at BHT
 BHT .F               135:   BHT.
 TCS .HRS               4:   Time Circ. stopped
 MRT .F               135:   Maximum recorded temp.
 LUN .               6274:   Logging unit number
 LUL .               GLTE:   Logging unit location
 ENGI.             RAUTIO:   Recorded By
 ORIG.           5" PRINT:   Origin of data
 UWI .     49025109930000:   Unique Well ID
 DICO. A2D TECHNOLOGIES, INC.:   Digitizing Company
~OTHER INFORMATION
~A    DEPT    TEND       CALD       CORR        DEN        CNC        SPR         GRR      RFOC        ILM        ILD       TENS         DT       TENR   
# ...
 2834.0000   -21.1430     9.9180     0.0060     2.4960     0.2800   -31.4820    96.8970     7.8210     5.9530     6.0530   -83.7220    90.9920   -41.8340
 2834.5000   -22.3870     9.9230     0.0300     2.4970     0.2940   -31.7920   102.6520     7.3150     5.7920     5.9440   -83.8290    91.2070   -41.7460
 2835.0000   -23.6310     9.9220     0.0480     2.4910     0.2980   -31.7470   105.7780     6.8080     5.6320     5.9050   -83.9360    92.4470   -41.6580
 2835.5000   -24.8750     9.9180     0.0380     2.4850     0.2950   -31.4760   107.5350     6.3020     5.6450     5.8670   -84.0430    93.5250   -41.5700
 2836.0000   -26.1190     9.9130     0.0170     2.4780     0.3000   -31.2030   110.6210     6.0060     5.6580     5.8280   -84.1500    94.6280   -41.4820
 2836.5000   -27.3630     9.9090    -0.0030     2.4740     0.3040   -30.9280   112.4620     6.4140     5.6720     5.7890   -84.2570    95.1330   -41.3940
 2837.0000   -28.6070     9.9040     0.0010     2.4790     0.2990   -30.6520   110.9070     6.8130     5.6840     5.7500   -84.3640    94.8330   -41.3060
 2837.5000   -29.8510     9.9000     0.0190     2.4880     0.2990   -30.3730   108.4290     7.2120     5.5600     5.6550   -84.4710    94.3260   -41.2180
 2838.0000   -31.0950     9.8960     0.0030     2.4900     0.3000   -30.4510   108.3560     7.4260     5.4400     5.5290   -84.5780    93.8190   -41.1300
 2838.5000   -32.3390     9.8910    -0.0170     2.4870     0.3010   -30.5820   109.2610     7.4870     5.3210     5.4020   -84.6850    93.5350   -41.0420
 2839.0000   -33.5830     9.8870    -0.0130     2.4810     0.3010   -30.7150   110.1900     6.8880     5.2010     5.2760   -84.7920    94.0700   -40.9540
 2839.5000   -34.8270     9.8840    -0.0060     2.4780     0.3020   -30.8250   110.8320     6.4160     5.0810     5.1630   -84.8990    94.6060   -40.8660
 2840.0000   -36.0710     9.8870     0.0030     2.4820     0.2990   -30.9320   110.6200     5.8970     4.8560     5.0910   -85.0060    95.1410   -40.7780
 2840.5000   -37.3150     9.8900     0.0070     2.4850     0.2950   -31.0390   110.7060     5.8780     4.5600     4.7230   -85.1130    95.6760   -40.6900
 2841.0000   -38.5590     9.8930     0.0120     2.4730     0.2920   -31.1460   111.6280     5.8510     4.5180     4.5600   -85.2200    96.2110   -40.6020
 2841.5000   -39.1570     9.8950     0.0310     2.4430     0.2870   -31.2530   111.8190     5.6030     4.6750     4.8930   -85.3270    96.7460   -40.5140
 2842.0000   -39.1570     9.8980     0.0760     2.4100     0.2800   -31.3440   109.8190     5.1850     4.8450     5.0910   -85.4340    97.2430   -40.4260
 2842.5000   -39.1570     9.9010     0.0630     2.3850     0.2830   -31.4070   107.3650     5.5100     5.0150     5.0910   -85.5410    97.4450   -40.3380
 2843.0000   -39.1570     9.9030     0.0260     2.4170     0.2870   -31.4690   105.7170     6.1070     5.1360     5.0910   -85.6480    96.4950   -40.2500
 2843.5000   -39.1570     9.9060    -0.0180     2.4700     0.2940   -31.5260   106.5460     6.9570     5.2170     5.0910   -85.7550    95.4180   -40.1620
 2844.0000   -39.1570     9.9090    -0.0080     2.4830     0.2910   -31.4170   109.6740     6.9210     5.2980     5.0910   -85.8620    94.3410   -40.0740
 2844.5000   -39.1570     9.9110     0.0140     2.4960     0.2840   -31.2860   113.1470     6.8250     5.3790     5.1480   -85.9690    94.0240   -39.9860
 2845.0000   -39.1570     9.9140     0.0160     2.4970     0.2790   -31.1610   116.3610     6.6600     5.4640     5.2460   -86.0760    94.6130   -39.8980
 2845.5000   -39.1570     9.9170     0.0190     2.4850     0.2980   -30.8130   115.9450     6.3890     5.5480     5.3430   -86.1820    95.2580   -39.8100
 2846.0000   -39.1570     9.9190     0.0320     2.4700     0.3260   -30.4270   114.5250     6.1740     5.6330     5.4410   -86.2890    95.9040   -39.7220
 2846.5000   -39.1570     9.9220     0.0440     2.4560     0.3240   -30.0430   114.7670     6.3160     5.7180     5.5390   -86.3960    96.5490   -39.6340
 2847.0000   -39.1570     9.9250     0.0570     2.4410     0.3210   -29.7740   117.3130     6.4560     5.8030     5.6320   -86.5030    96.8410   -39.5460
 2847.5000   -39.1570     9.9290     0.0560     2.4310     0.3100   -29.9640   116.5540     6.5960     5.8880     5.7250   -86.6100    96.6000   -39.4580
 2848.0000   -39.1570     9.9330     0.0260     2.4410     0.3000   -30.1430   113.7840     6.9920     5.9600     5.8150   -86.7170    95.9240   -39.3700
 2848.5000   -39.1570     9.9370    -0.0060     2.4580     0.2910   -30.3200   110.8730     7.6960     5.9940     5.9040   -86.8240    95.2470   -39.2820
 2849.0000   -39.1570     9.9410    -0.0060     2.4760     0.2830   -30.4980   111.1970     7.5480     6.0270     5.9650   -86.9310    94.5710   -39.1940
 2849.5000   -39.1570     9.9450     0.0170     2.4870     0.2760   -30.6810   112.7880     7.2370     6.0610     5.9950   -87.0380    94.4840   -39.1060
 2850.0000   -39.1570     9.9490     0.0400     2.4870     0.2710   -30.6670   113.5760     6.9570     6.0940     6.0240   -87.1450    94.5560   -39.0190
 2850.5000   -39.1570     9.9530     0.0550     2.4900     0.2750   -30.5440   112.2020     6.8300     6.1170     6.0620   -87.2520    94.6280   -38.9310
 2851.0000   -39.1570     9.9580     0.0410     2.4920     0.2840   -30.4200   111.4080     7.0420     6.1050     6.0430   -87.3590    94.4720   -38.8430
 2851.5000   -39.1570     9.9620     0.0220     2.4940     0.2930   -30.2960   112.0610     7.2730     6.0950     6.0180   -87.4660    94.3190   -38.7550
 2852.0000   -39.1570     9.9660     0.0010     2.4930     0.3030   -30.1690   113.9010     7.5040     6.0850     5.9920   -87.5730    94.1650   -38.6670
 2852.5000   -39.1570     9.9700    -0.0050     2.4830     0.3110   -30.2580   115.8990     7.7670     6.0760     5.9540   -87.6800    94.0240   -38.5790
 2853.0000   -39.1570     9.9740    -0.0040     2.4740     0.3050   -30.4700   115.7480     7.3790     6.0620     5.9800   -87.7870    94.2250   -38.4910
 2853.5000   -39.1570     9.9780     0.0240     2.4640     0.3010   -30.6830   113.9290     6.9690     6.1250     6.0540   -87.8940    94.4100   -38.4030
 2854.0000   -39.1570     9.9820     0.0600     2.4570     0.2990   -30.8970   112.1110     6.6450     6.2320     6.1290   -88.0010    94.5960   -38.3150
 2854.5000   -39.1570     9.9860     0.0740     2.4680     0.2910   -31.1110   110.2860     7.1250     6.3400     6.2030   -88.1080    94.7820   -38.2270
 2855.0000   -39.1570     9.9900     0.0540     2.4810     0.2900   -31.3160   108.4170     7.5390     6.4470     6.3400   -88.2150    94.7600   -38.1390
 2855.5000   -39.1570     9.9950     0.0390     2.4920     0.2900   -31.3650   108.5430     7.7800     6.6150     6.5120   -88.3220    94.5650   -38.0510
 2856.0000   -39.1570     9.9990     0.0120     2.4840     0.2880   -31.4140   112.1680     7.8320     6.7950     6.6850   -88.4290    94.3710   -37.9630
 2856.5000   -39.1570    10.0030    -0.0160     2.4760     0.2930   -31.4640   116.0880     8.0380     6.9750     6.8570   -88.5360    94.1760   -37.8750
 2857.0000   -39.1570    10.0040    -0.0330     2.4730     0.2980   -31.5190   119.2430     8.3060     7.1550     7.0290   -88.6430    93.9810   -37.7870
 2857.5000   -39.1570    10.0040    -0.0160     2.4710     0.3020   -31.3720   118.3830     8.5740     7.3510     7.2840   -88.7500    93.7870   -37.6990
 2858.0000   -39.1570    10.0040     0.0010     2.4740     0.3000   -31.1980   116.6280     8.8410     7.3120     7.2240   -88.8570    93.5920   -37.6110
 2858.5000   -39.1570    10.0040     0.0180     2.4780     0.2750   -31.0210   118.3360     8.9140     7.2530     7.1420   -88.9640    93.3970   -37.5230
 2859.0000   -39.1570    10.0040     0.0350     2.4820     0.2840   -30.8450   119.1500     8.6550     7.1620     7.0590   -89.0710    93.2190   -37.4350
 2859.5000   -39.1570    10.0040     0.0360     2.4800     0.2930   -30.6690   116.5290     8.4170     7.0210     6.9760   -89.1780    93.2660   -37.3470
