~VERSION INFORMATION
 VERS.                2.0:   CWLS LOG ASCII STANDARD - VERSION 2.0
 WRAP.                 NO:   ONE LINE PER DEPTH STEP
~WELL INFORMATION
#MNEM.UNIT      DATA TYPE    INFORMATION
#----------   ------------   ------------------------------
 STRT.F          705.5000:   START DEPTH
 STOP.F         3212.0000:   STOP DEPTH
 STEP.F            0.5000:   STEP LENGTH
 NULL.          -999.2500:   NO VALUE
 COMP.    FENIX & SCISSON:   COMPANY
 WELL. FENIX 41 "AX" #1-15:   WELL
 FLD .             NPR #3:   FIELD
 LOC .      S15 T38N R78W:   LOCATION
 CNTY.            NATRONA:   COUNTY
 STAT.            WYOMING:   STATE
 CTRY. UNITED STATES OF AMERICA:   COUNTRY
 SRVC.              WELEX:   SERVICE COMPANY
 DATE.        18-NOV-1980:   LOGDATE
 API .     49025108530000:   API NUMBER
~CURVE INFORMATION
#MNEM.UNIT       API CODE    CURVE DESCRIPTION
#----------   ------------   ------------------------------
 DEPT.F                  :   
 SPR .MV     07 010 01 00:   SPONTANEOUS POTENTIAL
 ILD .OHMM   07 120 46 00:   INDUCTION LOG DEEP RESISTIVITY
 ILM .OHMM   07 120 44 00:   INDUCTION LOG MEDIUM RESISTIVITY
 SGRD.OHMM   07 220 05 00:   SHORT GUARD RESISTIVITY
 GRD .GAPI   45 310 01 00:   GAMMA RAY FROM DENSITY LOG
 CALD.IN     45 280 60 00:   CALIPER FROM DENSITY LOG
 RHOB.G/C3   45 350 01 00:   BULK DENSITY
 NPHI.DEC    42 890 03 00:   NEUTRON POROSITY SANDSTONE
~PARAMETER INFORMATION
#MNEM.UNIT          VALUE    DESCRIPTION
#----------   ------------   ------------------------------
 EKB .F         5252.0000:   Kelly bushing
 EGL .F         5242.0000:   Ground level
 EDF .F            0.0000:   Drilling floor
 TD  .F         3214.0000:   Total depth
 CLNT.            A2DTECH:   Client Code
 SL  . 2150' FWL & 550' FNL:   Surface Location
 PD  .                 GL:   Permanent Datum
 EPD .F              5242:   Elevation Permanent Datum
 LMF .                 KB:   Log Measured From
 DMF .                 KB:   Drilling Measured From
 DATE.        18-NOV-1980:   Date Logged [DD-MMM-YYYY]
 DD  .F              3210:   Depth driller
 DL  .F              3214:   Depth logger
 BLI .F              3212:   Bottom log interval
 TLI .F               734:   Top log interval
 CS1 .IN            8.625:   Casing size
 CBD1.      8.625" @ 709':   Casing driller 1
 CBL1.F               734:   Casing logger 1
 BS1 .IN            7.875:   Bit size
 BSD1.F              3210:   Depth drilled with bit1
 DFT .          FRESH MUD:   Type fluid in hole
 DFD .                8.8:   Density
 DFV .                 45:   Viscosity
 DFPH.               10.5:   pH
 DFL .                 12:   Fluid loss
 MSS .           FLOWLINE:   Source of sample
 RMS .OHMM           1.25:   Rm
 MST .F                70:   Rm Meas. temp.
 RMF .OHMM           1.25:   Rmf
 MFST.F                70:   Rmf Meas. temp.
 MFSS.               MEAS:   Source Rmf.
 RMB .OHMM           0.78:   Rm. at BHT
 BHT .F               112:   BHT.
 TCS .HRS               7:   Time Circ. stopped
 MRT .F               112:   Maximum recorded temp.
 LUN .               1892:   Logging unit number
 LUL .             CASPER:   Logging unit location
 ENGI.               REIN:   Recorded By
 WITN.              SCOTT:   Witnessed by
 ORIG.      2.5" 5" PRINT:   Origin of data
 UWI .     49025108530000:   Unique Well ID
 DICO. A2D TECHNOLOGIES, INC.:   Digitizing Company
 DAPD.                 10:   Feet Above Permanent Datum
~OTHER INFORMATION
~A   DEPT      SPR        ILD        ILM       SGRD         GRD      CALD       RHOB       NPHI   
# ...
 1515.5000   -38.9611     6.6450     6.7007     6.6858    78.7261     9.0643     2.5686     0.2752
 1516.0000   -38.9654     6.6445     6.6080     6.6826    80.0287     9.0630     2.5577     0.2671
 1516.5000   -38.9696     6.6441     6.6071     6.6795    79.2849     9.0620     2.5504     0.2646
 1517.0000   -38.6798     6.6436     6.6062     6.6763    76.8935     9.0609     2.5408     0.2603
 1517.5000   -38.6841     6.6431     6.6053     6.5709    74.2255     9.0452     2.5332     0.2635
 1518.0000   -38.6884     6.6426     6.6044     6.5700    73.7635     9.0439     2.5460     0.2598
 1518.5000   -38.3985     6.6422     6.6035     6.5690    75.0661     9.0428     2.5640     0.2743
 1519.0000   -38.4029     6.6417     6.6340     6.5681    76.5841     9.0418     2.5693     0.2793
 1519.5000   -38.4074     6.6413     6.6935     6.5672    78.3280     9.0261     2.5646     0.2819
 1520.0000   -38.4118     6.6408     6.6007     6.4766    80.2924     9.0397     2.5585     0.2813
 1520.5000   -38.4162     6.5497     6.5998     6.4757    80.9338     9.0384     2.5690     0.2770
 1521.0000   -38.4206     6.4599     6.5987     6.4287    80.4706     9.0227     2.5787     0.2757
 1521.5000   -38.4250     6.3663     6.5979     6.3854    80.2245     9.0216     2.5900     0.2799
 1522.0000   -38.4294     6.2838     6.5970     6.3843    80.2036     9.0206     2.5975     0.2727
 1522.5000   -38.4338     6.2677     6.5961     6.2962    80.4085     9.0193     2.5823     0.2756
 1523.0000   -38.4382     6.1972     6.5952     6.2093    81.0442     9.0329     2.5807     0.2716
 1523.5000   -38.4434     6.1122     6.5943     6.2084    81.4645     9.0318     2.5904     0.2669
 1524.0000   -38.1529     6.1117     6.5934     6.2076    80.1149     9.0308     2.6153     0.2735
 1524.5000   -38.1578     6.1113     6.5926     6.2068    79.4322     9.0297     2.6423     0.2702
 1525.0000   -38.4562     6.1109     6.5916     6.1211    79.6319     9.0284     2.6553     0.2686
 1525.5000   -38.4605     5.9807     6.5777     6.1203    80.0522     9.0274     2.6401     0.2667
 1526.0000   -38.7589     5.9443     6.4996     6.1194    80.4725     9.0117     2.6127     0.2653
 1526.5000   -39.0574     5.9439     6.4987     6.1186    80.8928     8.9959     2.5959     0.2722
 1527.0000   -39.0618     5.9435     6.5882     6.1177    80.8667     8.9655     2.5784     0.2770
 1527.5000   -39.0662     5.9431     6.5871     6.1169    80.8456     8.9495     2.5700     0.2814
 1528.0000   -39.0706     5.9427     6.5862     6.1160    81.2661     8.9485     2.5775     0.2752
 1528.5000   -39.0750     5.9423     6.5853     6.1508    82.1223     8.9474     2.5910     0.2778
 1529.0000   -39.0794     5.9419     6.4942     6.1991    83.4250     8.9464     2.6049     0.2759
 1529.5000   -38.7888     5.9415     6.4932     6.1983    85.1688     8.9451     2.6007     0.2804
 1530.0000   -38.7941     5.9411     6.4923     6.1973    84.9221     8.9440     2.5907     0.2854
 1530.5000   -38.7985     6.0393     6.4914     6.1964    83.3571     8.9430     2.5831     0.2871
 1531.0000   -38.8029     6.1059     6.4906     6.1956    82.0127     8.9420     2.5777     0.2881
 1531.5000   -38.8081     6.1054     6.4897     6.1948    80.2271     8.9409     2.5761     0.2878
 1532.0000   -38.5176     6.1050     6.4888     6.1939    79.1029     8.9545     2.5889     0.2847
 1532.5000   -38.5225     6.1046     6.4880     6.2790    78.6360     8.9532     2.5956     0.2813
 1533.0000   -38.5268     6.1042     6.5772     6.3652    79.2769     8.9522     2.5857     0.2795
 1533.5000   -38.8252     6.2376     6.5762     6.3643    79.7024     8.9511     2.5895     0.2764
 1534.0000   -38.8295     6.2735     6.5753     6.3705    78.3528     8.9501     2.5999     0.2698
 1534.5000   -39.1279     6.5371     6.5977     6.4633    76.7825     8.9341     2.6089     0.2608
 1535.0000   -39.1324     6.6272     6.7574     6.5394    76.3205     8.9333     2.6179     0.2596
 1535.5000   -39.1368     6.9057     6.8503     6.5619    76.0842     8.9347     2.6072     0.2644
 1536.0000   -39.1412     6.8109     6.7554     6.7201    79.3670     8.9360     2.5995     0.2670
 1536.5000   -39.1456     6.6258     6.6162     6.7191    78.8842     8.9372     2.5956     0.2692
 1537.0000   -38.8551     6.6254     6.5699     6.8113    76.2317     8.9384     2.5902     0.2683
 1537.5000   -38.8603     6.7243     6.5688     6.8103    74.4461     8.9397     2.5856     0.2696
 1538.0000   -38.5706     6.9989     6.7517     6.8094    73.9841     8.9409     2.5778     0.2693
 1538.5000   -38.5750     6.9984     6.9395     6.7152    75.0661     8.9421     2.5657     0.2712
 1539.0000   -38.5803     6.8766     6.8435     6.6225    77.0253     8.9433     2.5565     0.2703
 1539.5000   -38.2897     6.6231     6.6564     6.4418    79.2103     8.9446     2.5504     0.2704
 1540.0000   -38.2947     6.4430     6.3859     6.1803    78.9688     8.9458     2.5487     0.2727
 1540.5000   -38.2990     6.2679     6.3850     6.1795    77.8450     8.9470     2.5502     0.2743
 1541.0000   -38.3032     6.4475     6.5678     6.4392    76.9155     8.9483     2.5509     0.2709
 1541.5000   -38.6016     6.8057     6.7675     6.7098    76.0333     8.9778     2.5500     0.2656
 1542.0000   -38.6059     7.1900     7.0466     6.8962    75.7919     8.9769     2.5499     0.2534
 1542.5000   -38.6103     7.2890     7.1496     6.7080    75.9916     8.9760     2.5521     0.2469
 1543.0000   -38.6147     7.3895     7.2238     6.7219    76.8566     8.9749     2.5588     0.2466
 1543.5000   -38.6191     7.2880     7.0881     6.7992    77.9299     8.9739     2.5709     0.2579
 1544.0000   -38.6235     7.1880     6.8486     6.7052    80.1149     8.9583     2.5912     0.2640
 1544.5000   -38.6279     6.9926     6.6945     6.7679    82.7410     8.9427     2.5921     0.2687
 1545.0000   -38.6324     6.7995     6.5554     6.8907    84.2643     8.9269     2.5871     0.2769
 1545.5000   -38.6368     6.6176     6.4646     6.6187    84.9052     8.9113     2.5826     0.2807
 1546.0000   -38.6412     6.4377     6.3752     6.4274    83.5555     8.9104     2.5818     0.2839
 1546.5000   -38.6456     6.2436     6.2871     6.2913    82.6523     8.9094     2.5931     0.2861
 1547.0000   -38.6508     6.0924     6.2001     6.1683    81.7490     8.9083     2.6051     0.2887
 1547.5000   -38.9492     6.0920     6.1993     6.1675    80.8456     8.9368     2.6111     0.2859
 1548.0000   -38.9535     6.0916     6.1985     6.1667    80.1579     8.9505     2.6057     0.2825
 1548.5000   -38.6632     6.0912     6.1977     6.1659    79.6959     8.9643     2.6025     0.2785
 1549.0000   -38.6679     6.2212     6.2829     6.1650    80.7779     8.9778     2.6100     0.2782
 1549.5000   -38.6722     6.4345     6.2820     6.1642    83.1835     8.9769     2.6153     0.2783
 1550.0000   -38.3824     6.6135     6.2811     6.1634    85.1479     8.9907     2.6182     0.2811
 1550.5000   -38.3681     6.7973     6.2802     6.1625    84.6806     8.9895     2.6166     0.2872
 1551.0000   -38.0968     6.7041     6.2794     6.1617    84.2186     8.9886     2.6119     0.2860
 1551.5000   -38.1015     6.6121     6.2785     6.1608    82.8742     8.9877     2.5990     0.2828
 1552.0000   -38.1059     6.5214     6.2776     6.1499    81.5148     8.9868     2.5784     0.2804
 1552.5000   -38.1103     6.4320     6.2768     6.0749    80.6213     8.9856     2.5973     0.2792
 1553.0000   -38.1147     6.3397     6.2759     6.0741    80.6004     8.9847     2.6078     0.2783
 1553.5000   -38.1191     6.2567     6.2750     6.0733    81.0259     8.9838     2.6138     0.2767
 1554.0000   -38.1235     6.2562     6.2740     6.0724    81.6616     8.9829     2.6167     0.2749
 1554.5000   -38.1279     6.2558     6.2732     6.0716    82.2972     8.9819     2.6083     0.2743
 1555.0000   -38.1331     6.2554     6.2724     6.0706    82.5460     8.9957     2.5955     0.2728
 1555.5000   -38.1374     6.2550     6.3587     6.0698    83.1431     8.9946     2.5782     0.2737
