~VERSION INFORMATION
 VERS.                2.0:   CWLS LOG ASCII STANDARD - VERSION 2.0
 WRAP.                 NO:   ONE LINE PER DEPTH STEP
~WELL INFORMATION
#MNEM.UNIT      DATA TYPE    INFORMATION
#----------   ------------   ------------------------------
 STRT.F            4.0000:   START DEPTH
 STOP.F         5696.0000:   STOP DEPTH
 STEP.F            0.5000:   STEP LENGTH
 NULL.          -999.2500:   NO VALUE
 COMP.       FLUOR DANIEL:   COMPANY
 WELL.   FLUOR "X" #72-10:   WELL
 FLD .             NPR #3:   FIELD
 LOC .      S10 T38N R78W:   LOCATION
 CNTY.            NATRONA:   COUNTY
 STAT.            WYOMING:   STATE
 CTRY. UNITED STATES OF AMERICA:   COUNTRY
 SRVC.      WESTERN ATLAS:   SERVICE COMPANY
 DATE.        26-SEP-1996:   LOGDATE
 API .     49025228080000:   API NUMBER
~CURVE INFORMATION
#MNEM.UNIT       API CODE    CURVE DESCRIPTION
#----------   ------------   ------------------------------
 DEPT.F                  :   
 GRR .GAPI   07 310 01 00:   GAMMA RAY FROM RESISTIVITY
 SPR .MV     07 010 01 00:   SPONTANEOUS POTENTIAL
 CALR.IN     07 280 01 00:   CALIPER FROM RESISTIVITY
 RD  .OHMM   07 220 10 00:   RESISTIVITY DEEP
 RS  .OHMM   07 220 09 00:   RESISTIVITY SHALLOW
 TENR.LBS    07 635 01 00:   TENSION FROM RESISTIVITY
~PARAMETER INFORMATION
#MNEM.UNIT          VALUE    DESCRIPTION
#----------   ------------   ------------------------------
 EKB .F         5178.0000:   Kelly bushing
 EGL .F         5168.0000:   Ground level
 EDF .F         5177.0000:   Drilling floor
 TD  .F         5698.0000:   Total depth
 CLNT.            A2DTECH:   Client Code
 SL  . 687' FNL & 1002' FEL:   Surface Location
 PD  .                 GL:   Permanent Datum
 EPD .F              5168:   Elevation Permanent Datum
 LMF .                 KB:   Log Measured From
 DMF .                 KB:   Drilling Measured From
 DAPD.F                10:   Feet Above Permanent Datum
 DATE.        26-SEP-1996:   Date Logged [DD-MMM-YYYY]
 DD  .F              5698:   Depth driller
 DL  .F              5697:   Depth logger
 BLI .F              5685:   Bottom log interval
 CS1 .IN            9.625:   Casing size
 CBD1.      9.625" @ 526':   Casing driller 1
 CBL1.F               526:   Casing logger 1
 BS1 .IN             8.75:   Bit size
 BSD1.F              5698:   Depth drilled with bit1
 DFT .               CHEM:   Type fluid in hole
 DFD .                9.1:   Density
 DFV .                 60:   Viscosity
 DFPH.                9.5:   pH
 DFL .                7.6:   Fluid loss
 MSS .               CIRC:   Source of sample
 RMS .OHMM           0.82:   Rm
 MST .F                64:   Rm Meas. temp.
 RMF .OHMM           0.64:   Rmf
 MFST.F                64:   Rmf Meas. temp.
 MFSS.               CALC:   Source Rmf.
 RMC .OHMM           1.08:   Rmc
 MCST.F                64:   Rmc Meas. temp.
 MCSS.               CALC:   Source Rmc.
 RMB .OHMM           0.29:   Rm. at BHT
 BHT .F               183:   BHT.
 TCS .HRS               5:   Time Circ. stopped
 MRT .F               183:   Maximum recorded temp.
 LUN .            HL-6530:   Logging unit number
 LUL .             CASPER:   Logging unit location
 ENGI.           BROWNLOW:   Recorded By
 ORIG.        2" 5" PRINT:   Origin of data
 UWI .     49025228080000:   Unique Well ID
 WITN.              HARDY:   Witnessed by
 DICO. A2D TECHNOLOGIES, INC.:   Digitizing Company
~OTHER INFORMATION
~A  DEPTH      GRR        SPR       CALR         RD         RS       TENR
# ...
 2916.0000    55.5867   -81.7948     8.6800    39.7331    26.8487   -35.3069
 2916.5000    56.5186   -82.2339     8.6815    41.7161    27.8909   -57.6196
 2917.0000    53.2336   -82.2179     8.6828    42.0155    29.0262   -72.4714
 2917.5000    46.6297   -82.0546     8.6841    42.3174    28.6357   -79.8620
 2918.0000    44.5439   -81.8912     8.6857    42.0371    28.6453   -87.1823
 2918.5000    43.3617   -81.8780     8.6869    42.0466    28.6567   -87.0064
 2919.0000    39.4743   -81.8625     8.6882    42.0562    29.0664   -79.3693
 2919.5000    35.8825   -82.0003     8.6747    42.3995    29.0758   -79.2285
 2920.0000    34.0979   -82.1386     8.6759    42.6621    28.6870   -71.5892
 2920.5000    32.9157   -82.4266     8.6772    39.2714    27.9112   -63.9194
 2921.0000    32.3359   -82.8624     8.6785    36.9069    26.2308   -48.7861
 2921.5000    32.0573   -83.0165     8.6801    34.6867    24.4811   -41.1490
 2922.0000    31.7788   -83.1076     8.6812    33.7467    22.2249   -56.0007
 2922.5000    33.0321   -83.1988     8.6978    33.2882    21.3260   -63.3562
 2923.0000    37.2570   -83.2900     8.6991    32.1645    21.4814   -70.7117
 2923.5000    39.3881   -83.3208     8.6852    31.5103    21.7886   -70.5358
 2924.0000    45.1336   -83.1561     8.6867    31.5193    21.7974   -70.3898
 2924.5000    49.9759   -83.1446     8.6881    31.3089    21.0613   -70.2190
 2925.0000    50.0038   -82.9800     8.6742    29.8342    20.3501   -62.5820
 2925.5000    49.7252   -82.6675     8.6758    29.0274    19.7737   -62.4412
 2926.0000    48.5430   -82.3550     8.6771    28.8320    19.3999   -62.2652
 2926.5000    47.0264   -82.0253     8.6632    28.6395    19.4062   -69.6559
 2927.0000    46.4798   -81.5765     8.6493    28.8468    19.5476   -61.9837
 2927.5000    47.7129   -81.2640     8.6509    28.8549    19.6917   -54.3467
 2928.0000    50.4464   -81.1021     8.6522    28.6623    19.6981   -31.6819
 2928.5000    52.5831   -80.7868     8.6686    28.0794    19.5667   -24.0801
 2929.0000    52.9069   -80.4742     8.6854    26.9278    19.0391   -68.8816
 2929.5000    52.9296   -80.3123     8.6866    26.0317    18.5242   -68.7406
 2930.0000    53.2534   -80.3010     8.6879    25.6795    18.2750   -53.5724
 2930.5000    55.0889   -80.2869     8.7044    26.0451    18.4096   -23.4466
 2931.0000    56.0151   -80.4290     8.7059    26.4145    18.6729   -38.2984
 2931.5000    56.3390   -80.4157     8.7072    26.4218    18.9414   -61.0024
 2932.0000    55.7592   -80.5542     8.7085    25.8844    18.8151   -82.9943
 2932.5000    55.7875   -80.7103     8.7101    25.3579    18.4336   -97.8460
 2933.0000    56.4125   -80.9833     8.7264    24.5020    18.0614   -82.6776
 2933.5000    60.3508   -81.1198     8.7123    24.0023    17.4529   -81.8934
 2934.0000    64.8991   -81.4115     8.7139    23.6775    17.2167   -74.8646
 2934.5000    67.0225   -81.6996     8.7001    24.0146    17.5858   -82.2552
 2935.0000    64.9424   -81.9895     8.6862    24.6961    18.0991   -97.0765
 2935.5000    63.4590   -82.2765     8.6726    25.2203    18.8626  -104.4273
 2936.0000    61.9288   -82.7170     8.6739    25.9346    19.3995  -111.7827
 2936.5000    57.1846   -83.1547     8.6755    26.8544    20.0905  -111.6068
 2937.0000    51.4843   -83.2968     8.6616    28.1963    20.8079   -96.4735
 2937.5000    42.7720   -83.5867     8.6629    28.9948    21.1054   -88.8013
 2938.0000    36.9596   -83.8738     8.6645    29.6102    21.4072   -81.1642
 2938.5000    34.6848   -84.0130     8.6809    30.0301    21.4141   -66.0309
 2939.0000    37.7251   -84.1523     8.6822    29.8296    21.2748   -58.3939
 2939.5000    40.4585   -84.2892     8.6835    29.2246    20.8418   -65.7142
 2940.0000    42.6705   -84.4281     8.7154    29.2312    20.2798   -73.0697
 2940.5000    44.7263   -84.5674     8.7167    29.5037    20.1462   -80.4603
 2941.0000    45.6526   -84.5532     8.7331    35.5042    22.3640   -95.2774
 2941.5000    44.1692   -84.5419     8.7344    43.1111    27.5456  -110.0934
 2942.0000    42.0890   -84.2266     8.6754    50.2173    33.4604  -109.9526
 2942.5000    40.6056   -83.9141     8.6612    46.0054    36.3762  -109.8119
 2943.0000    40.3214   -83.4509     8.6628    31.8112    31.2413  -107.1073
 2943.5000    41.5545   -83.1384     8.7250    26.2101    24.6866  -101.9989
 2944.0000    45.4984   -82.5219     8.7868    23.3045    19.3723   -94.3619
 2944.5000    48.5331   -81.9081     8.8336    22.1856    17.8184   -94.2211
 2945.0000    50.6642   -81.4450     8.8652    21.9063    17.4696   -94.0779
 2945.5000    51.2892   -80.9819     8.8819    22.8422    17.9683   -93.9043
 2946.0000    51.6187   -80.5160     8.9135    24.9997    19.1318   -93.7635
 2946.5000    51.6413   -80.0528     8.9451    34.1504    24.9110   -86.1266
 2947.0000    51.0615   -80.0415     8.9471    40.6147    32.4332   -78.4858
 2947.5000    48.9458   -80.0301     8.9631    39.5141    34.0577   -70.8173
 2948.0000    45.6907   -80.6185     8.9644    33.9379    32.9077   -78.1728
 2948.5000    45.1053   -81.0590     8.9657    21.7935    27.2991  -100.5207
 2949.0000    46.6396   -81.9513     8.9518    19.3775    22.6446  -100.3748
 2949.5000    48.7930   -82.5531     8.9382    18.7223    17.2837   -92.7077
 2950.0000    51.2086   -82.9829     8.9240    18.7266    16.2431   -70.0783
 2950.5000    52.1348   -83.1222     8.9256    18.9932    16.3628   -47.4487
 2951.0000    50.6514   -82.9574     8.9424    19.3963    17.0636   -39.8117
 2951.5000    48.7998   -82.6446     8.9588    19.6713    17.6715   -69.6207
 2952.0000    47.9858   -82.6308     8.9904    19.3999    17.8002   -61.9837
 2952.5000    54.9418   -82.9206     8.9917    18.7500    16.9636   -61.5947
 2953.0000    58.5789   -82.9093     8.9933    18.3687    16.6197   -76.6947
 2953.5000    60.1132   -83.3470     8.9944    18.6291    16.2814   -91.5464
 2954.0000    60.4371   -83.4891     8.9958    20.8867    16.6045   -98.9018
 2954.5000    60.1585   -84.0774     8.9971    25.9882    22.2632   -76.1902
 2955.0000    59.5787   -84.2167     8.9987    35.2537    28.5867   -61.0687
 2955.5000    58.1373   -84.5037     8.9998    52.3278    37.3913   -53.4668
 2956.0000    51.5344   -84.6459     9.0012    60.4767    46.0590   -90.7721
 2956.5000    50.9511   -84.7823     9.0028    48.8322    54.5406   -98.1275
 2957.0000    54.5975   -84.9216     9.0041    37.1877    43.5775   -90.4553
 2957.5000    56.4307   -84.9075     9.0054    25.5432    32.8451   -75.3220
 2958.0000    55.2573   -84.7456     9.0067    19.1945    22.1127   -60.1888
 2958.5000    52.8731   -84.7342     9.0083    18.4175    17.1867   -52.5487
 2959.0000    53.1999   -84.5723     9.0095    17.7933    15.4634   -59.8721
 2959.5000    54.7569   -84.4076     9.0260    16.9576    15.1486   -67.2627
 2960.0000    56.5705   -84.2457     9.0273    16.2711    14.8427   -74.5877
 2960.5000    57.1984   -83.9332     9.0288    15.6125    14.4425   -81.9385
 2961.0000    56.6215   -83.6205     9.0150    15.1838    14.1497   -81.7625
 2961.5000    55.7190   -83.3053     9.0011    14.5753    13.5774   -66.6293
 2962.0000    55.1665   -83.2940     9.0785    13.6032    13.0282   -58.9922
 2962.5000    55.4996   -83.1321     9.1100    12.3491    11.2670   -66.3477
 2963.0000    56.1276   -83.1205     9.1264    11.0422     9.8792   -43.6830
 2963.5000    57.0572   -83.4078     9.1277    10.3196     9.2202   -13.5572
 2964.0000    55.8838   -83.5499     9.1445    10.0394     9.0308    16.5686
 2964.5000    51.3912   -83.8373     9.1458     9.8358     8.9125   -43.2254
 2965.0000    50.5067   -83.8253     9.1622     9.4945     8.6715   -95.5584
 2965.5000    55.1822   -83.5103     9.1786     8.9936     8.2632  -102.9491
 2966.0000    62.6187   -82.8966     9.1802     8.5108     7.8643   -95.2769
 2966.5000    65.3551   -82.2829     9.2421     8.1663     7.4007   -72.6122
 2967.0000    66.8866   -81.3651     9.3040     7.8362     7.1014   -57.4789
 2967.5000    65.3566   -80.2996     9.3659     7.7834     6.8142   -57.3381
