~VERSION INFORMATION
 VERS.                2.0:   CWLS LOG ASCII STANDARD - VERSION 2.0
 WRAP.                 NO:   ONE LINE PER DEPTH STEP
~WELL INFORMATION
#MNEM.UNIT      DATA TYPE    INFORMATION
#----------   ------------   ------------------------------
 STRT.F           31.0000:   START DEPTH
 STOP.F         2926.0000:   STOP DEPTH
 STEP.F            0.5000:   STEP LENGTH
 NULL.          -999.2500:   NO VALUE
 COMP. LAWERNCE ALLISON AND ASSOCIATES:   COMPANY
 WELL.   FENIX "X" #17-21:   WELL
 FLD .             NPR #3:   FIELD
 LOC .      S21 T39N R78W:   LOCATION
 CNTY.            NATRONA:   COUNTY
 STAT.            WYOMING:   STATE
 CTRY. UNITED STATES OF AMERICA:   COUNTRY
 SRVC.      WESTERN ATLAS:   SERVICE COMPANY
 DATE.        02-NOV-1987:   LOGDATE
 API .     49025111960000:   API NUMBER
~CURVE INFORMATION
#MNEM.UNIT       API CODE    CURVE DESCRIPTION
#----------   ------------   ------------------------------
 DEPT.F                  :   
 CALD.IN     45 280 60 00:   CALIPER FROM DENSITY LOG
 TEND.LBS    45 635 01 00:   TENSION FROM DENSITY LOG
 CORR.G/C3   45 356 01 00:   DENSITY CORRECTION
 RHOB.G/C3   45 350 01 00:   BULK DENSITY
 CNC .DEC    42 890 03 00:   NEUTRON POROSITY SANDSTONE
 SPR .MV     07 010 01 00:   SPONTANEOUS POTENTIAL
 GRR .GAPI   07 310 01 00:   GAMMA RAY FROM RESISTIVITY
 TENR.LBS    07 635 01 00:   TENSION FROM RESISTIVITY
 RFOC.OHMM   07 220 04 00:   RESISTIVITY FOCUSED LOG RES.
 RILD.OHMM   07 120 46 00:   DEEP INDUCTION RESISTIVITY
 RILM.OHMM   07 120 44 00:   INDUCTION LOG MEDIUM RESISTIVITY
~PARAMETER INFORMATION
#MNEM.UNIT          VALUE    DESCRIPTION
#----------   ------------   ------------------------------
 EKB .F         5006.0000:   Kelly bushing
 EGL .F         4995.0000:   Ground level
 EDF .F            0.0000:   Drilling floor
 TD  .F         2915.0000:   Total depth
 DATE.        02-NOV-1987:   Date logged
 CLNT.            A2DTECH:   Client Code
 SL  . 1824' FSL & 399' FWL:   Surface Location
 PD  .                 GL:   Permanent Datum
 DD  .F              2911:   Depth driller
 DL  .F              2915:   Depth logger
 BLI .F              2913:   Bottom log interval
 CS1 .IN            8.625:   Casing size
 CBD1.      8.625" @ 350':   Casing driller 1
 CBL1.F               350:   Casing logger 1
 BS1 .IN            7.875:   Bit size
 DFT .        KCL-POLYMER:   Type fluid in hole
 DFD .                8.8:   Density
 DFV .                 42:   Viscosity
 DFPH.                9.5:   pH
 DFL .                 11:   Fluid loss
 MSS .           FLOWLINE:   Source of sample
 RMS .OHMM           0.41:   Rm
 MST .F                78:   Rm Meas. temp.
 RMF .OHMM           0.29:   Rmf
 MFST.F                78:   Rmf Meas. temp.
 RMC .OHMM           0.51:   Rmc
 MCST.F                78:   Rmc Meas. temp.
 MFSS.               MEAS:   Source Rmf.
 RMB .OHMM           0.29:   Rm. at BHT
 BHT .F               108:   BHT.
 TCS .HRS               5:   Time Circ. stopped
 MRT .F               108:   Maximum recorded temp.
 LUN .            HL-6274:   Logging unit number
 LUL .           GILLETTE:   Logging unit location
 WITN.             STRONG:   Witnessed by
 ORIG.           5" PRINT:   Origin of data
 UWI .     49025111960000:   Unique Well ID
 DICO. A2D TECHNOLOGIES, INC.:   Digitizing Company
 DAPD.                 11:   Feet Above Permanent Datum
 BSD1.               2911:   Depth drilled with bit1
 MCSS.               CALC:   Source Rmc.
 EPD .               4995:   Elevation Permanent Datum
 LMF .                 KB:   Log Measured From
 DMF .                 KB:   Drilling Measured From
 TLI .                 11:   Top log interval
~OTHER INFORMATION
~A   DEPT     CALD       TEND       CORR       RHOB        CNC        SPR         GRR      TENR       RFOC       RILD       RILM   
# ...
 2044.0000  -999.2500  -999.2500  -999.2500  -999.2500  -999.2500   -30.8840   132.1840   -65.5340     5.3240     4.6980     5.2110
 2044.5000  -999.2500  -999.2500  -999.2500  -999.2500  -999.2500   -30.7150   132.1700   -65.5340     5.4210     5.0270     5.4340
 2045.0000  -999.2500  -999.2500  -999.2500  -999.2500  -999.2500   -30.5520   131.9130   -65.5340     6.4440     5.3870     5.6570
 2045.5000  -999.2500  -999.2500  -999.2500  -999.2500  -999.2500   -30.3850   129.2480   -65.5340     7.3480     5.7470     5.9280
 2046.0000  -999.2500  -999.2500  -999.2500  -999.2500  -999.2500   -30.2140   126.4160   -65.5340     7.8910     5.8220     5.9100
 2046.5000  -999.2500  -999.2500  -999.2500  -999.2500  -999.2500   -30.1890   124.0980   -65.5340     8.0340     5.8220     5.8650
 2047.0000  -999.2500  -999.2500  -999.2500  -999.2500  -999.2500   -30.3590   125.2020   -65.5340     7.5830     5.8220     5.8210
 2047.5000  -999.2500  -999.2500  -999.2500  -999.2500  -999.2500   -30.5320   128.1730   -65.5340     7.0440     5.8220     5.7770
 2048.0000  -999.2500  -999.2500  -999.2500  -999.2500  -999.2500   -30.6760   132.0070   -65.5340     6.5050     5.8220     5.7190
 2048.5000  -999.2500  -999.2500  -999.2500  -999.2500  -999.2500   -30.8680   134.4080   -65.5340     5.9280     5.7190     5.7300
 2049.0000  -999.2500  -999.2500  -999.2500  -999.2500  -999.2500   -31.0150   133.1960   -65.5340     5.9280     5.7810     5.7630
 2049.5000  -999.2500  -999.2500  -999.2500  -999.2500  -999.2500   -31.3480   131.0610   -65.5340     6.4360     5.8480     5.7960
 2050.0000  -999.2500  -999.2500  -999.2500  -999.2500  -999.2500   -31.3490   129.2640   -65.5340     6.9650     5.9280     5.8220
 2050.5000  -999.2500  -999.2500  -999.2500  -999.2500  -999.2500   -31.0100   127.1910   -65.5340     7.4950     6.1640     6.2700
 2051.0000  -999.2500  -999.2500  -999.2500  -999.2500  -999.2500   -30.9410   124.7440   -65.5340     8.0250     6.4820     6.6450
 2051.5000  -999.2500  -999.2500  -999.2500  -999.2500  -999.2500   -30.9200   121.1120   -65.5340     8.5540     6.7990     7.0190
 2052.0000  -999.2500  -999.2500  -999.2500  -999.2500  -999.2500   -30.9370   120.3770   -65.5340     9.0840     7.1170     7.3940
 2052.5000  -999.2500  -999.2500  -999.2500  -999.2500  -999.2500   -30.7480   119.5990   -65.5340     9.7800     7.4340     7.7680
 2053.0000  -999.2500  -999.2500  -999.2500  -999.2500  -999.2500   -30.5420   120.4790   -65.5340     9.4370     7.7510     8.0340
 2053.5000  -999.2500  -999.2500  -999.2500  -999.2500  -999.2500   -30.3320   121.8140   -65.5340     9.3650     8.0340     8.1020
 2054.0000  -999.2500  -999.2500  -999.2500  -999.2500  -999.2500   -30.1210   121.2350   -65.5340     9.1050     7.8910     8.2380
 2054.5000  -999.2500  -999.2500  -999.2500  -999.2500  -999.2500   -29.9150   120.4030   -65.5340     8.9430     8.0820     8.3740
 2055.0000  -999.2500  -999.2500  -999.2500  -999.2500  -999.2500   -29.7060   116.9690   -65.5340     8.6290     8.2260     8.5100
 2055.5000  -999.2500  -999.2500  -999.2500  -999.2500  -999.2500   -29.4840   114.7190   -65.5340     8.9440     8.3700     8.6460
 2056.0000  -999.2500  -999.2500  -999.2500  -999.2500  -999.2500   -29.3670   111.8750   -65.5340     9.4160     8.5150     8.7820
 2056.5000  -999.2500  -999.2500  -999.2500  -999.2500  -999.2500   -29.3790   114.1330   -65.5340    10.1360     8.6290     8.9440
 2057.0000  -999.2500  -999.2500  -999.2500  -999.2500  -999.2500   -29.3770   118.1350   -65.5340     9.8700     8.6290     8.9440
 2057.5000  -999.2500  -999.2500  -999.2500  -999.2500  -999.2500   -29.3760   120.9080   -65.5340     9.2320     8.7850     8.9440
 2058.0000  -999.2500  -999.2500  -999.2500  -999.2500  -999.2500   -29.3780   124.9680   -65.5340     8.6290     8.7850     8.9440
 2058.5000  -999.2500  -999.2500  -999.2500  -999.2500  -999.2500   -29.3770   128.8230   -65.5340     8.6290     8.7850     8.9440
 2059.0000  -999.2500  -999.2500  -999.2500  -999.2500  -999.2500   -29.3770   130.6870   -65.5340     8.6290     8.3260     8.9440
 2059.5000  -999.2500  -999.2500  -999.2500  -999.2500  -999.2500   -29.3770   133.3810   -65.5340     8.6290     8.3260     8.8050
 2060.0000  -999.2500  -999.2500  -999.2500  -999.2500  -999.2500   -29.3770   133.1220   -65.5340     9.1690     8.4600     8.6290
 2060.5000  -999.2500  -999.2500  -999.2500  -999.2500  -999.2500   -29.3770   130.3130   -65.5340     9.7640     8.7210     8.6890
 2061.0000  -999.2500  -999.2500  -999.2500  -999.2500  -999.2500   -29.3770   127.5880   -65.5340    10.5060     8.9440     8.8700
 2061.5000  -999.2500  -999.2500  -999.2500  -999.2500  -999.2500   -29.3780   127.3580   -65.5340    10.4200     8.7670     9.0500
 2062.0000  -999.2500  -999.2500  -999.2500  -999.2500  -999.2500   -29.3770   130.1690   -65.5340    10.3190     8.7180     9.2310
 2062.5000  -999.2500  -999.2500  -999.2500  -999.2500  -999.2500   -29.3780   130.4060   -65.5340     9.3980     8.6680     9.2690
 2063.0000  -999.2500  -999.2500  -999.2500  -999.2500  -999.2500   -29.3780   129.1700   -65.5340     8.4760     8.6290     8.9440
 2063.5000  -999.2500  -999.2500  -999.2500  -999.2500  -999.2500   -29.3770   125.0980   -65.5340     8.6300     8.6290     8.9440
 2064.0000  -999.2500  -999.2500  -999.2500  -999.2500  -999.2500   -29.3800   121.4520   -65.5340     8.9900     8.6520     8.9760
 2064.5000  -999.2500  -999.2500  -999.2500  -999.2500  -999.2500   -29.3550   117.5820   -65.5340     9.3500     8.6880     9.0280
 2065.0000  -999.2500  -999.2500  -999.2500  -999.2500  -999.2500   -29.3100   114.9370   -65.5340     9.7100     8.7240     9.0790
 2065.5000  -999.2500  -999.2500  -999.2500  -999.2500  -999.2500   -29.2670   114.0670   -65.5340    10.0700     8.7600     9.1050
 2066.0000  -999.2500  -999.2500  -999.2500  -999.2500  -999.2500   -29.2240   112.8450   -65.5340    10.3190     8.7850     9.1760
 2066.5000  -999.2500  -999.2500  -999.2500  -999.2500  -999.2500   -29.1800   111.6800   -65.5340     9.7100     8.8930     9.2770
 2067.0000  -999.2500  -999.2500  -999.2500  -999.2500  -999.2500   -29.1370   108.1990   -65.5340     9.2690     9.0990     9.3780
 2067.5000  -999.2500  -999.2500  -999.2500  -999.2500  -999.2500   -29.0940   105.0320   -65.5340     9.6070     9.3060     9.4780
 2068.0000  -999.2500  -999.2500  -999.2500  -999.2500  -999.2500   -29.0510   110.2020   -65.5340    10.3310     9.4370     9.5790
 2068.5000  -999.2500  -999.2500  -999.2500  -999.2500  -999.2500   -29.0050   121.0150   -65.5340    11.0060     9.4370     9.6800
 2069.0000  -999.2500  -999.2500  -999.2500  -999.2500  -999.2500   -28.9980   135.8300   -65.5340    10.8720     9.4370     9.7800
 2069.5000  -999.2500  -999.2500  -999.2500  -999.2500  -999.2500   -29.0250   142.3400   -65.5340    10.6040     9.4370     9.7060
 2070.0000  -999.2500  -999.2500  -999.2500  -999.2500  -999.2500   -29.0480   138.7530   -65.5340    10.3370     9.4370     9.6330
 2070.5000  -999.2500  -999.2500  -999.2500  -999.2500  -999.2500   -29.0720   133.6740   -65.5340    10.1360     9.4370     9.5550
 2071.0000  -999.2500  -999.2500  -999.2500  -999.2500  -999.2500   -29.0960   130.9810   -65.5340     9.9570     9.4370     9.4750
 2071.5000  -999.2500  -999.2500  -999.2500  -999.2500  -999.2500   -29.1190   132.8430   -65.5340    10.4590     9.3650     9.3950
 2072.0000  -999.2500  -999.2500  -999.2500  -999.2500  -999.2500   -29.1430   135.6690   -65.5340    10.6950     9.2590     9.3140
 2072.5000  -999.2500  -999.2500  -999.2500  -999.2500  -999.2500   -29.1670   138.7390   -65.5340    10.1390     9.1530     9.2340
 2073.0000  -999.2500  -999.2500  -999.2500  -999.2500  -999.2500   -29.1900   140.6490   -65.5340     9.6340     9.0470     9.1540
 2073.5000  -999.2500  -999.2500  -999.2500  -999.2500  -999.2500   -29.2140   140.4560   -65.5340     9.1050     8.9400     9.0740
 2074.0000  -999.2500  -999.2500  -999.2500  -999.2500  -999.2500   -29.2380   139.9800   -65.5340     9.4720     8.8340     8.9940
