~VERSION INFORMATION
 VERS.                2.0:   CWLS LOG ASCII STANDARD - VERSION 2.0
 WRAP.                 NO:   ONE LINE PER DEPTH STEP
~WELL INFORMATION
#MNEM.UNIT      DATA TYPE    INFORMATION
#----------   ------------   ------------------------------
 STRT.F           95.0000:   START DEPTH
 STOP.F          866.5000:   STOP DEPTH
 STEP.F            0.5000:   STEP LENGTH
 NULL.          -999.2500:   NO VALUE
 COMP.          U.S. NAVY:   COMPANY
 WELL. U.S NAVY RES 3 TEAPOT DOM "SX" #41-2:   WELL
 FLD .        TEAPOT DOME:   FIELD
 LOC .       S2 T38N R78W:   LOCATION
 CNTY.            NATRONA:   COUNTY
 STAT.            WYOMING:   STATE
 CTRY. UNITED STATES OF AMERICA:   COUNTRY
 SRVC.       SCHLUMBERGER:   SERVICE COMPANY
 DATE.        20-JUL-1953:   LOGDATE
 API .     49025064770000:   API NUMBER
~CURVE INFORMATION
#MNEM.UNIT       API CODE    CURVE DESCRIPTION
#----------   ------------   ------------------------------
 DEPT.F                  :   
 SPR .MV     05 010 01 00:   SPONTANEOUS POTENTIAL FROM RES.
 ASN .OHMM   05 041 16 00:   AMPLIFIED SHORT NORMAL 16"
 ILD .OHMM   05 120 46 00:   INDUCTION LOG DEEP
 GR  .GAPI   30 310 01 00:   GAMMA RAY
~PARAMETER INFORMATION
#MNEM.UNIT          VALUE    DESCRIPTION
#----------   ------------   ------------------------------
 EKB .F         5140.0000:   Kelly bushing
 EGL .F         5135.0000:   Ground level
 TD  .F          862.0000:   Total depth
 DATE.        20-JUL-1953:   Date logged
 CLNT.            A2DTECH:   Client Code
 DD  .F               862:   Depth driller
 DL  .F               855:   Depth logger
 BLI .F               654:   Bottom log interval
 TLI .F                50:   Top log interval
 CS1 .IN            8.625:   Casing size
 CBD1.       8.625" @ 10':   Casing driller 1
 BS1 .IN             6.75:   Bit size
 BSD1.F               862:   Depth drilled with bit1
 DFT .            GEL-OIL:   Type fluid in hole
 DFD .                9.4:   Density
 DFV .                 50:   Viscosity
 DFPH.                8.0:   pH
 DFL .                3.1:   Fluid loss
 RMS .OHMM           1.83:   Rm
 MST .F                96:   Rm Meas. temp.
 RMF .OHMM           1.56:   Rmf
 MFST.F                96:   Rmf Meas. temp.
 TCS .HRS               1:   Time Circ. stopped
 LUN .               4507:   Logging unit number
 LUL .               CSPR:   Logging unit location
 ENGI.            WINKLER:   Recorded By
 WITN.          JORGENSON:   Witnessed by
 ORIG.           5" PRINT:   Origin of data
 UWI .     49025064770000:   Unique Well ID
 DICO. A2D TECHNOLOGIES, INC.:   Digitizing Company
 MSS .           FLOWLINE:   Source of sample
~OTHER INFORMATION
~A  DEPTH      SPR        ASN        ILD         GR
# ...
  387.0000   -67.0030     7.2383     6.9927  -999.2500
  387.5000   -66.8525     7.2829     6.9969  -999.2500
  388.0000   -66.7024     7.4473     7.0000  -999.2500
  388.5000   -66.5521     7.5383     7.0041  -999.2500
  389.0000   -66.4018     7.6263     7.0075  -999.2500
  389.5000   -66.2513     7.6710     7.0113  -999.2500
  390.0000   -66.1012     7.6857     7.0902  -999.2500
  390.5000   -65.9508     7.6553     7.0933  -999.2500
  391.0000   -66.0984     7.6102     7.0224  -999.2500
  391.5000   -66.0967     7.5350     7.0263  -999.2500
  392.0000   -66.0951     7.4598     6.9553  -999.2500
  392.5000   -66.2427     7.3997     6.8843  -999.2500
  393.0000   -66.2408     7.3245     6.7392  -999.2500
  393.5000   -66.2394     7.2793     6.6682  -999.2500
  394.0000   -66.2380     7.2191     6.6724  -999.2500
  394.5000   -66.3856     7.1889     6.6001  -999.2500
  395.0000   -66.6815     7.2036     6.6049  -999.2500
  395.5000   -66.8292     7.2333     6.6082  -999.2500
  396.0000   -66.9763     7.3377     6.6119  -999.2500
  396.5000   -67.1237     7.4571     6.6157  -999.2500
  397.0000   -67.2706     7.5317     6.6945  -999.2500
  397.5000   -67.2692     7.6063     6.7728  -999.2500
  398.0000   -67.1189     7.6958     6.9256  -999.2500
  398.5000   -66.9685     7.7554     7.1537  -999.2500
  399.0000   -66.8182     7.8149     7.2319  -999.2500
  399.5000   -66.6680     7.8147     7.3101  -999.2500
  400.0000   -66.5177     7.8220     7.3137  -999.2500
  400.5000   -65.9306     8.1139     7.2357  -999.2500
  401.0000   -66.0896     8.2488     7.3815  -999.2500
  401.5000   -66.2486     8.3088     7.4537  -999.2500
  402.0000   -66.2573     8.3539     7.5996  -999.2500
  402.5000   -66.2661     8.3840     7.6718  -999.2500
  403.0000   -66.2738     8.4291     7.7435  -999.2500
  403.5000   -66.2835     8.5041     7.8149  -999.2500
  404.0000   -66.2923     8.5641     7.8119  -999.2500
  404.5000   -66.3010     8.6091     7.8090  -999.2500
  405.0000   -66.3112     8.5943     7.8060  -999.2500
  405.5000   -66.3185     8.5196     7.7280  -999.2500
  406.0000   -66.3274     8.3850     7.6504  -999.2500
  406.5000   -66.3374     8.1607     7.4983  -999.2500
  407.0000   -66.0471     8.0410     7.3463  -999.2500
  407.5000   -65.6094     7.9214     7.1935  -999.2500
  408.0000   -65.3205     7.8018     7.1159  -999.2500
  408.5000   -65.0316     7.6822     7.0388  -999.2500
  409.0000   -64.8915     7.6374     7.0355  -999.2500
  409.5000   -64.7482     7.6526     7.0326  -999.2500
  410.0000   -64.6114     7.6677     6.9552  -999.2500
  410.5000   -64.7718     7.6529     7.0269  -999.2500
  411.0000   -64.9293     7.6530     7.0234  -999.2500
  411.5000   -65.0863     7.6532     7.0956  -999.2500
  412.0000   -65.2444     7.6832     7.0922  -999.2500
  412.5000   -65.4034     7.7582     7.0896  -999.2500
  413.0000   -65.4107     7.8632     7.0866  -999.2500
  413.5000   -65.4209     7.9831     7.0836  -999.2500
  414.0000   -65.2794     8.0282     7.1556  -999.2500
  414.5000   -65.1407     8.0283     7.1518  -999.2500
  415.0000   -65.0000     7.9985     7.1488  -999.2500
  415.5000   -64.8591     7.9238     7.1463  -999.2500
  416.0000   -64.7190     7.8641     7.1430  -999.2500
  416.5000   -64.5790     7.8493     7.2152  -999.2500
  417.0000   -64.5892     7.8794     7.2113  -999.2500
  417.5000   -64.4476     7.9544     7.2835  -999.2500
  418.0000   -64.4583     8.0743     7.3557  -999.2500
  418.5000   -64.4680     8.2323     7.5011  -999.2500
  419.0000   -64.3265     8.3740     7.5733  -999.2500
  419.5000   -64.3366     8.4639     7.5699  -999.2500
  420.0000   -64.3468     8.4940     7.4924  -999.2500
  420.5000   -64.2053     8.3595     7.2651  -999.2500
  421.0000   -64.2155     8.0901     7.1876  -999.2500
  421.5000   -64.0740     7.8657     7.0354  -999.2500
  422.0000   -64.0841     7.6264     6.8833  -999.2500
  422.5000   -64.0929     7.5067     6.8057  -999.2500
  423.0000   -64.2504     7.4470     6.7282  -999.2500
  423.5000   -64.2606     7.3873     6.5755  -999.2500
  424.0000   -64.2693     7.3575     6.4980  -999.2500
  424.5000   -64.2781     7.3426     6.4951  -999.2500
  425.0000   -64.1380     7.3578     6.4922  -999.2500
  425.5000   -64.1467     7.3729     6.4896  -999.2500
  426.0000   -64.1555     7.3880     6.4864  -999.2500
  426.5000   -64.0139     7.3882     6.4836  -999.2500
  427.0000   -63.8768     7.3584     6.4806  -999.2500
  427.5000   -63.8855     7.2987     6.4776  -999.2500
  428.0000   -63.5937     7.2090     6.4746  -999.2500
  428.5000   -63.4536     7.1642     6.4713  -999.2500
  429.0000   -63.3150     7.1344     6.4684  -999.2500
  429.5000   -63.1749     7.1645     6.5406  -999.2500
  430.0000   -63.0348     7.2695     6.6118  -999.2500
  430.5000   -63.0450     7.4792     6.6840  -999.2500
  431.0000   -63.0552     7.6590     6.8340  -999.2500
  431.5000   -63.0639     7.7639     7.0509  -999.2500
  432.0000   -63.0727     7.8689     7.1972  -999.2500
  432.5000   -63.0814     7.8872     7.3647  -999.2500
  433.0000   -63.0901     7.9291     7.4894  -999.2500
  433.5000   -63.0982     8.0051     7.6353  -999.2500
  434.0000   -63.1076     8.1090     7.6328  -999.2500
  434.5000   -63.2666     8.1690     7.6295  -999.2500
  435.0000   -63.2753     8.1692     7.6266  -999.2500
  435.5000   -63.1324     8.1094     7.5304  -999.2500
  436.0000   -63.1440     8.0497     7.3969  -999.2500
  436.5000   -63.0025     7.9750     7.3188  -999.2500
  437.0000   -62.8266     7.8704     7.1671  -999.2500
  437.5000   -62.5735     7.7657     7.0145  -999.2500
  438.0000   -62.2846     7.6761     6.8623  -999.2500
  438.5000   -62.2963     7.6013     6.7848  -999.2500
  439.0000   -62.3050     7.5865     6.7819  -999.2500
  439.5000   -62.3137     7.6166     6.8541  -999.2500
  440.0000   -62.3224     7.6317     6.9253  -999.2500
  440.5000   -62.3312     7.6169     6.9975  -999.2500
  441.0000   -62.3399     7.6470     7.1429  -999.2500
  441.5000   -62.3486     7.7520     7.2892  -999.2500
  442.0000   -62.3588     7.9018     7.4552  -999.2500
  442.5000   -62.3661     8.0937     7.6570  -999.2500
  443.0000   -62.3763     8.3512     7.8775  -999.2500
  443.5000   -62.3850     8.5759     8.0244  -999.2500
  444.0000   -62.3929     8.7856     8.1707  -999.2500
  444.5000   -62.4018     8.9505     8.1668  -999.2500
  445.0000   -62.4107     9.0255     8.1639  -999.2500
  445.5000   -62.2726     8.9807     8.0864  -999.2500
  446.0000   -62.2813     8.8611     8.0088  -999.2500
  446.5000   -62.2901     8.6217     7.7816  -999.2500
  447.0000   -62.2988     8.3075     7.5548  -999.2500
  447.5000   -62.3075     8.0382     7.2534  -999.2500
  448.0000   -62.1660     7.8737     6.9519  -999.2500
  448.5000   -62.0274     7.7241     6.7251  -999.2500
  449.0000   -61.8858     7.6195     6.5730  -999.2500
  449.5000   -61.5970     7.5298     6.4950  -999.2500
  450.0000   -61.4569     7.5150     6.4923  -999.2500
  450.5000   -61.3107     7.5764     6.7173  -999.2500
  451.0000   -61.4615     7.6679     6.8672  -999.2500
  451.5000   -61.6117     7.9538     7.0172  -999.2500
  452.0000   -61.6132     8.2247     7.1673  -999.2500
  452.5000   -61.4656     8.2860     7.3173  -999.2500
  453.0000   -61.4673     8.2126     7.3926  -999.2500
  453.5000   -61.3199     8.1240     7.4679  -999.2500
  454.0000   -61.3216     8.3355     7.4687  -999.2500
  454.5000   -61.0254     8.4418     7.4695  -999.2500
  455.0000   -61.0271     8.4240     7.5448  -999.2500
  455.5000   -60.8792     8.3997     7.6202  -999.2500
  456.0000   -60.8810     8.4314     7.6955  -999.2500
  456.5000   -60.8826     8.5825     7.6963  -999.2500
  457.0000   -60.8840     8.7037     7.7718  -999.2500
  457.5000   -60.8854     8.7501     7.7725  -999.2500
  458.0000   -60.8872     8.7518     7.7731  -999.2500
  458.5000   -61.0374     8.7532     7.7739  -999.2500
  459.0000   -61.0389     8.7547     7.7748  -999.2500
  459.5000   -61.1891     8.7560     7.6262  -999.2500
