~VERSION INFORMATION
 VERS.                2.0:   CWLS LOG ASCII STANDARD - VERSION 2.0
 WRAP.                 NO:   ONE LINE PER DEPTH STEP
~WELL INFORMATION
#MNEM.UNIT      DATA TYPE    INFORMATION
#----------   ------------   ------------------------------
 STRT.F          208.0000:   START DEPTH
 STOP.F         2950.0000:   STOP DEPTH
 STEP.F            0.5000:   STEP LENGTH
 NULL.          -999.2500:   NO VALUE
 COMP.    FENIX & SCISSON:   COMPANY
 WELL.     FENIX A #56-28:   WELL
 FLD .                NPR:   FIELD
 LOC .      S28 T39N R78W:   LOCATION
 CNTY.            NATRONA:   COUNTY
 STAT.            WYOMING:   STATE
 CTRY. UNITED STATES OF AMERICA:   COUNTRY
 SRVC.              WELEX:   SERVICE COMPANY
 DATE.        20-AUG-1977:   LOGDATE
 API .     49025104140000:   API NUMBER
~CURVE INFORMATION
#MNEM.UNIT       API CODE    CURVE DESCRIPTION
#----------   ------------   ------------------------------
 DEPT.F                  :   
 SPR .MV     07 010 01 00:   SPONTANEOUS POTENTIAL
 RILM.OHMM   07 120 44 00:   INDUCTION LOG MEDIUM RESISTIVITY
 RILD.OHMM   07 120 46 00:   INDUCTION LOG DEEP RESISTIVITY
 SGRD.OHMM   07 220 05 00:   SHALLOW GUARD LOG RESISTIVITY
 CALD.IN     45 280 60 00:   CALIPER FROM DENSITY LOG
 DCOR.G/C3   45 356 01 00:   DENSITY CORRECTION
 GRD .GAPI   45 310 01 00:   GAMMA RAY FROM DENSITY LOG
 RHOB.G/C3   45 350 01 00:   BULK DENSITY
~PARAMETER INFORMATION
#MNEM.UNIT          VALUE    DESCRIPTION
#----------   ------------   ------------------------------
 EKB .F         5088.0000:   Kelly bushing
 EGL .F         5078.0000:   Ground level
 EDF .F            0.0000:   Drilling floor
 EPD .F         5078.0000:   Permanent datum
 TD  .F         2960.0000:   Total depth
 DATE.        20-AUG-1977:   Date logged
 CLNT.            A2DTECH:   Client Code
 SL  . 1650' FSL & 2310' FEL:   Surface Location
 PD  .                 GL:   Permanent Datum
 LMF .                 KB:   Log Measured From
 DMF .                 KB:   Drilling Measured From
 DAPD.F                10:   Feet Above Permanent Datum
 DD  .F              2960:   Depth driller
 DL  .F              2952:   Depth logger
 BLI .F              2950:   Bottom log interval
 TLI .F               210:   Top log interval
 CS1 .IN            8.625:   Casing size
 CBD1.      8.625" @ 215':   Casing driller 1
 CBL1.F               218:   Casing logger 1
 BS1 .IN            7.875:   Bit size
 BSD1.F              2960:   Depth drilled with bit1
 DFT .            KCL MUD:   Type fluid in hole
 DFD .                8.9:   Density
 DFV .                 60:   Viscosity
 DFPH.                 11:   pH
 DFL .                7.2:   Fluid loss
 MSS .           FLOWLINE:   Source of sample
 RMS .OHMM            .78:   Rm
 MST .F                81:   Rm Meas. temp.
 RMF .OHMM            .46:   Rmf
 MFST.F                81:   Rmf Meas. temp.
 RMC .OHMM           1.66:   Rmc
 MCST.F                81:   Rmc Meas. temp.
 MFSS.               CALC:   Source Rmf.
 MCSS.               CALC:   Source Rmc.
 RMB .OHMM            .56:   Rm. at BHT
 BHT .F               112:   BHT.
 TCS .HRS             2.5:   Time Circ. stopped
 MRT .F               112:   Maximum recorded temp.
 LUN .               8611:   Logging unit number
 LUL .             CASPER:   Logging unit location
 ENGI.             C DOAK:   Recorded By
 WITN.       B HARRINGTON:   Witnessed by
 ORIG.           5" PRINT:   Origin of data
 UWI .     49025104140000:   Unique Well ID
 DICO. A2D TECHNOLOGIES, INC.:   Digitizing Company
~OTHER INFORMATION
~A   DEPT      SPR       RILM       RILD       SGRD         CALD     DCOR        GRD       RHOB   
  208.0000  -999.2500  -999.2500  -999.2500  -999.2500     9.2970  -999.2500  -999.2500  -999.2500
  208.5000  -999.2500  -999.2500  -999.2500  -999.2500     9.3000  -999.2500    76.4760  -999.2500
  209.0000  -999.2500  -999.2500  -999.2500  -999.2500     9.3040  -999.2500    77.8820  -999.2500
  209.5000  -999.2500  -999.2500  -999.2500  -999.2500     9.3070  -999.2500    77.3910  -999.2500
  210.0000  -999.2500  -999.2500  -999.2500  -999.2500     9.3100    -0.3380    76.9000  -999.2500
  210.5000  -999.2500  -999.2500  -999.2500  -999.2500     9.3130    -0.3380    76.5460  -999.2500
  211.0000  -999.2500  -999.2500  -999.2500  -999.2500     9.3160    -0.3380    77.4960  -999.2500
  211.5000  -999.2500  -999.2500  -999.2500  -999.2500     9.3130    -0.3400    79.1660     1.7440
  212.0000  -999.2500  -999.2500  -999.2500  -999.2500     9.3090    -0.3420    80.0780     1.6300
  212.5000  -999.2500  -999.2500  -999.2500  -999.2500     9.3050    -0.3460    80.1350     1.7240
  213.0000  -999.2500  -999.2500  -999.2500  -999.2500     9.3010    -0.3510    78.1120     1.7020
  213.5000  -999.2500  -999.2500  -999.2500  -999.2500     9.2970    -0.3550    76.9380     1.6790
  214.0000  -999.2500  -999.2500  -999.2500  -999.2500     9.2940    -0.3590    77.3610     1.6540
  214.5000  -999.2500  -999.2500  -999.2500  -999.2500     9.2900    -0.3630    78.0590     1.6300
  215.0000  -999.2500  -999.2500  -999.2500  -999.2500     9.2860    -0.3600    78.4850     1.6060
  215.5000  -999.2500  -999.2500  -999.2500  -999.2500     9.2820    -0.3550    78.5830     1.5870
  216.0000  -999.2500  -999.2500  -999.2500  -999.2500     9.2780    -0.3400    78.3500     1.6130
  216.5000  -999.2500  -999.2500  -999.2500  -999.2500     9.2740    -0.3210    77.7180     1.6550
  217.0000  -999.2500  -999.2500  -999.2500  -999.2500     9.2700    -0.2870    77.0470     1.7110
  217.5000   -17.3260  -999.2500  -999.2500  -999.2500     9.2660    -0.2250    77.6310     1.7910
  218.0000   -34.0060  -999.2500  -999.2500  -999.2500     9.2610    -0.1590    79.2160     1.8760
  218.5000   -49.4980  -999.2500  -999.2500  -999.2500     9.2610    -0.0910    82.4970     2.0010
  219.0000   -58.2830  -999.2500  -999.2500     2.5210     9.3220     0.0030    85.7400     2.1020
  219.5000   -65.4930  -999.2500  -999.2500     4.6320     9.4170     0.0890    88.9450     2.1730
  220.0000   -70.6330     3.1610     1.3630     6.8730     9.5320     0.0780    90.3070     2.2100
  220.5000   -73.4700     3.0810     0.5040     6.8660    10.2220     0.0630    91.2250     2.2900
  221.0000   -74.7490     3.4310     0.3140     8.0640    10.9060     0.0570    91.0020     2.3700
  221.5000   -74.0120     5.6290     0.3150     8.2280    11.5600     0.0550    89.3600     2.4080
  222.0000   -72.6470     8.1170     0.2220     8.2670    11.9580     0.0570    86.2050     2.4170
  222.5000   -71.2870     7.8560     0.2220     8.9550    12.1560     0.0530    83.0820     2.4120
  223.0000   -70.4400     7.4750     0.4250     9.6400    12.2180     0.0480    79.9640     2.4070
  223.5000   -70.3080     8.4970     0.6640     9.5410    12.2520     0.0430    76.8450     2.4010
  224.0000   -70.1720     8.3970     1.6070     9.3970    12.4050     0.0380    73.7240     2.3960
  224.5000   -70.0980     9.1280     4.1290    10.4550    12.6530     0.0340    70.6500     2.3910
  225.0000   -70.0990     9.8130     7.4750    12.5320    12.8570     0.0310    67.7740     2.3760
  225.5000   -70.1010    10.3400     8.6550    14.9650    13.0180     0.0270    65.2650     2.3550
  226.0000   -70.0800    11.2550     9.2450    17.1960    13.1130     0.0240    63.7660     2.3250
  226.5000   -69.6230    13.0660     9.3970    14.8970    13.1260     0.0200    62.3820     2.2950
  227.0000   -69.1690    12.6860    11.8610    12.6110    13.1340     0.0170    61.1490     2.2650
  227.5000   -69.2220    11.9960    15.1500    11.5170    13.1580     0.0130    60.5340     2.2430
  228.0000   -69.8450    11.2860    18.1670    11.2450    13.1850     0.0130    62.7300     2.2510
  228.5000   -70.3050    11.0990    17.4020    11.8140    13.2120     0.0170    64.4070     2.2700
  229.0000   -70.2930    10.8860    15.4070    11.1830    13.2370     0.0210    63.6520     2.2840
  229.5000   -70.2920    10.6420    10.2040    12.0320    13.2440     0.0250    61.9500     2.2880
  230.0000   -70.1620    10.3980    13.8040    11.8180    13.2520     0.0280    60.2270     2.2810
  230.5000   -69.9020    10.2040    15.4920    11.8380    13.2650     0.0300    59.4380     2.2660
  231.0000   -69.6420    10.3480    16.8840    11.8770    13.2780     0.0290    61.8930     2.2520
  231.5000   -69.8350    10.4670    15.5260    11.9160    13.2920     0.0280    63.2710     2.2480
  232.0000   -70.4610    10.5890    12.1270    12.1730    13.3050     0.0270    62.8320     2.2440
  232.5000   -71.0330    10.6820    10.1760    12.4760    13.3180     0.0280    61.5880     2.2410
  233.0000   -71.5380    10.5890    10.1090    12.9470    13.3320     0.0310    60.1920     2.2450
  233.5000   -72.0430    10.5140    10.0430    12.7900    13.3450     0.0330    58.8310     2.2500
  234.0000   -72.3150    10.3440     9.9770    12.2550    13.3590     0.0350    60.3020     2.2570
  234.5000   -72.5950    10.1240     9.8400    12.4110    13.3720     0.0380    62.5650     2.2630
  235.0000   -72.2610     9.9040     9.5100    12.5760    13.3860     0.0370    64.6540     2.2670
  235.5000   -71.1150     9.6850     9.1800    12.1120    13.3990     0.0330    65.2480     2.2560
  236.0000   -69.9290     9.6180     8.8360    11.5590    13.4130     0.0300    65.7460     2.2440
  236.5000   -68.9280     9.5710     8.9530    11.3890    13.4260     0.0280    66.2540     2.2490
  237.0000   -69.2240     9.5250     9.1100    12.0320    13.4390     0.0280    66.7580     2.2550
  237.5000   -69.4930     9.4840     9.3120    11.7060    13.4320     0.0270    67.2620     2.2610
  238.0000   -69.9730     9.4840     8.3430    12.2560    13.3080     0.0270    67.7670     2.2680
  238.5000   -71.4970     9.4840     8.5750    13.0550    13.1840     0.0290    68.2740     2.2760
  239.0000   -73.0280     9.4710     8.0430    11.6000    13.0600     0.0300    68.7850     2.2900
  239.5000   -74.7240     9.3750     8.2490    12.3680    12.9360     0.0320    69.0460     2.3040
  240.0000   -76.4510     9.2800     8.5750    14.7170    12.8100     0.0330    69.3000     2.3200
  240.5000   -77.5290     9.1850     8.3130    14.2230    12.8010     0.0350    69.5550     2.3100
  241.0000   -77.9380     9.1430     8.0860    13.2650    12.8240     0.0310    69.8120     2.2880
  241.5000   -77.8430     9.1430     7.8970    11.9160    12.8490     0.0270    70.0680     2.2730
  242.0000   -77.7730     9.1430     8.0990    11.4940    12.8390     0.0230    70.3240     2.2740
  242.5000   -77.3060     9.3000     8.2720    11.5830    12.8000     0.0220    70.5810     2.2860
  243.0000   -76.7820     9.5690     8.8230    11.8140    12.7610     0.0250    70.8360     2.3070
  243.5000   -76.3030     9.8370     9.3360    14.8860    12.7340     0.0280    71.0820     2.3280
  244.0000   -76.0400    10.3530     9.3970    19.1930    12.7190     0.0320    71.8140     2.3400
  244.5000   -75.7880    10.8680    10.1240    16.7280    12.7030     0.0340    72.6980     2.3380
  245.0000   -75.7340    11.3830    10.8090    15.4070    12.7240     0.0350    73.5810     2.3310
  245.5000   -75.6880    11.8970    11.3750    16.9750    12.7940     0.0360    74.4690     2.3360
  246.0000   -75.6420    12.4120    11.9410    17.8370    12.9820     0.0370    74.3790     2.3440
  246.5000   -75.5940    12.8030    12.1430    16.8650    13.1680     0.0370    73.3930     2.3490
  247.0000   -75.3040    13.1240    12.4370    15.9810    13.1860     0.0370    72.3900     2.3480
  247.5000   -74.9760    13.4460    13.0890    16.8040    13.1950     0.0370    72.7110     2.3480
  248.0000   -74.6470    13.6220    13.3070    18.1670    13.2000     0.0370    73.2320     2.3530
