~VERSION INFORMATION
 VERS.                2.0:   CWLS LOG ASCII STANDARD - VERSION 2.0
 WRAP.                 NO:   ONE LINE PER DEPTH STEP
~WELL INFORMATION
#MNEM.UNIT      DATA TYPE    INFORMATION
#----------   ------------   ------------------------------
 STRT.F            4.0000:   START DEPTH
 STOP.F         3266.0000:   STOP DEPTH
 STEP.F            0.5000:   STEP LENGTH
 NULL.          -999.2500:   NO VALUE
 COMP. LAWRENCE ALLISON & ASSOSCIATES:   COMPANY
 WELL. LAWRENCE "X" #27-11:   WELL
 FLD .          N.P.R. #3:   FIELD
 LOC .      S11 T38N R78W:   LOCATION
 CNTY.            NATRONA:   COUNTY
 STAT.            WYOMING:   STATE
 CTRY. UNITED STATES OF AMERICA:   COUNTRY
 SRVC.      DRESSER ATLAS:   SERVICE COMPANY
 DATE.        22-AUG-1986:   LOGDATE
 API .     49025111070000:   API NUMBER
~CURVE INFORMATION
#MNEM.UNIT       API CODE    CURVE DESCRIPTION
#----------   ------------   ------------------------------
 DEPT.F                  :   
 SPR .MV     07 010 01 00:   SPONTANEOUS POTENTIAL
 TENR.LBS    06 635 01 00:   TENSION FROM RESISTIVITY
 GRR .GAPI   07 310 01 00:   GAMMA RAY FROM RESISTIVITY
 RILD.OHMM   07 120 46 00:   DEEP INDUCTION RESISTIVITY
 RILM.OHMM   07 120 44 00:   INDUCTION LOG MEDIUM RESISTIVITY
 RFOC.OHMM   07 220 04 00:   RESISTIVITY FOCUSED LOG RES.
 NPHI.DEC    42 890 03 00:   NEUTRON POROSITY SANDSTONE
 CALD.IN     45 280 60 00:   CALIPER FROM DENSITY LOG
 RHOB.G/C3   45 350 01 00:   BULK DENSITY
 CORR.G/C3   45 356 01 00:   DENSITY CORRECTION
 TEND.LBS    45 635 01 00:   TENSION FORM DENSITY LOG
~PARAMETER INFORMATION
#MNEM.UNIT          VALUE    DESCRIPTION
#----------   ------------   ------------------------------
 EKB .F         5206.0000:   Kelly bushing
 EGL .F         5194.0000:   Ground level
 EDF .F         5205.0000:   Drilling floor
 EPD .F         5194.0000:   Permanent datum
 TD  .F         3250.0000:   Total depth
 CLNT.            A2DTECH:   Client Code
 SL  . 1197' FSL & 1088' FWL:   Surface Location
 PD  .                 GL:   Permanent Datum
 DAPD.F                12:   Feet Above Permanent Datum
 DATE.        22-AUG-1986:   Date Logged [DD-MMM-YYYY]
 DD  .F              3250:   Depth driller
 DL  .F              3246:   Depth logger
 BLI .F              3243:   Bottom log interval
 TLI .F               683:   Top log interval
 CS1 .IN            8.625:   Casing size
 CBD1.      8.625" @ 672':   Casing driller 1
 CBL1.F               673:   Casing logger 1
 BS1 .IN            7.875:   Bit size
 BSD1.F              3250:   Depth drilled with bit1
 DFT .            KCL-GEL:   Type fluid in hole
 DFD .                8.9:   Density
 DFV .                 35:   Viscosity
 MSS .               TANK:   Source of sample
 RMS .OHMM           0.31:   Rm
 MST .F                70:   Rm Meas. temp.
 RMF .OHMM           0.29:   Rmf
 MFST.F                67:   Rmf Meas. temp.
 MFSS.               CALC:   Source Rmf.
 RMC .OHMM           0.46:   Rmc
 MCST.F                70:   Rmc Meas. temp.
 MCSS.               CALC:   Source Rmc.
 RMB .OHMM           0.16:   Rm. at BHT
 BHT .F               136:   BHT.
 TCS .HRS               4:   Time Circ. stopped
 MRT .F               136:   Maximum recorded temp.
 LUN .            HL-6426:   Logging unit number
 LUL .          RK. SPGS.:   Logging unit location
 ENGI.               RALL:   Recorded By
 WITN.             STRONG:   Witnessed by
 ORIG.           5" PRINT:   Origin of data
 UWI .     49025111070000:   Unique Well ID
 DICO. A2D TECHNOLOGIES, INC.:   Digitizing Company
~OTHER INFORMATION
~A    DEPT     SPR       TENR         GRR      RILD       RILM       RFOC       NPHI       CALD       RHOB       CORR       TEND   
# ...
 2047.5000   -64.6087   -52.5417   133.0544     6.9551     7.4350     8.2044  -999.2500  -999.2500  -999.2500  -999.2500  -999.2500
 2048.0000   -65.2375   -52.7261   132.3242     6.9569     7.6507     9.0524  -999.2500  -999.2500  -999.2500  -999.2500  -999.2500
 2048.5000   -65.8505   -53.0412   136.9379     6.9583     7.7634     9.7804  -999.2500  -999.2500  -999.2500  -999.2500  -999.2500
 2049.0000   -66.5512   -60.5900   141.0153     6.9597     7.7127     9.9911  -999.2500  -999.2500  -999.2500  -999.2500  -999.2500
 2049.5000   -67.2338   -68.3340   140.3652     7.0099     7.6615     9.7188  -999.2500  -999.2500  -999.2500  -999.2500  -999.2500
 2050.0000   -67.8400   -68.4814   138.4141     7.2101     7.7201     9.7217  -999.2500  -999.2500  -999.2500  -999.2500  -999.2500
 2050.5000   -67.8461   -68.6290   135.1434     7.4160     7.8331     9.7931  -999.2500  -999.2500  -999.2500  -999.2500  -999.2500
 2051.0000   -67.8440   -68.7764   134.8590     7.4695     7.8920     9.6598  -999.2500  -999.2500  -999.2500  -999.2500  -999.2500
 2051.5000   -67.8411   -76.4882   136.2090     7.5241     7.8959     9.3302  -999.2500  -999.2500  -999.2500  -999.2500  -999.2500
 2052.0000   -67.6973   -76.6357   139.4364     7.5275     7.9005     9.2679  -999.2500  -999.2500  -999.2500  -999.2500  -999.2500
 2052.5000   -67.2454   -76.7831   140.5719     7.5824     7.9043     9.3359  -999.2500  -999.2500  -999.2500  -999.2500  -999.2500
 2053.0000   -66.7985   -69.3663   140.7685     7.5844     7.8527     9.6118  -999.2500  -999.2500  -999.2500  -999.2500  -999.2500
 2053.5000   -66.3513   -69.5159   142.9912     7.5865     7.8014     9.8807  -999.2500  -999.2500  -999.2500  -999.2500  -999.2500
 2054.0000   -65.9043   -62.0970   144.0055     7.5885     7.7505     9.6782  -999.2500  -999.2500  -999.2500  -999.2500  -999.2500
 2054.5000   -65.4572   -62.2813   140.5281     7.5377     7.7541     9.4792  -999.2500  -999.2500  -999.2500  -999.2500  -999.2500
 2055.0000   -65.0092   -62.4288   139.1146     7.4351     7.7578     9.4159  -999.2500  -999.2500  -999.2500  -999.2500  -999.2500
 2055.5000   -64.5632   -70.1405   143.6557     7.4372     7.8164     9.2884  -999.2500  -999.2500  -999.2500  -999.2500  -999.2500
 2056.0000   -64.2050   -70.2880   150.2914     7.3878     7.8760     9.1620  -999.2500  -999.2500  -999.2500  -999.2500  -999.2500
 2056.5000   -64.2122   -70.4355   150.9875     7.3898     7.9353     9.1648  -999.2500  -999.2500  -999.2500  -999.2500  -999.2500
 2057.0000   -64.2131   -78.1473   150.5182     7.3399     7.8284     9.2421  -999.2500  -999.2500  -999.2500  -999.2500  -999.2500
 2057.5000   -64.2181   -78.2948   152.1474     7.2404     7.7219     9.4317  -999.2500  -999.2500  -999.2500  -999.2500  -999.2500
 2058.0000   -64.4769   -73.2932   152.9034     7.2424     7.6715     9.4346  -999.2500  -999.2500  -999.2500  -999.2500  -999.2500
 2058.5000   -65.0615   -73.6577   150.3135     7.1939     7.6222     9.1760  -999.2500  -999.2500  -999.2500  -999.2500  -999.2500
 2059.0000   -65.6403   -73.9493   145.6380     7.1959     7.6296     8.9880  -999.2500  -999.2500  -999.2500  -999.2500  -999.2500
 2059.5000   -66.2213   -74.2411   140.3200     7.2488     7.6843     8.9914  -999.2500  -999.2500  -999.2500  -999.2500  -999.2500
 2060.0000   -66.8415   -74.5327   135.2404     7.3016     7.7421     9.0574  -999.2500  -999.2500  -999.2500  -999.2500  -999.2500
 2060.5000   -67.2483   -74.8243   135.2154     7.3548     7.8004     9.3217  -999.2500  -999.2500  -999.2500  -999.2500  -999.2500
 2061.0000   -67.7442   -75.1159   136.8407     7.4084     7.8592     9.4526  -999.2500  -999.2500  -999.2500  -999.2500  -999.2500
 2061.5000   -67.9613   -82.9804   138.1365     7.4623     7.9183     9.3888  -999.2500  -999.2500  -999.2500  -999.2500  -999.2500
 2062.0000   -68.1570   -83.3364   137.8373     7.5694     7.9779     9.4584  -999.2500  -999.2500  -999.2500  -999.2500  -999.2500
 2062.5000   -68.1878   -83.6280   139.5792     7.6780     7.9817     9.6622  -999.2500  -999.2500  -999.2500  -999.2500  -999.2500
 2063.0000   -67.7860   -76.3554   145.7108     7.7340     8.0987     9.8703  -999.2500  -999.2500  -999.2500  -999.2500  -999.2500
 2063.5000   -67.3829   -76.6470   148.6609     7.7908     8.2180     9.8840  -999.2500  -999.2500  -999.2500  -999.2500  -999.2500
 2064.0000   -66.9806   -76.9386   146.4397     7.8476     8.2219     9.8764  -999.2500  -999.2500  -999.2500  -999.2500  -999.2500
 2064.5000   -66.5787   -77.2302   144.7777     7.9047     8.2838     9.8104  -999.2500  -999.2500  -999.2500  -999.2500  -999.2500
 2065.0000   -66.1770   -69.9575   146.8961     7.9623     8.4051     9.8832  -999.2500  -999.2500  -999.2500  -999.2500  -999.2500
 2065.5000   -65.7736   -70.3221   148.8743     7.9645     8.4683     9.9557  -999.2500  -999.2500  -999.2500  -999.2500  -999.2500
 2066.0000   -65.3695   -70.6138   148.1779     7.9666     8.4724    10.0287  -999.2500  -999.2500  -999.2500  -999.2500  -999.2500
 2066.5000   -64.7576   -78.4697   145.0044     7.9688     8.4805    10.0318  -999.2500  -999.2500  -999.2500  -999.2500  -999.2500
 2067.0000   -64.1873   -78.7613   142.9083     7.9715     8.5412    10.1054  -999.2500  -999.2500  -999.2500  -999.2500  -999.2500
 2067.5000   -64.2162   -86.6173   141.3573     7.9736     8.6662    10.1795  -999.2500  -999.2500  -999.2500  -999.2500  -999.2500
 2068.0000   -64.2131   -79.3447   140.1177     7.9758     8.4895    10.1836  -999.2500  -999.2500  -999.2500  -999.2500  -999.2500
 2068.5000   -64.2110   -72.0720   136.9358     7.9780     8.3751    10.1961  -999.2500  -999.2500  -999.2500  -999.2500  -999.2500
 2069.0000   -64.2248   -64.7993   135.5993     7.9801     8.2612    10.2612  -999.2500  -999.2500  -999.2500  -999.2500  -999.2500
 2069.5000   -64.5156   -57.5266   136.4760     7.9267     8.1507    10.1216  -999.2500  -999.2500  -999.2500  -999.2500  -999.2500
 2070.0000   -64.6270   -57.8912   139.2295     7.8736     8.0408     9.8449  -999.2500  -999.2500  -999.2500  -999.2500  -999.2500
 2070.5000   -65.0035   -65.7471   141.1020     7.7124     8.0448     9.5090  -999.2500  -999.2500  -999.2500  -999.2500  -999.2500
 2071.0000   -65.4310   -66.0388   139.8259     7.6074     8.0495     9.0568  -999.2500  -999.2500  -999.2500  -999.2500  -999.2500
 2071.5000   -65.8605   -73.9032   138.4410     7.5038     8.0533     8.7478  -999.2500  -999.2500  -999.2500  -999.2500  -999.2500
 2072.0000   -66.2893   -74.2591   140.9007     7.5064     8.1139     8.9398  -999.2500  -999.2500  -999.2500  -999.2500  -999.2500
 2072.5000   -66.7184   -74.5509   142.5265     7.5610     8.1750     9.7919  -999.2500  -999.2500  -999.2500  -999.2500  -999.2500
 2073.0000   -67.1474   -82.4068   140.9954     7.7233     8.2366    10.0732  -999.2500  -999.2500  -999.2500  -999.2500  -999.2500
 2073.5000   -67.5716   -82.6984   139.1545     7.8891     8.2986     9.7979  -999.2500  -999.2500  -999.2500  -999.2500  -999.2500
 2074.0000   -67.8023   -82.9900   140.9751     8.0584     8.3065     9.7317  -999.2500  -999.2500  -999.2500  -999.2500  -999.2500
 2074.5000   -67.6778   -75.7174   144.8348     8.1746     8.4844     9.8039  -999.2500  -999.2500  -999.2500  -999.2500  -999.2500
 2075.0000   -67.5607   -76.0212   146.8367     8.2919     8.5483    10.0855  -999.2500  -999.2500  -999.2500  -999.2500  -999.2500
 2075.5000   -67.4290   -76.3736   148.2408     8.3523     8.6734    10.2309  -999.2500  -999.2500  -999.2500  -999.2500  -999.2500
 2076.0000   -66.9971   -76.6652   150.2745     8.4131     8.8003    10.4514  -999.2500  -999.2500  -999.2500  -999.2500  -999.2500
 2076.5000   -66.5550   -76.9568   151.4742     8.5338     8.8666    10.6773  -999.2500  -999.2500  -999.2500  -999.2500  -999.2500
 2077.0000   -66.1143   -84.8127   150.8998     8.5960     8.9333    10.7557  -999.2500  -999.2500  -999.2500  -999.2500  -999.2500
 2077.5000   -65.6740   -92.6686   149.7155     8.6586     9.0641    10.7589  -999.2500  -999.2500  -999.2500  -999.2500  -999.2500
