~VERSION INFORMATION
 VERS.                2.0:   CWLS LOG ASCII STANDARD - VERSION 2.0
 WRAP.                 NO:   ONE LINE PER DEPTH STEP
~WELL INFORMATION
#MNEM.UNIT      DATA TYPE    INFORMATION
#----------   ------------   ------------------------------
 STRT.F           30.0000:   START DEPTH
 STOP.F         5698.0000:   STOP DEPTH
 STEP.F            0.5000:   STEP LENGTH
 NULL.          -999.2500:   NO VALUE
 COMP. LAWRRENCE-ALLISON & ASSOCIATES:   COMPANY
 WELL. LAWERNCE "X" #41-3:   WELL
 FLD .           N P R #3:   FIELD
 LOC .       S3 T38N R78W:   LOCATION
 CNTY.            NATRONA:   COUNTY
 STAT.            WYOMING:   STATE
 CTRY. UNITED STATES OF AMERICA:   COUNTRY
 SRVC.      DRESSER ATLAS:   SERVICE COMPANY
 DATE.        04-JUN-1983:   LOGDATE
 API .     49025109200000:   API NUMBER
~CURVE INFORMATION
#MNEM.UNIT       API CODE    CURVE DESCRIPTION
#----------   ------------   ------------------------------
 DEPT.F                  :   
 TENS.LBS    60 635 01 00:   TENSION FROM SONIC
 DT  .US/F   60 520 00 00:   DELTA TIME
 SPR .MV     11 010 01 00:   SPONTANEOUS POTENTIAL FROM RES.
 TENR.LBS    11 635 01 00:   TENSION FROM RES. LOG
 GRR .GAPI   11 310 01 00:   GAMMA RAY FROM RES.
 CALR.IN     11 280 01 00:   CALIPER FROM RES.
 RMLL.OHMM   11 270 04 00:   MICRO LATEROLOG
 RD  .OHMM   11 220 10 00:   RESISTIVITY DEEP
 RS  .OHMM   11 220 09 00:   RESISTIVITY SHALLOW
 TEND.LBS    45 635 01 00:   TENSION FROM DENSITY LOG
 CORR.G/C3   45 356 01 00:   DENSITY CORRECTION
 RHOB.G/C3   45 350 01 00:   BULK DENSITY
 NPHI.DEC    42 890 03 00:   NEUTRON POROSITY SANDSTONE
~PARAMETER INFORMATION
#MNEM.UNIT          VALUE    DESCRIPTION
#----------   ------------   ------------------------------
 EKB .F         5157.5000:   Kelly bushing
 EGL .F         5147.5000:   Ground level
 EDF .F            0.0000:   Drilling floor
 TD  .F         5690.0000:   Total depth
 DATE.        04-JUN-1983:   Date logged
 CLNT.            A2DTECH:   Client Code
 SL  . 2218' FWL & 287' FNL:   Surface Location
 PD  .                 GL:   Permanent Datum
 EPD .F            5147.5:   Elevation Permanent Datum
 LMF .                 KB:   Log Measured From
 DMF .                 KB:   Drilling Measured From
 DD  .F              5690:   Depth driller
 DL  .F              5685:   Depth logger
 BLI .F              5682:   Bottom log interval
 CS1 .IN            9.625:   Casing size
 CBD1.       9.625 @ 568':   Casing driller 1
 CBL1.F               568:   Casing logger 1
 BS1 .IN             8.75:   Bit size
 DFT .        KCL-DRISPAC:   Type fluid in hole
 DFD .                9.1:   Density
 DFV .                 37:   Viscosity
 DFPH.                  8:   pH
 DFL .                3.8:   Fluid loss
 MSS .               TANK:   Source of sample
 RMS .OHMM           0.41:   Rm
 MST .F                75:   Rm Meas. temp.
 RMF .OHMM           0.28:   Rmf
 MFST.F                70:   Rmf Meas. temp.
 RMC .OHMM           0.53:   Rmc
 MCST.F                75:   Rmc Meas. temp.
 MFSS.               MEAS:   Source Rmf.
 RMB .OHMM           0.18:   Rm. at BHT
 BHT .F               160:   BHT.
 TCS .HRS               5:   Time Circ. stopped
 MRT .F               166:   Maximum recorded temp.
 LUN .               6274:   Logging unit number
 LUL .               GLTE:   Logging unit location
 ENGI.             RAUTIO:   Recorded By
 WITN.             STRONG:   Witnessed by
 ORIG.     2.5", 5" PRINT:   Origin of data
 UWI .     49025109200000:   Unique Well ID
 DICO. A2D TECHNOLOGIES, INC.:   Digitizing Company
 MCSS.               CALC:   Source Rmc.
 DAPD.                 10:   Feet Above Permanent Datum
 BSD1.               5690:   Depth drilled with bit1
~OTHER INFORMATION
~A   DEPT     TENS         DT        SPR       TENR         GRR      CALR       RMLL         RD         RS       TEND       CORR       RHOB       NPHI   
# ...
  914.0000  -999.2500  -999.2500   -85.5730   -50.5330    79.8650     9.9890     7.5030     9.8770     6.8430  -999.2500  -999.2500  -999.2500  -999.2500
  914.5000  -999.2500  -999.2500   -85.7170   -50.2210    81.9210     9.9890     6.4220     9.4490     6.8340  -999.2500  -999.2500  -999.2500  -999.2500
  915.0000  -999.2500  -999.2500   -85.8040   -49.9080    83.9930     9.9860     5.9900     9.0220     6.8260  -999.2500  -999.2500  -999.2500  -999.2500
  915.5000  -999.2500  -999.2500   -85.7620   -49.6010    86.2800    10.0100     6.0170     8.7540     6.8180  -999.2500  -999.2500  -999.2500  -999.2500
  916.0000  -999.2500  -999.2500   -85.7290   -49.2820    87.7360    10.0560     6.0510     8.7260     6.8090  -999.2500  -999.2500  -999.2500  -999.2500
  916.5000  -999.2500  -999.2500   -85.6930   -48.9730    86.6980    10.1010     6.0860     8.6980     6.8000  -999.2500  -999.2500  -999.2500  -999.2500
  917.0000  -999.2500  -999.2500   -85.6560   -48.6790    84.9270    10.1450     6.0990     8.6700     6.7620  -999.2500  -999.2500  -999.2500  -999.2500
  917.5000  -999.2500  -999.2500   -85.6200   -48.2970    83.1420    10.1820     5.9700     8.6410     6.7240  -999.2500  -999.2500  -999.2500  -999.2500
  918.0000  -999.2500  -999.2500   -85.5830   -48.7090    82.1160    10.1680     5.7760     8.6080     6.6780  -999.2500  -999.2500  -999.2500  -999.2500
  918.5000  -999.2500  -999.2500   -85.5470   -49.6960    86.1460    10.1490     5.8850     8.6360     6.5580  -999.2500  -999.2500  -999.2500  -999.2500
  919.0000  -999.2500  -999.2500   -85.5110   -50.5990    88.4770    10.1290     6.0210     8.7070     6.6250  -999.2500  -999.2500  -999.2500  -999.2500
  919.5000  -999.2500  -999.2500   -85.4740   -51.5020    88.1030    10.1110     6.1570     8.7780     6.7370  -999.2500  -999.2500  -999.2500  -999.2500
  920.0000  -999.2500  -999.2500   -85.4390   -52.4230    85.6890    10.0920     6.2110     8.8480     6.8500  -999.2500  -999.2500  -999.2500  -999.2500
  920.5000  -999.2500  -999.2500   -85.4100   -53.3300    83.4800    10.0550     6.0810     8.9190     6.9620  -999.2500  -999.2500  -999.2500  -999.2500
  921.0000  -999.2500  -999.2500   -85.4410   -54.2430    81.3520    10.0190     5.9720     8.9900     7.0510  -999.2500  -999.2500  -999.2500  -999.2500
  921.5000  -999.2500  -999.2500   -85.4830   -55.1550    81.4070     9.9820     5.8630     9.0610     7.0060  -999.2500  -999.2500  -999.2500  -999.2500
  922.0000  -999.2500  -999.2500   -85.5260   -56.0660    83.3470     9.9450     5.7760     9.0890     6.8920  -999.2500  -999.2500  -999.2500  -999.2500
  922.5000  -999.2500  -999.2500   -85.5700   -56.9770    86.1890     9.9100     5.8820     9.0140     6.7790  -999.2500  -999.2500  -999.2500  -999.2500
  923.0000  -999.2500  -999.2500   -85.6090   -57.8890    86.0140     9.8710     5.8300     8.9210     6.6650  -999.2500  -999.2500  -999.2500  -999.2500
  923.5000  -999.2500  -999.2500   -85.6550   -58.8000    83.7270     9.8990     5.7420     8.8270     6.5520  -999.2500  -999.2500  -999.2500  -999.2500
  924.0000  -999.2500  -999.2500   -85.7000   -59.7110    81.4530     9.9540     5.6730     8.7340     6.4380  -999.2500  -999.2500  -999.2500  -999.2500
  924.5000  -999.2500  -999.2500   -85.7210   -60.6230    79.8690    10.0070     5.9800     8.6400     6.3250  -999.2500  -999.2500  -999.2500  -999.2500
  925.0000  -999.2500  -999.2500   -85.8230   -61.5350    80.0340    10.0580     6.4400     8.5470     6.2980  -999.2500  -999.2500  -999.2500  -999.2500
  925.5000  -999.2500  -999.2500   -85.4840   -62.4450    84.3290    10.1100     6.4400     8.4530     6.2710  -999.2500  -999.2500  -999.2500  -999.2500
  926.0000  -999.2500  -999.2500   -85.4040   -63.3580    88.9160    10.1640     6.1080     8.4110     6.2440  -999.2500  -999.2500  -999.2500  -999.2500
  926.5000  -999.2500  -999.2500   -85.3200   -64.2700    90.8080    10.1840     5.7760     8.3410     6.2170  -999.2500  -999.2500  -999.2500  -999.2500
  927.0000  -999.2500  -999.2500   -85.2600   -65.1750    90.4420    10.1830     5.6740     8.2710     6.1900  -999.2500  -999.2500  -999.2500  -999.2500
  927.5000  -999.2500  -999.2500   -85.1700   -66.1020    87.9010    10.1830     5.5710     8.2010     6.1640  -999.2500  -999.2500  -999.2500  -999.2500
  928.0000  -999.2500  -999.2500   -85.0960   -66.9940    84.5530    10.1830     5.4320     8.1310     6.1370  -999.2500  -999.2500  -999.2500  -999.2500
  928.5000  -999.2500  -999.2500   -85.0180   -67.8650    80.9310    10.1810     5.2920     8.0620     6.1100  -999.2500  -999.2500  -999.2500  -999.2500
  929.0000  -999.2500  -999.2500   -84.9380   -67.9050    81.9010    10.1790     5.1810     8.0060     6.0990  -999.2500  -999.2500  -999.2500  -999.2500
  929.5000  -999.2500  -999.2500   -84.8610   -67.9250    82.7650    10.1770     5.2200     8.0890     6.1080  -999.2500  -999.2500  -999.2500  -999.2500
  930.0000  -999.2500  -999.2500   -84.7820   -67.9090    84.0340    10.1750     5.3170     8.1590     6.1160  -999.2500  -999.2500  -999.2500  -999.2500
  930.5000  -999.2500  -999.2500   -84.7050   -67.9160    85.2230    10.1740     5.4150     8.2290     6.1230  -999.2500  -999.2500  -999.2500  -999.2500
  931.0000  -999.2500  -999.2500   -84.6320   -67.9150    88.9250    10.1720     5.5120     8.2990     6.1310  -999.2500  -999.2500  -999.2500  -999.2500
  931.5000  -999.2500  -999.2500   -84.6540   -67.9130    92.2550    10.1700     5.5710     8.3690     6.1390  -999.2500  -999.2500  -999.2500  -999.2500
  932.0000  -999.2500  -999.2500   -84.7410   -67.9140    94.1180    10.1680     5.5920     8.4530     6.1460  -999.2500  -999.2500  -999.2500  -999.2500
  932.5000  -999.2500  -999.2500   -84.8300   -67.9140    92.0390    10.1660     5.6130     8.4260     6.1540  -999.2500  -999.2500  -999.2500  -999.2500
  933.0000  -999.2500  -999.2500   -84.9190   -67.9150    89.1850    10.1640     5.6340     8.3910     6.1610  -999.2500  -999.2500  -999.2500  -999.2500
  933.5000  -999.2500  -999.2500   -85.0080   -67.9120    86.2880    10.1630     5.6560     8.3570     6.1690  -999.2500  -999.2500  -999.2500  -999.2500
  934.0000  -999.2500  -999.2500   -85.0970   -67.9170    84.8080    10.1610     5.6730     8.3230     6.1760  -999.2500  -999.2500  -999.2500  -999.2500
  934.5000  -999.2500  -999.2500   -85.1850   -67.9150    81.4810    10.1590     5.4580     8.2890     6.1840  -999.2500  -999.2500  -999.2500  -999.2500
  935.0000  -999.2500  -999.2500   -85.2740   -67.9040    81.4920    10.1570     5.4280     8.2550     6.1910  -999.2500  -999.2500  -999.2500  -999.2500
  935.5000  -999.2500  -999.2500   -85.3670   -67.9530    83.0220    10.1550     5.3970     8.2210     6.2000  -999.2500  -999.2500  -999.2500  -999.2500
  936.0000  -999.2500  -999.2500   -85.4130   -67.5120    84.3160    10.1530     5.3720     8.1860     6.2060  -999.2500  -999.2500  -999.2500  -999.2500
  936.5000  -999.2500  -999.2500   -85.4070   -66.7140    84.4320    10.1520     5.4460     8.1520     6.2490  -999.2500  -999.2500  -999.2500  -999.2500
  937.0000  -999.2500  -999.2500   -85.4040   -65.9730    83.2960    10.1500     5.4710     8.1720     6.3460  -999.2500  -999.2500  -999.2500  -999.2500
  937.5000  -999.2500  -999.2500   -85.3440   -65.2340    82.6480    10.1480     5.7000     8.2060     6.4420  -999.2500  -999.2500  -999.2500  -999.2500
  938.0000  -999.2500  -999.2500   -85.2900   -64.4820    85.0280    10.1460     5.7760     8.2380     6.5580  -999.2500  -999.2500  -999.2500  -999.2500
  938.5000  -999.2500  -999.2500   -85.2270   -63.7390    87.1790    10.1440     5.5760     8.2740     6.4880  -999.2500  -999.2500  -999.2500  -999.2500
  939.0000  -999.2500  -999.2500   -85.1780   -62.9920    84.6070    10.1440     5.2760     8.3010     6.3990  -999.2500  -999.2500  -999.2500  -999.2500
  939.5000  -999.2500  -999.2500   -85.1140   -62.2460    82.5610    10.1440     5.2760     8.1270     6.3110  -999.2500  -999.2500  -999.2500  -999.2500
