~VERSION INFORMATION
 VERS.                2.0:   CWLS LOG ASCII STANDARD - VERSION 2.0
 WRAP.                 NO:   ONE LINE PER DEPTH STEP
~WELL INFORMATION
#MNEM.UNIT      DATA TYPE    INFORMATION
#----------   ------------   ------------------------------
 STRT.F          192.0000:   START DEPTH
 STOP.F         3016.0000:   STOP DEPTH
 STEP.F            0.5000:   STEP LENGTH
 NULL.          -999.2500:   NO VALUE
 COMP. FENIX & SCISSON U.S. NAVY:   COMPANY
 WELL.  FENIX "AX" #81-33:   WELL
 FLD .              NPR-3:   FIELD
 LOC .      S33 T39N R78W:   LOCATION
 CNTY.            NATRONA:   COUNTY
 STAT.            WYOMING:   STATE
 CTRY. UNITED STATES OF AMERICA:   COUNTRY
 SRVC.              WELEX:   SERVICE COMPANY
 DATE.        12-MAY-1977:   LOGDATE
 API .     49025109850000:   API NUMBER
~CURVE INFORMATION
#MNEM.UNIT       API CODE    CURVE DESCRIPTION
#----------   ------------   ------------------------------
 DEPT.F                  :   
 SPR .MV     07 010 01 00:   SPONTANEOUS POTENTIAL
 RILM.OHMM   07 120 44 00:   INDUCTION LOG MEDIUM RESISTIVITY
 RILD.OHMM   07 120 46 00:   DEEP INDUCTION RESISTIVITY
 SGRD.OHMM   07 220 05 00:   SHALLOW GUARD LOG RESISTIVITY
 NPHI.DEC    42 890 03 00:   NEUTRON POROSITY SANDSTONE
 GRD .GAPI   45 310 01 00:   GAMMA RAY FROM DENSITY LOG
 CALD.IN     45 280 60 00:   CALIPER FROM DENSITY LOG
 RHOB.G/C3   45 350 01 00:   BULK DENSITY
 DCOR.G/C3   45 356 01 00:   DENSITY CORRECTION
~PARAMETER INFORMATION
#MNEM.UNIT          VALUE    DESCRIPTION
#----------   ------------   ------------------------------
 EKB .F         5114.0000:   Kelly bushing
 EGL .F         5100.0000:   Ground level
 EDF .F         5112.0000:   Drilling floor
 TD  .F         3014.0000:   Total depth
 DATE.        12-MAY-1977:   Date logged
 CLNT.            A2DTECH:   Client Code
 SL  . 660' FEL & 660' FNL:   Surface Location
 PD  .                 GL:   Permanent Datum
 EPD .F              5100:   Elevation Permanent Datum
 LMF .                 KB:   Log Measured From
 DMF .                 KB:   Drilling Measured From
 DD  .F              3000:   Depth driller
 DL  .F              3014:   Depth logger
 BLI .F              3012:   Bottom log interval
 TLI .F              1500:   Top log interval
 CS1 .IN            8.625:   Casing size
 CBD1.      8.625" @ 217':   Casing driller 1
 CBL1.F               209:   Casing logger 1
 BS1 .IN            7.875:   Bit size
 BSD1.F              3000:   Depth drilled with bit1
 DFT .            KCL MUD:   Type fluid in hole
 DFD .                  9:   Density
 DFV .                 33:   Viscosity
 DFPH.                7.5:   pH
 DFL .                7.8:   Fluid loss
 MSS .           FLOWLINE:   Source of sample
 RMS .OHMM           0.69:   Rm
 MST .F                68:   Rm Meas. temp.
 RMF .OHMM           0.66:   Rmf
 MFST.F                68:   Rmf Meas. temp.
 RMC .OHMM           1.27:   Rmc
 MCST.F                68:   Rmc Meas. temp.
 MFSS.                 BK:   Source Rmf.
 MCSS.                 BK:   Source Rmc.
 RMB .OHMM           0.39:   Rm. at BHT
 BHT .F               118:   BHT.
 TCS .HRS               6:   Time Circ. stopped
 MRT .F               118:   Maximum recorded temp.
 LUN .               9685:   Logging unit number
 LUL .           BRIGHTON:   Logging unit location
 ENGI.          T. JOYNER:   Recorded By
 WITN.            K. JAPP:   Witnessed by
 ORIG.           5" PRINT:   Origin of data
 UWI .     49025109850000:   Unique Well ID
 DICO. A2D TECHNOLOGIES, INC.:   Digitizing Company
~OTHER INFORMATION
~A   DEPT      SPR       RILM       RILD       SGRD       NPHI         GRD        CALD       RHOB     DCOR   
# ...
  557.0000   -47.1620     7.9400     7.0490    10.3060  -999.2500   124.2090     8.8670     2.5120     0.0360
  557.5000   -47.2160     8.0740     7.0850    10.1220  -999.2500   124.5800     8.8640     2.5110     0.0390
  558.0000   -47.2700     8.2380     7.1110     9.9380  -999.2500   124.9520     8.8610     2.5100     0.0420
  558.5000   -47.3240     8.1530     7.0630     9.8100  -999.2500   125.3230     8.8580     2.5090     0.0350
  559.0000   -47.3780     8.0880     7.0270     9.8560  -999.2500   125.6940     8.8550     2.5080     0.0330
  559.5000   -47.4310     8.2380     6.9900     9.8930  -999.2500   126.0650     8.8520     2.5070     0.0290
  560.0000   -47.4850     8.1550     6.9530     9.9290  -999.2500   126.4370     8.8490     2.5060     0.0270
  560.5000   -47.5390     8.0880     6.9170     9.9650  -999.2500   126.8220     8.8460     2.5060     0.0310
  561.0000   -47.5930     8.2380     6.8800    10.0010  -999.2500   126.6110     8.8430     2.5070     0.0350
  561.5000   -47.6470     8.1140     6.8080    10.0370  -999.2500   126.2550     8.8400     2.5080     0.0390
  562.0000   -47.7010     8.0310     6.6680    10.0840  -999.2500   125.8930     8.8460     2.5090     0.0430
  562.5000   -47.7550     7.9400     6.5760    10.0160  -999.2500   125.5410     8.8580     2.5100     0.0470
  563.0000   -47.8090     7.7620     6.4930     9.9200  -999.2500   125.3340     8.8710     2.5100     0.0500
  563.5000   -47.8630     7.5840     6.3680     9.8230  -999.2500   124.8930     8.8830     2.5090     0.0510
  564.0000   -47.9170     7.6260     6.3750     9.7260  -999.2500   124.9310     8.8960     2.5070     0.0520
  564.5000   -47.9480     7.6540     6.3870     9.6300  -999.2500   125.5830     8.9090     2.5060     0.0500
  565.0000   -47.9600     7.1770     6.4000     9.5430  -999.2500   126.4270     8.9210     2.5030     0.0480
  565.5000   -47.9720     7.2730     6.4130     9.3740  -999.2500   127.5890     8.9340     2.5010     0.0460
  566.0000   -47.9840     7.4450     6.4270     9.2210  -999.2500   128.7240     8.9460     2.4990     0.0440
  566.5000   -47.9960     7.1770     6.3530     9.0970  -999.2500   129.8550     8.9590     2.5000     0.0420
  567.0000   -48.0080     7.3620     6.2710     9.0380  -999.2500   130.9860     8.9720     2.5010     0.0430
  567.5000   -48.0200     7.6540     6.1890     8.9800  -999.2500   132.1180     8.9970     2.5020     0.0450
  568.0000   -48.0320     7.4820     6.1070     8.9220  -999.2500   133.2460     9.0340     2.5030     0.0460
  568.5000   -48.0440     7.3100     6.0220     8.8640  -999.2500   134.1990     9.0700     2.5040     0.0470
  569.0000   -48.0560     7.4450     5.9360     8.8060  -999.2500   134.6470     9.0920     2.5050     0.0480
  569.5000   -48.0680     7.2810     5.8500     8.7470  -999.2500   135.1190     9.0660     2.5050     0.0440
  570.0000   -48.0800     6.8540     5.7560     8.6890  -999.2500   135.0250     9.0410     2.5040     0.0380
  570.5000   -48.0920     6.9180     5.7560     8.6250  -999.2500   134.5340     9.0200     2.5020     0.0330
  571.0000   -48.1040     6.9810     5.7740     8.7240  -999.2500   134.0400     9.0490     2.5010     0.0320
  571.5000   -48.1160     6.7290     5.8340     8.8330  -999.2500   133.5450     9.0800     2.5000     0.0360
  572.0000   -48.1270     6.7690     5.8950     8.8660  -999.2500   133.0500     9.1100     2.4990     0.0400
  572.5000   -48.1080     6.8540     5.9550     8.8660  -999.2500   132.5550     9.1400     2.4970     0.0440
  573.0000   -47.9430     6.7920     6.0160     8.9590  -999.2500   132.0600     9.1420     2.4950     0.0400
  573.5000   -47.7810     6.9040     6.0820     9.1140  -999.2500   131.5650     9.1050     2.4930     0.0370
  574.0000   -47.6160     7.1300     6.0820     9.0730  -999.2500   131.0700     9.0680     2.4890     0.0340
  574.5000   -47.7830     7.2560     6.0820     8.9900  -999.2500   130.5700     9.0310     2.4850     0.0300
  575.0000   -48.1610     7.2810     6.0820     8.9480  -999.2500   130.0850     8.9950     2.4820     0.0270
  575.5000   -48.5420     7.3100     6.0820     8.9480  -999.2500   130.1190     8.9580     2.4780     0.0240
  576.0000   -48.9130     7.1740     6.0820     8.7260  -999.2500   131.6320     8.9210     2.4750     0.0220
  576.5000   -49.0080     7.0230     5.9380     8.4080  -999.2500   133.2090     8.9000     2.4710     0.0240
  577.0000   -49.0910     6.8400     5.7780     8.0900  -999.2500   134.7840     8.9040     2.4680     0.0260
  577.5000   -49.1740     6.5800     5.6180     7.8140  -999.2500   136.3610     8.9080     2.4660     0.0300
  578.0000   -49.2590     6.3200     5.4590     7.6720  -999.2500   137.9090     8.9120     2.4650     0.0340
  578.5000   -49.3430     6.1070     5.2990     7.5690  -999.2500   138.8720     8.9160     2.4690     0.0370
  579.0000   -49.4280     6.0010     5.1550     7.4650  -999.2500   136.1510     8.9200     2.4740     0.0410
  579.5000   -49.5070     5.8940     5.0620     7.3620  -999.2500   133.4560     8.9240     2.4800     0.0440
  580.0000   -49.4920     5.8630     4.9690     7.2950  -999.2500   130.6900     8.9280     2.4840     0.0470
  580.5000   -49.4740     5.8290     4.9690     7.2640  -999.2500   131.1850     8.9320     2.4840     0.0500
  581.0000   -49.4560     5.7030     4.9690     7.2340  -999.2500   132.6180     8.9360     2.4820     0.0530
  581.5000   -49.4380     5.7710     4.8340     7.2040  -999.2500   134.0870     8.9340     2.4800     0.0540
  582.0000   -49.4200     6.0820     4.7620     7.1770  -999.2500   135.5520     8.9250     2.4790     0.0550
  582.5000   -49.4020     5.8170     4.6820     7.1050  -999.2500   136.7910     8.9160     2.4770     0.0570
  583.0000   -49.3840     5.7560     4.6020     7.0460  -999.2500   136.3590     8.9070     2.4750     0.0580
  583.5000   -49.3670     5.7560     4.5220     6.7520  -999.2500   135.9050     8.8990     2.4730     0.0590
  584.0000   -49.3490     5.6100     4.4500     6.4850  -999.2500   135.4540     8.8900     2.4710     0.0590
  584.5000   -49.3300     5.2990     4.3980     6.2180  -999.2500   134.9710     8.8810     2.4700     0.0570
  585.0000   -49.3180     5.3110     4.3510     6.1380  -999.2500   135.6840     8.8720     2.4680     0.0540
  585.5000   -49.4200     5.3360     4.2890     6.1380  -999.2500   136.8580     8.8630     2.4660     0.0520
  586.0000   -49.5250     5.4220     4.3360     6.5630  -999.2500   138.0430     8.8550     2.4680     0.0460
  586.5000   -49.6280     5.5700     4.4040     7.0350  -999.2500   139.2760     8.8460     2.4710     0.0410
  587.0000   -49.7310     5.7030     4.4720     7.2430  -999.2500   138.9860     8.8370     2.4750     0.0350
  587.5000   -49.8350     5.6710     4.5320     7.2100  -999.2500   137.5940     8.8280     2.4760     0.0300
  588.0000   -49.9380     5.6510     4.6210     7.1770  -999.2500   136.1950     8.8200     2.4770     0.0240
  588.5000   -50.0410     5.9220     4.7020     7.2740  -999.2500   134.7930     8.8110     2.4780     0.0210
  589.0000   -50.1210     6.0270     4.7830     7.3620  -999.2500   133.3700     8.8020     2.4800     0.0180
  589.5000   -50.1720     5.9710     4.8640     7.4510  -999.2500   133.3220     8.7850     2.4810     0.0200
  590.0000   -50.2230     6.0720     4.9440     7.5840  -999.2500   134.0150     8.7640     2.4820     0.0230
  590.5000   -50.2740     6.2520     4.9760     7.5760  -999.2500   134.7160     8.7430     2.4850     0.0260
  591.0000   -50.3250     5.9460     4.9860     7.5600  -999.2500   135.4190     8.7220     2.4860     0.0280
  591.5000   -50.3760     5.8090     4.9970     7.5440  -999.2500   136.1200     8.7010     2.4870     0.0310
  592.0000   -50.4270     6.0270     5.0070     7.5280  -999.2500   136.8170     8.6790     2.4870     0.0340
  592.5000   -50.4780     5.8000     5.0150     7.5140  -999.2500   137.0400     8.6580     2.4870     0.0310
  593.0000   -50.5300     5.6580     4.9690     7.5380  -999.2500   136.4630     8.6370     2.4860     0.0290
