~VERSION INFORMATION
 VERS.                2.0:   CWLS LOG ASCII STANDARD - VERSION 2.0
 WRAP.                 NO:   ONE LINE PER DEPTH STEP
~WELL INFORMATION
#MNEM.UNIT      DATA TYPE    INFORMATION
#----------   ------------   ------------------------------
 STRT.F            0.0000:   START DEPTH
 STOP.F         3110.5000:   STOP DEPTH
 STEP.F            0.5000:   STEP LENGTH
 NULL.          -999.2500:   NO VALUE
 COMP. LAWRENCE  ALLISON AND ASSOCIATES:   COMPANY
 WELL. LAWRENCE NPR 3 "X" #72-15:   WELL
 FLD .                NPR:   FIELD
 LOC .      S15 T38N R78W:   LOCATION
 CNTY.            NATRONA:   COUNTY
 STAT.            WYOMING:   STATE
 CTRY. UNITED STATES OF AMERICA:   COUNTRY
 SRVC.           WIRELINE:   SERVICE COMPANY
 DATE.        16-JAN-1988:   LOGDATE
 API .     49025111930000:   API NUMBER
~CURVE INFORMATION
#MNEM.UNIT       API CODE    CURVE DESCRIPTION
#----------   ------------   ------------------------------
 DEPT.F                  :   
 TENR.LBS    07 635 01 00:   TENSION FROM RESISTIVITY
 GRR .GAPI   07 310 01 00:   GAMMA RAY FROM RESISTIVITY
 SPR .MV     07 010 01 00:   SPONTANEOUS POTENTIAL
 RFOC.OHMM   07 220 04 00:   RESISTIVITY FOCUSED LOG RES.
 RILD.OHMM   07 120 46 00:   DEEP INDUCTION RESISTIVITY
 RILM.OHMM   07 120 44 00:   INDUCTION LOG MEDIUM RESISTIVITY
 TEND.LBS    45 635 01 00:   TENSION FROM DENSITY LOG
 RHOB.G/C3   45 350 01 00:   BULK DENSITY
 CORR.G/C3   45 356 01 00:   DENSITY CORRECTION
 CNC .DEC    42 890 03 00:   NEUTRON PORISITY SANDSTONE
 CALR.IN     07 280 01 00:   CALIPER FROM RESISTIVITY
~PARAMETER INFORMATION
#MNEM.UNIT          VALUE    DESCRIPTION
#----------   ------------   ------------------------------
 EKB .F         5240.0000:   Kelly bushing
 EGL .F         5229.0000:   Ground level
 EDF .F            0.0000:   Drilling floor
 TD  .F         3090.0000:   Total depth
 DATE.        16-JAN-1988:   Date logged
 CLNT.            A2DTECH:   Client Code
 SL  . 814' FNL & 1208' FEL:   Surface Location
 PD  .                 GL:   Permanent Datum
 DD  .F              3085:   Depth driller
 DL  .F              3090:   Depth logger
 BLI .F              3089:   Bottom log interval
 CS1 .IN            8.625:   Casing size
 CBD1.      8.625" @ 610':   Casing driller 1
 CBL1.F               613:   Casing logger 1
 BS1 .IN            7.875:   Bit size
 DFT .            KCL/GEL:   Type fluid in hole
 DFD .                8.8:   Density
 DFV .                 40:   Viscosity
 DFPH.                8.5:   pH
 DFL .                 10:   Fluid loss
 MSS .           FLOWLINE:   Source of sample
 RMS .OHMM           .543:   Rm
 MST .F                65:   Rm Meas. temp.
 RMF .OHMM           .349:   Rmf
 MFST.F                65:   Rmf Meas. temp.
 RMC .OHMM           .557:   Rmc
 MCST.F                65:   Rmc Meas. temp.
 MFSS.               CALC:   Source Rmf.
 RMB .OHMM           .258:   Rm. at BHT
 BHT .F               114:   BHT.
 TCS .HRS               5:   Time Circ. stopped
 MRT .F               114:   Maximum recorded temp.
 LUN .            HL-6321:   Logging unit number
 LUL .           GILLETTE:   Logging unit location
 ENGI.               CAIN:   Recorded By
 WITN.             STRONG:   Witnessed by
 ORIG.           5" PRINT:   Origin of data
 UWI .     49025111930000:   Unique Well ID
 DICO. A2D TECHNOLOGIES, INC.:   Digitizing Company
 DAPD.F                11:   Feet Above Permanent Datum
 BSD1.F              3085:   Depth drilled with bit1
 MCSS.               CALC:   Source Rmc.
 EPD .F              5229:   Elevation Permanent Datum
 LMF .                 KB:   Log Measured From
 DMF .                 KB:   Drilling Measured From
~OTHER INFORMATION
~A    DEPT    TENR         GRR       SPR       RFOC       RILD       RILM       TEND       RHOB       CORR        CNC       CALR   
# ...
  762.5000   -44.4240    92.5120   -23.0070     8.8260     9.1480     8.3090  -999.2500  -999.2500  -999.2500  -999.2500     9.1830
  763.0000   -42.9410    91.9590   -22.9520     9.1350     9.1220     8.3860  -999.2500  -999.2500  -999.2500  -999.2500     9.1830
  763.5000   -41.4580    92.1420   -22.8900     9.1770     9.0960     8.4630  -999.2500  -999.2500  -999.2500  -999.2500     9.1830
  764.0000   -39.9750    91.5990   -22.8240     9.2190     9.0690     8.5410  -999.2500  -999.2500  -999.2500  -999.2500     9.1830
  764.5000   -38.4920    90.6440   -22.8970     9.3730     9.0510     8.5640  -999.2500  -999.2500  -999.2500  -999.2500     9.1830
  765.0000   -37.0090    88.3690   -23.0200     9.5920     9.0670     8.7120  -999.2500  -999.2500  -999.2500  -999.2500     9.1830
  765.5000   -35.5260    89.6300   -23.1440     9.8340     9.0800     8.8470  -999.2500  -999.2500  -999.2500  -999.2500     9.1830
  766.0000   -36.9930    92.4280   -23.2070     9.8390     9.0930     8.9680  -999.2500  -999.2500  -999.2500  -999.2500     9.1830
  766.5000   -41.4090    93.7940   -23.2070     9.8480     9.1060     8.9950  -999.2500  -999.2500  -999.2500  -999.2500     9.1830
  767.0000   -45.8250    91.9190   -23.2070     9.8580     9.1180     9.0490  -999.2500  -999.2500  -999.2500  -999.2500     9.1830
  767.5000   -50.2410    89.8220   -23.2080     9.8680     9.1310     9.1040  -999.2500  -999.2500  -999.2500  -999.2500     9.1830
  768.0000   -54.6580    87.7340   -23.2090     9.8770     9.1440     9.1580  -999.2500  -999.2500  -999.2500  -999.2500     9.1830
  768.5000   -59.0740    87.2460   -23.3500     9.8870     9.1570     9.2120  -999.2500  -999.2500  -999.2500  -999.2500     9.1830
  769.0000   -63.4900    89.4860   -23.6350     9.8970     9.1690     9.2670  -999.2500  -999.2500  -999.2500  -999.2500     9.1830
  769.5000   -64.5940    91.7420   -23.9260     9.9070     9.1820     9.3050  -999.2500  -999.2500  -999.2500  -999.2500     9.1830
  770.0000   -64.2800    92.5940   -24.0660     9.9160     9.1950     9.4140  -999.2500  -999.2500  -999.2500  -999.2500     9.1830
  770.5000   -63.9650    93.4100   -24.1580     9.9250     9.2080     9.4480  -999.2500  -999.2500  -999.2500  -999.2500     9.1830
  771.0000   -63.6500    93.8130   -24.2490     9.8770     9.2200     9.4780  -999.2500  -999.2500  -999.2500  -999.2500     9.1830
  771.5000   -63.3350    93.5870   -24.3390     9.8240     9.3050     9.1970  -999.2500  -999.2500  -999.2500  -999.2500     9.1830
  772.0000   -63.0210    92.6790   -24.4330     9.7700     9.2130     8.9680  -999.2500  -999.2500  -999.2500  -999.2500     9.1830
  772.5000   -62.7060    92.3280   -24.5410     9.6520     9.0830     8.7770  -999.2500  -999.2500  -999.2500  -999.2500     9.1830
  773.0000   -62.3910    92.4940   -24.6480     9.4700     8.9530     8.6040  -999.2500  -999.2500  -999.2500  -999.2500     9.1830
  773.5000   -62.0760    92.3570   -24.7540     9.2880     8.8230     8.4310  -999.2500  -999.2500  -999.2500  -999.2500     9.1830
  774.0000   -61.7610    91.4590   -24.8610     9.1060     8.6930     8.2590  -999.2500  -999.2500  -999.2500  -999.2500     9.1830
  774.5000   -61.4470    92.0680   -24.9710     8.9230     8.5620     8.1030  -999.2500  -999.2500  -999.2500  -999.2500     9.1830
  775.0000   -61.1320    94.4930   -24.9990     8.7410     8.4320     7.9700  -999.2500  -999.2500  -999.2500  -999.2500     9.1830
  775.5000   -60.8170    96.5850   -25.0000     8.5590     8.3020     7.8480  -999.2500  -999.2500  -999.2500  -999.2500     9.1830
  776.0000   -60.5020    95.4310   -25.0000     8.3760     8.1720     7.7270  -999.2500  -999.2500  -999.2500  -999.2500     9.1830
  776.5000   -60.1880    93.0510   -25.0000     8.1940     8.0280     7.6290  -999.2500  -999.2500  -999.2500  -999.2500     9.1830
  777.0000   -59.8730    93.5210   -25.0000     8.0870     7.9840     7.5540  -999.2500  -999.2500  -999.2500  -999.2500     9.1830
  777.5000   -59.5580    96.8000   -25.0000     8.0550     7.9340     7.4790  -999.2500  -999.2500  -999.2500  -999.2500     9.1830
  778.0000   -59.2430    99.9100   -25.0000     8.0240     7.8840     7.4040  -999.2500  -999.2500  -999.2500  -999.2500     9.1830
  778.5000   -58.9280   101.3570   -25.0010     7.9920     7.8340     7.3210  -999.2500  -999.2500  -999.2500  -999.2500     9.1830
  779.0000   -58.6140    99.8830   -24.9980     7.9610     7.7360     7.1740  -999.2500  -999.2500  -999.2500  -999.2500     9.1830
  779.5000   -58.2990    98.4450   -24.8010     7.9290     7.5900     7.0110  -999.2500  -999.2500  -999.2500  -999.2500     9.1830
  780.0000   -57.9840    97.3540   -24.5780     7.8980     7.4440     6.8480  -999.2500  -999.2500  -999.2500  -999.2500     9.1830
  780.5000   -57.6690    96.7020   -24.3630     7.7230     7.2980     6.6840  -999.2500  -999.2500  -999.2500  -999.2500     9.1830
  781.0000   -57.3550    96.3550   -24.3340     7.4050     7.1520     6.5210  -999.2500  -999.2500  -999.2500  -999.2500     9.1830
  781.5000   -57.0400    98.2940   -24.8500     7.0880     7.0060     6.3570  -999.2500  -999.2500  -999.2500  -999.2500     9.1830
  782.0000   -56.7250   101.6080   -25.3490     6.7380     6.8600     6.1940  -999.2500  -999.2500  -999.2500  -999.2500     9.1830
  782.5000   -56.4100   104.5140   -25.8620     6.7280     6.7130     6.0850  -999.2500  -999.2500  -999.2500  -999.2500     9.1830
  783.0000   -56.0950   102.9470   -25.9920     6.7090     6.5670     5.9990  -999.2500  -999.2500  -999.2500  -999.2500     9.1830
  783.5000   -55.7810   100.4460   -25.9970     6.6890     6.4210     5.9220  -999.2500  -999.2500  -999.2500  -999.2500     9.1830
  784.0000   -55.4660    98.1590   -25.9960     6.6690     6.2750     5.7910  -999.2500  -999.2500  -999.2500  -999.2500     9.1830
  784.5000   -55.1510    97.0960   -25.9960     6.6490     6.1150     5.6720  -999.2500  -999.2500  -999.2500  -999.2500     9.1830
  785.0000   -54.8050    98.5370   -25.9960     6.6290     5.9220     5.5530  -999.2500  -999.2500  -999.2500  -999.2500     9.1830
  785.5000   -52.2100    99.8180   -25.9960     6.5460     5.8500     5.4330  -999.2500  -999.2500  -999.2500  -999.2500     9.1830
  786.0000   -48.5020   102.0120   -26.0020     6.3140     5.7690     5.3020  -999.2500  -999.2500  -999.2500  -999.2500     9.1830
  786.5000   -44.7950   103.6550   -25.7420     6.0820     5.6880     5.1610  -999.2500  -999.2500  -999.2500  -999.2500     9.1830
  787.0000   -41.0870    99.8820   -25.3820     5.8490     5.6070     5.0040  -999.2500  -999.2500  -999.2500  -999.2500     9.1830
  787.5000   -37.3800    96.5820   -25.1760     5.6170     5.5260     4.9250  -999.2500  -999.2500  -999.2500  -999.2500     9.1830
  788.0000   -35.3850    95.3800   -25.1250     5.4510     5.5010     5.0630  -999.2500  -999.2500  -999.2500  -999.2500     9.1830
  788.5000   -37.3870    95.9950   -25.0760     5.6800     5.5010     5.1680  -999.2500  -999.2500  -999.2500  -999.2500     9.1830
  789.0000   -39.3890    99.8820   -25.0270     6.0080     5.5270     5.2740  -999.2500  -999.2500  -999.2500  -999.2500     9.1830
  789.5000   -41.3910   104.8550   -25.2530     6.3360     5.6720     5.3800  -999.2500  -999.2500  -999.2500  -999.2500     9.1830
  790.0000   -43.3930   107.8140   -25.7510     6.4350     5.8050     5.4860  -999.2500  -999.2500  -999.2500  -999.2500     9.1830
  790.5000   -45.3950   105.9090   -26.1810     6.4350     5.9370     5.5920  -999.2500  -999.2500  -999.2500  -999.2500     9.1830
  791.0000   -47.3970   103.0550   -25.9560     6.4350     6.0450     5.7080  -999.2500  -999.2500  -999.2500  -999.2500     9.1830
  791.5000   -49.3990   100.1680   -25.7710     6.4650     6.1790     5.8020  -999.2500  -999.2500  -999.2500  -999.2500     9.1830
  792.0000   -51.4010    97.0690   -25.6870     6.5670     6.3140     5.9220  -999.2500  -999.2500  -999.2500  -999.2500     9.1830
  792.5000   -53.4030    97.8840   -25.6030     6.6690     6.4350     5.8930  -999.2500  -999.2500  -999.2500  -999.2500     9.1830
