~VERSION INFORMATION
 VERS.                2.0:   CWLS LOG ASCII STANDARD - VERSION 2.0
 WRAP.                 NO:   ONE LINE PER DEPTH STEP
~WELL INFORMATION
#MNEM.UNIT      DATA TYPE    INFORMATION
#----------   ------------   ------------------------------
 STRT.F          200.0000:   START DEPTH
 STOP.F         3124.0000:   STOP DEPTH
 STEP.F            0.5000:   STEP LENGTH
 NULL.          -999.2500:   NO VALUE
 COMP.    FENIX & SCISSON:   COMPANY
 WELL. FENIX SCISSON #18-27:   WELL
 FLD .                NPR:   FIELD
 LOC .      S27 T39N R78W:   LOCATION
 CNTY.            NATRONA:   COUNTY
 STAT.            WYOMING:   STATE
 CTRY. UNITED STATES OF AMERICA:   COUNTRY
 SRVC.              WELEX:   SERVICE COMPANY
 DATE.        26-SEP-1977:   LOGDATE
 API .     49025104210000:   API NUMBER
~CURVE INFORMATION
#MNEM.UNIT       API CODE    CURVE DESCRIPTION
#----------   ------------   ------------------------------
 DEPT.F                  :   
 CALD.IN     45 280 60 00:   CALIPER FROM DENSITY LOG
 GRD .GAPI   45 310 01 00:   GAMMA RAY FROM DENSITY LOG
 RHOB.G/C3   45 350 01 00:   BULK DENSITY
 CORR.G/C3   45 356 01 00:   DENSITY CORRECTION
 NPHI.DEC    42 890 03 00:   NEUTRON POROSITY SANDSTONE
 SPR .MV     07 010 01 00:   SPONTANEOUS POTENTIAL
 GURD.OHMM   07 220 05 00:   GUARD LOG RESISTIVITY
 ILD .OHMM   07 120 46 00:   DEEP INDUCTION RESISTIVITY
 ILM .OHMM   07 120 44 00:   INDUCTION LOG MEDIUM RESISTIVITY
 TENR.LBS    07 635 01 00:   TENSION FROM RESISTIVITY
~PARAMETER INFORMATION
#MNEM.UNIT          VALUE    DESCRIPTION
#----------   ------------   ------------------------------
 EKB .F         5080.0000:   Kelly bushing
 EGL .F         5070.0000:   Ground level
 EDF .F            0.0000:   Drilling floor
 EPD .F            0.0000:   Permanent datum
 TD  .F         3117.0000:   Total depth
 DATE.        26-SEP-1977:   Date logged
 CLNT.            A2DTECH:   Client Code
 SL  . 330' FSL & 1650' FWL:   Surface Location
 PD  .                 GL:   Permanent Datum
 DAPD.F                10:   Feet Above Permanent Datum
 DD  .F              3115:   Depth driller
 DL  .F              3117:   Depth logger
 BLI .F              3115:   Bottom log interval
 TLI .F               200:   Top log interval
 CS1 .IN            8.625:   Casing size
 CBD1.      8.625" @ 219':   Casing driller 1
 CBL1.F               220:   Casing logger 1
 BS1 .IN            7.875:   Bit size
 BSD1.F              3115:   Depth drilled with bit1
 DFT .            KCL MUD:   Type fluid in hole
 DFD .                9.1:   Density
 DFV .                 35:   Viscosity
 DFPH.                 11:   pH
 DFL .               17.2:   Fluid loss
 MSS .           FLOWLINE:   Source of sample
 RMS .OHMM            .59:   Rm
 MST .F                98:   Rm Meas. temp.
 RMF .OHMM            .56:   Rmf
 MFST.F                98:   Rmf Meas. temp.
 RMC .OHMM            .24:   Rmc
 MCST.F                98:   Rmc Meas. temp.
 MFSS.               MEAS:   Source Rmf.
 MCSS.               MEAS:   Source Rmc.
 RMB .OHMM            .48:   Rm. at BHT
 BHT .F               116:   BHT.
 TCS .HRS               4:   Time Circ. stopped
 MRT .F               116:   Maximum recorded temp.
 LUN .               8611:   Logging unit number
 LUL .             CASPER:   Logging unit location
 ENGI.            C. DOAK:   Recorded By
 WITN.         PETTINGILL:   Witnessed by
 ORIG.           5" PRINT:   Origin of data
 UWI .     49025104210000:   Unique Well ID
 DICO. A2D TECHNOLOGIES, INC.:   Digitizing Company
~OTHER INFORMATION
~A   DEPT     CALD        GRD       RHOB       CORR         NPHI      SPR       GURD        ILD        ILM        TENR  
# ...
 1540.0000     8.4922   104.9985     2.4698     0.0089     0.3062   -69.8639     9.4780     6.0397     6.8908   609.6784
 1540.5000     8.4727   105.4033     2.4679     0.0069     0.3022   -69.6685     9.3044     6.1514     6.9540   599.8051
 1541.0000     8.4731   105.0144     2.4679     0.0030     0.3014   -69.6703     9.2184     6.3230     7.4848   599.9262
 1541.5000     8.4735   103.4365     2.4709     0.0030     0.3050   -69.6725     9.2177     6.6811     8.6718   600.0473
 1542.0000     8.4739   102.8507     2.4769     0.0070     0.3050   -69.2795    10.1978     6.8675     8.5129   610.1626
 1542.5000     8.4743   102.4618     2.4789     0.0070     0.3034   -69.6769    10.0115     6.9303     7.9079   600.2896
 1543.0000     8.4747   103.2619     2.4799     0.0071     0.3046   -69.6791     9.4733     7.0585     7.4138   600.4107
 1543.5000     8.4751   105.6510     2.4899     0.0091     0.3110   -69.6813     9.2148     7.2552     7.2780   600.5318
 1544.0000     8.4752   108.4369     2.4948     0.0111     0.3165   -69.4859     9.4718     7.0569     7.2107   600.6529
 1544.5000     8.4759   109.6354     2.4949     0.0131     0.3185   -69.6857     9.3843     6.6981     7.5497   600.7742
 1545.0000     8.4763   109.2465     2.4959     0.0171     0.3126   -69.6879     9.2977     6.0350     8.1752   600.8953
 1545.5000     8.4767   109.6513     2.4959     0.0271     0.3070   -69.6901     9.2118     5.9245     8.8271   591.0712
 1546.0000     8.4771   110.8498     2.4949     0.0271     0.3050   -69.8899     9.2962     5.8699     8.7455   591.1439
 1546.5000     8.4974   110.8578     2.4919     0.0252     0.3054   -69.6945     9.4679     5.9236     7.6875   601.2587
 1547.0000     8.4978   110.8657     2.4850     0.0192     0.3070   -69.6968     9.8215     5.8152     6.8200   601.3798
 1547.5000     8.5180   111.6674     2.4810     0.0193     0.3090   -69.5013    11.3775     5.8148     6.7570   601.5009
 1548.0000     8.4785   111.6754     2.4810     0.0173     0.3094   -69.5035    10.0949     5.8680     6.7565   601.6220
 1548.5000     8.4791   110.8896     2.4810     0.0173     0.3094   -69.5058     9.3782     5.8675     6.7559   611.7365
 1549.0000     8.4795   109.7070     2.4830     0.0194     0.3086   -69.5080     9.2916     5.8671     7.0733   601.8642
 1549.5000     8.4799   109.3181     2.4880     0.0214     0.3082   -69.3125     9.2909     5.9208     7.1384   601.9853
 1550.0000     8.4801   108.1355     2.4920     0.0194     0.3054   -69.5124     9.5499     6.1422     7.2704   602.1064
 1550.5000     8.4458   106.5560     2.4940     0.0195     0.3006   -69.3169     9.9984     6.1417     7.4049   602.2275
 1551.0000     8.4216   105.3734     2.4951     0.0215     0.2978   -69.3191     9.9976     6.3130     7.3364   602.3486
 1551.5000     8.4418   103.3971     2.4951     0.0215     0.2938   -69.5190     9.9052     6.4890     7.2021   602.4697
 1552.0000     8.4224   103.0082     2.4951     0.0235     0.2890   -69.3235     9.9043     6.5484     7.2015   592.5979
 1552.5000     8.4228   103.4130     2.4941     0.0255     0.2843   -69.5234     9.4587     6.7398     7.2009   602.7120
 1553.0000     8.4232   107.9864     2.4931     0.0256     0.2827   -69.5256     9.6334     6.8554     7.2006   602.8331
 1553.5000     8.4236   107.9896     2.4892     0.0211     0.2827   -69.7263     9.6326     6.9821     7.1338   602.9542
 1554.0000     8.4239   103.8337     2.4852     0.0117     0.2835   -69.7279     9.5437     6.9815     7.1332   603.0753
 1554.5000     8.4045   101.4605     2.4782     0.0097     0.2843   -69.5322     9.9918     6.9810     7.5376   593.2038
 1555.0000     8.4247   101.8654     2.4733     0.0078     0.2874   -69.5344     9.9910     6.9804     8.4170   593.3249
 1555.5000     8.4450   102.6670     2.4753     0.0098     0.2914   -69.5366    10.0825     6.7900     7.9625   603.4386
 1556.0000     8.4454   103.4687     2.4853     0.0098     0.2938   -68.7482     9.9894     6.1929     7.3306   603.5597
 1556.5000     8.4259   104.6672     2.4863     0.0158     0.2914   -69.5410     9.3660     6.0241     7.1304   603.6807
 1557.0000     8.4460   102.6909     2.4893     0.0198     0.2890   -69.5432     9.3652     5.9685     7.3969   603.8018
 1557.5000     8.4664   102.3020     2.4953     0.0199     0.2866   -69.5454    10.1722     5.9681     7.0639   603.9229
 1558.0000     8.4668   104.8879     2.4953     0.0219     0.2842   -69.3495    10.5524     5.9676     7.3960   604.0440
 1558.5000     8.4670   104.4990     2.4913     0.0199     0.2858   -69.5494    10.1706     5.9125     7.3954   604.1650
 1559.0000     8.4676   103.3164     2.4774     0.0120     0.2898   -69.7493    10.0767     5.9121     7.2599   614.2540
 1559.5000     8.4680    98.3652     2.4674     0.0140     0.2914   -69.5538     9.8018     5.9116     6.9971   604.4072
 1560.0000     8.4288    95.3952     2.4694     0.0200     0.2882   -69.5560     9.6224     5.9111     6.8059   604.5283
 1560.5000     8.4094    97.9843     2.4824     0.0240     0.2874   -69.5582     9.8001     5.8030     6.6812   614.5930
 1561.0000     8.3898   101.9608     2.4824     0.0260     0.2874   -69.7581    12.2185     5.8561     6.6195   604.7706
 1561.5000     8.3704   106.3341     2.4814     0.0281     0.2914   -69.7603    10.1656     5.9097     6.6190   604.8916
 1562.0000     8.3906   112.2949     2.4815     0.0289     0.3037   -69.5648     9.5312     5.9093     6.6184   614.9560
 1562.5000     8.3910   116.0729     2.4815     0.0298     0.3272   -69.7647     9.2712     5.9088     6.4972   605.1337
 1563.0000     8.3914   113.8982     2.4855     0.0301     0.3360   -69.9646     9.1011     5.9083     6.4372   605.2548
 1563.5000     8.3918   109.1439     2.4875     0.0282     0.3368   -69.9669     9.1819     5.9079     6.3193   605.3759
 1564.0000     8.3922   105.1833     2.4895     0.0322     0.3368   -69.7714     9.2634     6.1287     6.4957   605.4969
 1564.5000     8.4122   101.0259     2.4965     0.0342     0.3360   -69.7736     9.7041     6.4164     6.6770   615.6094
 1565.0000     8.4128   101.0319     2.5034     0.0382     0.3344   -69.7758     9.9746     6.4752     6.8005   615.7304
 1565.5000     8.4132   105.6040     2.5054     0.0402     0.3296   -69.7780     9.9740     6.4746     6.8628   615.8514
 1566.0000     8.4136   110.7711     2.4995     0.0383     0.3176   -69.9779     9.7017     6.3562     6.9257   605.9812
 1566.5000     8.3941   111.7664     2.4995     0.0343     0.3121   -69.7824     9.3507     6.2399     6.9892   606.1022
 1567.0000     8.3945   103.2468     2.5085     0.0344     0.3113   -69.7846     9.1796     6.0697     6.7984   606.2233
 1567.5000     8.3948   103.2547     2.5085     0.0324     0.3105   -69.7868     9.1789     5.9588     6.6738   606.3443
 1568.0000     8.3953   103.6595     2.5005     0.0304     0.3101   -69.7890     9.1781     5.8497     6.6121   616.4563
 1568.5000     8.3956   106.0486     2.4926     0.0285     0.3101   -69.7912     9.3477     5.7957     6.6116   616.5774
 1569.0000     8.3961   106.0581     2.4876     0.0265     0.3117   -69.7935     9.9681     5.7952     6.6722   606.7076
 1569.5000     8.3965   108.4456     2.4847     0.0266     0.3137   -69.7957    10.2460     5.7948     6.7333   606.8286
 1570.0000     8.3771   110.4378     2.4847     0.0266     0.3176   -69.7979    10.2451     5.6888     6.6711   606.9497
 1570.5000     8.3775   111.8300     2.4817     0.0226     0.3212   -69.9978     9.5179     5.5847     6.4295   607.0707
 1571.0000     8.3778   105.2947     2.4777     0.0207     0.3220   -69.8023     8.7616     5.4826     6.2540   617.1823
 1571.5000     8.3783   101.7309     2.4827     0.0088     0.3196   -69.8045     8.4446     5.3823     6.3113   607.3370
 1572.0000     8.3787   103.7232     2.4788     0.0088     0.3168   -69.8067     8.4439     5.3818     6.7307   607.4338
 1572.5000     8.3791   105.7154     2.4728     0.0157     0.3148   -70.0067     8.7595     5.3814     6.7466   617.5453
 1573.0000     8.3993   112.0730     2.4798     0.0266     0.3148   -69.8111     8.8396     5.3810     6.6069   617.6662
