~VERSION INFORMATION
 VERS.                2.0:   CWLS LOG ASCII STANDARD - VERSION 2.0
 WRAP.                 NO:   ONE LINE PER DEPTH STEP
~WELL INFORMATION
#MNEM.UNIT      DATA TYPE    INFORMATION
#----------   ------------   ------------------------------
 STRT.F            0.0000:   START DEPTH
 STOP.F         3040.0000:   STOP DEPTH
 STEP.F            0.5000:   STEP LENGTH
 NULL.          -999.2500:   NO VALUE
 COMP.    FENIX & SCISSON:   COMPANY
 WELL.  FENIX "AX" #43-28:   WELL
 FLD .             TEAPOT:   FIELD
 LOC .      S28 T39N R78W:   LOCATION
 CNTY.            NATRONA:   COUNTY
 STAT.            WYOMING:   STATE
 CTRY. UNITED STATES OF AMERICA:   COUNTRY
 SRVC.              WELEX:   SERVICE COMPANY
 DATE.        20-JUL-1980:   LOGDATE
 API .     49025108450000:   API NUMBER
~CURVE INFORMATION
#MNEM.UNIT       API CODE    CURVE DESCRIPTION
#----------   ------------   ------------------------------
 DEPT.F                  :   
 GRD .GAPI   45 310 01 00:   GAMMA RAY FROM DENSITY LOG
 CALD.IN     45 280 60 00:   CALIPER FROM DENSITY LOG
 RHOB.G/C3   45 350 01 00:   BULK DENSITY
 CORR.G/C3   45 356 01 00:   DENSITY CORRECTION
 SPR .MV     07 010 01 00:   SPONTANEOUS POTENTIAL
 ILD .OHMM   07 120 46 00:   DEEP INDUCTION RESISTIVITY
 ILM .OHMM   07 120 44 00:   INDUCTION LOG MEDIUM RESISTIVITY
 SGRD.OHMM   07 220 05 00:   SHALLOW SHORT GUARD RESISTIVITY
 NEUT.CPS    35 330 30 00:   NEUTRON
~PARAMETER INFORMATION
#MNEM.UNIT          VALUE    DESCRIPTION
#----------   ------------   ------------------------------
 EKB .F         5042.0000:   Kelly bushing
 EGL .F         5032.0000:   Ground level
 EDF .F            0.0000:   Drilling floor
 TD  .F         3038.0000:   Total depth
 DATE.        20-JUL-1980:   Date logged
 CLNT.            A2DTECH:   Client Code
 SL  . 1500' FNL & 2500' FWL:   Surface Location
 PD  .                 GL:   Permanent Datum
 EPD .F              5032:   Elevation Permanent Datum
 LMF .                 KB:   Log Measured From
 DMF .                 KB:   Drilling Measured From
 DD  .F              3000:   Depth driller
 DL  .F              3038:   Depth logger
 BLI .F              3036:   Bottom log interval
 TLI .F               432:   Top log interval
 CS1 .IN            8.625:   Casing size
 CBD1.      8.625" @ 443':   Casing driller 1
 CBL1.F               432:   Casing logger 1
 BS1 .IN            7.875:   Bit size
 BSD1.F              3000:   Depth drilled with bit1
 DFT .     WATER BASE MUD:   Type fluid in hole
 DFD .                9.3:   Density
 DFV .                 45:   Viscosity
 DFPH.                  9:   pH
 DFL .                  8:   Fluid loss
 MSS .                PIT:   Source of sample
 RMS .OHMM           0.85:   Rm
 MST .F                75:   Rm Meas. temp.
 RMF .OHMM           0.68:   Rmf
 MFST.F                75:   Rmf Meas. temp.
 RMC .OHMM           1.02:   Rmc
 MCST.F                75:   Rmc Meas. temp.
 MFSS.               MEAS:   Source Rmf.
 MCSS.               MEAS:   Source Rmc.
 RMB .OHMM           0.57:   Rm. at BHT
 BHT .F               112:   BHT.
 TCS .HRS               3:   Time Circ. stopped
 MRT .F               112:   Maximum recorded temp.
 LUN .               9865:   Logging unit number
 LUL .             CASPER:   Logging unit location
 ENGI.            TOTHILL:   Recorded By
 WITN.           DINSMORE:   Witnessed by
 ORIG.     2.5", 5" PRINT:   Origin of data
 UWI .     49025108450000:   Unique Well ID
 DICO. A2D TECHNOLOGIES, INC.:   Digitizing Company
~OTHER INFORMATION
~A    DEPT     GRD       CALD       RHOB       CORR        SPR        ILD        ILM       SGRD        NEUT  
# ...
  620.5000    78.3270     8.9230     2.4900     0.0110   -28.6110     9.1820     9.5880    10.2650   181.1250
  621.0000    78.5740     8.9210     2.4940     0.0140   -28.4340     9.1960     9.6380    10.3380   184.7110
  621.5000    78.8220     8.9180     2.4910     0.0170   -28.2590     9.2110     9.6870    10.4110   189.3480
  622.0000    79.0780     8.9160     2.4870     0.0110   -28.0700     9.2250     9.7370    10.4840   184.3900
  622.5000    79.3930     8.9130     2.4880     0.0090   -27.8700     9.2390     9.7860    10.5570   169.1520
  623.0000    79.6990     8.9100     2.4920     0.0130   -27.1990     9.2540     9.8360    10.6300   160.8800
  623.5000    80.0040     8.9080     2.4960     0.0180   -26.3590     9.2680     9.8850    10.7040   176.5760
  624.0000    80.3100     8.9050     2.4960     0.0200   -25.5330     9.2810     9.9350    10.7900   171.3700
  624.5000    80.4950     8.9030     2.4920     0.0130   -25.5470     9.2940     9.9840    10.7680   156.5350
  625.0000    80.5630     8.9000     2.4900     0.0050   -25.9820     9.3120    10.0240    10.7140   164.9160
  625.5000    80.6290     8.8980     2.4900    -0.0010   -26.3800     9.1250    10.2100    10.6590   175.9450
  626.0000    80.6920     8.8950     2.4880    -0.0010   -26.7880     8.8910    10.0300    10.6050   184.3300
  626.5000    80.7910     8.8920     2.4800    -0.0070   -27.1850     8.6560     9.7250    10.4760   196.4750
  627.0000    81.5520     8.8900     2.4760    -0.0120   -27.5920     8.4220     9.4190    10.1680   187.7840
  627.5000    82.2890     8.8870     2.4790    -0.0150   -27.9910     8.1880     9.1130     9.8590   175.8080
  628.0000    82.8680     8.8850     2.4870    -0.0080   -28.3880     7.9540     8.8080     9.5500   163.9060
  628.5000    82.9750     8.8860     2.4940    -0.0010   -28.8260     7.7200     8.5020     9.2410   157.4120
  629.0000    83.0920     8.8900     2.5000     0.0040   -29.0380     7.4860     8.1960     8.9750   180.3290
  629.5000    83.2100     8.8940     2.5060     0.0080   -28.9080     7.1950     7.8910     8.6150   202.2030
  630.0000    83.3280     8.8970     2.5120     0.0180   -28.8190     7.1260     7.6550     8.3370   173.5460
  630.5000    83.4340     8.9010     2.5090     0.0190   -28.7200     7.0510     7.4830     8.3950   189.1280
  631.0000    83.5010     8.9050     2.5050     0.0150   -28.6200     6.9760     7.3290     8.4470   201.0980
  631.5000    83.5700     8.9120     2.5010     0.0110   -28.5230     6.9010     7.2460     8.4990   191.9470
  632.0000    83.6380     8.9190     2.4970     0.0110   -28.4230     6.8270     7.1710     8.5510   184.1180
  632.5000    83.7070     8.9260     2.4990     0.0110   -28.3280     6.7520     7.0950     8.6020   190.0040
  633.0000    83.7750     8.9330     2.5020     0.0110   -28.1310     6.6770     7.0200     8.6500   195.7190
  633.5000    83.8430     8.9390     2.5040     0.0130   -27.7510     6.6020     6.9350     8.4400   165.7040
  634.0000    83.9110     8.9460     2.5030     0.0190   -27.3820     6.4420     6.7500     8.2440   173.5570
  634.5000    83.9810     8.9530     2.5030     0.0250   -26.9920     6.2780     6.5360     8.0480   186.8540
  635.0000    83.9460     8.9600     2.5040     0.0260   -26.6210     6.0920     6.3210     7.8520   195.1410
  635.5000    83.8520     8.9630     2.5000     0.0270   -26.3220     5.8750     6.1070     7.6560   185.5980
  636.0000    83.7570     8.9630     2.4950     0.0260   -26.6180     5.7680     5.9850     7.4650   198.8040
  636.5000    83.6620     8.9630     2.4910     0.0210   -26.8900     5.7870     6.0520     7.3290   211.9030
  637.0000    83.5680     8.9630     2.4920     0.0190   -27.1920     5.8720     6.1180     7.5760   218.4160
  637.5000    83.4730     8.9630     2.4990     0.0250   -27.4750     5.9580     6.1840     7.8790   203.6740
  638.0000    83.4450     8.9630     2.5060     0.0310   -27.7650     6.0430     6.2500     8.1850   190.0940
  638.5000    83.5240     8.9630     2.5070     0.0290   -28.0610     6.1290     6.3160     8.1850   181.5920
  639.0000    83.6010     8.9610     2.5080     0.0260   -28.2600     6.2150     6.3810     8.1850   173.4640
  639.5000    83.6780     8.9600     2.5090     0.0230   -28.2570     6.3000     6.4470     8.2290   175.5860
  640.0000    83.7560     8.9580     2.5090     0.0220   -28.2620     6.3860     6.5130     8.3050   212.5250
  640.5000    83.8330     8.9560     2.5050     0.0250   -28.2600     6.4710     6.5790     8.3810   208.2370
  641.0000    83.9110     8.9540     2.5010     0.0210   -28.2600     6.5620     6.6450     8.4570   194.0080
  641.5000    83.9890     8.9520     2.4980     0.0160   -28.2610     6.5750     6.7110     8.6540   174.4070
  642.0000    84.0050     8.9500     2.4960     0.0130   -28.2610     6.5900     6.7770     8.9750   207.2210
  642.5000    84.0060     8.9490     2.4940     0.0100   -28.2580     6.6040     6.9350     8.7650   202.3020
  643.0000    84.0070     8.9470     2.4930     0.0070   -28.2670     6.6190     6.9100     8.5400   185.9940
  643.5000    84.0070     8.9450     2.4920     0.0050   -28.2490     6.6330     6.8750     8.3370   188.7370
  644.0000    84.1330     8.9430     2.4870     0.0020   -28.2450     6.6480     6.8400     8.3370   192.0100
  644.5000    84.3570     8.9390     2.4810    -0.0010   -27.5400     6.6610     6.8080     8.3370   180.9980
  645.0000    84.5840     8.9360     2.4750    -0.0030   -26.7140     6.6760     6.8730     8.3370   166.4060
  645.5000    84.2760     8.9320     2.4740    -0.0030   -25.9480     6.7150     6.9330     8.3370   172.2190
  646.0000    83.6910     8.9290     2.4730    -0.0040   -26.2100     6.7830     6.9930     8.5160   191.3640
  646.5000    83.1050     8.9250     2.4770    -0.0040   -26.4790     6.8500     7.0530     8.6820   188.6390
  647.0000    82.7720     8.9250     2.4820    -0.0010   -26.7930     6.9170     7.1130     8.8480   180.0770
  647.5000    82.6660     8.9290     2.4910     0.0030   -27.0760     6.9840     7.1950     9.0140   172.4330
  648.0000    82.5580     8.9330     2.5020     0.0130   -27.3640     7.0640     7.1800     9.1420   184.1510
  648.5000    82.5650     8.9370     2.5060     0.0180   -27.6370     7.0050     7.1560     9.1420   197.3900
  649.0000    82.6910     8.9400     2.5040     0.0140   -27.9960     6.9350     7.1320     9.0810   190.3030
  649.5000    82.8130     8.9350     2.5020     0.0110   -28.5880     6.8640     7.1080     9.0220   181.7600
  650.0000    82.9360     8.9060     2.5010     0.0080   -29.0280     6.7940     7.0840     8.9750   169.3020
  650.5000    83.0590     8.8780     2.5020     0.0120   -28.9100     6.7240     7.0600     8.7330   172.0500
  651.0000    83.1820     8.8500     2.5030     0.0160   -28.8150     6.6530     7.0360     8.4920   183.0360
  651.5000    83.3050     8.8260     2.5040     0.0200   -28.6970     6.5830     7.0120     8.4920   181.3120
  652.0000    83.4280     8.8400     2.5050     0.0220   -28.5900     6.5130     6.9880     8.4920   173.1630
  652.5000    83.5510     8.8540     2.5030     0.0240   -28.4800     6.4420     6.9640     8.1850   182.1590
  653.0000    83.6740     8.8680     2.5010     0.0250   -28.3700     6.4650     6.9360     8.3130   195.0300
  653.5000    83.7970     8.8820     2.4990     0.0230   -28.2620     6.4880     6.9190     8.4410   184.6830
  654.0000    83.9200     8.8960     2.4970     0.0210   -28.1510     6.5110     6.8970     9.3120   188.1970
  654.5000    84.0230     8.9070     2.5020     0.0190   -28.0390     6.5340     6.8750     8.5810   194.6890
  655.0000    84.0770     8.9150     2.5060     0.0230   -27.9380     6.5620     6.8540     8.3290   200.8020
  655.5000    84.1320     8.9230     2.5100     0.0260   -27.7300     6.5530     6.8330     8.3140   178.8590
  656.0000    84.1860     8.9310     2.5110     0.0250   -27.4070     6.5430     6.8120     8.2990   157.8540
  656.5000    84.2430     8.9390     2.5080     0.0220   -27.1030     6.5320     6.7910     8.2850   169.9410
