~VERSION INFORMATION
 VERS.                2.0:   CWLS LOG ASCII STANDARD - VERSION 2.0
 WRAP.                 NO:   ONE LINE PER DEPTH STEP
~WELL INFORMATION
#MNEM.UNIT      DATA TYPE    INFORMATION
#----------   ------------   ------------------------------
 STRT.F            0.0000:   START DEPTH
 STOP.F          640.0000:   STOP DEPTH
 STEP.F            0.5000:   STEP LENGTH
 NULL.          -999.2500:   NO VALUE
 COMP.       FLUOR DANIEL:   COMPANY
 WELL.  FLUOR " X" #45-27:   WELL
 FLD .                NPR:   FIELD
 LOC .      S27 T39N R78W:   LOCATION
 CNTY.            NATRONA:   COUNTY
 STAT.            WYOMING:   STATE
 CTRY. UNITED STATES OF AMERICA:   COUNTRY
 SRVC.      WESTERN ATLAS:   SERVICE COMPANY
 DATE.        11-MAY-1996:   LOGDATE
 API .     49025227900000:   API NUMBER
~CURVE INFORMATION
#MNEM.UNIT       API CODE    CURVE DESCRIPTION
#----------   ------------   ------------------------------
 DEPT.F                  :   
 GRR .GAPI   07 310 01 00:   GAMMA RAY FROM RESISTIVITY
 RILD.OHMM   07 120 46 00:   INDUCTION LOG DEEP RESISTIVITY
 RILM.OHMM   07 120 44 00:   INDUCTION LOG MEDIUM RESISTIVITY
 TENR.LBS    07 635 01 00:   TENSION
~PARAMETER INFORMATION
#MNEM.UNIT          VALUE    DESCRIPTION
#----------   ------------   ------------------------------
 EKB .F         5058.0000:   Kelly bushing
 EGL .F         5048.0000:   Ground level
 EDF .F         5057.0000:   Drilling floor
 EPD .F         5048.0000:   Permanent datum
 TD  .F          632.0000:   Total depth
 DATE.        11-MAY-1996:   Date logged
 CLNT.            A2DTECH:   Client Code
 SL  . 2250' FSL & 2122' FWL:   Surface Location
 PD  .                 GL:   Permanent Datum
 LMF .                 KB:   Log Measured From
 DMF .                 KB:   Drilling Measured From
 DAPD.F                10:   Feet Above Permanent Datum
 DD  .F               632:   Depth driller
 DL  .F               631:   Depth logger
 BLI .F               620:   Bottom log interval
 CS1 .IN            9.625:   Casing size
 CBD1.       9.625" @ 53':   Casing driller 1
 CBL1.F                53:   Casing logger 1
 BS1 .IN             8.75:   Bit size
 BSD1.F               632:   Depth drilled with bit1
 DFT .                AIR:   Type fluid in hole
 LUN .            HL 6532:   Logging unit number
 LUL .             CASPER:   Logging unit location
 ORIG.         2.5" PRINT:   Origin of data
 UWI .     49025227900000:   Unique Well ID
 DICO. A2D TECHNOLOGIES, INC.:   Digitizing Company
 TLI .                620:   Top log interval
~OTHER INFORMATION
~A    DEPT      GRR      RILD       RILM       TENR   
# ...
  438.0000   112.2010     7.2020     7.8310   -40.4190
  438.5000   113.9150     7.2240     7.8310   -40.4190
  439.0000   116.3380     7.2460     7.8320   -40.4190
  439.5000   117.9040     7.2680     7.8320   -40.4190
  440.0000   118.9660     7.2760     7.8320   -40.4190
  440.5000   120.1450     7.2460     7.8320   -40.4190
  441.0000   121.3070     7.2110     7.8310   -40.4190
  441.5000   122.5880     7.1770     7.8320   -40.4190
  442.0000   122.1200     7.1420     7.7170   -40.4190
  442.5000   119.0810     7.0280     7.5550   -40.4190
  443.0000   115.9530     6.9070     7.3950   -40.4190
  443.5000   116.0040     6.7600     7.2360   -40.4190
  444.0000   118.6950     6.5990     7.0760   -40.4190
  444.5000   120.5160     6.3960     6.9160   -40.4190
  445.0000   120.7130     6.1670     6.7570   -40.4190
  445.5000   123.1640     6.0930     6.6300   -40.4190
  446.0000   125.2940     6.0230     6.5990   -40.4190
  446.5000   124.9210     5.9440     6.5680   -40.4190
  447.0000   122.1530     5.9440     6.5370   -40.4190
  447.5000   121.0410     5.8460     6.5160   -40.4190
  448.0000   119.3160     5.5340     6.5160   -40.4190
  448.5000   116.7160     5.2220     5.9630   -40.4190
  449.0000   117.1750     4.9110     5.4750   -40.4190
  449.5000   118.5200     4.5990     4.9870   -40.4190
  450.0000   118.5840     4.3490     4.5950   -40.4190
  450.5000   118.2170     4.3810     4.5950   -40.4190
  451.0000   118.4570     4.4220     4.5950   -40.4190
  451.5000   118.9030     4.4630     5.0240   -40.4190
  452.0000   117.6320     4.5120     5.3800   -40.4190
  452.5000   116.5090     4.7260     5.7350   -40.4190
  453.0000   115.4280     5.2390     6.0900   -40.4190
  453.5000   115.0460     5.7520     6.4460   -40.4190
  454.0000   116.8740     6.2660     6.8010   -40.4190
  454.5000   119.8210     6.7600     7.1440   -40.4190
  455.0000   119.9150     6.7600     7.4110   -40.4190
  455.5000   118.0200     6.6380     7.1900   -40.4190
  456.0000   113.1740     6.3600     6.9260   -40.4190
  456.5000   110.2350     6.0830     6.6620   -40.4190
  457.0000   109.6330     5.8050     6.3980   -40.4190
  457.5000   110.0300     5.5280     6.1350   -40.4190
  458.0000   114.7930     5.3230     5.8710   -40.4190
  458.5000   122.4650     5.3230     5.6250   -40.4190
  459.0000   126.4530     5.3710     5.6250   -40.4190
  459.5000   125.5870     5.4430     5.9180   -40.4190
  460.0000   116.8000     5.5230     6.3170   -40.4190
  460.5000   110.5070     5.8220     6.7160   -40.4190
  461.0000   111.3290     6.1620     7.1140   -40.4190
  461.5000   111.5200     6.5030     7.5130   -40.4190
  462.0000   109.6930     6.8430     7.9110   -40.4190
  462.5000   108.1220     7.1440     8.3100   -40.4190
  463.0000   106.0870     7.5180     8.4460   -40.4190
  463.5000   107.1640     7.6890     8.4700   -40.4190
  464.0000   109.5600     7.7400     8.4940   -40.4190
  464.5000   111.6570     7.8120     8.5180   -40.4190
  465.0000   111.4370     7.8850     8.5420   -40.4190
  465.5000   111.1390     7.9570     8.5660   -40.4190
  466.0000   113.0970     7.9770     8.5900   -40.4190
  466.5000   115.2910     7.9770     8.6140   -40.4190
  467.0000   114.2880     7.9770     8.6380   -40.4190
  467.5000   109.8530     7.9770     8.6620   -40.4190
  468.0000   105.5960     7.9770     8.6860   -40.4190
  468.5000   105.2650     8.0210     8.7100   -40.4190
  469.0000   105.2990     8.0680     8.7450   -40.4190
  469.5000   107.0020     8.1150     8.7320   -40.4190
  470.0000   108.6910     8.1620     8.7100   -40.4190
  470.5000   110.6620     8.2090     8.6880   -40.4190
  471.0000   112.4990     8.2550     8.6660   -40.3350
  471.5000   112.9490     8.2760     8.6440   -40.1060
  472.0000   109.7290     8.0080     8.6210   -39.8760
  472.5000   106.7330     7.7800     8.5990   -39.6470
  473.0000   103.6430     7.5490     8.4290   -39.4180
  473.5000   101.4500     6.8340     7.6600   -39.1880
  474.0000   105.5200     6.1070     6.8780   -38.9590
  474.5000   111.4850     5.5230     6.0960   -38.7290
  475.0000   116.8350     5.5940     5.5230   -38.5000
  475.5000   121.9120     5.7740     5.9380   -38.2710
  476.0000   117.9550     5.9530     6.6290   -38.0410
  476.5000   110.6480     6.1670     7.3200   -37.8120
  477.0000   103.0450     6.1670     8.0110   -37.5830
  477.5000   100.3290     6.8880     8.5650   -37.3530
  478.0000   103.4070     7.5980     9.1860   -37.1240
  478.5000   107.3270     8.4290     9.8070   -36.8950
  479.0000   109.5580     8.8370    10.4280   -36.6650
  479.5000   108.2630     9.7850    10.9030   -36.4360
  480.0000   106.4790    10.3570    10.7500   -36.2060
  480.5000   105.1140    10.4450    10.5660   -35.9770
  481.0000   104.5640    10.5330    10.3830   -35.7480
  481.5000   104.0770    10.6210    10.3180   -35.5180
  482.0000   103.5170    10.7050    11.5130   -35.2890
  482.5000   103.0990    11.7770    12.9150   -35.0600
  483.0000   101.8210    12.7930    14.3170   -34.8300
  483.5000    96.1050    13.8090    15.7190   -34.6010
  484.0000    83.9170    14.8250    17.1210   -34.3710
  484.5000    71.0480    15.8410    18.5220   -34.1420
  485.0000    62.0540    16.8560    19.9240   -33.9130
  485.5000    56.4830    17.9490    20.7300   -33.6830
  486.0000    56.0640    19.6360    20.6620   -33.4540
  486.5000    58.3880    19.6230    20.5940   -33.2250
  487.0000    59.7110    19.5800    20.5270   -32.9950
  487.5000    60.1430    19.5380    20.4590   -32.7660
  488.0000    60.8950    19.4950    20.3710   -32.5360
  488.5000    61.2570    19.4520    20.9500   -32.3070
  489.0000    63.0990    19.4090    22.3320   -32.0780
  489.5000    64.5290    19.3670    22.2690   -31.8480
  490.0000    64.7890    19.3240    22.0690   -31.6190
  490.5000    63.8770    19.2780    21.8680   -31.3900
  491.0000    63.0400    19.3470    21.6680   -31.1600
  491.5000    62.0490    19.4220    21.4670   -30.9310
  492.0000    61.6680    19.4970    21.1340   -30.7010
  492.5000    61.6730    19.5720    21.2690   -30.4720
  493.0000    61.6670    19.6360    21.6660   -30.2430
  493.5000    60.4050    20.7840    21.9260   -30.0130
  494.0000    58.6040    21.7880    24.6570   -29.7840
  494.5000    56.8540    22.7920    27.5390   -29.5550
  495.0000    55.0480    23.7960    30.4200   -29.3250
  495.5000    53.3840    24.2270    32.2560   -29.0960
  496.0000    51.3630    24.4790    30.2880   -28.8660
  496.5000    50.3440    24.7300    28.2470   -28.6370
  497.0000    50.9170    24.9370    26.2050   -28.4080
  497.5000    56.1780    24.3520    24.9370   -28.1780
  498.0000    60.7660    23.8550    24.4470   -27.9490
  498.5000    65.4650    23.3580    23.9470   -27.7200
  499.0000    65.5020    22.8610    23.4460   -27.4900
  499.5000    64.0120    22.3640    22.9460   -27.2610
  500.0000    62.4470    21.8670    22.4460   -27.0320
  500.5000    61.0350    21.3700    21.9460   -26.8020
  501.0000    59.5630    20.8720    21.4460   -26.5730
  501.5000    60.0840    20.3750    20.9460   -26.3430
  502.0000    63.7440    20.0000    20.3710   -26.1140
  502.5000    67.7070    19.8720    20.2300   -25.8850
  503.0000    69.0730    19.7210    20.0640   -25.6550
  503.5000    69.8570    19.5700    19.8980   -25.4260
  504.0000    71.5600    19.4190    19.7320   -25.1970
  504.5000    72.9080    19.2680    19.5660   -24.9670
  505.0000    72.2440    19.1180    19.3990   -24.7380
  505.5000    71.9210    18.9670    19.2330   -24.5080
  506.0000    71.0870    18.4120    19.0670   -24.2790
  506.5000    69.1450    17.2650    18.9270   -24.0500
  507.0000    68.3090    17.4380    19.5810   -23.8200
  507.5000    68.0590    17.9140    20.4430   -23.5910
  508.0000    68.5820    18.3900    21.3050   -23.3620
  508.5000    69.7330    18.5820    22.1660   -23.1320
  509.0000    71.8940    18.5820    23.0280   -22.9030
  509.5000    72.0400    18.5820    24.0360   -22.6730
  510.0000    70.5370    18.5820    24.0360   -22.4440
  510.5000    66.8630    18.5820    21.4970   -22.2150
