~VERSION INFORMATION
 VERS.                2.0:   CWLS LOG ASCII STANDARD - VERSION 2.0
 WRAP.                 NO:   ONE LINE PER DEPTH STEP
~WELL INFORMATION
#MNEM.UNIT      DATA TYPE    INFORMATION
#----------   ------------   ------------------------------
 STRT.F            4.5000:   START DEPTH
 STOP.F         3216.0000:   STOP DEPTH
 STEP.F            0.5000:   STEP LENGTH
 NULL.          -999.2500:   NO VALUE
 COMP. LAWRENCE ALLISON & ASSCOCIATES:   COMPANY
 WELL. LAWRENCE ALLISON #38-34:   WELL
 FLD . NAVAL PET. RES. NO. 3:   FIELD
 LOC .      S34 T39N R78W:   LOCATION
 CNTY.            NATRONA:   COUNTY
 STAT.            WYOMING:   STATE
 CTRY. UNITED STATES OF AMERICA:   COUNTRY
 SRVC.      DRESSER ATLAS:   SERVICE COMPANY
 DATE.        12-OCT-1986:   LOGDATE
 API .     49025111120000:   API NUMBER
~CURVE INFORMATION
#MNEM.UNIT       API CODE    CURVE DESCRIPTION
#----------   ------------   ------------------------------
 DEPT.F                  :   
 CALD.IN     45 280 60 00:   CALIPER FROM DENSITY LOG
 RHOB.G/C3   45 350 01 00:   BULK DENSITY
 CORR.G/C3   45 356 01 00:   DENSITY CORRECTION
 CNC .DEC    42 890 01 00:   NEUTRON POROSITY
 SPR .MV     07 010 01 00:   SPONTANEOUS POTENTIAL
 TENR.LBS    06 635 01 00:   TENSION FROM RESISTIVITY
 GRR .GAPI   07 310 01 00:   GAMMA RAY FROM RESISTIVITY
 ILD .OHMM   07 120 46 00:   DEEP INDUCTION RESISTIVITY
 ILM .OHMM   07 120 44 00:   INDUCTION LOG MEDIUM RESISTIVITY
 SFL .OHMM   07 220 01 00:   SHALLOW FOCUSED LOG RESISITIVITY
~PARAMETER INFORMATION
#MNEM.UNIT          VALUE    DESCRIPTION
#----------   ------------   ------------------------------
 EKB .F         5229.5000:   Kelly bushing
 EGL .F         5217.7000:   Ground level
 TD  .F         3200.0000:   Total depth
 CLNT.            A2DTECH:   Client Code
 SL  . 1338' FWL & 132' FSL:   Surface Location
 PD  .                 GL:   Permanent Datum
 EPD .F            5217.7:   Elevation Permanent Datum
 LMF .                 KB:   Log Measured From
 DMF .                 KB:   Drilling Measured From
 DAPD.F              11.8:   Feet Above Permanent Datum
 DATE.        12-OCT-1986:   Date Logged [DD-MMM-YYYY]
 DD  .F              3200:   Depth driller
 DL  .F              3200:   Depth logger
 BLI .F              3194:   Bottom log interval
 TLI .F                 0:   Top log interval
 CS1 .IN            8.625:   Casing size
 CBD1.      8.625" @ 668':   Casing driller 1
 CBL1.F               668:   Casing logger 1
 BS1 .IN            7.875:   Bit size
 BSD1.F              3200:   Depth drilled with bit1
 DFT .        KCL POLYMER:   Type fluid in hole
 DFD .                  9:   Density
 DFV .                 36:   Viscosity
 DFPH.                9.5:   pH
 MSS .           FLOWLINE:   Source of sample
 RMS .OHMM           0.25:   Rm
 MST .F                70:   Rm Meas. temp.
 RMF .OHMM          0.191:   Rmf
 MFST.F                70:   Rmf Meas. temp.
 MFSS.               MEAS:   Source Rmf.
 RMB .OHMM          0.132:   Rm. at BHT
 BHT .F               132:   BHT.
 TCS .HRS               3:   Time Circ. stopped
 MRT .F               132:   Maximum recorded temp.
 LUN .               6274:   Logging unit number
 ENGI.             RAUTIO:   Recorded By
 ORIG.   1" 2.5" 5" PRINT:   Origin of data
 UWI .     49025111120000:   Unique Well ID
 DICO. A2D TECHNOLOGIES, INC.:   Digitizing Company
 LUL .               CLIT:   Logging unit location
 RMC .OHMM           0.31:   Rmc
 MCST.F                70:   Rmc Meas. temp.
 MCSS.               CALC:   Source Rmc.
~OTHER INFORMATION
~A    DEPT    CALD       RHOB       CORR        CNC        SPR       TENR        GRR        ILD        ILM        SFL   
# ...
 1847.0000  -999.2500  -999.2500  -999.2500  -999.2500   -81.4828   -71.5591   119.0301     6.5336     6.7668     7.9994
 1847.5000  -999.2500  -999.2500  -999.2500  -999.2500   -81.4608   -71.6256   118.6951     6.1787     6.4354     8.1669
 1848.0000  -999.2500  -999.2500  -999.2500  -999.2500   -81.4388   -71.6920   116.6007     5.9249     6.0920     8.1635
 1848.5000  -999.2500  -999.2500  -999.2500  -999.2500   -81.4168   -71.7585   115.9895     5.8419     6.0066     7.8271
 1849.0000  -999.2500  -999.2500  -999.2500  -999.2500   -81.3948   -71.8249   116.5831     5.6804     5.9224     7.0984
 1849.5000  -999.2500  -999.2500  -999.2500  -999.2500   -81.3728   -71.8913   118.9839     5.6792     5.8394     6.3486
 1850.0000  -999.2500  -999.2500  -999.2500  -999.2500   -81.3508   -71.9578   120.1800     5.6781     5.7575     5.9199
 1850.5000  -999.2500  -999.2500  -999.2500  -999.2500   -81.3289   -72.0242   120.7741     5.7607     5.7564     5.9179
 1851.0000  -999.2500  -999.2500  -999.2500  -999.2500   -81.3069   -72.0906   121.3675     5.8359     5.7552     6.5211
 1851.5000  -999.2500  -999.2500  -999.2500  -999.2500   -81.2848   -72.1571   121.9609     5.9165     5.8361     6.9909
 1852.0000  -999.2500  -999.2500  -999.2500  -999.2500   -81.2632   -72.2235   121.9518     5.9328     6.0821     7.5035
 1852.5000  -999.2500  -999.2500  -999.2500  -999.2500   -81.2301   -72.2900   121.9428     6.1035     6.1878     7.8060
 1853.0000  -999.2500  -999.2500  -999.2500  -999.2500   -81.1815   -72.3564   121.2211     6.2513     6.4276     7.7834
 1853.5000  -999.2500  -999.2500  -999.2500  -999.2500   -81.1335   -72.4228   118.3302     6.4597     6.5382     7.5610
 1854.0000  -999.2500  -999.2500  -999.2500  -999.2500   -81.0851   -72.4893   113.0000     6.6061     6.6988     7.4789
 1854.5000  -999.2500  -999.2500  -999.2500  -999.2500   -81.0367   -72.5557   111.0648     6.6972     6.6972     7.7259
 1855.0000  -999.2500  -999.2500  -999.2500  -999.2500   -80.9892   -72.6221   116.8773     6.6958     6.6573     7.9014
 1855.5000  -999.2500  -999.2500  -999.2500  -999.2500   -80.9391   -72.6886   120.9395     6.6019     6.5107     7.8987
 1856.0000  -999.2500  -999.2500  -999.2500  -999.2500   -80.8931   -72.7550   124.6106     6.4192     6.4194     7.7869
 1856.5000  -999.2500  -999.2500  -999.2500  -999.2500   -80.8524   -72.8184   120.6639     6.3292     6.3291     7.6761
 1857.0000  -999.2500  -999.2500  -999.2500  -999.2500   -80.9146   -72.8361   119.4503     6.2405     6.2404     7.5675
 1857.5000  -999.2500  -999.2500  -999.2500  -999.2500   -80.9749   -72.8539   120.6463     6.2392     6.2392     7.3573
 1858.0000  -999.2500  -999.2500  -999.2500  -999.2500   -81.0405   -72.8716   122.4448     6.1518     6.2379     7.1530
 1858.5000  -999.2500  -999.2500  -999.2500  -999.2500   -81.1032   -72.8894   123.6408     6.0655     6.3241     6.9543
 1859.0000  -999.2500  -999.2500  -999.2500  -999.2500   -81.1661   -72.9071   124.2349     6.0643     6.3227     7.2483
 1859.5000  -999.2500  -999.2500  -999.2500  -999.2500   -81.2309   -72.9249   124.8283     6.1480     6.4100     7.3474
 1860.0000  -999.2500  -999.2500  -999.2500  -999.2500   -81.2508   -72.9426   124.2169     6.2329     6.4985     7.4478
 1860.5000  -999.2500  -999.2500  -999.2500  -999.2500   -81.2531   -72.9603   123.5703     6.3294     6.6860     7.3423
 1861.0000  -999.2500  -999.2500  -999.2500  -999.2500   -81.2486   -72.9781   121.6487     6.5116     6.7727     7.3398
 1861.5000  -999.2500  -999.2500  -999.2500  -999.2500   -81.2384   -72.9958   120.5761     6.6778     6.8662     7.4402
 1862.0000  -999.2500  -999.2500  -999.2500  -999.2500   -81.0518   -73.0136   121.3094     6.8649     6.8871     7.6476
 1862.5000  -999.2500  -999.2500  -999.2500  -999.2500   -80.8802   -73.0313   123.1424     6.9919     7.0571     7.7834
 1863.0000  -999.2500  -999.2500  -999.2500  -999.2500   -80.6960   -73.0491   123.5618     7.1930     7.0554     8.0067
 1863.5000  -999.2500  -999.2500  -999.2500  -999.2500   -80.5202   -73.0668   122.2114     7.2977     7.1531     8.1227
 1864.0000  -999.2500  -999.2500  -999.2500  -999.2500   -80.3422   -73.0845   119.0442     7.3531     7.1513     8.3557
 1864.5000  -999.2500  -999.2500  -999.2500  -999.2500   -80.1504   -73.1023   117.7951     7.2960     7.1498     8.5328
 1865.0000  -999.2500  -999.2500  -999.2500  -999.2500   -80.0008   -73.1200   117.8515     6.9518     7.1483     8.4611
 1865.5000  -999.2500  -999.2500  -999.2500  -999.2500   -79.9208   -73.1378   122.3087     6.7597     6.9504     8.1778
 1866.0000  -999.2500  -999.2500  -999.2500  -999.2500   -79.8271   -73.1555   126.5168     6.6649     6.8530     7.7325
 1866.5000  -999.2500  -999.2500  -999.2500  -999.2500   -79.7339   -73.1733   126.8003     6.7569     6.8516     7.6231
 1867.0000  -999.2500  -999.2500  -999.2500  -999.2500   -79.6433   -73.1910   121.6799     6.7556     6.8502     7.4114
 1867.5000  -999.2500  -999.2500  -999.2500  -999.2500   -79.5507   -73.2087   120.4663     6.8489     6.8488     7.2056
 1868.0000  -999.2500  -999.2500  -999.2500  -999.2500   -79.4594   -73.2265   120.4575     6.8474     6.8474     7.2031
 1868.5000  -999.2500  -999.2500  -999.2500  -999.2500   -79.3670   -73.2442   121.0512     6.8460     6.8461     7.2007
 1869.0000  -999.2500  -999.2500  -999.2500  -999.2500   -79.2764   -73.2620   120.3798     6.7476     6.8399     7.3041
 1869.5000  -999.2500  -999.2500  -999.2500  -999.2500   -79.1850   -73.2797   118.4273     6.5562     6.5440     7.5138
 1870.0000  -999.2500  -999.2500  -999.2500  -999.2500   -79.0868   -73.2975   115.4014     6.3587     6.2509     7.6226
 1870.5000  -999.2500  -999.2500  -999.2500  -999.2500   -79.0092   -73.3152   112.3101     6.0731     5.7353     7.7330
 1871.0000  -999.2500  -999.2500  -999.2500  -999.2500   -78.8993   -73.3330   109.2188     5.6332     4.8854     7.8144
 1871.5000  -999.2500  -999.2500  -999.2500  -999.2500   -78.7792   -73.3507   108.3479     4.6150     4.2598     7.7381
 1872.0000  -999.2500  -999.2500  -999.2500  -999.2500   -78.1067   -73.3684   114.3632     3.8630     3.6267     6.9166
 1872.5000  -999.2500  -999.2500  -999.2500  -999.2500   -77.5147   -73.3862   112.5954     3.2889     3.1358     5.3863
 1873.0000  -999.2500  -999.2500  -999.2500  -999.2500   -76.8977   -73.4039   111.9337     3.1351     3.1578     3.7180
 1873.5000  -999.2500  -999.2500  -999.2500  -999.2500   -76.4440   -73.4217   111.9247     3.2690     4.0693     3.4474
 1874.0000  -999.2500  -999.2500  -999.2500  -999.2500   -76.7528   -73.4394   111.9141     3.4880     5.3170     3.9436
 1874.5000  -999.2500  -999.2500  -999.2500  -999.2500   -77.0028   -73.4572   111.9053     3.8601     5.3904     5.2067
 1875.0000  -999.2500  -999.2500  -999.2500  -999.2500   -77.2921   -73.4749   113.1013     4.0802     5.4648     6.9712
 1875.5000  -999.2500  -999.2500  -999.2500  -999.2500   -77.5657   -73.4926   117.3094     4.2533     5.7764     7.7893
 1876.0000  -999.2500  -999.2500  -999.2500  -999.2500   -77.8407   -73.5104   119.1078     5.0251     6.1057     7.5730
 1876.5000  -999.2500  -999.2500  -999.2500  -999.2500   -78.1192   -73.5281   119.7015     6.0201     6.7289     7.0617
 1877.0000  -999.2500  -999.2500  -999.2500  -999.2500   -78.3948   -73.5459   120.2951     6.5429     7.1126     6.9618
 1877.5000  -999.2500  -999.2500  -999.2500  -999.2500   -78.6720   -73.5636   123.3975     6.4512     7.0128     7.1642
 1878.0000  -999.2500  -999.2500  -999.2500  -999.2500   -78.9483   -73.5814   127.5663     6.4498     6.9145     7.4583
 1878.5000  -999.2500  -999.2500  -999.2500  -999.2500   -79.2224   -73.5991   128.1001     6.4485     6.9131     7.3525
 1879.0000  -999.2500  -999.2500  -999.2500  -999.2500   -79.5039   -73.6168   122.0163     6.5461     6.9116     7.3280
 1879.5000  -999.2500  -999.2500  -999.2500  -999.2500   -79.7738   -73.6346   117.3436     6.7344     6.9102     7.3478
 1880.0000  -999.2500  -999.2500  -999.2500  -999.2500   -80.0250   -73.6523   115.2210     6.8134     6.9410     7.5874
