~VERSION INFORMATION
 VERS.                2.0:   CWLS LOG ASCII STANDARD - VERSION 2.0
 WRAP.                 NO:   ONE LINE PER DEPTH STEP
~WELL INFORMATION
#MNEM.UNIT      DATA TYPE    INFORMATION
#----------   ------------   ------------------------------
 STRT.F          196.0000:   START DEPTH
 STOP.F         3430.0000:   STOP DEPTH
 STEP.F            0.5000:   STEP LENGTH
 NULL.          -999.2500:   NO VALUE
 COMP.    FENIX $ SCISSON:   COMPANY
 WELL.   FENIX "A" #23-10:   WELL
 FLD .              N P R:   FIELD
 LOC .      S10 T38N R78W:   LOCATION
 CNTY.            NATRONA:   COUNTY
 STAT.            WYOMING:   STATE
 CTRY. UNITED STATES OF AMERICA:   COUNTRY
 SRVC.              WELEX:   SERVICE COMPANY
 DATE.        23-JUL-1977:   LOGDATE
 API .     49025103990000:   API NUMBER
~CURVE INFORMATION
#MNEM.UNIT       API CODE    CURVE DESCRIPTION
#----------   ------------   ------------------------------
 DEPT.F                  :   
 SPR .MV     07 010 01 00:   SPONTANEOUS POTENTIAL
 GURD.OHMM   07 220 05 00:   GUARD LOG RESISTIVITY
 FORX.OHMM   07 220 00 00:   FORMATION FACTOR
 NPHI.DEC    42 890 03 00:   NEUTRON POROSITY SANDSTONE
 CALD.IN     45 280 60 00:   CALIPER FROM DENSITY LOG
 CORR.G/C3   45 356 01 00:   DENSITY CORRECTION
 GRD .GAPI   45 310 01 00:   GAMMA RAY FROM DENSITY LOG
 RHOB.G/C3   45 350 01 00:   BULK DENSITY
~PARAMETER INFORMATION
#MNEM.UNIT          VALUE    DESCRIPTION
#----------   ------------   ------------------------------
 EKB .F         5251.0000:   Kelly bushing
 EGL .F         5241.0000:   Ground level
 EDF .F            0.0000:   Drilling floor
 EPD .F         5241.0000:   Permanent datum
 TD  .F         3430.0000:   Total depth
 DATE.        23-JUL-1977:   Date logged
 CLNT.            A2DTECH:   Client Code
 SL  . 1650' FNL & 990' FWL:   Surface Location
 PD  .                 GL:   Permanent Datum
 DD  .F              3430:   Depth driller
 DL  .F              3430:   Depth logger
 BLI .F              3428:   Bottom log interval
 CS1 .IN            8.625:   Casing size
 CBD1.      8.625" @ 220':   Casing driller 1
 BS1 .IN            7.875:   Bit size
 DFT .            KCL MUD:   Type fluid in hole
 DFD .                8.9:   Density
 DFV .                 33:   Viscosity
 DFPH.                  8:   pH
 DFL .                  8:   Fluid loss
 MSS .           FLOWLINE:   Source of sample
 RMS .OHMM            .49:   Rm
 MST .F                94:   Rm Meas. temp.
 RMF .OHMM            .46:   Rmf
 MFST.F                90:   Rmf Meas. temp.
 RMC .OHMM            .40:   Rmc
 MCST.F                90:   Rmc Meas. temp.
 MFSS.               FANN:   Source Rmf.
 RMB .OHMM            .15:   Rm. at BHT
 BHT .F               122:   BHT.
 TCS .HRS               6:   Time Circ. stopped
 MRT .F               122:   Maximum recorded temp.
 LUN .               8611:   Logging unit number
 LUL .             CASPER:   Logging unit location
 ENGI.            C. DOAK:   Recorded By
 WITN.      B. HARRINGTON:   Witnessed by
 ORIG.           5" PRINT:   Origin of data
 UWI .     49025103990000:   Unique Well ID
 DICO. A2D TECHNOLOGIES, INC.:   Digitizing Company
 DAPD.                 10:   Feet Above Permanent Datum
 BSD1.               3430:   Depth drilled with bit1
 MCSS.                KIT:   Source Rmc.
 TLI .                200:   Top log interval
~OTHER INFORMATION
~A   DEPT      SPR         GURD     FORX       NPHI       CALD       CORR        GRD       RHOB   
# ...
 3395.5000    -5.7840     1.6310     4.2500     0.3180     8.0240     0.0350   174.0070     2.4100
 3396.0000    -5.3920     1.5430     4.1330     0.3200     8.0200     0.0370   177.1060     2.4210
 3396.5000    -5.3820     1.4430     4.0590     0.3180     8.0160     0.0420   179.7720     2.4310
 3397.0000    -5.3880     1.3970     7.9720     0.3150     8.0120     0.0410   180.2790     2.4300
 3397.5000    -5.3900     1.6370    10.5580  -999.2500     8.0080     0.0350   180.2790     2.4410
 3398.0000    -5.3880     2.7310    47.2370  -999.2500     8.0040     0.0330   177.8880     2.4620
 3398.5000    -5.4330     4.4750    36.7850  -999.2500     8.0000     0.0330   110.5520     2.4820
 3399.0000    -5.5790     7.3100     9.2830  -999.2500     7.9960     0.0320    38.2600     2.4950
 3399.5000    -5.8040     7.4450     8.3140  -999.2500     7.9930     0.0310  -999.2500     2.4900
 3400.0000    -5.7880     4.6140    10.0840  -999.2500     7.9890     0.0310  -999.2500     2.4790
 3400.5000    -5.8060     3.0530     9.6810  -999.2500     7.9850     0.0300  -999.2500     2.4650
 3401.0000    -5.6080     3.2220     9.3690  -999.2500     7.9810     0.0300  -999.2500     2.4540
 3401.5000    -5.3960     3.3770     9.1980  -999.2500     7.9770     0.0320  -999.2500     2.4530
 3402.0000    -5.3960     3.2740     9.7200  -999.2500     7.9730     0.0370  -999.2500     2.4550
 3402.5000    -5.3920     3.1380    15.5330  -999.2500     7.9650     0.0420  -999.2500     2.4630
 3403.0000    -5.3920     3.7900    65.1630  -999.2500     7.9440     0.0480  -999.2500     2.4710
 3403.5000    -5.3920     4.5910    31.9730  -999.2500     7.9230     0.0530  -999.2500     2.4790
 3404.0000    -5.3920     5.1920     8.4680  -999.2500     7.9010     0.0580  -999.2500     2.4830
 3404.5000    -5.3920     3.4090    11.8980  -999.2500     7.8800     0.0630  -999.2500     2.4860
 3405.0000    -5.3920     3.7430     9.0310  -999.2500     7.8590     0.0610  -999.2500     2.4890
 3405.5000    -5.3920     4.2110     9.1140  -999.2500     7.8580     0.0590  -999.2500     2.4910
 3406.0000    -5.3920     3.8830     9.0310  -999.2500     7.8720     0.0560  -999.2500     2.4870
 3406.5000    -5.3920     3.5690    12.2310  -999.2500     7.8870     0.0540  -999.2500     2.4790
 3407.0000    -5.3930     4.1700    11.8400  -999.2500     7.9010     0.0520  -999.2500     2.4750
 3407.5000    -5.3910     4.7610    13.0480  -999.2500     7.9150     0.0490  -999.2500     2.4930
 3408.0000    -5.3830     5.2500    13.9110  -999.2500     7.9300     0.0470  -999.2500     2.4930
 3408.5000    -5.3950     5.2990    12.5230  -999.2500     7.9440     0.0450  -999.2500     2.4900
 3409.0000    -5.1480     5.2420    10.7540  -999.2500     7.9480     0.0410  -999.2500     2.4870
 3409.5000    -5.4120     5.1270    12.4220  -999.2500     7.9450     0.0440  -999.2500     2.4830
 3410.0000    -5.6590     5.0120    13.7830  -999.2500     7.9410     0.0470  -999.2500     2.4890
 3410.5000    -5.9640     4.9690    11.0480  -999.2500     7.9370     0.0500  -999.2500     2.4950
 3411.0000    -5.9910     5.2150     8.8660  -999.2500     7.9340     0.0530  -999.2500     2.4900
 3411.5000    -6.1400     4.3750     9.1140  -999.2500     7.9300     0.0490  -999.2500     2.4840
 3412.0000    -6.1810     3.7480     7.1770  -999.2500     7.9270     0.0460  -999.2500     2.4820
 3412.5000    -6.1780     3.1670    10.6340  -999.2500     7.9230     0.0420  -999.2500     2.4690
 3413.0000    -6.1760     3.0250    23.2750  -999.2500     7.9190     0.0380  -999.2500     2.4580
 3413.5000    -6.1770     3.1270    17.8830  -999.2500     7.9160     0.0340  -999.2500     2.4650
 3414.0000    -6.1880     6.1380    12.0080  -999.2500     7.9120     0.0310  -999.2500     2.4800
 3414.5000    -5.9660     5.9100    13.5320  -999.2500     7.9080     0.0340  -999.2500     2.4940
 3415.0000    -5.6080     5.3840    12.3440  -999.2500     7.9050     0.0370  -999.2500     2.5010
 3415.5000    -5.5820     5.0660    13.6590  -999.2500     7.9010     0.0400  -999.2500     2.5000
 3416.0000    -5.5880     5.1140    15.2500  -999.2500     7.8970     0.0430  -999.2500     2.4940
 3416.5000    -5.5850     5.1550    11.8980  -999.2500     7.8940     0.0450  -999.2500     2.4890
 3417.0000    -5.5790     5.1550    13.5320  -999.2500     7.8900     0.0480  -999.2500     2.4910
 3417.5000    -5.6640     5.1550    13.5320  -999.2500     7.8870     0.0500  -999.2500     2.4960
 3418.0000    -5.9630     5.1550    10.3660  -999.2500     7.8830     0.0530  -999.2500     2.5000
 3418.5000    -5.9820     4.1340    12.1550  -999.2500     7.8790     0.0550  -999.2500     2.5060
 3419.0000    -5.9820     4.3550    14.4320  -999.2500     7.8760     0.0570  -999.2500     2.5120
 3419.5000    -5.9800     4.8770    13.0440  -999.2500     7.8720     0.0600  -999.2500     2.5190
 3420.0000    -5.9800     5.2500    14.8350  -999.2500     7.8680     0.0620  -999.2500     2.5180
 3420.5000  -999.2500     5.1940    20.4650  -999.2500     7.8650     0.0650  -999.2500     2.5150
 3421.0000  -999.2500     5.1550    17.5000  -999.2500     7.8610     0.0670  -999.2500     2.5190
 3421.5000  -999.2500     6.0820    14.6990  -999.2500     7.8570     0.0690  -999.2500     2.5220
 3422.0000  -999.2500     5.8060    14.9720  -999.2500     7.8540     0.0710  -999.2500     2.5230
 3422.5000  -999.2500     5.4050    15.4820  -999.2500     7.8500     0.0710  -999.2500     2.5120
 3423.0000  -999.2500     5.0150    17.6660  -999.2500     7.8460     0.0700  -999.2500     2.5000
 3423.5000  -999.2500     6.4540    15.2500  -999.2500     7.8430     0.0700  -999.2500     2.4960
 3424.0000  -999.2500     7.8560    19.3670  -999.2500     7.8390     0.0690  -999.2500     2.5000
 3424.5000  -999.2500     9.2570    11.5480  -999.2500     7.8360     0.0690  -999.2500     2.5020
 3425.0000  -999.2500    10.7540    10.1770  -999.2500     7.8320     0.0680  -999.2500     2.4930
 3425.5000  -999.2500    10.8530    11.9630  -999.2500     7.8280     0.0680  -999.2500     2.4850
 3426.0000  -999.2500    10.1480    14.4320  -999.2500     7.8250     0.0670  -999.2500     2.4760
 3426.5000  -999.2500     8.8660     9.1140  -999.2500     7.8210     0.0700  -999.2500     2.4680
 3427.0000  -999.2500     9.7470    11.3120  -999.2500     7.8170     0.0790  -999.2500     2.4590
 3427.5000  -999.2500    10.7540    10.1560  -999.2500     7.8140     0.0950  -999.2500     2.4590
 3428.0000  -999.2500    11.0550     9.8100  -999.2500     7.8120     0.1100  -999.2500     2.4590
 3428.5000  -999.2500     6.0070     9.8100  -999.2500  -999.2500  -999.2500  -999.2500  -999.2500
 3429.0000  -999.2500     5.0150     9.8100  -999.2500  -999.2500  -999.2500  -999.2500  -999.2500
 3429.5000  -999.2500     5.0150     9.8100  -999.2500  -999.2500  -999.2500  -999.2500  -999.2500
 3430.0000  -999.2500     5.0150     9.8100  -999.2500  -999.2500  -999.2500  -999.2500  -999.2500
