~VERSION INFORMATION
 VERS.                2.0:   CWLS LOG ASCII STANDARD - VERSION 2.0
 WRAP.                 NO:   ONE LINE PER DEPTH STEP
~WELL INFORMATION
#MNEM.UNIT      DATA TYPE    INFORMATION
#----------   ------------   ------------------------------
 STRT.F           40.0000:   START DEPTH
 STOP.F         3326.0000:   STOP DEPTH
 STEP.F            0.5000:   STEP LENGTH
 NULL.          -999.2500:   NO VALUE
 COMP.    FENIX & SCISSON:   COMPANY
 WELL.  FENIX "AX" #53-15:   WELL
 FLD .              NPR-3:   FIELD
 LOC .      S15 T38N R78W:   LOCATION
 CNTY.            NATRONA:   COUNTY
 STAT.            WYOMING:   STATE
 CTRY. UNITED STATES OF AMERICA:   COUNTRY
 SRVC.              WELEX:   SERVICE COMPANY
 DATE.        02-MAR-1977:   LOGDATE
 API .     49025102640000:   API NUMBER
~CURVE INFORMATION
#MNEM.UNIT       API CODE    CURVE DESCRIPTION
#----------   ------------   ------------------------------
 DEPT.F                  :   
 CALD.IN     42 280 60 00:   CALIPER
 TEND.LBS    42 635 01 00:   TENSION FROM NEUTRON POROSITY LOG
 GRD .GAPI   42 310 30 00:   GAMMA RAY
 NPHI.DEC    42 890 03 00:   NEUTRON POROSITY SANDSTONE
 DPHI.DEC    45 890 12 00:   DENSITY POROSITY SANDSTONE
 SPR .MV     07 010 01 00:   SPONTANEOUS POTENTIAL
 ILD .OHMM   07 120 46 00:   DEEP INDUCTION RESISTIVITY
 ILM .OHMM   07 120 44 00:   INDUCTION LOG MEDIUM RESISTIVITY
 SGRD.OHMM   07 220 05 00:   SHALLOW SHORT GUARD RESISTIVITY
~PARAMETER INFORMATION
#MNEM.UNIT          VALUE    DESCRIPTION
#----------   ------------   ------------------------------
 EKB .F            0.0000:   Kelly bushing
 EGL .F         5251.0000:   Ground level
 EDF .F            0.0000:   Drilling floor
 TD  .F          750.0000:   Total depth
 DATE.        02-MAR-1977:   Date logged
 CLNT.            A2DTECH:   Client Code
 SL  . 1650' FNL & 2360' FEL:   Surface Location
 PD  .                 GL:   Permanent Datum
 EPD .F              5253:   Elevation Permanent Datum
 LMF .                 GL:   Log Measured From
 DMF .                 GL:   Drilling Measured From
 DD  .F               750:   Depth driller
 DL  .F               747:   Depth logger
 BLI .F               745:   Bottom log interval
 CS1 .IN            8.625:   Casing size
 CBD1.       8.625" @ 40':   Casing driller 1
 CBL1.F                44:   Casing logger 1
 BS1 .IN            7.875:   Bit size
 BSD1.F               750:   Depth drilled with bit1
 DFT .           CHEM-GEL:   Type fluid in hole
 MSS .           FLOWLINE:   Source of sample
 RMS .OHMM          0.425:   Rm
 MST .F                56:   Rm Meas. temp.
 RMF .OHMM          0.466:   Rmf
 MFST.F                56:   Rmf Meas. temp.
 RMC .OHMM          0.712:   Rmc
 MCST.F                56:   Rmc Meas. temp.
 MFSS.               MEAS:   Source Rmf.
 MCSS.               MEAS:   Source Rmc.
 RMB .OHMM          0.350:   Rm. at BHT
 BHT .F                68:   BHT.
 TCS .HRS               2:   Time Circ. stopped
 MRT .F                68:   Maximum recorded temp.
 LUN .               8611:   Logging unit number
 LUL .            GILLETH:   Logging unit location
 ENGI.          D. LAWSON:   Recorded By
 WITN.           S. BURKL:   Witnessed by
 ORIG.           5" PRINT:   Origin of data
 UWI .     49025102640000:   Unique Well ID
 DICO. A2D TECHNOLOGIES, INC.:   Digitizing Company
~OTHER INFORMATION
~A   DEPT     CALD       TEND         GRD        NPHI     DPHI        SPR        ILD        ILM       SGRD   
# ...
 1098.5000     8.3700   274.0130   112.2100     0.3160     0.0900  -999.2500  -999.2500  -999.2500  -999.2500
 1099.0000     8.3700   268.1720   109.5880     0.3120     0.0840  -999.2500  -999.2500  -999.2500  -999.2500
 1099.5000     8.3700   262.3310   107.4110     0.3110     0.0880  -999.2500  -999.2500  -999.2500  -999.2500
 1100.0000     8.3700   256.4910   108.9330     0.3180     0.0900  -999.2500  -999.2500  -999.2500  -999.2500
 1100.5000     8.3700   256.6990   105.9230     0.3250     0.0920  -999.2500  -999.2500  -999.2500  -999.2500
 1101.0000     8.3680   259.4850   107.8770     0.3330     0.0930  -999.2500  -999.2500  -999.2500  -999.2500
 1101.5000     8.3650   262.2710   111.9250     0.3320     0.0910  -999.2500  -999.2500  -999.2500  -999.2500
 1102.0000     8.3630   265.0570   116.6760     0.3270     0.0830  -999.2500  -999.2500  -999.2500  -999.2500
 1102.5000     8.3610   267.8430   111.7080     0.3220     0.0740  -999.2500  -999.2500  -999.2500  -999.2500
 1103.0000     8.3590   270.6290   111.1380     0.3190     0.0740  -999.2500  -999.2500  -999.2500  -999.2500
 1103.5000     8.3560   273.4150   111.6650     0.3160     0.0860  -999.2500  -999.2500  -999.2500  -999.2500
 1104.0000     8.3540   276.2020   112.1710     0.3160     0.0900  -999.2500  -999.2500  -999.2500  -999.2500
 1104.5000     8.3520   278.9880   112.0940     0.3130     0.0950  -999.2500  -999.2500  -999.2500  -999.2500
 1105.0000     8.3550   281.7740   114.2180     0.3150     0.1010  -999.2500  -999.2500  -999.2500  -999.2500
 1105.5000     8.3780   284.7150   116.5590     0.3140     0.1010  -999.2500  -999.2500  -999.2500  -999.2500
 1106.0000     8.4010   283.6970   115.1300     0.3120     0.0950  -999.2500  -999.2500  -999.2500  -999.2500
 1106.5000     8.4240   282.6180   111.8460     0.3160     0.0890  -999.2500  -999.2500  -999.2500  -999.2500
 1107.0000     8.4460   281.5400   114.4000     0.3190     0.0930  -999.2500  -999.2500  -999.2500  -999.2500
 1107.5000     8.4690   280.4610   116.0390     0.3210     0.0950  -999.2500  -999.2500  -999.2500  -999.2500
 1108.0000     8.4900   279.3830   117.8330     0.3230     0.0940  -999.2500  -999.2500  -999.2500  -999.2500
 1108.5000     8.4900   278.3040   116.0480     0.3260     0.0910  -999.2500  -999.2500  -999.2500  -999.2500
 1109.0000     8.4900   277.2260   112.9240     0.3300     0.0830  -999.2500  -999.2500  -999.2500  -999.2500
 1109.5000     8.4900   276.1480   113.8420     0.3350     0.0830  -999.2500  -999.2500  -999.2500  -999.2500
 1110.0000     8.4900   275.0690   115.2900     0.3410     0.0860  -999.2500  -999.2500  -999.2500  -999.2500
 1110.5000     8.4900   273.9910   115.1590     0.3440     0.0920  -999.2500  -999.2500  -999.2500  -999.2500
 1111.0000     8.4900   272.9120   114.7920     0.3460     0.1010  -999.2500  -999.2500  -999.2500  -999.2500
 1111.5000     8.4900   271.8340   114.2990     0.3450     0.0960  -999.2500  -999.2500  -999.2500  -999.2500
 1112.0000     8.4900   270.7550   110.5610     0.3390     0.0890  -999.2500  -999.2500  -999.2500  -999.2500
 1112.5000     8.4900   269.6770   107.4290     0.3290     0.0950  -999.2500  -999.2500  -999.2500  -999.2500
 1113.0000     8.4900   268.5980   112.6940     0.3210     0.0950  -999.2500  -999.2500  -999.2500  -999.2500
 1113.5000     8.4900   267.5200   115.3360     0.3210     0.0990  -999.2500  -999.2500  -999.2500  -999.2500
 1114.0000     8.4900   266.4410   116.0600     0.3200     0.0960  -999.2500  -999.2500  -999.2500  -999.2500
 1114.5000     8.4900   265.3630   111.7100     0.3190     0.0940  -999.2500  -999.2500  -999.2500  -999.2500
 1115.0000     8.4870   264.7350   115.4090     0.3200     0.1000  -999.2500  -999.2500  -999.2500  -999.2500
 1115.5000     8.4750   264.7350   112.3570     0.3210     0.1020  -999.2500  -999.2500  -999.2500  -999.2500
 1116.0000     8.4630   264.7350   113.6700     0.3200     0.0900  -999.2500  -999.2500  -999.2500  -999.2500
 1116.5000     8.4510   264.7350   118.4210     0.3180     0.0810  -999.2500  -999.2500  -999.2500  -999.2500
 1117.0000     8.4390   264.7350   115.3220     0.3200     0.0720  -999.2500  -999.2500  -999.2500  -999.2500
 1117.5000     8.4270   265.6140   113.0450     0.3260     0.0690  -999.2500  -999.2500  -999.2500  -999.2500
 1118.0000     8.4160   267.6200   111.5910     0.3330     0.0660  -999.2500  -999.2500  -999.2500  -999.2500
 1118.5000     8.4100   269.6260   112.0370     0.3310     0.0680  -999.2500  -999.2500  -999.2500  -999.2500
 1119.0000     8.4100   271.6320   119.2020     0.3260     0.0720  -999.2500  -999.2500  -999.2500  -999.2500
 1119.5000     8.4100   273.6380   111.7560     0.3220     0.0790  -999.2500  -999.2500  -999.2500  -999.2500
 1120.0000     8.4100   274.2150   113.6050     0.3180     0.0900  -999.2500  -999.2500  -999.2500  -999.2500
 1120.5000     8.3890   273.1000   112.3270     0.3160     0.1060  -999.2500  -999.2500  -999.2500  -999.2500
 1121.0000     8.3520   271.9860   107.8760     0.3140     0.1210  -999.2500  -999.2500  -999.2500  -999.2500
 1121.5000     8.3130   270.8710   105.7090     0.3130     0.1420  -999.2500  -999.2500  -999.2500  -999.2500
 1122.0000     8.4120   269.7570   114.1310     0.3020     0.1360  -999.2500  -999.2500  -999.2500  -999.2500
 1122.5000     8.5370   268.6420   117.2420     0.2900     0.0920  -999.2500  -999.2500  -999.2500  -999.2500
 1123.0000     8.3710   267.5280   116.1710     0.2850     0.0850  -999.2500  -999.2500  -999.2500  -999.2500
 1123.5000     8.2670   266.4140   116.6000     0.2860     0.0830  -999.2500  -999.2500  -999.2500  -999.2500
 1124.0000     8.2510   265.2990   109.7050     0.2870     0.0940  -999.2500  -999.2500  -999.2500  -999.2500
 1124.5000     8.2500   266.2840   112.7050     0.2810     0.0860  -999.2500  -999.2500  -999.2500  -999.2500
 1125.0000     8.2500   269.4180   114.6760     0.2810     0.0990  -999.2500  -999.2500  -999.2500  -999.2500
 1125.5000     8.2500   272.5520   113.2110     0.2890     0.0940  -999.2500  -999.2500  -999.2500  -999.2500
 1126.0000     8.2500   275.6870   106.9950     0.2990     0.0970  -999.2500  -999.2500  -999.2500  -999.2500
 1126.5000     8.2500   278.8210   109.1510     0.2970     0.1030  -999.2500  -999.2500  -999.2500  -999.2500
 1127.0000     8.2500   281.9560   113.6900     0.3110     0.0980  -999.2500  -999.2500  -999.2500  -999.2500
 1127.5000     8.2500   284.4710   114.5720     0.3120     0.0910  -999.2500  -999.2500  -999.2500  -999.2500
 1128.0000     8.2500   282.4240   107.6140     0.3110     0.0880  -999.2500  -999.2500  -999.2500  -999.2500
 1128.5000     8.2500   280.3770   108.4600     0.3070     0.0810  -999.2500  -999.2500  -999.2500  -999.2500
 1129.0000     8.2500   278.3300   111.6400     0.3070     0.0830  -999.2500  -999.2500  -999.2500  -999.2500
 1129.5000     8.2500   276.2830   112.7900     0.3140     0.0840  -999.2500  -999.2500  -999.2500  -999.2500
 1130.0000     8.2500   274.2360   106.6270     0.3150     0.0800  -999.2500  -999.2500  -999.2500  -999.2500
 1130.5000     8.2500   272.1890   103.0020     0.2980     0.0720  -999.2500  -999.2500  -999.2500  -999.2500
 1131.0000     8.2500   270.1420   105.9790     0.2930     0.0690  -999.2500  -999.2500  -999.2500  -999.2500
 1131.5000     8.2500   268.0950   107.0260     0.2890     0.0660  -999.2500  -999.2500  -999.2500  -999.2500
 1132.0000     8.2500   266.0480   104.0060     0.2880     0.0660  -999.2500  -999.2500  -999.2500  -999.2500
 1132.5000     8.2500   268.3320   105.8910     0.2890     0.0690  -999.2500  -999.2500  -999.2500  -999.2500
 1133.0000     8.2500   278.3620   103.3690     0.2900     0.0670  -999.2500  -999.2500  -999.2500  -999.2500
 1133.5000     8.2710   288.3920   108.6590     0.2930     0.0740  -999.2500  -999.2500  -999.2500  -999.2500
 1134.0000     8.3010   294.1890   114.3940     0.2930     0.0830  -999.2500  -999.2500  -999.2500  -999.2500
 1134.5000     8.3300   292.7960   109.6980     0.2970     0.0870  -999.2500  -999.2500  -999.2500  -999.2500
