~VERSION INFORMATION
 VERS.                2.0:   CWLS LOG ASCII STANDARD - VERSION 2.0
 WRAP.                 NO:   ONE LINE PER DEPTH STEP
~WELL INFORMATION
#MNEM.UNIT      DATA TYPE    INFORMATION
#----------   ------------   ------------------------------
 STRT.F            9.5000:   START DEPTH
 STOP.F         3154.0000:   STOP DEPTH
 STEP.F            0.5000:   STEP LENGTH
 NULL.          -999.2500:   NO VALUE
 COMP. LAWRENCE ALISON AND ASSOCIATES:   COMPANY
 WELL. LAWRENCE "X" #86-3:   WELL
 FLD .          N.P.R. #3:   FIELD
 LOC .       S3 T38N R78W:   LOCATION
 CNTY.            NATRONA:   COUNTY
 STAT.            WYOMING:   STATE
 CTRY. UNITED STATES OF AMERICA:   COUNTRY
 SRVC.       DRESSER ALAS:   SERVICE COMPANY
 DATE.        13-JUN-1986:   LOGDATE
 API .     49025110920000:   API NUMBER
~CURVE INFORMATION
#MNEM.UNIT       API CODE    CURVE DESCRIPTION
#----------   ------------   ------------------------------
 DEPT.F                  :   
 CALD.IN     45 280 60 00:   CALIPER FROM DENSITY LOG
 RHOB.G/C3   45 350 01 00:   BULK DENSITY
 CORR.G/C3   45 356 01 00:   DENSITY CORRECTION
 CNC .DEC    42 890 03 00:   NEUTRON PORISITY LIMESTONE
 SPR .MV     07 010 01 00:   SPONTANEOUS POTENTIAL
 GRR .GAPI   07 310 01 00:   GAMMA RAY FROM RESISTIVITY
 RFOC.OHMM   07 220 04 00:   RESISTIVITY FOCUSED LOG RES.
 ILD .OHMM   07 120 46 00:   DEEP INDUCTION RESISTIVITY
 ILM .OHMM   07 120 44 00:   INDUCTION LOG MEDIUM RESISTIVITY
 TENR.LBS    07 635 01 00:   TENSION FROM RESISTIVITY
~PARAMETER INFORMATION
#MNEM.UNIT          VALUE    DESCRIPTION
#----------   ------------   ------------------------------
 EKB .F         5153.0000:   Kelly bushing
 EGL .F         5142.0000:   Ground level
 EDF .F         5151.0000:   Drilling floor
 TD  .F         3151.0000:   Total depth
 DATE.        13-JUN-1986:   Date logged
 CLNT.            A2DTECH:   Client Code
 SL  . 1450' FSL & 144' FEL:   Surface Location
 PD  .                 GL:   Permanent Datum
 EPD .F              5142:   Elevation Permanent Datum
 LMF .                 KB:   Log Measured From
 DMF .                 KB:   Drilling Measured From
 DAPD.F                11:   Feet Above Permanent Datum
 DD  .F              3151:   Depth driller
 DL  .F              3151:   Depth logger
 BLI .F              3146:   Bottom log interval
 TLI .F                11:   Top log interval
 CS1 .IN            8.625:   Casing size
 CBD1.      8.625" @ 584':   Casing driller 1
 CBL1.F               592:   Casing logger 1
 BS1 .IN            7.875:   Bit size
 BSD1.F              3151:   Depth drilled with bit1
 DFT .            KCL-GEL:   Type fluid in hole
 DFD .                8.8:   Density
 DFV .                 35:   Viscosity
 DFPH.                8.5:   pH
 DFL .               15.5:   Fluid loss
 MSS .           FLOWLINE:   Source of sample
 RMS .OHMM           0.49:   Rm
 MST .F                80:   Rm Meas. temp.
 RMF .OHMM           0.38:   Rmf
 MFST.F                80:   Rmf Meas. temp.
 RMC .OHMM           0.61:   Rmc
 MCST.F                80:   Rmc Meas. temp.
 MFSS.               MEAS:   Source Rmf.
 MCSS.               CALC:   Source Rmc.
 RMB .OHMM           0.37:   Rm. at BHT
 BHT .F               112:   BHT.
 TCS .HRS            0.37:   Time Circ. stopped
 MRT .F               112:   Maximum recorded temp.
 LUN .            HL-6274:   Logging unit number
 LUL .           GILLETTE:   Logging unit location
 WITN.             STRONG:   Witnessed by
 ORIG.           5" PRINT:   Origin of data
 UWI .     49025110920000:   Unique Well ID
 DICO. A2D TECHNOLOGIES, INC.:   Digitizing Company
~OTHER INFORMATION
~A    DEPT    CALD       RHOB       CORR        CNC        SPR        GRR       RFOC        ILD        ILM       TENR   
# ...
 2254.0000  -999.2500  -999.2500  -999.2500  -999.2500   -88.1486   132.0718     4.1669     4.8116     4.1097   -46.8584
 2254.5000  -999.2500  -999.2500  -999.2500  -999.2500   -88.1509   120.5798     4.4451     4.7664     4.1474   -56.7313
 2255.0000  -999.2500  -999.2500  -999.2500  -999.2500   -87.8707   108.4861     7.3873     4.7218     4.1470   -56.5346
 2255.5000  -999.2500  -999.2500  -999.2500  -999.2500   -87.5574   102.6393     7.9536     4.1850     4.0702   -56.3379
 2256.0000  -999.2500  -999.2500  -999.2500  -999.2500   -87.5605   103.4409     8.2520     3.9580     3.6750   -56.1413
 2256.5000  -999.2500  -999.2500  -999.2500  -999.2500   -87.5643   110.0769     7.0513     3.7088     3.2572   -76.0828
 2257.0000  -999.2500  -999.2500  -999.2500  -999.2500   -87.5682   114.5016     5.0556     3.5076     2.9683   -65.8169
 2257.5000  -999.2500  -999.2500  -999.2500  -999.2500   -87.5720   115.3006     3.5580     3.2563     2.9407   -55.5513
 2258.0000  -999.2500  -999.2500  -999.2500  -999.2500   -86.7709   110.0564     3.2738     3.1668     2.9403   -55.3546
 2258.5000  -999.2500  -999.2500  -999.2500  -999.2500   -87.5798   106.0207     3.3040     2.8592     2.8328   -55.1579
 2259.0000  -999.2500  -999.2500  -999.2500  -999.2500   -87.7835   103.5965     3.9738     2.7041     2.7804   -54.9613
 2259.5000  -999.2500  -999.2500  -999.2500  -999.2500   -88.3932   106.8127     4.4806     2.6053     2.7545   -54.7646
 2260.0000  -999.2500  -999.2500  -999.2500  -999.2500   -88.1964   112.8478     5.0986     2.6051     2.7473   -54.5680
 2260.5000  -999.2500  -999.2500  -999.2500  -999.2500   -87.7974   117.2742     4.1603     2.6048     2.7401   -54.3714
 2261.0000  -999.2500  -999.2500  -999.2500  -999.2500   -87.1984   119.2819     4.0837     2.6045     2.7329   -64.2429
 2261.5000  -999.2500  -999.2500  -999.2500  -999.2500   -87.4014   116.4548     3.8630     2.6284     2.7277   -64.0068
 2262.0000  -999.2500  -999.2500  -999.2500  -999.2500   -87.6067   113.6277     3.5874     2.6037     2.7274   -63.8101
 2262.5000  -999.2500  -999.2500  -999.2500  -999.2500   -87.8129   111.6049     3.1228     2.6036     2.7271   -63.6134
 2263.0000  -999.2500  -999.2500  -999.2500  -999.2500   -88.2181   115.2243     3.4885     2.6275     2.7522   -73.4844
 2263.5000  -999.2500  -999.2500  -999.2500  -999.2500   -88.4234   120.4555     4.0065     2.7264     2.8824   -53.1523
 2264.0000  -999.2500  -999.2500  -999.2500  -999.2500   -88.8302   122.8663     4.0807     2.7516     3.0753   -52.9557
 2264.5000  -999.2500  -999.2500  -999.2500  -999.2500   -89.4399   125.2771     4.0427     3.0184     3.2813   -42.6916
 2265.0000  -999.2500  -999.2500  -999.2500  -999.2500   -89.6453   125.2704     4.2726     3.1613     3.6331   -51.7161
 2265.5000  -999.2500  -999.2500  -999.2500  -999.2500   -89.8506   128.4872     4.9985     3.5331     3.8405   -60.7407
 2266.0000  -999.2500  -999.2500  -999.2500  -999.2500   -89.8545   130.0923     5.6356     3.8400     4.0972   -72.2248
 2266.5000  -999.2500  -999.2500  -999.2500  -999.2500   -89.6577   133.3092     6.0112     4.2123     4.4122   -62.0397
 2267.0000  -999.2500  -999.2500  -999.2500  -999.2500   -89.2586   128.4672     5.3799     4.3713     4.6212   -51.7761
 2267.5000  -999.2500  -999.2500  -999.2500  -999.2500   -89.1420   122.8191     5.4290     4.7953     5.0695   -51.5795
 2268.0000  -999.2500  -999.2500  -999.2500  -999.2500   -89.0254   118.7828     6.0647     4.9758     5.1162   -51.3829
 2268.5000  -999.2500  -999.2500  -999.2500  -999.2500   -88.4635   111.1198     6.9649     5.0217     5.1633   -51.1863
 2269.0000  -999.2500  -999.2500  -999.2500  -999.2500   -88.4658   108.2908     7.0289     5.0209     5.1625   -40.8839
 2269.5000  -999.2500  -999.2500  -999.2500  -999.2500   -88.6863   110.2988     6.8359     5.0203     5.2101   -40.6874
 2270.0000  -999.2500  -999.2500  -999.2500  -999.2500   -88.9067   113.5157     6.5266     5.0196     5.2095   -40.4909
 2270.5000  -999.2500  -999.2500  -999.2500  -999.2500   -89.1272   124.3893     5.8411     5.0191     5.2572   -40.2945
 2271.0000  -999.2500  -999.2500  -999.2500  -999.2500   -89.8963   131.6376     5.4747     5.0185     5.3055   -50.1642
 2271.5000  -999.2500  -999.2500  -999.2500  -999.2500   -89.8979   136.8697     5.7859     5.0179     5.3540   -49.9676
 2272.0000  -999.2500  -999.2500  -999.2500  -999.2500   -89.8994   138.0708     5.4230     5.0173     5.4540   -59.8371
 2272.5000  -999.2500  -999.2500  -999.2500  -999.2500   -89.6415   126.3774     5.5234     5.1580     5.5553   -59.6404
 2273.0000  -999.2500  -999.2500  -999.2500  -999.2500   -89.1036   117.9077     6.1133     5.4021     5.8722   -59.4438
 2273.5000  -999.2500  -999.2500  -999.2500  -999.2500   -88.9044   112.4622     6.8289     5.7105     6.1497   -49.1815
 2274.0000  -999.2500  -999.2500  -999.2500  -999.2500   -88.7075   115.0731     7.5584     6.2065     6.3230   -58.9325
 2274.5000  -999.2500  -999.2500  -999.2500  -999.2500   -88.7114   115.8723     7.9150     6.4403     6.6219   -48.7884
 2275.0000  -999.2500  -999.2500  -999.2500  -999.2500   -88.5145   113.4475     8.5995     6.8711     7.3318   -48.5919
 2275.5000  -999.2500  -999.2500  -999.2500  -999.2500   -88.5176   110.6195     8.9220     7.3987     7.6786   -48.3954
 2276.0000  -999.2500  -999.2500  -999.2500  -999.2500   -88.5222   109.4022     9.2563     7.5366     7.8213   -48.1988
 2276.5000  -999.2500  -999.2500  -999.2500  -999.2500   -88.5268   114.2317     8.5169     7.6765     7.8201   -48.0023
 2277.0000  -999.2500  -999.2500  -999.2500  -999.2500   -88.5307   113.0157     8.3600     7.6761     7.8193   -57.8315
 2277.5000  -999.2500  -999.2500  -999.2500  -999.2500   -88.5338   108.9786     8.0558     7.7468     7.7884   -57.6348
 2278.0000  -999.2500  -999.2500  -999.2500  -999.2500   -88.5376   106.5535     8.5137     8.1124     7.7576   -47.3735
 2278.5000  -999.2500  -999.2500  -999.2500  -999.2500   -88.5423   105.3374     8.8329     8.2632     7.7269   -47.1769
 2279.0000  -999.2500  -999.2500  -999.2500  -999.2500   -88.5446   112.1823     9.8666     8.2625     7.6963   -46.9805
 2279.5000  -999.2500  -999.2500  -999.2500  -999.2500   -88.7500   117.0121     9.6853     8.3380     7.6659   -46.7840
 2280.0000  -999.2500  -999.2500  -999.2500  -999.2500   -88.7538   119.8240     9.2468     8.4150     7.6356   -46.5875
 2280.5000  -999.2500  -999.2500  -999.2500  -999.2500   -88.7593   119.8199     8.9105     8.4137     7.5975   -46.3911
 2281.0000  -999.2500  -999.2500  -999.2500  -999.2500   -88.7631   120.6193     8.7463     8.4130     7.6678   -46.1945
 2281.5000  -999.2500  -999.2500  -999.2500  -999.2500   -88.7678   122.6278     8.7452     8.4115     7.7383   -45.9981
 2282.0000  -999.2500  -999.2500  -999.2500  -999.2500   -88.7701   124.2334     9.0729     8.4109     7.7371   -45.8016
 2282.5000  -999.2500  -999.2500  -999.2500  -999.2500   -88.9755   127.0482     9.3268     8.4091     7.7369   -45.6052
 2283.0000  -999.2500  -999.2500  -999.2500  -999.2500   -89.1824   125.8323     9.4123     8.2538     7.6712   -45.4087
 2283.5000  -999.2500  -999.2500  -999.2500  -999.2500   -89.1848   125.0194     9.9465     8.1008     7.6062   -35.1486
 2284.0000  -999.2500  -999.2500  -999.2500  -999.2500   -89.9963   124.2065     9.8538     8.0999     7.5417   -34.9522
 2284.5000  -999.2500  -999.2500  -999.2500  -999.2500   -90.0002   130.2448     9.4080     8.0244     7.4777   -34.7166
 2285.0000  -999.2500  -999.2500  -999.2500  -999.2500   -90.0041   129.4333     8.4982     7.9489     7.4143   -44.5836
 2285.5000  -999.2500  -999.2500  -999.2500  -999.2500   -90.0080   127.0054     8.0391     7.8746     7.3799   -44.3872
 2286.0000  -999.2500  -999.2500  -999.2500  -999.2500   -89.8126   118.9393     7.9640     7.8736     7.2431   -44.1907
 2286.5000  -999.2500  -999.2500  -999.2500  -999.2500   -89.4001   110.8690     8.6530     7.9459     7.4467   -54.0573
 2287.0000  -999.2500  -999.2500  -999.2500  -999.2500   -88.8126   112.0715     8.8952     8.0935     7.6557   -43.7979
