~VERSION INFORMATION
 VERS.                2.0:   CWLS LOG ASCII STANDARD - VERSION 2.0
 WRAP.                 NO:   ONE LINE PER DEPTH STEP
~WELL INFORMATION
#MNEM.UNIT      DATA TYPE    INFORMATION
#----------   ------------   ------------------------------
 STRT.F            0.5000:   START DEPTH
 STOP.F         4256.0000:   STOP DEPTH
 STEP.F            0.5000:   STEP LENGTH
 NULL.          -999.2500:   NO VALUE
 COMP. LAWRENCE-ALLISON & ASSOC:   COMPANY
 WELL. LAWRENCE "X" #64-15:   WELL
 FLD .        N.P.R. NO.3:   FIELD
 LOC .      S15 T38N R78W:   LOCATION
 CNTY.            NATRONA:   COUNTY
 STAT.            WYOMING:   STATE
 CTRY. UNITED STATES OF AMERICA:   COUNTRY
 SRVC.      DRESSER ATLAS:   SERVICE COMPANY
 DATE.        13-SEP-1984:   LOGDATE
 API .     49025111610000:   API NUMBER
~CURVE INFORMATION
#MNEM.UNIT       API CODE    CURVE DESCRIPTION
#----------   ------------   ------------------------------
 DEPT.F                  :   
 TENR.LBS    07 635 01 00:   TENSION FROM RESISTIVITY
 GRR .GAPI   07 310 01 00:   GAMMA RAY FROM RESISTIVITY
 RFOC.OHMM   07 220 04 00:   RESISTIVITY FOCUSED LOG RES.
 RILD.OHMM   07 120 46 00:   DEEP INDUCTION RESISTIVITY
 RILM.OHMM   07 120 44 00:   INDUCTION LOG MEDIUM RESISTIVITY
 SPR .MV     07 010 01 00:   SPONTANEOUS POTENTIAL
 DT  .US/F   60 520 00 00:   DELTA TIME
 TENS.LBS    60 635 01 00:   TENSION FROM SONIC
 CALD.IN     45 280 60 00:   CALIPER FROM DENSITY LOG
 TEND.LBS    45 635 01 00:   TENSION FORM DENSITY LOG
 CORR.G/C3   45 356 01 00:   DENSITY CORRECTION
 DEN .G/C3   45 350 01 00:   BULK DENSITY
 CNC .DEC    42 890 03 00:   NEUTRON POROSITY SANDSTONE
~PARAMETER INFORMATION
#MNEM.UNIT          VALUE    DESCRIPTION
#----------   ------------   ------------------------------
 EKB .F         5294.0000:   Kelly bushing
 EGL .F         5282.0000:   Ground level
 TD  .F         4256.0000:   Total depth
 CLNT.            A2DTECH:   Client Code
 SL  . 2299' FNL & 1785' FEL:   Surface Location
 PD  .                 GL:   Permanent Datum
 EPD .F              5282:   Elevation Permanent Datum
 LMF .                 KB:   Log Measured From
 DMF .                 KB:   Drilling Measured From
 DAPD.F                12:   Feet Above Permanent Datum
 DATE.        13-SEP-1984:   Date Logged [DD-MMM-YYYY]
 DD  .F              4256:   Depth driller
 DL  .F              4248:   Depth logger
 BLI .F              4246:   Bottom log interval
 TLI .F                 0:   Top log interval
 CS1 .IN            8.625:   Casing size
 CBD1.      8.625" @ 817':   Casing driller 1
 CBL1.F               814:   Casing logger 1
 BS1 .IN            7.875:   Bit size
 BSD1.F              4256:   Depth drilled with bit1
 DFT .            KCL-GEL:   Type fluid in hole
 DFD .                  9:   Density
 DFV .                 40:   Viscosity
 DFPH.                8.6:   pH
 DFL .               11.8:   Fluid loss
 MSS .            MUDTANK:   Source of sample
 RMS .OHMM           0.38:   Rm
 MST .F                74:   Rm Meas. temp.
 RMF .OHMM           0.31:   Rmf
 MFST.F                72:   Rmf Meas. temp.
 MFSS.               MEAS:   Source Rmf.
 RMC .OHMM           0.48:   Rmc
 MCST.F                74:   Rmc Meas. temp.
 MCSS.               CALC:   Source Rmc.
 RMB .OHMM           0.22:   Rm. at BHT
 BHT .F               134:   BHT.
 TCS .HRS               4:   Time Circ. stopped
 MRT .F               134:   Maximum recorded temp.
 LUN .            HL-6274:   Logging unit number
 LUL .           GILLETTE:   Logging unit location
 ENGI.             RAUTIO:   Recorded By
 WITN.            JOHNSON:   Witnessed by
 ORIG.        2" 5" PRINT:   Origin of data
 UWI .     49025111610000:   Unique Well ID
 DICO. A2D TECHNOLOGIES, INC.:   Digitizing Company
~OTHER INFORMATION
~A    DEPT    TENR         GRR      RFOC       RILD       RILM        SPR         DT       TENS       CALD       TEND       CORR        DEN        CNC   
# ...
 2626.5000   -65.0000   100.9131     6.0357     5.7207     5.6513   -36.0268    44.6852   -43.3267     8.7981   -55.7769    -0.0200     2.5344     0.2368
 2627.0000   -65.0000   102.1173     5.7501     5.6423     5.6501   -36.0239    40.4037   -41.4113     8.7939   -65.7371    -0.0003     2.5277     0.2152
 2627.5000   -65.0000    99.4141     5.6710     5.6036     5.6883   -35.8708    40.2519   -39.4959     8.7896   -65.7371     0.0208     2.5239     0.2056
 2628.0000   -66.4421    85.5824     6.4685     5.5269     5.6478   -35.6417    56.3153   -37.5804     8.7854   -56.8476     0.0344     2.5509     0.2032
 2628.5000   -69.0947    73.8560     9.4018     5.2653     5.4410   -35.3298    70.8110   -35.8566     8.7811   -38.2470     0.0405     2.6025     0.2116
 2629.0000   -71.7474    63.3326    12.8820     5.0862     5.1582   -35.1106    71.7127   -35.8563     8.7769   -35.8566     0.0027     2.6116     0.2245
 2629.5000   -74.4000    58.8243    15.6381     4.8792     4.8786   -35.1076    72.2992   -34.4990     8.7726   -25.8964    -0.0048     2.6040     0.2434
 2630.0000   -75.0000    62.4362    14.1467     4.7111     4.5506   -35.2556    74.0237   -32.9909     8.7699   -30.6954    -0.0015     2.5784     0.2608
 2630.5000   -75.0000    81.6873     8.0732     4.5106     4.3339   -35.4028    77.8338   -31.4804     8.7703   -35.2046     0.0134     2.5588     0.2773
 2631.0000   -75.0000    95.3183     5.4402     4.3075     4.0425   -35.3992    84.5300   -29.9710     8.7818   -45.8167     0.0330     2.5392     0.2860
 2631.5000   -75.0000   105.7032     4.8360     4.1037     3.8500   -35.3963    88.4570   -28.4619     8.7939   -65.7371     0.0527     2.5136     0.2891
 2632.0000   -75.0000   113.5765     4.4504     3.9641     3.7695   -35.3933    92.7834   -26.9528     8.8060   -52.6181     0.0632     2.4793     0.2884
 2632.5000   -95.0000   115.3832     4.2398     3.8292     3.6914   -35.2351    93.8328   -25.4437     8.8181   -45.8167     0.0119     2.4803     0.2785
 2633.0000   -95.0000   108.7703     4.2989     3.7506     3.7164   -34.7868    93.3796   -23.9346     8.8302   -45.8167    -0.0107     2.5137     0.2749
 2633.5000   -95.0000   103.0589     4.6427     3.6736     3.7674   -34.6331    91.5756   -22.4254     8.8422   -45.8167    -0.0137     2.5424     0.2746
 2634.0000   -95.0000   101.5581     4.9820     3.6485     3.8459   -34.3299    90.0719   -20.9163     8.8496   -55.5236     0.0105     2.5681     0.2704
 2634.5000   -75.0000   101.8618     5.2551     3.6762     3.9534   -34.3270    88.9436   -19.4062     8.8464   -55.6255     0.1131     2.5847     0.2643
 2635.0000   -75.0000   103.0677     5.1470     3.9184     4.0638   -34.3240    88.1907   -17.8964     8.8434   -65.5046     0.1433     2.5644     0.2608
 2635.5000   -59.2545   103.9869     4.7366     4.1060     4.1774   -34.3211    87.5878   -16.3840     8.8403   -45.8167     0.1511     2.5471     0.2599
 2636.0000   -68.4182   104.9748     4.7695     4.2218     4.2644   -34.4685    87.7358   -15.9288     8.8372   -51.4229     0.0935     2.5697     0.2578
 2636.5000   -77.5818   106.9870     5.2188     4.3710     4.3836   -34.7658    87.0574   -15.9302     8.8341   -45.8167     0.0513     2.5970     0.2521
 2637.0000   -86.7455   107.8922     5.5544     4.4943     4.4440   -35.3714    86.4547   -17.1813     8.8311   -35.8566     0.0467     2.6060     0.2470
 2637.5000   -95.0000   107.5944     5.8708     4.5891     4.4740   -36.0485    86.0771   -19.6713     8.8280   -35.8566     0.0453     2.6060     0.2464
 2638.0000   -95.0000   106.9950     5.7890     4.5894     4.5043   -36.5588    87.0509   -22.1614     8.8249   -40.0968     0.0421     2.5917     0.2650
 2638.5000   -95.0000   108.5025     5.5878     4.5897     4.5347   -36.5551    87.7244   -24.6514     8.8219   -45.4195     0.0317     2.5759     0.2695
 2639.0000   -95.0000   109.1069     5.4402     4.6220     4.6290   -36.4020    87.7222   -27.1414     8.8188   -36.6346     0.0242     2.5684     0.2710
 2639.5000   -95.0000   107.6060     5.4402     4.7225     4.7196   -36.2490    87.0271   -29.6282     8.8157   -25.3011     0.0182     2.5669     0.2632
 2640.0000   -95.0000   103.0579     5.4402     4.8526     4.8041   -35.9458    86.4416   -32.1112     8.8126   -30.8352     0.0167     2.5700     0.2647
 2640.5000   -92.6300   101.5969     5.5161     4.9207     4.8939   -35.7927    86.9643   -34.6062     8.8099   -35.6870     0.0197     2.5730     0.2631
 2641.0000   -90.1100   101.9013     5.6710     4.9898     5.0330   -35.4895    87.1123   -40.3928     8.8100   -36.4447     0.0227     2.5715     0.2608
 2641.5000   -87.5900   102.8064     5.9116     5.0950     5.2759   -35.3364    86.9600   -49.4386     8.8100   -45.8167     0.0228     2.5645     0.2620
 2642.0000   -85.0700   105.5161     6.0777     5.2387     5.4611   -35.9333    86.1320   -52.0418     8.8100   -63.8019     0.0243     2.5535     0.2632
 2642.5000   -82.5500   113.0379     6.2491     5.3865     5.6528   -36.3816    83.9526   -39.5916     8.8100   -75.6972     0.0168     2.5505     0.2613
 2643.0000   -80.0300   114.2438     6.4295     5.5384     5.8512   -36.5288    82.0735   -35.4912     8.8100   -85.6574     0.0107     2.5581     0.2487
 2643.5000   -77.5100   113.0437     6.7429     5.6945     5.9321   -36.5252    81.8461   -34.9906     8.8100   -85.6574     0.0047     2.5641     0.2427
 2644.0000   -75.0000   109.4376     6.8845     5.8981     6.0554   -36.2220    83.7954   -34.4960     8.8100   -80.1992    -0.0013     2.5672     0.2415
 2644.5000   -75.0000   104.5505     7.0290     6.0689     6.1394   -35.9187    84.3187   -33.9973     8.8100   -70.2789    -0.0058     2.5650     0.2535
 2645.0000   -95.0000   101.9254     7.0779     6.2332     6.2291   -35.9158    84.0162   -33.4947     8.8100   -60.3586    -0.0012     2.5627     0.2553
 2645.5000   -94.5561   101.9283     7.1270     6.3647     6.3527   -35.9129    83.1882   -32.9922     8.8100   -65.7371    -0.0061     2.5582     0.2526
 2646.0000   -94.0157   111.5553     7.0290     6.4094     6.4402   -35.9099    82.7356   -32.4897     8.8100   -59.3549    -0.0196     2.5520     0.2577
 2646.5000   -93.4752   113.0613     6.9323     6.4994     6.4389   -35.9063    83.3340   -31.9872     8.8100   -65.8721    -0.0254     2.5553     0.2583
 2647.0000   -92.9348   110.6589     6.8845     6.5450     6.3931   -35.9039    83.7072   -31.4847     8.8100   -66.0960    -0.0012     2.5621     0.2526
 2647.5000   -92.3944   108.2558     6.9862     6.5455     6.3476   -35.9005    83.3150   -30.9821     8.8100   -64.8031     0.0229     2.5659     0.2427
 2648.0000   -91.8540   110.0632     7.1766     6.4557     6.3905   -35.8976    82.6517   -30.4796     8.8100   -60.0019     0.0260     2.5614     0.2409
 2648.5000   -91.3136   111.8707     7.1766     6.4116     6.4337   -36.0455    82.7992   -29.9771     8.8100   -45.6051     0.0230     2.5478     0.2511
 2649.0000   -90.7731   112.4752     7.0779     6.4120     6.5719   -35.5914    83.1724   -29.4746     8.8100   -16.3262     0.0230     2.5448     0.2583
 2649.5000   -90.2327   113.0803     6.9323     6.4572     6.7042   -35.1381    83.6206   -28.9721     8.8100   -15.4059     0.0245     2.5487     0.2589
 2650.0000   -89.6923   115.4892     6.7898     6.6043     6.7966   -35.2853    83.9187   -28.4696     8.8100   -16.1025     0.0245     2.5555     0.2549
 2650.5000   -89.1519   119.1411     6.7898     6.7525     6.8902   -35.2810    83.6913   -27.9670     8.8100   -25.8048     0.0170     2.5600     0.2427
 2651.0000   -88.6114   118.2219     6.9805     6.9271     7.0337   -35.1253    82.7886   -27.4645     8.8100   -35.8566    -0.0132     2.5547     0.2451
 2651.5000   -88.0710   111.0156     7.8034     7.0219     7.1803   -34.9707    81.1945   -26.9620     8.8100   -45.8167    -0.0207     2.5435     0.2523
 2652.0000   -87.5306   108.0168     8.4813     7.0190     7.2288   -35.1176    81.2713   -26.4595     8.8100   -35.8566    -0.0177     2.5360     0.2556
