~VERSION INFORMATION
 VERS.                2.0:   CWLS LOG ASCII STANDARD - VERSION 2.0
 WRAP.                 NO:   ONE LINE PER DEPTH STEP
~WELL INFORMATION
#MNEM.UNIT      DATA TYPE    INFORMATION
#----------   ------------   ------------------------------
 STRT.F           53.0000:   START DEPTH
 STOP.F         3110.0000:   STOP DEPTH
 STEP.F            0.5000:   STEP LENGTH
 NULL.          -999.2500:   NO VALUE
 COMP. LAWRENCE ALLISON & ASSOCIATES W:   COMPANY
 WELL. LAWRENCE NPR 3 "AX" #31-34:   WELL
 FLD .      NPR - WILDCAT:   FIELD
 LOC .      S34 T39N R78W:   LOCATION
 CNTY.            NATRONA:   COUNTY
 STAT.            WYOMING:   STATE
 CTRY. UNITED STATES OF AMERICA:   COUNTRY
 SRVC.      DRESSER ATLAS:   SERVICE COMPANY
 DATE.        11-JUL-1986:   LOGDATE
 API .     49025111020000:   API NUMBER
~CURVE INFORMATION
#MNEM.UNIT       API CODE    CURVE DESCRIPTION
#----------   ------------   ------------------------------
 DEPT.F                  :   
 DEN .G/C3   45 350 01 00:   BULK DENSITY
 TEND.LBS    45 635 01 00:   TENSION FROM DENSITY LOG
 CORR.G/C3   45 356 01 00:   DENSITY CORRECTION
 NPHI.DEC    42 890 03 00:   NEUTRON POROSITY SANDSTONE
 SPR .MV     07 010 01 00:   SPONTANEOUS POTENTIAL
 RILM.OHMM   07 120 44 00:   INDUCTION LOG MEDIUM RESISTIVITY
 RILD.OHMM   07 120 46 00:   DEEP INDUCTION RESISTIVITY
 RFOC.OHMM   07 220 04 00:   RESISTIVITY FOCUSED LOG RES.
 TENR.LBS    07 635 01 00:   TENSION FROM RESISTIVITY
 GRR .GAPI   07 310 01 00:   GAMMA RAY FROM RESISTIVITY
 CALR.IN     07 280 01 00:   CALIPER FROM RESISTIVITY
~PARAMETER INFORMATION
#MNEM.UNIT          VALUE    DESCRIPTION
#----------   ------------   ------------------------------
 EKB .F          5074.800:   Kelly bushing
 EGL .F          5063.000:   Ground level
 EDF .F            0.0000:   Drilling floor
 EPD .F            0.0000:   Permanent datum
 TD  .F         3108.0000:   Total depth
 DATE.        11-JUL-1986:   Date logged
 CLNT.            A2DTECH:   Client Code
 SL  . 1796' FWL & 318' FNL:   Surface Location
 PD  .                 GL:   Permanent Datum
 DAPD.F                11:   Feet Above Permanent Datum
 DD  .F              3103:   Depth driller
 DL  .F              3108:   Depth logger
 BLI .F              3106:   Bottom log interval
 CS1 .IN            8.625:   Casing size
 CBD1.      8.625" @ 602':   Casing driller 1
 CBL1.F               596:   Casing logger 1
 BS1 .IN            7.875:   Bit size
 BSD1.F              3103:   Depth drilled with bit1
 DFT .            KCL/GEL:   Type fluid in hole
 DFD .                  9:   Density
 DFV .                 42:   Viscosity
 MSS .           MUD/TANK:   Source of sample
 RMS .OHMM           .352:   Rm
 MST .F                82:   Rm Meas. temp.
 RMF .OHMM           .264:   Rmf
 MFST.F                82:   Rmf Meas. temp.
 RMC .OHMM            .44:   Rmc
 MCST.F                82:   Rmc Meas. temp.
 MFSS.               CALC:   Source Rmf.
 MCSS.               CALC:   Source Rmc.
 RMB .OHMM            .23:   Rm. at BHT
 BHT .F               115:   BHT.
 TCS .HRS               3:   Time Circ. stopped
 MRT .F               115:   Maximum recorded temp.
 LUN .            HL-6264:   Logging unit number
 LUL .           GILLETTE:   Logging unit location
 ENGI.     P. M. FASHSING:   Recorded By
 WITN.             STRONG:   Witnessed by
 ORIG.           5" PRINT:   Origin of data
 UWI .     49025111020000:   Unique Well ID
 DICO. A2D TECHNOLOGIES, INC.:   Digitizing Company
~OTHER INFORMATION
~A   DEPT      DEN       TEND       CORR       NPHI        SPR       RILM       RILD       RFOC       TENR         GRR      CALR   
# ...
  937.5000  -999.2500  -999.2500  -999.2500  -999.2500   -84.3580     6.1780     7.3860     7.2370   -99.5000    91.0890    12.0700
  938.0000  -999.2500  -999.2500  -999.2500  -999.2500   -84.3040     6.1450     7.3400     7.1940   -98.7240    90.3560    12.0660
  938.5000  -999.2500  -999.2500  -999.2500  -999.2500   -84.2510     6.1750     7.2950     7.1510   -98.7240    90.9900    12.0630
  939.0000  -999.2500  -999.2500  -999.2500  -999.2500   -84.1970     6.1960     7.2500     7.1070   -98.7240    92.9380    12.0590
  939.5000  -999.2500  -999.2500  -999.2500  -999.2500   -84.1430     6.2160     7.2040     7.0560   -98.7240    95.6500    12.0560
  940.0000  -999.2500  -999.2500  -999.2500  -999.2500   -84.0900     6.2370     7.1880     7.0750   -98.7240    94.2250    12.0520
  940.5000  -999.2500  -999.2500  -999.2500  -999.2500   -84.0360     6.2590     7.2360     7.0970   -98.7240    90.6250    12.0500
  941.0000  -999.2500  -999.2500  -999.2500  -999.2500   -83.9820     6.2850     7.2700     7.1190   -98.7240    86.9810    12.0520
  941.5000  -999.2500  -999.2500  -999.2500  -999.2500   -83.9280     6.3210     7.3040     7.1410   -98.7240    86.3430    12.0530
  942.0000  -999.2500  -999.2500  -999.2500  -999.2500   -83.8750     6.3560     7.3380     7.1630   -98.7240    89.6300    12.0550
  942.5000  -999.2500  -999.2500  -999.2500  -999.2500   -83.8750     6.3920     7.3720     7.1850   -98.7240    93.9440    12.0560
  943.0000  -999.2500  -999.2500  -999.2500  -999.2500   -84.0610     6.4280     7.4450     7.2590   -98.7240    98.0770    12.0580
  943.5000  -999.2500  -999.2500  -999.2500  -999.2500   -84.2400     6.4640     7.5580     7.3630   -98.7240    98.7750    12.0590
  944.0000  -999.2500  -999.2500  -999.2500  -999.2500   -84.4200     6.5000     7.6720     7.4670   -98.7240    98.1970    12.0610
  944.5000  -999.2500  -999.2500  -999.2500  -999.2500   -84.5990     6.5350     7.7630     7.5710   -98.7240    94.7970    12.0620
  945.0000  -999.2500  -999.2500  -999.2500  -999.2500   -84.7780     6.5980     7.8220     7.6670   -98.7240    90.5060    12.0640
  945.5000  -999.2500  -999.2500  -999.2500  -999.2500   -84.9590     6.6940     7.8820     7.7060   -98.7240    89.3590    12.0650
  946.0000  -999.2500  -999.2500  -999.2500  -999.2500   -84.9470     6.7890     7.9410     7.7420   -98.7240    92.5130    12.0670
  946.5000  -999.2500  -999.2500  -999.2500  -999.2500   -84.7790     6.8840     8.0010     7.7780   -98.7240    95.4180    12.0680
  947.0000  -999.2500  -999.2500  -999.2500  -999.2500   -84.6090     6.9800     8.0600     7.8140   -98.7240    96.9340    12.0700
  947.5000  -999.2500  -999.2500  -999.2500  -999.2500   -84.4390     7.1220     8.1030     7.8500   -98.7240    96.2490    12.0690
  948.0000  -999.2500  -999.2500  -999.2500  -999.2500   -84.2700     7.0810     8.0910     7.8820   -94.7690    94.2270    12.0680
  948.5000  -999.2500  -999.2500  -999.2500  -999.2500   -84.1000     7.0010     8.0830     7.8520   -90.3470    90.9770    12.0670
  949.0000  -999.2500  -999.2500  -999.2500  -999.2500   -83.9310     6.9220     8.0740     7.8250   -85.9260    85.4490    12.0660
  949.5000  -999.2500  -999.2500  -999.2500  -999.2500   -83.8330     6.8420     8.0650     7.7980   -81.5040    81.5690    12.0650
  950.0000  -999.2500  -999.2500  -999.2500  -999.2500   -83.7880     6.8010     8.0560     7.7710   -83.8090    82.3410    12.0630
  950.5000  -999.2500  -999.2500  -999.2500  -999.2500   -83.7430     6.8700     8.0470     7.7440   -93.4040    89.5850    12.0620
  951.0000  -999.2500  -999.2500  -999.2500  -999.2500   -83.6980     6.9240     8.0380     7.7380  -103.0000    92.5710    12.0610
  951.5000  -999.2500  -999.2500  -999.2500  -999.2500   -83.6530     6.9770     8.0290     7.7380  -107.6990    92.7120    12.0600
  952.0000  -999.2500  -999.2500  -999.2500  -999.2500   -83.6080     7.0310     8.0200     7.7380  -105.8690    93.2560    12.0590
  952.5000  -999.2500  -999.2500  -999.2500  -999.2500   -83.5630     7.0560     8.0110     7.7380  -104.0390    94.1490    12.0580
  953.0000  -999.2500  -999.2500  -999.2500  -999.2500   -83.5180     7.0060     8.0020     7.7320  -102.2090    93.8380    12.0560
  953.5000  -999.2500  -999.2500  -999.2500  -999.2500   -83.4720     6.9630     7.9930     7.7000  -100.3790    94.3860    12.0550
  954.0000  -999.2500  -999.2500  -999.2500  -999.2500   -83.4630     6.9190     7.9850     7.6670   -98.5490    94.9640    12.0540
  954.5000  -999.2500  -999.2500  -999.2500  -999.2500   -83.7360     6.8750     7.9760     7.6350   -96.7190    94.0590    12.0530
  955.0000  -999.2500  -999.2500  -999.2500  -999.2500   -84.0110     6.8320     7.9670     7.6030   -94.8900    91.8150    12.0520
  955.5000  -999.2500  -999.2500  -999.2500  -999.2500   -84.2860     6.7880     7.9580     7.5710   -93.0600    90.2460    12.0510
  956.0000  -999.2500  -999.2500  -999.2500  -999.2500   -84.5610     6.7440     7.9410     7.5390   -91.2300    89.7860    12.0490
  956.5000  -999.2500  -999.2500  -999.2500  -999.2500   -84.8310     6.7010     7.9200     7.5070   -89.4000    90.5760    12.0480
  957.0000  -999.2500  -999.2500  -999.2500  -999.2500   -84.8190     6.6570     7.8990     7.4750   -91.8560    91.6340    12.0470
  957.5000  -999.2500  -999.2500  -999.2500  -999.2500   -84.7900     6.6150     7.8770     7.4430   -95.6510    92.5780    12.0460
  958.0000  -999.2500  -999.2500  -999.2500  -999.2500   -84.7620     6.5920     7.8560     7.4110   -99.4470    92.2070    12.0450
  958.5000  -999.2500  -999.2500  -999.2500  -999.2500   -84.7340     6.5690     7.8350     7.3890  -103.2420    90.8350    12.0440
  959.0000  -999.2500  -999.2500  -999.2500  -999.2500   -84.7060     6.5470     7.8140     7.4090  -107.0380    89.2530    12.0420
  959.5000  -999.2500  -999.2500  -999.2500  -999.2500   -84.6780     6.5240     7.7930     7.4290  -106.3690    88.4160    12.0410
  960.0000  -999.2500  -999.2500  -999.2500  -999.2500   -84.6510     6.5020     7.7720     7.4500  -102.9530    89.3410    12.0400
  960.5000  -999.2500  -999.2500  -999.2500  -999.2500   -84.5510     6.4800     7.7510     7.4710   -99.5370    90.2530    12.0390
  961.0000  -999.2500  -999.2500  -999.2500  -999.2500   -84.3970     6.4570     7.7250     7.4910  -101.9770    90.5830    12.0380
  961.5000  -999.2500  -999.2500  -999.2500  -999.2500   -84.2430     6.4350     7.6900     7.5120  -107.6700    90.6730    12.0370
  962.0000  -999.2500  -999.2500  -999.2500  -999.2500   -84.0880     6.4120     7.6550     7.5260  -113.3630    92.1240    12.0350
  962.5000  -999.2500  -999.2500  -999.2500  -999.2500   -83.9330     6.3890     7.6210     7.4640  -116.1520    93.5680    12.0340
  963.0000  -999.2500  -999.2500  -999.2500  -999.2500   -83.7790     6.3760     7.5860     7.4150  -101.5120    93.2250    12.0330
  963.5000  -999.2500  -999.2500  -999.2500  -999.2500   -83.6240     6.3930     7.5510     7.3660   -86.8730    92.7070    12.0320
  964.0000  -999.2500  -999.2500  -999.2500  -999.2500   -83.4630     6.4050     7.5270     7.3210   -79.6220    95.8390    12.0310
  964.5000  -999.2500  -999.2500  -999.2500  -999.2500   -83.5840     6.4180     7.5270     7.3210   -81.0860    99.4470    12.0220
  965.0000  -999.2500  -999.2500  -999.2500  -999.2500   -83.8550     6.4350     7.5270     7.3550   -82.5500   100.3750    12.0010
  965.5000  -999.2500  -999.2500  -999.2500  -999.2500   -84.4320     6.4340     7.5530     7.3800   -84.0140    97.5180    11.9950
  966.0000  -999.2500  -999.2500  -999.2500  -999.2500   -85.0090     6.4840     7.5790     7.4050   -85.4780    92.9760    12.0050
  966.5000  -999.2500  -999.2500  -999.2500  -999.2500   -85.1680     6.5240     7.6060     7.4300   -86.9420    90.2020    12.0150
  967.0000  -999.2500  -999.2500  -999.2500  -999.2500   -85.0560     6.5640     7.6320     7.4550   -88.4060    88.8150    12.0250
  967.5000  -999.2500  -999.2500  -999.2500  -999.2500   -84.9380     6.6040     7.6590     7.4800   -89.8700    89.2350    12.0210
