~VERSION INFORMATION
 VERS.                2.0:   CWLS LOG ASCII STANDARD - VERSION 2.0
 WRAP.                 NO:   ONE LINE PER DEPTH STEP
~WELL INFORMATION
#MNEM.UNIT      DATA TYPE    INFORMATION
#----------   ------------   ------------------------------
 STRT.F          448.5000:   START DEPTH
 STOP.F         4490.5000:   STOP DEPTH
 STEP.F            0.5000:   STEP LENGTH
 NULL.          -999.2500:   NO VALUE
 COMP.  FENIX AND SCISSON:   COMPANY
 WELL. FENIX AND SCISSON NPR 3 #11-10:   WELL
 FLD .              NPR-3:   FIELD
 LOC .      S10 T38N R78W:   LOCATION
 CNTY.            NATRONA:   COUNTY
 STAT.            WYOMING:   STATE
 CTRY. UNITED STATES OF AMERICA:   COUNTRY
 SRVC.              WELEX:   SERVICE COMPANY
 DATE.        22-DEC-1978:   LOGDATE
 API .     49025107450000:   API NUMBER
~CURVE INFORMATION
#MNEM.UNIT       API CODE    CURVE DESCRIPTION
#----------   ------------   ------------------------------
 DEPT.F                  :   
 SPR .MV     07 010 01 00:   SPONTANEOUS POTENTIAL
 ILM .OHMM   07 120 44 00:   INDUCTION LOG MEDIUM
 ILD .OHMM   07 120 46 00:   DEEP RESISTIVITY
 SGRD.OHMM   07 220 01 00:   SHALLOW SHORT GUARD RESISTIVITY
 TENR.LBS    07 635 01 00:   TENSION FROM RESISTIVITY
 NPHI.DEC    42 890 03 00:   NEUTRON POROSITY SANDSTONE
 CALD.IN     45 280 60 00:   CALIPER FROM DENSITY LOG
 GRD .GAPI   45 310 01 00:   GAMMA RAY FROM DENSITY LOG
 RHOB.G/C3   45 350 01 00:   BULK DENSITY
 DRHO.G/C3   45 356 01 00:   DENSITY CORRECTION
 TEND.LBS    45 635 01 00:   TENSION FROM DENSITY
~PARAMETER INFORMATION
#MNEM.UNIT          VALUE    DESCRIPTION
#----------   ------------   ------------------------------
 EKB .F         5275.0000:   Kelly bushing
 EGL .F         5265.0000:   Ground level
 EDF .F            0.0000:   Drilling floor
 EPD .F         5265.0000:   Permanent datum
 TD  .F         4500.0000:   Total depth
 DATE.        22-DEC-1978:   Date logged
 CLNT.            A2DTECH:   Client Code
 SL  . 300' FNL & 500' FWL:   Surface Location
 DD  .F              4500:   Depth driller
 DL  .F              4481:   Depth logger
 BLI .F              4479:   Bottom log interval
 TLI .F               450:   Top log interval
 CS1 .IN            8.625:   Casing size
 CBD1.      8.625" @ 500':   Casing driller 1
 CBL1.F               473:   Casing logger 1
 BS1 .IN            7.875:   Bit size
 BSD1.F              4500:   Depth drilled with bit1
 DFT .               LSND:   Type fluid in hole
 DFD .                8.7:   Density
 DFV .                 49:   Viscosity
 DFPH.               11.0:   pH
 DFL .                7.6:   Fluid loss
 MSS .           FLOWLINE:   Source of sample
 RMS .OHMM            1.1:   Rm
 MST .F                86:   Rm Meas. temp.
 RMF .OHMM           0.73:   Rmf
 MFST.F                86:   Rmf Meas. temp.
 RMC .OHMM           1.68:   Rmc
 MCST.F                86:   Rmc Meas. temp.
 MFSS.               CALC:   Source Rmf.
 MCSS.               CALC:   Source Rmc.
 RMB .OHMM           0.72:   Rm. at BHT
 BHT .F               130:   BHT.
 TCS .HRS             3.5:   Time Circ. stopped
 MRT .F               130:   Maximum recorded temp.
 LUN .               9685:   Logging unit number
 LUL .             CASPER:   Logging unit location
 ENGI.            BENTSEN:   Recorded By
 WITN.           DINSMORE:   Witnessed by
 ORIG.           5" PRINT:   Origin of data
 UWI .     49025107450000:   Unique Well ID
 DICO. A2D TECHNOLOGIES, INC.:   Digitizing Company
~OTHER INFORMATION
~A  DEPTH      SPR        ILM        ILD       SGRD       TENR       NPHI       CALD        GRD       RHOB       DRHO       TEND
# ...
 2858.0000   -61.5437     5.3819     5.3730     6.1388  1226.5059     0.2543     9.4759    82.6619     2.2930     0.1269  1550.4895
 2858.5000   -61.6880     5.3175     5.4240     5.7322  1224.0961     0.2412     9.5879    77.3299     2.2608     0.1437  1548.1559
 2859.0000   -61.8324     5.5689     5.5802     5.5534  1221.6868     0.2254     9.6746    71.4746     2.2308     0.1585  1561.0194
 2859.5000   -61.9767     6.3766     5.9047     5.6916  1219.2767     0.2092     9.7385    66.4069     2.2135     0.1757  1558.6202
 2860.0000   -62.0444     7.7991     6.4370     7.1529  1216.8671     0.1973     9.7630    60.8728     2.2159     0.1865  1556.1438
 2860.5000   -62.1987     9.1686     7.2321    11.2620  1214.4579     0.1852     9.7638    59.5274     2.2167     0.1897  1569.1913
 2861.0000   -62.3230    10.9389     8.4580    17.7814  1212.0486     0.1706     9.6970    61.4024     2.2055     0.1929  1566.4164
 2861.5000   -62.4058    13.3108    10.2170    25.5222  1209.6385     0.1612     9.5835    62.9833     2.1838     0.2006  1563.5491
 2862.0000   -62.5501    16.6864    12.4217    31.3820  1206.7690     0.1620     9.5330    64.3947     2.1606     0.2069  1576.7908
 2862.5000   -62.6944    20.3247    15.0634    31.8174  1219.4895     0.1629     9.5680    65.6433     2.1689     0.2086  1574.2125
 2863.0000   -62.7319    23.4115    18.5399    26.1387  1217.1497     0.1632     9.6512    66.9950     2.1848     0.2103  1571.7325
 2863.5000   -62.8349    27.1439    22.4984    24.4396  1229.8712     0.1628     9.7226    68.9015     2.1744     0.2120  1569.7863
 2864.0000   -62.8622    29.0855    25.9709    25.5661  1227.5314     0.1592     9.7392    69.5937     2.1368     0.2122  1582.0554
 2864.5000   -62.8518    25.7881    28.5986    30.1339  1225.1915     0.1525     9.6954    70.0624     2.0986     0.2124  1579.3320
 2865.0000   -62.9914    23.8449    30.4873    30.4503  1237.9131     0.1473     9.6514    68.0720     2.0866     0.2187  1577.2114
 2865.5000   -62.9828    28.9190    32.1706    25.8100  1235.3779     0.1400     9.8906    62.2814     2.0882     0.2234  1574.6625
 2866.0000   -62.9735    38.4529    32.8714    23.5807  1233.1323     0.1308    10.0999    58.9498     2.1086     0.2191  1571.9391
 2866.5000   -62.9656    42.6461    33.1262    31.3331  1230.6995     0.1227    10.2795    58.7478     2.1253     0.2043  1570.0155
 2867.0000   -63.1051    36.9829    33.6146    52.7907  1228.3136     0.1141    10.0418    60.4391     2.2006     0.1909  1567.4648
 2867.5000   -63.0963    37.4488    34.8251    72.6521  1225.9033     0.1066     9.8636    62.5651     2.2406     0.1881  1564.9358
 2868.0000   -63.0874    47.6830    36.5817    79.5399  1223.4941     0.1015     9.8495    64.9023     2.2482     0.1899  1562.6010
 2868.5000   -63.0785    52.1338    38.9620    75.1884  1221.0847     0.1050     9.8661    67.0990     2.2408     0.1795  1560.2661
 2869.0000   -63.0891    52.8049    41.5650    60.0847  1215.3109     0.1125     9.8823    68.2447     2.2235     0.1647  1557.5427
 2869.5000   -63.2103    63.3545    44.5333    45.5730  1201.2050     0.1225     9.8964    66.8614     2.2138     0.1408  1555.6226
 2870.0000   -63.2296    65.1596    50.4432    35.5481  1198.7954     0.1354     9.8996    64.5680     2.2591     0.1244  1553.2230
 2870.5000   -63.3393    45.0144    46.3814    29.5102  1196.3853     0.1449     9.9127    62.5451     2.2833     0.1201  1550.5383
 2871.0000   -63.3304    31.2907    37.5926    27.9402  1193.9761     0.1509     9.8952    61.4050     2.2886     0.1279  1548.2035
 2871.5000   -63.3215    22.1967    34.2273    27.0085  1191.5664     0.1547     9.8805    61.0673     2.2925     0.1356  1545.8698
 2872.0000   -63.3625    20.4296    31.1544    26.6556  1189.1564     0.1565     9.8793    61.6878     2.2993     0.1373  1543.6279
 2872.5000   -63.4519    26.0961    30.0164    26.8591  1186.7471     0.1574     9.9009    63.3658     2.3197     0.1240  1526.2365
 2873.0000   -63.4430    29.5264    29.3553    28.3668  1184.3373     0.1584     9.9126    65.9192     2.3416     0.1091  1520.2056
 2873.5000   -63.4991    29.9912    28.6675    33.4025  1181.9274     0.1593     9.9322    68.8361     2.3447     0.1259  1506.3512
 2874.0000   -63.5733    28.4643    28.2858    41.4065  1179.5182     0.1613     9.9265    71.6215     2.3366     0.1427  1503.8221
 2874.5000   -63.5644    26.2428    27.9422    47.1748  1177.1083     0.1658     9.8840    73.6643     2.3084     0.1549  1501.4873
 2875.0000   -63.5556    23.0479    26.9390    37.1583  1183.4862     0.1711     9.8152    74.8881     2.2697     0.1657  1514.5347
 2875.5000   -63.6320    20.3406    25.7809    27.8762  1187.3496     0.1754     9.7861    74.8029     2.2292     0.1734  1527.1924
 2876.0000   -63.6859    19.8925    25.1170    25.1219  1184.9396     0.1787     9.8207    73.5071     2.1533     0.1767  1524.2748
 2876.5000   -63.6770    21.1291    24.6759    24.3488  1192.6736     0.1806     9.8830    72.0726     2.0894     0.1799  1522.0389
 2877.0000   -63.6681    19.4879    24.5256    24.4679  1195.1809     0.1801     9.9548    70.3621     2.0399     0.1815  1519.6051
 2877.5000   -63.7648    16.3338    24.3763    24.8381  1192.7708     0.1781    10.0325    68.1860     1.9466     0.1713  1516.8817
 2878.0000   -63.7985    16.3144    24.2278    25.2138  1190.3612     0.1759    10.1207    66.6428     1.9791     0.1519  1514.5469
 2878.5000   -63.7896    18.1523    23.9143    25.2438  1187.9520     0.1749    10.2029    65.7702     2.0313     0.1009  1482.2271
 2879.0000   -63.7792    19.8253    23.6049    24.5079  1200.1890     0.1759    10.2578    64.8976     2.0983     0.0544  1420.3119
 2879.5000   -63.7706    21.2220    23.2995    23.7205  1197.8491     0.1777    10.2691    66.0369     2.2457     0.0455  1477.9471
 2880.0000   -63.7620    19.9401    23.3183    23.5563  1195.5104     0.1813    10.2252    67.8469     2.3467     0.0744  1535.1937
 2880.5000   -63.6052    18.1102    23.3471    24.2812  1193.1705     0.1836    10.1514    69.6916     2.3686     0.0972  1562.8440
 2881.0000   -63.5966    17.1455    23.6919    25.4434  1190.8307     0.1845    10.1223    71.5535     2.3694     0.1125  1560.1206
 2881.5000   -63.5880    16.4584    23.8798    24.8781  1188.4921     0.1835    10.0932    73.1162     2.3657     0.1187  1573.1669
 2882.0000   -63.5793    28.8459    24.0643    22.8835  1186.1440     0.1817    10.0939    73.7481     2.3704     0.1159  1570.4435
 2882.5000   -63.5704    52.3366    24.4042    22.4453  1183.7347     0.1804    10.0946    73.6979     2.3697     0.1101  1568.2159
 2883.0000   -63.5615    95.6164    24.2298    24.7170  1180.3715     0.1798    10.0954    73.1685     2.3607     0.1028  1565.7738
 2883.5000   -63.5344    91.1775    23.9775    26.4312  1163.8558     0.1798    10.0961    72.2645     2.3555     0.0940  1563.0504
 2884.0000   -63.3956    40.9916    23.3983    24.9766  1161.7338     0.1804    10.0969    71.3606     2.3602     0.0866  1561.1053
 2884.5000   -63.3867    15.6189    23.1285    23.3036  1174.4554     0.1806    10.0936    70.5934     2.3633     0.0763  1573.6135
 2885.0000   -63.3778    17.1155    23.0765    22.6830  1172.1156     0.1805    10.0661    70.1527     2.3664     0.0705  1571.2141
 2885.5000   -63.3305    20.6444    23.2089    22.5420  1187.5492     0.1797    10.0514    69.7121     2.3747     0.0767  1568.5106
 2886.0000   -63.2119    18.4921    23.1722    22.4020  1200.6528     0.1788    10.0402    69.4560     2.3823     0.0830  1566.1758
 2886.5000   -63.1544    20.1057    23.0269    22.4173  1209.6388     0.1783    10.0370    69.4784     2.3749     0.0783  1564.0177
 2887.0000   -63.0459    20.2579    22.8826    22.4327  1215.6608     0.1786    10.0224    69.3923     2.3682     0.0758  1561.6190
 2887.5000   -63.0370    16.3569    22.7392    22.1396  1234.9398     0.1798    10.0127    69.2995     2.3698     0.0730  1574.2130
 2888.0000   -63.0282    15.4856    22.3810    21.8458  1237.9998     0.1812    10.0079    69.1975     2.3744     0.0778  1571.8137
