~VERSION INFORMATION
 VERS.                2.0:   CWLS LOG ASCII STANDARD - VERSION 2.0
 WRAP.                 NO:   ONE LINE PER DEPTH STEP
~WELL INFORMATION
#MNEM.UNIT      DATA TYPE    INFORMATION
#----------   ------------   ------------------------------
 STRT.F            5.0000:   START DEPTH
 STOP.F         5604.0000:   STOP DEPTH
 STEP.F            0.5000:   STEP LENGTH
 NULL.          -999.2500:   NO VALUE
 COMP.   LAWRENCE ALLISON:   COMPANY
 WELL. LAWRENCE 62 TPX #10-10:   WELL
 FLD .           NPR NO 3:   FIELD
 LOC .      S10 T38N R78W:   LOCATION
 CNTY.            NATRONA:   COUNTY
 STAT.            WYOMING:   STATE
 CTRY. UNITED STATES OF AMERICA:   COUNTRY
 SRVC.      DRESSER ATLAS:   SERVICE COMPANY
 DATE.        08-NOV-1985:   LOGDATE
 API .     49025110490000:   API NUMBER
~CURVE INFORMATION
#MNEM.UNIT       API CODE    CURVE DESCRIPTION
#----------   ------------   ------------------------------
 DEPT.F                  :   
 TEND.LBS    45 635 01 00:   TENSION FORM DENSITY LOG
 CNC .DEC    42 890 03 00:   NEUTRON POROSITY SANDSTONE
 CORR.G/C3   45 356 01 00:   DENSITY CORRECTION
 RHOB.G/C3   45 350 01 00:   BULK DENSITY
 TENR.LBS    11 635 01 00:   TENSION FROM RESISTIVITY
 GRR .GAPI   11 310 01 00:   GAMMA RAY FROM RESISTIVITY
 SPR .MV     11 010 01 00:   SPONTANEOUS POTENTIAL FROM RES.
 CALR.IN     11 280 01 00:   CALIPER FROM RESISTIVITY
 RD  .OHMM   11 220 10 00:   RESISTIVITY DEEP
 RS  .OHMM   11 220 09 00:   RESISTIVITY SHALLOW
 RMLL.OHMM   11 270 04 00:   MICRO LATEROLOG
 TENS.LBS    60 635 01 00:   TENSION FROM SONIC
 DT  .US/F   60 520 00 00:   DELTA TIME
~PARAMETER INFORMATION
#MNEM.UNIT          VALUE    DESCRIPTION
#----------   ------------   ------------------------------
 EKB .F         5167.0000:   Kelly bushing
 EGL .F         5155.0000:   Ground level
 EDF .F            0.0000:   Drilling floor
 TD  .F         5600.0000:   Total depth
 CLNT.            A2DTECH:   Client Code
 PD  .                 GL:   Permanent Datum
 EPD .F              5155:   Elevation Permanent Datum
 LMF .                 KB:   Log Measured From
 DMF .                 KB:   Drilling Measured From
 DAPD.F                12:   Feet Above Permanent Datum
 DATE.        08-NOV-1985:   Date Logged [DD-MMM-YYYY]
 DD  .F              5600:   Depth driller
 DL  .F              5600:   Depth logger
 BLI .F              5597:   Bottom log interval
 TLI .F               467:   Top log interval
 CS1 .IN            9.625:   Casing size
 CBD1.      9.625" @ 467':   Casing driller 1
 CBL1.F               465:   Casing logger 1
 BS1 .IN             8.75:   Bit size
 BSD1.F              5600:   Depth drilled with bit1
 DFT .        KCL POLYMER:   Type fluid in hole
 DFD .                9.2:   Density
 DFV .                 38:   Viscosity
 DFPH.                8.5:   pH
 DFL .                8.6:   Fluid loss
 MSS .           FLOWLINE:   Source of sample
 RMS .OHMM           0.28:   Rm
 MST .F                75:   Rm Meas. temp.
 RMF .OHMM           0.21:   Rmf
 MFST.F                75:   Rmf Meas. temp.
 MFSS.               CALC:   Source Rmf.
 RMC .OHMM           0.35:   Rmc
 MCST.F                75:   Rmc Meas. temp.
 MCSS.               CALC:   Source Rmc.
 RMB .OHMM           0.13:   Rm. at BHT
 BHT .F               168:   BHT.
 TCS .HRS               7:   Time Circ. stopped
 MRT .F               168:   Maximum recorded temp.
 LUN .               6274:   Logging unit number
 LUL .               GLTE:   Logging unit location
 ENGI.               MACK:   Recorded By
 WITN.             STRONG:   Witnessed by
 ORIG.      2.5" 5" PRINT:   Origin of data
 UWI .     49025110490000:   Unique Well ID
 DICO. A2D TECHNOLOGIES, INC.:   Digitizing Company
~OTHER INFORMATION
~A  DEPTH     TEND        CNC       CORR       RHOB       TENR        GRR        SPR       CALR         RD         RS       RMLL       TENS         DT
# ...
 4893.0000   -51.4618     0.1353     0.0059     2.6647   -41.5903    85.8866   -59.5713    11.1578    31.1550    23.0720    18.5548   -71.4072    66.6373
 4893.5000   -36.4444     0.1238     0.0216     2.6727   -42.6325    83.5104   -59.4054    11.1284    32.7389    23.7583    20.3265   -71.3323    65.7336
 4894.0000   -50.6338     0.1175     0.0359     2.6906   -43.4655    79.0675   -59.3889    11.0945    35.1267    26.0249    24.0355   -71.2575    64.5291
 4894.5000   -50.1463     0.1179     0.0232     2.7051   -44.1753    71.0318   -59.5219    11.0672    38.2150    28.5076    28.0292   -71.1688    63.9261
 4895.0000   -49.7076     0.1203    -0.0014     2.7098   -45.1322    68.0859   -59.5055    11.0269    40.1579    29.9338    30.4932   -71.0952    63.0224
 4895.5000   -49.2689     0.1290    -0.0059     2.7031   -45.9660    69.3316   -59.4890    10.9995    42.4932    30.3883    29.4789   -71.0216    62.0435
 4896.0000   -48.8303     0.1354     0.0019     2.6981   -39.0270    69.6791   -59.3231    10.9855    42.2435    30.6229    28.3012   -63.4630    61.3653
 4896.5000   -48.3919     0.1330     0.0129     2.6966   -40.0684    70.3260   -59.4602    10.9746    41.7051    30.4407    27.9296   -63.3894    61.0631
 4897.0000   -47.9534     0.1263     0.0190     2.6972   -40.9022    71.5717   -59.5933    10.9772    41.1628    30.4704    27.7614   -63.3158    60.9112
 4897.5000   -54.5776     0.1195     0.0220     2.7007   -49.3003    72.5180   -59.8716    10.9798    42.0829    30.7125    28.3779   -63.2422    60.9850
 4898.0000   -61.6959     0.1140     0.0237     2.7170   -50.1332    71.6679   -59.8552    10.9823    43.0125    30.9590    29.2038   -63.1686    60.9835
 4898.5000   -61.2572     0.1161     0.0221     2.7169   -50.8317    70.5184   -59.8387    10.9849    43.6474    31.8589    30.4741   -63.0950    60.6639
 4899.0000   -75.3511     0.1178     0.0207     2.7069   -51.8000    68.7701   -59.9718    10.9874    42.8043    32.5626    32.6956   -63.0215    60.0027
 4899.5000   -74.9205     0.1193     0.0207     2.6862   -52.6337    68.2074   -59.9553    10.9900    41.3885    32.8195    33.6471   -62.9478    60.0768
 4900.0000   -74.4896     0.1205     0.0237     2.6979   -61.0318    70.6627   -60.0924    10.9925    40.0196    32.4038    31.2002   -62.8743    60.1505
 4900.5000   -71.3429     0.1241     0.0266     2.7053   -61.8648    73.4085   -59.7743    10.9951    37.3770    31.1124    28.1427   -62.7994    60.2994
 4901.0000   -67.5786     0.1276     0.0325     2.7111   -62.6985    74.0583   -59.9073    10.9976    35.1519    30.0806    25.5609   -62.7246    60.4483
 4901.5000   -63.8143     0.1306     0.0355     2.7155   -64.2625    74.4087   -60.0404    11.0002    34.2168    28.8817    26.1281   -69.9055    60.6720
 4902.0000   -60.0500     0.1336     0.0385     2.7184   -65.3272    77.7531   -60.1734    11.0027    32.4123    27.7307    25.7963   -69.7583    61.2720
 4902.5000   -59.3855     0.1377     0.0444     2.7184   -66.3919    79.6005   -60.1569    11.0053    31.3402    26.6256    24.5994   -69.6108    61.8721
 4903.0000   -60.5271     0.1419     0.0000     2.7125   -67.4556    79.0526   -60.2900    10.9779    30.0941    25.5645    22.1900   -69.4612    62.2465
 4903.5000   -61.6687     0.1490    -0.0001     2.7008   -68.3057    78.4921   -60.2734    10.9654    29.5052    24.2073    22.6825   -69.3114    62.0195
 4904.0000   -62.8103     0.1656     0.0060     2.6743   -69.3644    78.8552   -60.2570    10.9529    28.9278    23.3349    23.0254   -69.1327    61.8676
 4904.5000   -63.9519     0.1762     0.0122     2.6839   -70.4238    79.8044   -60.2405    10.9558    25.7249    22.4104    21.5042   -68.9855    61.9413
 4905.0000   -65.0935     0.1748     0.0210     2.6944   -71.4825    81.9512   -60.2241    10.9365    24.5247    21.2253    19.9445   -68.8384    62.9427
 4905.5000   -66.2351     0.1650     0.0266     2.6962   -72.5419    88.8884   -60.0581    10.9306    22.7183    19.6885    17.6201   -68.6911    64.2906
 4906.0000   -67.3767     0.1453     0.0002     2.6805   -73.6005    92.5195   -59.7427    10.9262    21.7054    18.9261    16.8025   -61.0590    67.0108
 4906.5000   -68.5183     0.1285    -0.0155     2.6757   -74.6600    89.5892   -59.5768    10.9207    24.1396    18.9772    15.5838   -68.3967    66.7867
 4907.0000   -69.6599     0.1187    -0.0178     2.6800   -75.7186    87.8437   -59.5603    10.9232    29.8076    21.9591    15.9297   -68.2496    65.6604
 4907.5000   -70.1755     0.1073    -0.0090     2.6868   -69.2045    85.7989   -59.5439    10.9259    36.4549    28.0910    18.1972   -68.1025    64.2333
 4908.0000   -69.8774     0.1012     0.0079     2.6991   -70.2723    84.0535   -59.8266    10.9128    43.7043    32.5756    23.5560   -67.9552    63.1069
 4908.5000   -69.5908     0.0985     0.0242     2.7093   -71.3329    81.1105   -60.1089    10.9160    49.8423    38.6943    30.0721   -67.8081    61.5295
 4909.0000   -69.2982     0.0953     0.0406     2.7063   -72.3976    78.1674   -60.3914    10.8886    53.1107    42.3496    34.5922   -67.6609    60.0272
 4909.5000   -69.0058     0.0923     0.0651     2.7005   -73.4613    74.0268   -60.6741    10.8755    55.0476    43.5628    38.7014   -67.5137    59.2768
 4910.0000   -68.7135     0.0906     0.0592     2.6990   -66.9617    71.3832   -60.9564    10.8631    57.3933    43.3036    41.5313   -67.3652    58.9775
 4910.5000   -68.4211     0.0876     0.0266     2.6990   -68.0265    69.9371   -61.0897    10.8663    59.0692    43.9518    43.6490   -67.2156    58.8286
 4911.0000   -68.1286     0.0853     0.0178     2.7019   -61.4979    67.2935   -61.2227    10.8689    60.8254    44.9203    46.8406   -67.0658    58.6797
 4911.5000   -67.8363     0.0823     0.0178     2.7048   -62.5906    64.0511   -61.2060    10.8714    61.7074    47.8625    50.6160   -66.8881    58.5278
 4912.0000   -67.5438     0.0817     0.0176     2.7107   -63.6543    64.4015   -61.1895    10.8890    60.9195    52.0704    53.5677   -66.7665    57.6846
 4912.5000   -67.2515     0.0841     0.0113     2.7152   -64.7190    63.5415   -61.1730    10.9065    59.6943    55.8673    56.6916   -66.5937    57.1804
 4913.0000   -66.9590     0.0913    -0.0004     2.7124   -65.7837    62.9937   -61.1566    10.9241    57.6843    58.2999    59.9976   -58.9616    57.1067
 4913.5000   -51.9929     0.1038    -0.0048     2.7015   -59.2284    66.0514   -61.1401    10.9266    54.5580    57.5523    55.2609   -66.3173    57.2589
 4914.0000   -51.7089     0.1172    -0.0040     2.6865   -60.3478    71.4916   -60.9742    10.9289    49.8692    52.2741    48.1469   -66.1522    57.4108
 4914.5000   -36.8052     0.1368     0.0009     2.6763   -61.4125    75.4348   -60.8083    10.9317    42.5829    40.7562    41.3701   -58.5200    57.7130
 4915.0000   -36.5215     0.1541     0.0092     2.6738   -70.0405    79.9768   -60.6423    10.9493    37.0265    34.7767    35.3010   -58.3728    58.3160
 4915.5000   -36.2374     0.1726     0.0326     2.6767   -71.1052    87.5129   -60.7754    10.9518    30.2505    28.6623    30.9709   -58.2256    59.3701
 4916.0000   -35.9536     0.1917     0.0340     2.6827   -72.1689    96.2465   -61.2073    10.9388    24.1483    22.3470    26.2470   -58.0785    60.4994
 4916.5000   -35.6696     0.2086    -0.0139     2.6782   -73.2336    99.8903   -61.6398    10.9420    20.7802    20.0177    22.2415   -57.9312    61.7039
 4917.0000   -35.3801     0.2022    -0.0315     2.6693   -74.2984   100.8395   -62.0713    10.9289    18.6582    18.3085    18.7168   -57.7841    63.4763
 4917.5000   -35.0878     0.1852    -0.0324     2.6591   -75.3620   103.3077   -62.2043    10.9165    18.9844    17.5745    17.3593   -65.1219    65.5338
 4918.0000   -49.4379     0.1647    -0.0199     2.6634   -76.4268   107.2204   -62.1879    10.9040    20.2466    18.3442    17.8682   -64.9701    67.4226
 4918.5000   -52.3520     0.1460    -0.0053     2.6722   -69.9261   103.5771   -62.1714    10.8922    21.5939    19.9570    18.3920   -64.7907    67.4992
