~VERSION INFORMATION
 VERS.                2.0:   CWLS LOG ASCII STANDARD - VERSION 2.0
 WRAP.                 NO:   ONE LINE PER DEPTH STEP
~WELL INFORMATION
#MNEM.UNIT      DATA TYPE    INFORMATION
#----------   ------------   ------------------------------
 STRT.F          200.5000:   START DEPTH
 STOP.F         3118.5000:   STOP DEPTH
 STEP.F            0.5000:   STEP LENGTH
 NULL.          -999.2500:   NO VALUE
 COMP.    FENIX & SCISSON:   COMPANY
 WELL. FENIX SCISSON "A" #16-27:   WELL
 FLD .                NPR:   FIELD
 LOC .      S27 T39N R78W:   LOCATION
 CNTY.            NATRONA:   COUNTY
 STAT.            WYOMING:   STATE
 CTRY. UNITED STATES OF AMERICA:   COUNTRY
 SRVC.       SCHLUMBERGER:   SERVICE COMPANY
 DATE.        31-AUG-1977:   LOGDATE
 API .     49025104180000:   API NUMBER
~CURVE INFORMATION
#MNEM.UNIT       API CODE    CURVE DESCRIPTION
#----------   ------------   ------------------------------
 DEPT.F                  :   
 CALD.IN     45 280 60 00:   CALIPER FROM DENSITY LOG
 GRD .GAPI   45 310 01 00:   GAMMA RAY FROM DENSITY LOG
 DPHI.DEC    42 890 03 00:   DENSITY POROSITY SANDSTONE
 RHOB.G/C3   45 350 01 00:   BULK DENSITY
 CORR.G/C3   45 356 01 00:   DENSITY CORRECTION
 SPR .MV     07 010 01 00:   SPONTANEOUS POTENTIAL
 GURD.OHMM   07 220 05 00:   GUARD LOG RESISTIVITY
 ILD .OHMM   07 120 46 00:   DEEP INDUCTION RESISTIVITY
 ILM .OHMM   07 120 44 00:   INDUCTION LOG MEDIUM RESISTIVITY
~PARAMETER INFORMATION
#MNEM.UNIT          VALUE    DESCRIPTION
#----------   ------------   ------------------------------
 EKB .F         5095.0000:   Kelly bushing
 EGL .F         5085.0000:   Ground level
 EDF .F            0.0000:   Drilling floor
 TD  .F         3121.0000:   Total depth
 DATE.        31-AUG-1977:   Date logged
 CLNT.            A2DTECH:   Client Code
 SL  . 1430' FSL & 330' FNL:   Surface Location
 PD  .                 GL:   Permanent Datum
 EPD .F              5085:   Elevation Permanent Datum
 LMF .                 KB:   Log Measured From
 DMF .                 KB:   Drilling Measured From
 DAPD.F                10:   Feet Above Permanent Datum
 DD  .F              3120:   Depth driller
 DL  .F              3121:   Depth logger
 BLI .F              3119:   Bottom log interval
 TLI .F               200:   Top log interval
 CS1 .IN            8.625:   Casing size
 CBD1.      8.625" @ 206':   Casing driller 1
 CBL1.F               215:   Casing logger 1
 BS1 .IN            7.875:   Bit size
 BSD1.F              3120:   Depth drilled with bit1
 DFT .            KCL/MUD:   Type fluid in hole
 DFD .                  9:   Density
 DFV .                 36:   Viscosity
 DFPH.                 11:   pH
 DFL .                8.4:   Fluid loss
 MSS .           FLOWLINE:   Source of sample
 RMS .OHMM            2.5:   Rm
 MST .F                89:   Rm Meas. temp.
 RMF .OHMM           2.45:   Rmf
 MFST.F                89:   Rmf Meas. temp.
 RMC .OHMM           3.30:   Rmc
 MCST.F                89:   Rmc Meas. temp.
 MFSS.               FANN:   Source Rmf.
 MCSS.                KIT:   Source Rmc.
 RMB .OHMM           1.91:   Rm. at BHT
 BHT .F               116:   BHT.
 TCS .HRS              12:   Time Circ. stopped
 MRT .F               116:   Maximum recorded temp.
 LUN .               9585:   Logging unit number
 LUL .             CASPEN:   Logging unit location
 ENGI.         G. BENTSEN:   Recorded By
 WITN.      W. PETTINGILL:   Witnessed by
 ORIG.           5" PRINT:   Origin of data
 UWI .     49025104180000:   Unique Well ID
 DICO. A2D TECHNOLOGIES, INC.:   Digitizing Company
~OTHER INFORMATION
~A   DEPT     CALD         GRD      DPHI       RHOB        CORR       SPR       GURD        ILD        ILM   
# ...
 2901.5000     8.7011   135.1021     0.1088     2.4751    -0.0020   -63.6630     5.6935     4.0589     4.8763
 2902.0000     8.6809   138.0404     0.1112     2.4691    -0.0001   -63.6431     5.3394     3.8765     4.5308
 2902.5000     8.7002   140.3986     0.1152     2.4631    -0.0001   -62.9877     4.4459     3.8056     4.1331
 2903.0000     8.7194   144.3347     0.1168     2.4581     0.0039   -62.7923     4.0935     3.7017     3.8403
 2903.5000     8.7189   145.1152     0.1180     2.4561     0.0078   -62.7943     3.8745     3.6674     3.7013
 2904.0000     8.7382   144.3195     0.1192     2.4610     0.0078   -62.7963     5.2385     3.6334     4.1306
 2904.5000     8.7377   132.8681     0.1068     2.4710     0.0098   -62.6009     6.1751     3.6324     4.4442
 2905.0000     8.7570   123.7099     0.1060     2.4859     0.0138   -62.6029     7.1468     3.7670     5.1447
 2905.5000     8.7565   114.5516     0.0885     2.4919     0.0177   -62.6048     7.2773     3.9067     5.9015
 2906.0000     8.7363   103.2475     0.0877     2.4998     0.0177   -62.6068     6.9506     4.0891     6.5256
 2906.5000     8.7359   102.0625     0.0841     2.5058     0.0197   -62.6088     7.2083     4.4388     6.5854
 2907.0000     8.7354   100.4739     0.0829     2.5088     0.0197   -62.6104     7.4761     4.6883     7.1496
 2907.5000     8.7547   100.4651     0.0818     2.5117     0.0196   -62.6124     7.9691     4.9518     7.4154
 2908.0000     8.7542   100.4562     0.0806     2.5157     0.0196   -62.6144     8.2642     5.1826     7.4823
 2908.5000     8.7143    99.6583     0.0798     2.5167     0.0176   -62.6163     8.2633     5.4241     7.1458
 2909.0000     8.6546    99.2549     0.0806     2.5127     0.0156   -62.6183     7.8199     5.5232     7.0152
 2909.5000     8.6147    99.2461     0.0834     2.5047     0.0136   -62.6203     7.4688     5.5729     6.9494
 2910.0000     8.6143    99.2372     0.0846     2.4997     0.0076   -62.6223     7.9613     5.7795     7.0125
 2910.5000     8.6138    99.2283     0.0874     2.4987     0.0036   -62.2295     8.4093     5.7783     7.5443
 2911.0000     8.6133    99.6139     0.0906     2.4997    -0.0004   -62.4289     9.6435     5.7774     7.8965
 2911.5000     8.6326    99.6050     0.0926     2.4977    -0.0064   -62.4309     9.9276     5.8828     8.1148
 2912.0000     8.6518    99.2016     0.0946     2.4917    -0.0084   -62.4328     8.3280     5.8816     8.1136
 2912.5000     8.6711    98.0092     0.0970     2.4837    -0.0085   -62.4348     8.5582     5.8805     8.1121
 2913.0000     8.6509    96.0276     0.1006     2.4797    -0.0085   -62.4368     8.4783     5.8260     7.7475
 2913.5000     8.6702    94.0460     0.1018     2.4767    -0.0085   -62.4388     8.0242     5.8247     7.2641
 2914.0000     8.6302    90.4808     0.1034     2.4767    -0.0085   -62.4408     7.5937     5.8235     7.1968
 2914.5000     8.6495    90.4754     0.1042     2.4766    -0.0085   -62.4428     7.7328     5.7693     7.3957
 2915.0000     8.6490    90.0773     0.1042     2.4766    -0.0086   -62.2470     8.3183     5.9288     7.7411
 2915.5000     8.6486    90.0629     0.1038     2.4766    -0.0066   -62.2494     8.5483     5.9279     8.1029
 2916.0000     8.6481    90.8431     0.1034     2.4766    -0.0086   -62.0528     8.8657     5.9810     8.4039
 2916.5000     8.6476    91.6250     0.1026     2.4776    -0.0086   -62.3641     9.1108     5.9800     8.0996
 2917.0000     8.6669    93.1961     0.1022     2.4776    -0.0086   -62.4527     9.1097     5.9789     7.5257
 2917.5000     8.6467    94.7654     0.1022     2.4776    -0.0087   -62.6520     8.3869     5.8200     7.2534
 2918.0000     8.6459    95.5474     0.1078     2.4775    -0.0087   -62.8513     7.6520     5.6614     7.0555
 2918.5000     8.6458    96.3259     0.1135     2.4735    -0.0067   -62.8533     7.1757     5.7127     6.7997
 2919.0000     8.6455    96.7115     0.1190     2.4596    -0.0067   -63.0527     6.7910     5.2110     6.5536
 2919.5000     8.6448    97.0972     0.1206     2.4479    -0.0087   -63.0547     6.6668     4.8416     6.2590
 2920.0000     8.6246    99.4541     0.1289     2.4362    -0.0008   -63.0566     6.6652     4.3366     5.9771
 2920.5000     8.6439   104.5695     0.1373     2.4246    -0.0108   -62.8613     6.6640     3.8838     5.5534
 2921.0000     8.6632   109.2958     0.1441     2.4129    -0.0108   -62.8624     6.6627     3.4467     4.8832
 2921.5000     8.6627   112.8402     0.1522     2.4027    -0.0128   -62.6535     5.9140     3.2318     4.3337
 2922.0000     8.6622   118.3559     0.1602     2.3910    -0.0128   -62.4445     4.7465     3.1434     3.1432
 2922.5000     8.6618   124.4082     0.1677     2.3793    -0.0109   -62.2355     3.1717     3.1143     2.8411
 2923.0000     8.6613   131.9634     0.1713     2.3677    -0.0109   -62.0817     2.4321     3.0290     2.6155
 2923.5000     8.6608   140.8285     0.1756     2.3507    -0.0109   -61.8863     2.3656     3.0007     2.5911
 2924.0000     8.6604   142.7982     0.1761     2.3507    -0.0109   -61.8883     2.4533     3.0001     2.8134
 2924.5000     8.6402   132.0288     0.1685     2.3616    -0.0109   -61.8903     4.3980     2.9997     4.3680
 2925.0000     8.6397   119.4896     0.1554     2.3726    -0.0110   -61.8923     7.0927     2.9989     4.8310
 2925.5000     8.6392   102.9009     0.1474     2.4384    -0.0070   -62.0916     8.4390     3.1679     5.1504
 2926.0000     8.6190    87.5012     0.1071     2.4753    -0.0030   -62.0936     9.6795     3.6010     5.8014
 2926.5000     8.6186    83.9405     0.1011     2.4793    -0.0030   -62.0956     9.7667     4.1692     6.5347
 2927.0000     8.5984    83.1421     0.1011     2.4812    -0.0031   -61.9002     9.5007     4.8270     7.0955
 2927.5000     8.6176    83.1331     0.1031     2.4733    -0.0051   -61.9022     9.0739     5.2899     7.1598
 2928.0000     8.6171    83.9133     0.1035     2.4722    -0.0051   -61.9042     8.0538     5.7969     7.1582
 2928.5000     8.6167    85.8776     0.1047     2.4712    -0.0011   -61.9062     7.8342     6.0070     7.1571
 2929.0000     8.6359    87.8437     0.1063     2.4712    -0.0012   -62.1055     7.6908     6.0058     7.1554
 2929.5000     8.6157    90.8654     0.1083     2.4712     0.0028   -62.1075     7.3447     6.0046     6.9599
 2930.0000     8.6942    93.8836     0.1099     2.4682     0.0028   -62.5050     7.1443     5.6352     6.6467
 2930.5000     8.6148    96.9019     0.1123     2.4632     0.0028   -62.7035     7.0779     5.4811     6.1189
 2931.0000     8.6143    99.2604     0.1139     2.4594     0.0028   -62.9025     6.9481     5.1866     5.8973
 2931.5000     8.6139   102.6265     0.1155     2.4556     0.0047   -63.1026     6.6358     4.9079     5.8423
 2932.0000     8.6134   105.9927     0.1175     2.4518     0.0047   -63.0061     6.1659     4.5181     5.6307
 2932.5000     8.6327   110.6744     0.1203     2.4462     0.0027   -62.9095     5.9432     4.3148     5.0431
 2933.0000     8.6717   115.1903     0.1203     2.4412     0.0027   -62.8129     5.7283     3.7249     4.8604
 2933.5000     8.7107   119.7063     0.1296     2.4282     0.0007   -62.7164     5.3224     3.4606     4.4334
 2934.0000     8.7694   124.2222     0.1351     2.4242     0.0006   -62.7170     4.9456     3.2151     4.2728
 2934.5000     8.7887   128.7382     0.1367     2.4192     0.0026   -62.9163     3.3654     2.9323     3.4276
 2935.0000     8.8079   133.5289     0.1379     2.4182     0.0026   -62.7210     3.0698     2.8007     3.0140
 2935.5000     8.8667   138.2533     0.1383     2.4182     0.0026   -62.7229     2.9314     2.8000     2.9316
 2936.0000     8.7873   140.2184     0.1379     2.4181     0.0026   -62.7249     3.0964     2.8513     3.6193
 2936.5000     8.7671   134.2891     0.1355     2.4181     0.0025   -62.7269     3.7533     2.9303     4.0030
 2937.0000     8.7666   124.0160     0.1214     2.4400     0.0065   -62.5315     7.1255     3.1527     4.9879
 2937.5000     8.7069   110.5849     0.1036     2.4679     0.0065   -62.7309     7.8794     3.2106     5.5675
