~VERSION INFORMATION
 VERS.                2.0:   CWLS LOG ASCII STANDARD - VERSION 2.0
 WRAP.                 NO:   ONE LINE PER DEPTH STEP
~WELL INFORMATION
#MNEM.UNIT      DATA TYPE    INFORMATION
#----------   ------------   ------------------------------
 STRT.F            0.5000:   START DEPTH
 STOP.F         5663.0000:   STOP DEPTH
 STEP.F            0.5000:   STEP LENGTH
 NULL.          -999.2500:   NO VALUE
 COMP.         U. S. NAVY:   COMPANY
 WELL.         US TP #1-3:   WELL
 FLD . TEAPOT NAVAL RESERVE:   FIELD
 LOC .       S3 T38N R78W:   LOCATION
 CNTY.            NATRONA:   COUNTY
 STAT.            WYOMING:   STATE
 CTRY. UNITED STATES OF AMERICA:   COUNTRY
 SRVC.       SCHLUMBERGER:   SERVICE COMPANY
 DATE.        27-FEB-1953:   LOGDATE
 API .     49025064250000:   API NUMBER
~CURVE INFORMATION
#MNEM.UNIT       API CODE    CURVE DESCRIPTION
#----------   ------------   ------------------------------
 DEPT.F                  :   
 SPR .MV     01 010 01 00:   SPONTANEOUS POTENTIAL FROM RES.
 ASN .OHMM   01 041 16 00:   AMPLIFIED SHORT NORMAL 16"
 LAT .OHMM   01 070 00 00:   LATERAL
 LN  .OHMM   01 060 64 00:   LONG NORMAL 64"
 GRN .CPS    35 310 01 00:   GAMMA RAY
 NEUT.NAPI   35 330 01 00:   NEUTRON
~PARAMETER INFORMATION
#MNEM.UNIT          VALUE    DESCRIPTION
#----------   ------------   ------------------------------
 EKB .F            0.0000:   Kelly bushing
 EGL .F            0.0000:   Ground level
 EDF .F            0.0000:   Drilling floor
 EPD .F            0.0000:   Permanent datum
 TD  .F         5653.0000:   Total depth
 DATE.        27-FEB-1953:   Date logged
 CLNT.            A2DTECH:   Client Code
 DD  .F              5653:   Depth driller
 DL  .F              5653:   Depth logger
 BLI .F              5652:   Bottom log interval
 TLI .F               446:   Top log interval
 CBD1.F               445:   Casing driller 1
 CBL1.F               446:   Casing logger 1
 BS1 .IN                9:   Bit size
 BSD1.F              5653:   Depth drilled with bit1
 DFT .          LIMA/BASE:   Type fluid in hole
 DFD .                9.9:   Density
 DFV .                 43:   Viscosity
 RMS .OHMM            1.1:   Rm
 MST .F                55:   Rm Meas. temp.
 RMB .OHMM            .34:   Rm. at BHT
 BHT .F               166:   BHT.
 TCS .HRS               1:   Time Circ. stopped
 MRT .F               166:   Maximum recorded temp.
 LUN .                728:   Logging unit number
 LUL .               CSPR:   Logging unit location
 ENGI.            EVENSON:   Recorded By
 WITN.              MILLS:   Witnessed by
 ORIG.      1" 2.5" PRINT:   Origin of data
 UWI .     49025064250000:   Unique Well ID
 DICO. A2D TECHNOLOGIES, INC.:   Digitizing Company
~OTHER INFORMATION
~A  DEPTH      SPR        ASN        LAT         LN        GRN       NEUT
# ...
 1456.5000   -36.8031     6.0152     9.0433     7.5825    61.5288   171.9824
 1457.0000   -36.9144     6.0154     9.0437     7.5822    61.5225   164.5895
 1457.5000   -37.0174     6.0276     8.9096     7.5819    61.2782   155.4448
 1458.0000   -37.1059     6.0427     8.8098     7.5816    60.2757   145.7319
 1458.5000   -37.2882     6.0428     8.7759     7.5812    58.7597   136.1604
 1459.0000   -37.2895     6.0430     8.7231     7.5853    57.9386   120.4663
 1459.5000   -37.2909     5.9829     8.5077     7.7142    58.2927   115.4104
 1460.0000   -37.2922     5.9081     8.2392     7.7139    59.9000   115.4040
 1460.5000   -37.2936     5.8812     8.1052     7.7136    61.5288   128.0238
 1461.0000   -37.4088     5.8814     8.1055     7.7132    62.3622   139.7605
 1461.5000   -37.5643     5.8847     8.2403     7.7129    61.5288   150.7379
 1462.0000   -37.5657     5.9627     8.2455     7.7126    60.8104   158.6873
 1462.5000   -37.5670     5.9916     8.3754     7.7122    60.0251   168.4016
 1463.0000   -37.5684     6.0481     8.5101     7.7119    59.5238   173.4469
 1463.5000   -37.5697     6.0985     8.6448     7.7116    59.4266   181.0174
 1464.0000   -37.4102     6.1924     8.6452     7.7112    59.5238   193.6358
 1464.5000   -37.3043     6.2409     8.6455     7.7109    60.0606   207.8669
 1465.0000   -37.3056     6.3149     8.6459     7.8108    60.5263   228.9763
 1465.5000   -37.3070     6.3420     8.6835     7.8439    61.0276   246.8381
 1466.0000   -37.3083     6.3934     8.7810     7.8436    60.6642   241.8437
 1466.5000   -37.3097     6.4504     8.7812     7.8432    59.5238   218.8570
 1467.0000   -37.3110     6.4861     8.7816     7.8429    57.5626   191.2621
 1467.5000   -37.3777     6.5208     8.9202     7.8426    55.7644   148.1368
 1468.0000   -37.4450     6.5591     9.0511     7.8422    54.7117   135.5051
 1468.5000   -37.5124     6.6127     9.1853     7.8419    53.2518   141.8431
 1469.0000   -37.5845     6.6430     9.3206     7.8449    53.2015   150.6439
 1469.5000   -37.5858     6.6796     9.3209     7.9265    55.8521   153.1638
 1470.0000   -37.5871     6.7257     9.4265     7.9746    58.5213   150.6307
 1470.5000   -37.5885     6.7572     9.5367     7.9743    59.2732   150.2145
 1471.0000   -37.5898     6.7981     9.6751     7.9739    59.5238   145.5671
 1471.5000   -37.5912     6.8572     9.7255     7.9736    59.5238   150.6123
 1472.0000   -37.5925     6.8573     9.8602     7.9733    59.0726   166.2617
 1472.5000   -37.5938     6.8845     9.6850     7.9729    57.5188   180.9023
 1473.0000   -37.5952     6.8846     9.5205     7.9726    55.5389   202.8028
 1473.5000   -37.5965     6.8847     9.3237     7.9723    53.0075   216.2427
 1474.0000   -37.5979     6.8578     9.0551     7.9719    51.9925   218.7628
 1474.5000   -37.5992     6.8201     8.8384     7.9716    51.3879   212.5384
 1475.0000   -37.6005     6.7500     8.7870     7.9713    50.7519   204.8614
 1475.5000   -37.3339     6.7137     8.6529     7.9709    51.5759   197.8159
 1476.0000   -37.3351     6.6470     8.5188     7.9706    52.5063   190.9588
 1476.5000   -37.3366     6.5803     8.3847     7.9703    53.5652   180.5682
 1477.0000   -37.1887     6.5343     8.3851     7.9699    55.5138   170.7437
 1477.5000   -37.0710     6.5074     8.3854     7.9696    57.7694   160.6375
 1478.0000   -37.0724     6.5346     8.5202     7.9693    59.5238   157.2227
 1478.5000   -37.0737     6.5347     8.6578     7.9689    59.0226   164.4768
 1479.0000   -37.0700     6.5619     8.8562     7.9686    58.4775   175.6646
 1479.5000   -36.9063     6.5925     9.0588     7.9682    57.2682   188.3891
 1480.0000   -36.8097     6.6433     9.2204     7.9679    55.7644   193.4344
 1480.5000   -36.8110     6.6434     9.3283     7.9676    53.8910   198.4796
 1481.0000   -36.7297     6.6706     9.5041     7.9672    49.7494   183.3203
 1481.5000   -36.5454     6.6711     9.7831     8.1006    47.8760   174.5400
 1482.0000   -36.5469     6.6978     9.8669     8.1002    46.4912   159.0014
 1482.5000   -36.5483     6.6439     9.8895     8.2337    44.9718   140.0572
 1483.0000   -36.5497     6.5947     9.9723     8.2332    44.7368   124.1417
 1483.5000   -36.5509     6.5631    10.0024     8.2330    45.4887   112.5818
 1484.0000   -36.5523     6.5362    10.1385     8.3663    48.6715   116.6159
 1484.5000   -36.5536     6.5904    10.2718     8.3660    51.5038   130.2455
 1485.0000   -36.5552     6.6446    10.2722     8.3656    53.0704   140.9717
 1485.5000   -36.5563     6.6447    10.2725     8.3653    54.7619   151.7934
 1486.0000   -36.5576     6.5076     9.8696     8.3650    56.0150   157.8786
 1486.5000   -36.5590     6.3207     9.2944     8.3646    58.5432   166.4894
 1487.0000   -36.5603     6.2609     8.7951     8.2306    60.0251   172.5758
 1487.5000   -36.5617     6.2129     8.7954     8.2302    60.9178   178.6619
 1488.0000   -36.7775     6.2173     8.9302     8.2299    62.5313   188.2818
 1488.5000   -36.8325     6.2942     9.0038     8.2296    62.5297   200.9340
 1489.0000   -36.8338     6.3512     9.1997     8.2293    62.1741   210.6197
 1489.5000   -36.8352     6.4296     9.3343     8.2289    61.5288   221.0918
 1490.0000   -37.1046     6.4595     9.3347     8.2286    61.2156   226.7673
 1490.5000   -37.1059     6.5592     9.4694     8.2283    60.8192   228.6553
 1491.0000   -37.1072     6.6462     9.4698     8.2279    60.5263   223.4095
 1491.5000   -37.1088     6.6734     9.6045     8.2276    60.5263   216.0789
 1492.0000   -37.2574     6.7005     9.4704     8.2273    60.7769   200.8583
 1492.5000   -37.3796     6.7007     9.3364     8.2269    61.3566   179.2270
 1493.0000   -37.3807     6.7008     9.2323     8.2266    62.0301   157.9160
 1493.5000   -37.3820     6.6643     9.0267     8.2263    62.5313   171.5768
 1494.0000   -37.3834     6.5930     8.8622     8.2259    62.5313   185.6806
 1494.5000   -37.3847     6.5309     8.8001     8.2256    62.0301   190.7259
 1495.0000   -37.3861     6.4581     8.8004     8.2587    60.5890   185.1955
 1495.5000   -37.3874     6.4312     8.8007     8.3129    59.1948   182.1434
 1496.0000   -37.3887     6.5124     8.8011     8.3583    58.1954   177.5757
 1496.5000   -37.3901     6.5521     8.8014     8.3580    57.5188   170.4977
 1497.0000   -37.3916     6.6208     8.8018     8.4011    56.7606   162.8542
 1497.5000   -37.3928     6.6633     8.9471     8.4909    56.5163   159.2801
 1498.0000   -37.3943     6.7292     9.0713     8.6244    56.5163   155.3279
 1498.5000   -37.3954     6.7564     9.2251     8.6240    55.7912   173.1266
 1499.0000   -37.3970     6.7835     9.3408     8.6604    54.7619   200.7693
 1499.5000   -37.3981     6.8107     9.3442     8.7570    53.9660   220.9661
 1500.0000   -37.3995     6.6892     9.4758     8.7567    53.0075   219.6970
 1500.5000   -37.4008     6.6218     9.4761     8.7564    52.2556   208.3268
 1501.0000   -37.4021     6.6619     9.4583     8.7560    51.4223   194.0526
 1501.5000   -37.4035     6.7009     9.3424     8.7557    50.8177   180.5359
 1502.0000   -37.4048     6.7491     9.1666     8.7553    50.0691   178.0050
 1502.5000   -37.4062     6.7700     8.8886     8.7550    49.4048   176.8938
 1503.0000   -37.4075     6.7891     8.8057     8.7546    48.9975   180.5176
 1503.5000   -37.4088     6.8118     8.6269     8.7543    48.7469   180.5114
 1504.0000   -37.3029     6.8324     8.5376     8.7540    48.7469   179.4949
 1504.5000   -37.1138     6.8391     8.8068     8.7537    49.9092   174.3745
 1505.0000   -37.0051     6.8392     8.9449     8.7533    51.7544   167.8652
 1505.5000   -36.8782     6.8299     9.2749     8.7530    53.5371   160.1889
 1506.0000   -36.8794     6.8124     9.6143     8.7527    55.3508   152.1339
 1506.5000   -36.8810     6.8126     9.8419     8.7523    57.5188   145.1196
 1507.0000   -36.7497     6.7976    10.1526     8.7520    59.7991   140.0631
 1507.5000   -36.6150     6.7751    10.4217     8.7517    60.7769   140.0560
 1508.0000   -36.6166     6.7589    10.4221     8.7513    61.5288   150.4043
