~VERSION INFORMATION
 VERS.                2.0:   CWLS LOG ASCII STANDARD - VERSION 2.0
 WRAP.                 NO:   ONE LINE PER DEPTH STEP
~WELL INFORMATION
#MNEM.UNIT      DATA TYPE    INFORMATION
#----------   ------------   ------------------------------
 STRT.F          200.0000:   START DEPTH
 STOP.F         3196.5000:   STOP DEPTH
 STEP.F            0.5000:   STEP LENGTH
 NULL.          -999.2500:   NO VALUE
 COMP.    FENIX & SCISSON:   COMPANY
 WELL. FENIX & SCISSON #82-15:   WELL
 FLD .                NPR:   FIELD
 LOC .      S15 T38N R78W:   LOCATION
 CNTY.            NATRONA:   COUNTY
 STAT.            WYOMING:   STATE
 CTRY. UNITED STATES OF AMERICA:   COUNTRY
 SRVC.              WELEX:   SERVICE COMPANY
 DATE.        14-AUG-1977:   LOGDATE
 API .     49025104100000:   API NUMBER
~CURVE INFORMATION
#MNEM.UNIT       API CODE    CURVE DESCRIPTION
#----------   ------------   ------------------------------
 DEPT.F                  :   
 CALD.IN     45 280 60 00:   CALIPER FROM DENSITY LOG
 GRD .GAPI   45 310 01 00:   GAMMA RAY FROM DENSITY LOG
 RHOB.G/C3   45 350 01 00:   BULK DENSITY
 CORR.G/C3   45 356 01 00:   DENSITY CORRECTION
 SPR .MV     07 010 01 00:   SPONTANEOUS POTENTIAL
 ILD .OHMM   07 120 46 00:   DEEP INDUCTION RESISTIVITY
 ILM .OHMM   07 120 44 00:   INDUCTION LOG MEDIUM RESISTIVITY
 GURD.OHMM   07 220 05 00:   GUARD LOG RESISTIVITY
~PARAMETER INFORMATION
#MNEM.UNIT          VALUE    DESCRIPTION
#----------   ------------   ------------------------------
 EKB .F         5259.0000:   Kelly bushing
 EGL .F         5249.0000:   Ground level
 EDF .F            0.0000:   Drilling floor
 EPD .F            0.0000:   Permanent datum
 TD  .F         3197.0000:   Total depth
 CLNT.            A2DTECH:   Client Code
 SL  . 990' FNL & 330' FEL:   Surface Location
 PD  .                 GL:   Permanent Datum
 DAPD.F                10:   Feet Above Permanent Datum
 DATE.        14-AUG-1977:   Date Logged [DD-MMM-YYYY]
 DD  .F              3197:   Depth driller
 DL  .F              3200:   Depth logger
 BLI .F              3198:   Bottom log interval
 TLI .F               200:   Top log interval
 CS1 .IN            8.625:   Casing size
 CBD1.      8.625" @ 236':   Casing driller 1
 CBL1.F               220:   Casing logger 1
 BS1 .IN            7.875:   Bit size
 BSD1.F              3197:   Depth drilled with bit1
 DFT .            KCL MUD:   Type fluid in hole
 DFD .                9.1:   Density
 DFV .                 42:   Viscosity
 DFPH.               10.5:   pH
 DFL .                7.2:   Fluid loss
 MSS .           FLOWLINE:   Source of sample
 RMS .OHMM          0.240:   Rm
 MST .F                92:   Rm Meas. temp.
 RMF .OHMM          0.160:   Rmf
 MFST.F                92:   Rmf Meas. temp.
 MFSS.               MEAS:   Source Rmf.
 RMC .OHMM          0.238:   Rmc
 MCST.F                92:   Rmc Meas. temp.
 MCSS.               MEAS:   Source Rmc.
 RMB .OHMM          0.194:   Rm. at BHT
 BHT .F               114:   BHT.
 TCS .HRS               3:   Time Circ. stopped
 MRT .F               114:   Maximum recorded temp.
 LUN .               9685:   Logging unit number
 LUL .             CASPER:   Logging unit location
 ENGI.            C. DOAK:   Recorded By
 WITN.      W. PETTINGILL:   Witnessed by
 ORIG.           5" PRINT:   Origin of data
 UWI .     49025104100000:   Unique Well ID
 DICO. A2D TECHNOLOGIES, INC.:   Digitizing Company
~OTHER INFORMATION
~A   DEPT       CALD       GRD        RHOB      CORR       SPR        ILD        ILM       GURD   
# ...
 1982.0000    10.7325   137.6505     2.4584     0.0323   -68.2606     6.5160     6.9690     8.5578
 1982.5000    10.7196   136.8814     2.4538     0.0282   -68.2417     6.5662     7.0242     8.6830
 1983.0000    10.7214   136.9115     2.4502     0.0224   -68.2228     6.5710     7.1736     8.6889
 1983.5000    10.6782   136.9469     2.4481     0.0165   -68.2039     6.5759     7.0791     8.6347
 1984.0000    10.6649   137.5757     2.4461     0.0122   -68.1850     6.6265     6.8909     8.6405
 1984.5000    10.6671   137.9046     2.4446     0.0079   -68.1659     6.6314     6.7992     8.5852
 1985.0000    10.6689   137.9337     2.4410     0.0066   -68.1465     6.5451     6.8044     8.5925
 1985.5000    10.6856   137.6098     2.4313     0.0068   -67.9742     6.4598     6.8085     8.5983
 1986.0000    10.6873   136.7925     2.4336     0.0070   -67.8058     6.3329     6.8126     8.5447
 1986.5000    10.6891   135.6222     2.4414     0.0072   -67.7870     6.2927     6.9119     8.5519
 1987.0000    10.6909   135.0515     2.4473     0.0073   -67.6186     6.2107     7.0125     8.5576
 1987.5000    10.6927   136.5872     2.4498     0.0090   -67.4502     6.2165     7.0169     8.5634
 1988.0000    10.6948   138.1155     2.4512     0.0122   -67.4314     6.2211     7.0221     8.5086
 1988.5000    10.6815   139.3440     2.4520     0.0168   -67.1135     6.2690     7.0264     8.5157
 1989.0000    10.6833   139.6729     2.4499     0.0185   -67.0791     6.3172     7.1782     8.6403
 1989.5000    10.6696   139.7020     2.4473     0.0187   -66.7721     6.3229     7.2325     8.6462
 1990.0000    10.6418   139.4303     2.4455     0.0159   -66.4542     6.4596     7.1859     8.7163
 1990.5000    10.5985   139.4604     2.4457     0.0116   -66.4354     6.5103     7.2413     8.9025
 1991.0000    10.5853   139.7901     2.4481     0.0087   -66.4165     6.6060     7.3468     9.1587
 1991.5000    10.5720   140.7252     2.4503     0.0059   -66.5518     6.6568     7.3512     9.3573
 1992.0000    10.5742   141.0541     2.4466     0.0046   -66.6777     6.7081     7.3557     9.5601
 1992.5000    10.5760   140.4835     2.4400     0.0033   -66.6588     6.9016     7.3036     9.5666
 1993.0000    10.5777   140.8125     2.4356     0.0050   -66.6398     7.0031     7.2633     9.4397
 1993.5000    10.5793   142.3335     2.4364     0.0067   -66.9200     7.0569     7.2688     9.3175
 1994.0000    10.5962   140.5708     2.4408     0.0098   -67.2001     7.0622     7.2733     9.3240
 1994.5000    10.5979   140.2929     2.4471     0.0130   -67.1765     7.0676     7.2777     9.5263
 1995.0000    10.5997   141.2593     2.4516     0.0177   -67.1576     7.0238     7.2821     9.6004
 1995.5000    10.6019   142.7643     2.4509     0.0194   -67.1387     6.9818     7.2362     9.6069
 1996.0000    10.6036   141.5940     2.4495     0.0210   -67.1198     6.9375     7.0918     9.6134
 1996.5000    10.6053   140.7235     2.4504     0.0197   -67.1009     6.8960     7.0471     9.4859
 1997.0000    10.6071   140.4455     2.4527     0.0169   -67.0821     6.8522     7.0027     9.2987
 1997.5000    10.6087   141.3814     2.4565     0.0126   -67.0628     6.7176     7.0071     9.1121
 1998.0000    10.6105   141.4105     2.4603     0.0112   -67.0396     6.6760     7.0123     8.4509
 1998.5000    10.6123   140.5400     2.4634     0.0130   -67.0207     6.5892     7.0653     7.0632
 1999.0000    10.6141   140.2439     2.4662     0.0191   -67.0018     6.5034     7.1188     7.4529
 1999.5000    10.6162   140.3056     2.4673     0.0193   -67.1371     6.5094     7.2726     8.6472
 2000.0000    10.6180   139.9077     2.4655     0.0165   -66.9630     6.5580     7.4820     9.2719
 2000.5000    10.6241   138.4241     2.4608     0.0120   -66.9469     6.4721     7.5395     8.7204
 2001.0000    10.6302   139.2036     2.4489     0.0063   -66.9309     6.5679     7.5451     8.6684
 2001.5000    10.6363   139.2387     2.4370     0.0005   -66.7654     6.6640     7.5507     8.9224
 2002.0000    10.6525   140.1739     2.4273    -0.0045   -66.7494     6.7616     7.6617     9.0554
 2002.5000    10.6386   139.5601     2.4176    -0.0083   -66.5838     6.8143     7.7743     9.2542
 2003.0000    10.6551   139.0442     2.4110    -0.0111   -66.5678     6.8662     7.7801     9.5232
 2003.5000    10.6563   139.3878     2.4103    -0.0125   -66.5516     6.9186     7.7860     9.5984
 2004.0000    10.6421   139.4230     2.4142    -0.0123   -66.5351     6.9714     7.9017     9.6075
 2004.5000    10.6283   139.1494     2.4198    -0.0106   -66.5157     7.0734     7.9075     9.6834
 2005.0000    10.6298   137.3942     2.4286    -0.0060   -66.4997     7.1769     7.9684     9.7600
 2005.5000    10.6157   136.5210     2.4346    -0.0011   -66.4837     7.1817     8.0855     9.7695
 2006.0000    10.6171   138.0641     2.4400     0.0033   -66.4676     7.2868     8.2043     9.7806
 2006.5000    10.6183   139.5985     2.4423     0.0065   -66.4516     7.2918     8.2104     9.8579
 2007.0000    10.6195   139.6336     2.4349     0.0081   -66.4365     7.2978     8.1598     9.8672
 2007.5000    10.6207   138.1210     2.4282     0.0082   -66.4196     7.3027     7.9383     9.8765
 2008.0000    10.6221   137.6049     2.4245     0.0084   -66.4035     7.3077     7.6795     9.8153
 2008.5000    10.5982   138.5483     2.4234     0.0100   -66.3871     7.3126     7.5258     9.6895
 2009.0000    10.6150   137.3840     2.4232     0.0102   -66.0685     7.3175     7.5328     9.5673
 2009.5000    10.6315   137.1105     2.4241     0.0103   -66.0525     7.2719     7.6435     9.5104
 2010.0000    10.6479   138.0539     2.4264     0.0120   -65.8870     7.2264     7.8640     9.5197
 2010.5000    10.6494   139.8881     2.4295     0.0151   -65.8710     7.1320     7.8698     9.5307
 2011.0000    10.6509   141.1226     2.4318     0.0183   -65.7054     7.1369     7.9855     9.5397
 2011.5000    10.6370   141.1676     2.4334     0.0229   -65.6894     7.1428     7.9914     9.6150
 2012.0000    10.6388   143.2917     2.4349     0.0276   -65.6734     7.1477     7.9975     9.6910
 2012.5000    10.6249   141.2279     2.4365     0.0337   -65.9563     7.1525     8.1164     9.7676
 2013.0000    10.6118   141.2718     2.4396     0.0398   -65.9402     7.1573     8.1224     9.9131
 2013.5000    10.6133   142.5063     2.4427     0.0475   -65.6248     7.1621     8.1284    10.0609
 2014.0000    10.6147   143.4409     2.4450     0.0551   -65.6053     7.1669     8.1344    10.0704
 2014.5000    10.6162   143.4723     2.4398     0.0629   -65.2903     7.1718     8.0285    10.0103
 2015.0000    10.6177   142.9115     2.4263     0.0734   -65.1248     7.1766     7.9236     9.8843
 2015.5000    10.6192   142.6379     2.4134     0.0870   -64.9593     7.1815     7.7131     9.6879
 2016.0000    10.6207   142.6818     2.3892     0.1066   -64.9433     7.1875     7.5079     9.5637
 2016.5000    10.6375   143.9163     2.3713     0.1277   -64.9272     7.1427     7.5671     9.4411
 2017.0000    10.6390   144.2519     2.3594     0.1503   -64.7617     7.0970     7.8395     9.2579
 2017.5000    10.6554   143.9381     2.3407     0.1684   -64.5962     7.1030     8.0657     9.2005
 2018.0000    10.6719   143.1221     2.3108     0.1835   -64.7374     7.0100     8.2411     9.2114
 2018.5000    10.7033   144.0655     2.2989     0.1957   -64.8631     7.0147     8.6568     9.2842
 2019.0000    10.7236   144.4005     2.2900     0.2019   -64.8431     7.0195     8.7841     9.3576
 2019.5000    10.7663   143.8271     2.2998     0.2064   -64.8270     7.0242     8.6697     9.4973
 2020.0000    10.8277   142.0719     2.3044     0.2051   -64.9605     7.0290     8.2085     9.6408
 2020.5000    10.8742   141.4985     2.3000     0.2008   -65.0980     7.0339     7.9839     9.6499
 2021.0000    10.9356   143.0417     2.2900     0.1949   -65.3769     7.0396     7.8861     9.6590
 2021.5000    10.9971   144.2762     2.2642     0.1876   -65.3608     7.0444     7.8934     9.5992
 2022.0000    11.0585   144.6111     2.2373     0.1803   -65.3448     7.0491     7.9541     9.4129
