~VERSION INFORMATION
 VERS.                2.0:   CWLS LOG ASCII STANDARD - VERSION 2.0
 WRAP.                 NO:   ONE LINE PER DEPTH STEP
~WELL INFORMATION
#MNEM.UNIT      DATA TYPE    INFORMATION
#----------   ------------   ------------------------------
 STRT.F            5.5000:   START DEPTH
 STOP.F         3006.0000:   STOP DEPTH
 STEP.F            0.5000:   STEP LENGTH
 NULL.          -999.2500:   NO VALUE
 COMP.    FENIX & SCISSON:   COMPANY
 WELL.  FENIX "AX" #28-28:   WELL
 FLD .  TEAPOT DOME NPR-3:   FIELD
 LOC .      S28 T39N R78W:   LOCATION
 CNTY.            NATRONA:   COUNTY
 STAT.            WYOMING:   STATE
 CTRY. UNITED STATES OF AMERICA:   COUNTRY
 SRVC.           BIRDWELL:   SERVICE COMPANY
 DATE.        23-JAN-1980:   LOGDATE
 API .     49025107960000:   API NUMBER
~CURVE INFORMATION
#MNEM.UNIT       API CODE    CURVE DESCRIPTION
#----------   ------------   ------------------------------
 DEPT.F                  :   
 GRD .GAPI   45 310 01 00:   GAMMA RAY FROM DENSITY LOG
 CALD.IN     45 280 60 00:   CALIPER FROM DENSITY LOG
 DPHI.DEC    45 890 12 00:   DENSITY POROSITY SANDSTONE
 NPHI.DEC    42 890 03 00:   NEUTRON POROSITY SANDSTONE
 CORR.G/C3   45 356 01 00:   DENSITY CORRECTION
 SPR .MV     05 010 01 00:   SPONTANEOUS POTENTIAL FROM RES.
 ILD .OHMM   05 120 40 00:   INDUCTION LOG DEEP RESISTIVITY
 SN  .OHMM   05 040 16 00:   SHORT NORMAL 16"
~PARAMETER INFORMATION
#MNEM.UNIT          VALUE    DESCRIPTION
#----------   ------------   ------------------------------
 EKB .F         5120.0000:   Kelly bushing
 EGL .F         5110.0000:   Ground level
 EDF .F         5119.0000:   Drilling floor
 EPD .F         5110.0000:   Permanent datum
 TD  .F         3006.0000:   Total depth
 CLNT.            A2DTECH:   Client Code
 SL  . 600' FSL & 1300' FWL:   Surface Location
 PD  .                 GL:   Permanent Datum
 DAPD.F                 9:   Feet Above Permanent Datum
 DATE.        23-JAN-1980:   Date Logged [DD-MMM-YYYY]
 DD  .F              3006:   Depth driller
 DL  .F              3006:   Depth logger
 BLI .F              3006:   Bottom log interval
 TLI .F                10:   Top log interval
 CS1 .IN            8.625:   Casing size
 CBD1.      8.625" @ 440':   Casing driller 1
 CBL1.F               460:   Casing logger 1
 BS1 .IN            7.875:   Bit size
 BSD1.F              3006:   Depth drilled with bit1
 DFT .       GEL MUD FULL:   Type fluid in hole
 DFD .                  9:   Density
 DFV .                 46:   Viscosity
 DFPH.                 11:   pH
 DFL .               17.2:   Fluid loss
 MSS .           MUD TANK:   Source of sample
 RMS .OHMM            1.9:   Rm
 MST .F                60:   Rm Meas. temp.
 RMF .OHMM            .73:   Rmf
 MFST.F                62:   Rmf Meas. temp.
 MFSS.               MEAS:   Source Rmf.
 RMC .OHMM            .95:   Rmc
 MCST.F                62:   Rmc Meas. temp.
 TCS .HRS               5:   Time Circ. stopped
 MRT .F               110:   Maximum recorded temp.
 LUN .               3029:   Logging unit number
 LUL .             CASPER:   Logging unit location
 ENGI.           T. WOLFF:   Recorded By
 WITN.           DINSMORE:   Witnessed by
 ORIG.           5" PRINT:   Origin of data
 UWI .     49025107960000:   Unique Well ID
 DICO. A2D TECHNOLOGIES, INC.:   Digitizing Company
~OTHER INFORMATION
~A    DEPT      GRD      CALD       DPHI         NPHI     CORR        SPR        ILD         SN   
# ...
 2800.0000   127.6325     8.0268     0.2475     0.0822     0.0315   -30.1330     5.0289     6.2747
 2800.5000   128.3326     8.0317     0.2493     0.0779     0.0348   -29.8744     5.0322     6.1450
 2801.0000   125.9083     8.0381     0.2481     0.0800     0.0290   -29.5672     5.0711     6.2374
 2801.5000   125.3353     8.0446     0.2427     0.0778     0.0323   -29.2728     5.1102     6.2868
 2802.0000   126.1021     8.0492     0.2276     0.0718     0.0325   -28.9032     5.1866     6.3358
 2802.5000   123.6161     8.0511     0.2267     0.0724     0.0283   -28.5297     5.2267     6.4309
 2803.0000   120.8274     8.0382     0.2258     0.0744     0.0225   -29.4615     5.2734     6.5274
 2803.5000   118.9275     8.0401     0.2120     0.0741     0.0151   -29.7379     5.3464     6.7206
 2804.0000   119.8430     8.0271     0.2018     0.0651     0.0245   -29.6847     5.4263     6.9195
 2804.5000   118.6330     8.0295     0.1927     0.0683     0.0308   -29.4990     5.5073     7.1753
 2805.0000   116.9381     8.0161     0.1891     0.0749     0.0277   -29.2217     5.5896     7.4406
 2805.5000   113.7049     8.0184     0.1876     0.0795     0.0252   -28.4651     5.6731     7.7709
 2806.0000   114.0273     8.0203     0.1921     0.0891     0.0240   -29.2074     5.7991     7.4499
 2806.5000   115.0904     8.0222     0.2025     0.0933     0.0197   -29.9379     5.8857     7.2925
 2807.0000   122.3757     8.0240     0.2052     0.0912     0.0230   -29.9275     5.9312     7.0374
 2807.5000   128.3277     8.0259     0.2128     0.0866     0.0384   -29.6735     5.8504     6.5655
 2808.0000   130.0000     8.0278     0.2320     0.0890     0.0537   -28.8757     5.0881     6.2052
 2808.5000   130.0000     8.0297     0.2462     0.1162     0.0676   -29.7935     4.3926     5.6591
 2809.0000   130.0000     8.0317     0.2513     0.1341     0.0769   -29.9503     4.1217     5.0880
 2809.5000   130.0000     8.0186     0.2675     0.1329     0.0984   -29.7801     3.3140     4.4458
 2810.0000   130.0000     8.0210     0.2819     0.0987     0.1818   -29.0032     3.1996     3.8571
 2810.5000   130.0000     8.0080     0.2855     0.1043     0.1760   -29.1750     3.1332     3.6195
 2811.0000   130.0000     7.9951     0.2579     0.1121     0.0342   -29.7483     3.0910     3.9455
 2811.5000   119.9501     7.9970     0.2303     0.0926     0.0404   -29.7745     3.2510     4.1206
 2812.0000   115.6798     7.9989     0.1930     0.0644     0.0649   -29.7344     3.5184     4.6218
 2812.5000   116.7429     7.9859     0.1948     0.0670     0.0470   -28.6299     3.9461     5.5912
 2813.0000   115.1393     7.9879     0.1972     0.0781     0.0336   -28.6592     4.3942     6.1709
 2813.5000   112.9432     7.9749     0.1978     0.0777     0.0203   -28.7731     4.9283     6.4762
 2814.0000   112.2285     7.9772     0.1966     0.0708     0.0208   -28.8849     5.4103     6.7156
 2814.5000   111.9583     7.9791     0.1983     0.0558     0.0390   -28.9943     5.7314     6.9639
 2815.0000   112.0050     7.9810     0.1971     0.0572     0.0347   -29.0814     5.9006     7.1190
 2815.5000   113.0539     7.9829     0.1968     0.0641     0.0244   -28.8631     5.9046     7.0226
 2816.0000   116.9318     8.0143     0.2013     0.0647     0.0246   -29.2514     5.8242     6.9274
 2816.5000   116.3653     8.0310     0.2049     0.0616     0.0294   -29.7802     5.7041     6.8325
 2817.0000   115.5025     7.9885     0.2102     0.0616     0.0342   -30.1758     5.5467     6.6455
 2817.5000   113.6026     7.9006     0.2081     0.0633     0.0344   -29.9261     5.4315     6.6024
 2818.0000   112.2888     7.8591     0.2042     0.0741     0.0196   -29.2739     5.3576     6.5596
 2818.5000   114.2473     7.8614     0.2084     0.0746     0.0108   -28.7488     5.3613     6.5638
 2819.0000   115.4585     7.8633     0.2089     0.0782     0.0081   -29.3290     5.4414     6.5680
 2819.5000   118.1513     7.8800     0.2071     0.0769     0.0022   -29.3754     5.5227     6.6675
 2820.0000   121.3492     7.9114     0.2131     0.0679     0.0086   -29.3874     5.6453     6.9635
 2820.5000   125.1141     7.9577     0.2170     0.0589     0.0330   -28.5420     5.7707     6.7718
 2821.0000   128.0137     8.0335     0.2164     0.0662     0.0211   -28.2771     5.7603     6.6790
 2821.5000   129.6694     8.0946     0.2157     0.0753     0.0153   -28.9389     5.4574     6.4952
 2822.0000   130.0000     8.1556     0.2235     0.0827     0.0186   -29.5629     5.2316     6.0097
 2822.5000   130.0000     8.1871     0.2292     0.0878     0.0219   -29.5648     4.8741     5.5596
 2823.0000   130.0000     8.2042     0.2427     0.0982     0.0284   -29.6284     4.5736     5.1067
 2823.5000   130.0000     8.2058     0.2618     0.1036     0.0345   -28.7681     4.2307     4.6242
 2824.0000   130.0000     8.2079     0.2915     0.0975     0.0106   -28.7971     3.9977     4.4649
 2824.5000   130.0000     8.1948     0.2793     0.0900     0.0032   -29.1153     3.8879     4.6328
 2825.0000   126.4444     8.1918     0.2518     0.0807     0.0081   -29.5601     3.9460     4.8414
 2825.5000   121.0969     8.1692     0.2081     0.0597     0.0219   -30.0554     4.0916     5.0871
 2826.0000   113.6142     8.1415     0.1937     0.0569     0.0388   -29.2492     4.3344     5.9554
 2826.5000   113.4856     8.1286     0.1924     0.0573     0.0345   -29.3872     4.7640     6.3543
 2827.0000   114.7033     8.1156     0.1930     0.0601     0.0227   -29.4742     5.0888     6.6364
 2827.5000   115.7664     8.1175     0.1942     0.0607     0.0124   -30.0856     5.6540     6.9310
 2828.0000   116.9777     8.1046     0.1954     0.0558     0.0174   -30.4619     5.9894     7.1872
 2828.5000   115.6704     8.0921     0.1918     0.0570     0.0159   -29.1815     6.2548     7.3473
 2829.0000   109.0298     8.0940     0.1851     0.0636     0.0056   -29.3854     6.4395     7.5110
 2829.5000   109.0559     8.0959     0.1881     0.0647     0.0059   -29.5605     6.6296     7.5695
 2830.0000   111.0078     8.0978     0.1890     0.0632     0.0107   -29.5679     6.7287     7.7384
 2830.5000   108.4963     8.0848     0.1866     0.0703     0.0078   -29.5442     6.8292     7.8591
 2831.0000   106.3022     8.0719     0.1764     0.0688     0.0066   -29.3670     6.9312     8.0295
 2831.5000   106.4999     8.0660     0.1694     0.0594     0.0114   -29.1889     6.9351     8.1510
 2832.0000   108.6001     8.0609     0.1673     0.0687     0.0147   -29.0112     6.9886     8.2734
 2832.5000   111.5891     8.0632     0.1730     0.0675     0.0197   -28.8335     7.0427     8.3976
 2833.0000   113.6892     8.0648     0.1781     0.0668     0.0167   -28.6565     7.1480     8.4028
 2833.5000   113.8569     8.0670     0.1840     0.0710     0.0215   -28.4789     7.1528     8.3483
 2834.0000   112.5562     8.0688     0.1891     0.0715     0.0188   -28.3899     7.2596     8.2942
 2834.5000   112.5822     8.0707     0.1942     0.0682     0.0220   -28.3921     7.2637     8.3589
 2835.0000   112.3111     8.0725     0.1945     0.0628     0.0328   -28.3774     7.3722     8.3641
 2835.5000   112.6343     8.0744     0.1914     0.0639     0.0256   -28.9159     7.4291     8.4293
 2836.0000   109.7920     8.0763     0.1856     0.0648     0.0213   -29.4744     7.4865     8.6171
 2836.5000   105.7428     8.0783     0.1830     0.0647     0.0170   -29.5270     7.5984     8.7518
 2837.0000   104.4162     8.0805     0.1830     0.0634     0.0220   -30.0379     7.6026     8.8148
 2837.5000   106.5229     8.0824     0.1836     0.0604     0.0417   -30.3301     7.6069     8.6965
 2838.0000   114.8452     8.0843     0.1902     0.0676     0.0480   -30.3572     7.6111     8.4572
 2838.5000   122.2787     8.0862     0.1991     0.0720     0.0483   -30.3546     7.5075     8.1660
 2839.0000   123.1871     8.1176     0.2039     0.0747     0.0425   -30.2730     7.3878     7.7731
 2839.5000   121.7317     8.1787     0.2027     0.0768     0.0306   -29.8908     6.9993     7.3465
 2840.0000   122.9429     8.2249     0.2003     0.0791     0.0188   -29.5147     6.6621     6.9930
