~VERSION INFORMATION
 VERS.                2.0:   CWLS LOG ASCII STANDARD - VERSION 2.0
 WRAP.                 NO:   ONE LINE PER DEPTH STEP
~WELL INFORMATION
#MNEM.UNIT      DATA TYPE    INFORMATION
#----------   ------------   ------------------------------
 STRT.F          484.0000:   START DEPTH
 STOP.F         4334.0000:   STOP DEPTH
 STEP.F            0.5000:   STEP LENGTH
 NULL.          -999.2500:   NO VALUE
 COMP.    FENIX & SCISSON:   COMPANY
 WELL. FENIX NPR 3 "JX" #46-27:   WELL
 FLD .              N P R:   FIELD
 LOC .      S27 T39N R78W:   LOCATION
 CNTY.            NATRONA:   COUNTY
 STAT.            WYOMING:   STATE
 CTRY. UNITED STATES OF AMERICA:   COUNTRY
 SRVC.       SCHLUMBERGER:   SERVICE COMPANY
 DATE.        01-MAR-1979:   LOGDATE
 API .     49025107660000:   API NUMBER
~CURVE INFORMATION
#MNEM.UNIT       API CODE    CURVE DESCRIPTION
#----------   ------------   ------------------------------
 DEPT.F                  :   
 TENR.LBS    07 635 01 00:   TENSION FROM RESISTIVITY
 SPR .MV     07 010 01 00:   SPONTANEOUS POTENTIAL
 SFL .OHMM   07 220 01 00:   SHALLOW FOCUSED LOG RESISTIVITY
 ILD .OHMM   07 120 46 00:   DEEP INDUCTION RESISTIVITY
 ILM .OHMM   07 120 44 00:   INDUCTION LOG MEDIUM RESISTIVITY
 TEND.LBS    42 635 01 00:   TENSION FROM COMPENSATE NEUTRON
 GRD .GAPI   45 310 01 00:   GAMMA RAY FROM DENSITY LOG
 CALD.IN     45 280 60 00:   CALIPER FROM DENSITY LOG
 RHOB.G/C3   45 350 01 00:   BULK DENSITY
 CORR.G/C3   45 356 01 00:   DENSITY CORRECTION
 NPHI.DEC    42 890 03 00:   NEUTRON POROSITY SANDSTONE
~PARAMETER INFORMATION
#MNEM.UNIT          VALUE    DESCRIPTION
#----------   ------------   ------------------------------
 EKB .F         5059.0000:   Kelly bushing
 EGL .F         5049.0000:   Ground level
 EDF .F            0.0000:   Drilling floor
 TD  .F         4320.0000:   Total depth
 DATE.        01-MAR-1979:   Date logged
 CLNT.            A2DTECH:   Client Code
 SL  . 1625' FSL & 2281' FWL:   Surface Location
 PD  .                 GL:   Permanent Datum
 DD  .F              4320:   Depth driller
 DL  .F              4319:   Depth logger
 BLI .F              4316:   Bottom log interval
 CS1 .IN            8.625:   Casing size
 CBD1.      8.625" @ 505':   Casing driller 1
 CBL1.F               500:   Casing logger 1
 BS1 .IN            7.875:   Bit size
 DFT .                FGM:   Type fluid in hole
 DFD .                9.1:   Density
 DFV .                 40:   Viscosity
 DFPH.               11.7:   pH
 DFL .                6.5:   Fluid loss
 MSS .               TANK:   Source of sample
 RMS .OHMM           .901:   Rm
 MST .F                65:   Rm Meas. temp.
 RMF .OHMM           .852:   Rmf
 MFST.F                65:   Rmf Meas. temp.
 MFSS.               MEAS:   Source Rmf.
 RMB .OHMM            .39:   Rm. at BHT
 BHT .F               151:   BHT.
 TCS .HRS            1200:   Time Circ. stopped
 MRT .F               151:   Maximum recorded temp.
 LUN .               8043:   Logging unit number
 LUL .               CSPR:   Logging unit location
 ENGI.              PFARR:   Recorded By
 WITN.              AMENO:   Witnessed by
 ORIG.         2.5" PRINT:   Origin of data
 UWI .     49025107660000:   Unique Well ID
 DICO. A2D TECHNOLOGIES, INC.:   Digitizing Company
 DAPD.                 10:   Feet Above Permanent Datum
 BSD1.F              4320:   Depth drilled with bit1
 EPD .F              5049:   Elevation Permanent Datum
 LMF .                 KB:   Log Measured From
 DMF .                 KB:   Drilling Measured From
 TLI .F               500:   Top log interval
 TLAB.HRS            1900:   Time logger at bottom
~OTHER INFORMATION
~A   DEPT     TENR        SPR        SFL        ILD        ILM       TEND         GRD      CALD       RHOB       CORR         NPHI 
# ...
 1002.5000   393.2880   -39.7860     8.9300     8.1760     8.3270   716.3560    94.7700     9.0250     2.4960     0.0080     0.2930
 1003.0000   393.4780   -40.0910     9.0220     8.2430     8.3950   716.7230    96.2170     9.0280     2.5010     0.0110     0.2880
 1003.5000   393.6690   -40.2970     9.1140     8.3110     8.4640   717.0900    97.7400     9.0310     2.4950     0.0140     0.2830
 1004.0000   393.8590   -40.2570     9.2060     8.3780     8.5330   717.4570    98.0330     9.0330     2.5020     0.0170     0.2790
 1004.5000   394.0500   -40.1880     9.2980     8.4450     8.6010   717.8240    94.8900     9.0360     2.5140     0.0200     0.2790
 1005.0000   394.2410   -40.1220     9.3680     8.5130     8.6700   718.1910    91.9040     9.0390     2.5230     0.0220     0.2800
 1005.5000   394.4310   -40.0470     9.5410     8.5500     8.7080   718.5590    88.6330     9.0410     2.5160     0.0240     0.2810
 1006.0000   394.6220   -39.9760     9.4130     8.5270     8.6850   718.9260    87.5370     9.0440     2.5100     0.0140     0.2830
 1006.5000   394.8130   -39.9120     9.2900     8.5050     8.6620   719.2930    87.7450     9.0460     2.5120     0.0190     0.2840
 1007.0000   395.0030   -39.8030     9.1670     8.4830     8.6400   719.6600    89.7460     9.0490     2.5280     0.0300     0.2830
 1007.5000   395.1940   -39.6650     9.0440     8.4610     8.6170   720.0270    91.6870     9.0530     2.5350     0.0400     0.2830
 1008.0000   395.3850   -39.5360     8.9210     8.4390     8.5950   720.3950    93.7350     9.0530     2.5280     0.0490     0.2870
 1008.5000   395.5750   -39.4080     8.7360     8.4170     8.5720   720.7620    95.7500     9.0570     2.5190     0.0450     0.2950
 1009.0000   395.7660   -39.2740     8.8690     8.3950     8.5500   721.1290    97.7330     9.0670     2.5140     0.0470     0.3040
 1009.5000   395.9560   -39.1480     8.8580     8.3730     8.5280   721.4960    99.5300     9.1020     2.5180     0.0490     0.3020
 1010.0000   396.1470   -39.0200     8.8360     8.3510     8.5050   721.8630    99.5760     9.0690     2.5210     0.0520     0.3000
 1010.5000   396.3380   -38.8700     8.8140     8.3290     8.4830   722.2300    99.6070     9.0450     2.5230     0.0530     0.2960
 1011.0000   396.5280   -38.7940     8.7920     8.3070     8.4600   722.5980    99.6730     9.0170     2.5160     0.0380     0.2970
 1011.5000   396.7190   -38.3560     8.7690     8.2850     8.4380   722.9650    98.4850     8.9900     2.5030     0.0300     0.3040
 1012.0000   396.9100   -38.3810     8.7470     8.2630     8.4160   723.3320    95.8640     8.9630     2.4920     0.0270     0.3020
 1012.5000   397.1000   -38.5280     8.7250     8.2410     8.3930   723.6990    93.1330     8.9360     2.4910     0.0240     0.2920
 1013.0000   397.2910   -38.7000     8.7030     8.2190     8.3710   724.0660    91.7500     8.9090     2.4900     0.0210     0.2920
 1013.5000   397.4810   -39.0140     8.6810     8.1970     8.3480   724.4330    92.9690     8.8820     2.4870     0.0170     0.2980
 1014.0000   397.6720   -39.3810     8.6580     8.1750     8.3260   724.8010    93.9040     8.8550     2.4840     0.0090     0.3040
 1014.5000   397.8630   -39.7380     8.6360     8.1530     8.3030   725.1680    94.8810     8.8280     2.4910     0.0090     0.3100
 1015.0000   398.0530   -40.1200     8.6140     8.1310     8.2800   725.5350    96.0200     8.8170     2.5020     0.0160     0.3070
 1015.5000   398.2440   -40.2560     8.5920     8.1080     8.2570   725.9020    95.8190     8.8110     2.5110     0.0220     0.3000
 1016.0000   398.4350   -40.1560     8.5700     8.0950     8.2440   726.2690    94.4490     8.8040     2.5140     0.0280     0.3010
 1016.5000   398.6250   -40.0840     8.5500     8.0980     8.2470   726.6370    93.1420     8.7970     2.5150     0.0350     0.3040
 1017.0000   398.8160   -40.0130     8.5740     8.1060     8.2550   727.0040    91.9380     8.7900     2.5100     0.0380     0.3040
 1017.5000   399.0070   -39.9200     8.6070     8.1140     8.2630   727.3710    90.8980     8.7840     2.5030     0.0360     0.3020
 1018.0000   399.1970   -39.9220     8.6390     8.1210     8.2710   727.7380    92.2210     8.7770     2.4970     0.0340     0.3000
 1018.5000   399.3880   -40.0880     8.6720     8.1290     8.2790   728.1050    93.4400     8.7700     2.4920     0.0320     0.2890
 1019.0000   399.5780   -40.1800     8.7050     8.1360     8.2870   728.4720    95.0280     8.7630     2.5060     0.0310     0.2860
 1019.5000   399.7690   -40.5240     8.7380     8.1440     8.2940   728.8400    95.0140     8.7560     2.5190     0.0420     0.2880
 1020.0000   399.9600   -40.2010     8.7700     8.1520     8.3020   729.2070    95.2860     8.7490     2.5310     0.0560     0.2970
 1020.5000   400.1500   -39.4720     8.8030     8.1590     8.3100   729.5740    95.4540     8.7430     2.5350     0.0530     0.2960
 1021.0000   400.3410   -38.9280     8.8360     8.1670     8.3180   729.9410    96.0880     8.7360     2.5170     0.0460     0.2940
 1021.5000   400.5320   -38.7110     8.8690     8.1750     8.3250   730.3080    97.4130     8.7290     2.5030     0.0390     0.2920
 1022.0000   400.7220   -38.7870     8.9010     8.1820     8.3330   730.6760    98.7730     8.7220     2.4900     0.0320     0.2920
 1022.5000   400.9130   -38.9060     8.9340     8.1900     8.3410   731.0430    98.2480     8.7150     2.4950     0.0260     0.2930
 1023.0000   401.1040   -39.0390     8.9660     8.1980     8.3490   731.4100    97.2360     8.7080     2.5000     0.0270     0.2930
 1023.5000   401.2940   -39.1590     8.9980     8.2050     8.3570   731.7770    96.4320     8.7020     2.5040     0.0310     0.2920
 1024.0000   401.4850   -39.2840     9.0310     8.2130     8.3640   732.1440    97.9370     8.7000     2.5070     0.0340     0.2890
 1024.5000   401.6750   -39.4100     9.0310     8.2210     8.3720   732.5110    98.1610     8.7000     2.5090     0.0360     0.2860
 1025.0000   401.8660   -39.5330     9.0100     8.2280     8.3800   732.8790    99.0240     8.7000     2.5030     0.0320     0.2820
 1025.5000   402.0570   -39.6580     8.9930     8.2360     8.3880   733.2460    96.2460     8.7000     2.5020     0.0290     0.2820
 1026.0000   402.2470   -39.7840     8.9760     8.2430     8.3950   733.6130    96.4340     8.7000     2.5020     0.0250     0.2820
 1026.5000   402.4380   -39.8870     8.9580     8.2430     8.3950   733.9800    96.3970     8.7000     2.5100     0.0220     0.2840
 1027.0000   402.6290   -39.9220     8.9400     8.2440     8.3960   732.6010    93.4340     8.7000     2.5030     0.0180     0.2890
 1027.5000   402.8190   -39.9580     8.9230     8.2430     8.3950   730.0570    90.0600     8.7000     2.4900     0.0150     0.2940
 1028.0000   403.0100   -39.9910     8.9050     8.2430     8.3960   727.5130    88.1590     8.7000     2.4910     0.0110     0.2980
 1028.5000   403.2000   -40.0260     8.8870     8.2430     8.3950   724.9690    89.5510     8.7000     2.4960     0.0100     0.2950
 1029.0000   403.3910   -40.0600     8.8700     8.2430     8.3950   722.4260    91.4820     8.7000     2.5000     0.0110     0.2920
 1029.5000   403.5820   -40.0950     8.8520     8.2430     8.3950   719.8820    91.1340     8.7000     2.4960     0.0120     0.2900
 1030.0000   403.7720   -40.1270     8.8340     8.2430     8.3950   717.3380    90.6690     8.7000     2.4860     0.0100     0.2920
 1030.5000   403.9630   -40.1650     8.8160     8.2430     8.3950   714.7940    90.2640     8.7000     2.4660     0.0080     0.2960
 1031.0000   404.1540   -40.1980     8.7990     8.2430     8.3960   712.2510    90.2240     8.7000     2.4550     0.0060     0.3000
 1031.5000   404.3440   -40.2240     8.7810     8.2430     8.3950   709.7070    94.2840     8.7000     2.4600     0.0050     0.2990
 1032.0000   404.5350   -40.2930     8.7630     8.2430     8.3960   707.1630    98.2250     8.7000     2.4750     0.0110     0.2960
 1032.5000   404.7260   -39.9870     8.7460     8.2430     8.3960   704.6190   101.1910     8.7000     2.4900     0.0160     0.2920
