~VERSION INFORMATION
 VERS.                2.0:   CWLS LOG ASCII STANDARD - VERSION 2.0
 WRAP.                 NO:   ONE LINE PER DEPTH STEP
~WELL INFORMATION
#MNEM.UNIT      DATA TYPE    INFORMATION
#----------   ------------   ------------------------------
 STRT.F          190.0000:   START DEPTH
 STOP.F         3215.0000:   STOP DEPTH
 STEP.F            0.5000:   STEP LENGTH
 NULL.          -999.2500:   NO VALUE
 COMP.    FENIX & SCISSON:   COMPANY
 WELL.  FENIX "AX" #78-34:   WELL
 FLD . NAVAL PET. RES. NO. 3:   FIELD
 LOC .      S34 T39N R78W:   LOCATION
 CNTY.            NATRONA:   COUNTY
 STAT.            WYOMING:   STATE
 CTRY. UNITED STATES OF AMERICA:   COUNTRY
 SRVC.       SCHLUMBERGER:   SERVICE COMPANY
 DATE.        16-DEC-1980:   LOGDATE
 API .     49025108670000:   API NUMBER
~CURVE INFORMATION
#MNEM.UNIT       API CODE    CURVE DESCRIPTION
#----------   ------------   ------------------------------
 DEPT.F                  :   
 TEND.LBS    45 635 01 00:   TENSION FORM DENSITY LOG
 GRD .GAPI   45 310 01 00:   GAMMA RAY FROM DENSITY LOG
 CALD.IN     45 280 60 00:   CALIPER FROM DENSITY LOG
 CORR.G/C3   45 356 01 00:   DENSITY CORRECTION
 RHOB.G/C3   45 350 01 00:   BULK DENSITY
 SPR .MV     07 010 01 00:   SPONTANEOUS POTENTIAL
 TENR.LBS    07 635 01 00:   TENSION FROM RESISTIVITY
 ILD .OHMM   07 120 46 00:   DEEP INDUCTION RESISTIVITY
 ILM .OHMM   07 120 44 00:   INDUCTION LOG MEDIUM RESISTIVITY
 SFL .OHMM   07 220 01 00:   SHALLOW FOCUSED LOG RESISTIVITY
~PARAMETER INFORMATION
#MNEM.UNIT          VALUE    DESCRIPTION
#----------   ------------   ------------------------------
 EKB .F         5068.0000:   Kelly bushing
 EGL .F         5058.0000:   Ground level
 EDF .F            0.0000:   Drilling floor
 EPD .F            0.0000:   Permanent datum
 TD  .F         3202.0000:   Total depth
 CLNT.            A2DTECH:   Client Code
 SL  . 542' FSL & 693' FEL:   Surface Location
 PD  .                 GL:   Permanent Datum
 DAPD.F                10:   Feet Above Permanent Datum
 DATE.        16-DEC-1980:   Date Logged [DD-MMM-YYYY]
 DD  .F              3200:   Depth driller
 DL  .F              3202:   Depth logger
 BLI .F              3199:   Bottom log interval
 TLI .F               193:   Top log interval
 CS1 .IN            8.625:   Casing size
 CBD1.      8.625" @ 215':   Casing driller 1
 CBL1.F               193:   Casing logger 1
 BS1 .IN            7.875:   Bit size
 BSD1.F              3200:   Depth drilled with bit1
 DFT .               LSND:   Type fluid in hole
 DFD .                9.1:   Density
 DFV .                 35:   Viscosity
 DFPH.                  8:   pH
 DFL .                 16:   Fluid loss
 MSS .            MUD PIT:   Source of sample
 RMS .OHMM            2.9:   Rm
 MST .F                56:   Rm Meas. temp.
 RMF .OHMM            2.4:   Rmf
 MFST.F                56:   Rmf Meas. temp.
 MFSS.               MEAS:   Source Rmf.
 RMC .OHMM            2.7:   Rmc
 MCST.F                56:   Rmc Meas. temp.
 MCSS.               CALC:   Source Rmc.
 RMB .OHMM           1.35:   Rm. at BHT
 BHT .F               120:   BHT.
 TCS .HRS            2100:   Time Circ. stopped
 MRT .F               120:   Maximum recorded temp.
 LUN .               8161:   Logging unit number
 ENGI.             SITTON:   Recorded By
 WITN.              FIVAS:   Witnessed by
 ORIG.           5" PRINT:   Origin of data
 UWI .     49025108670000:   Unique Well ID
 DICO. A2D TECHNOLOGIES, INC.:   Digitizing Company
~OTHER INFORMATION
~A   DEPT     TEND         GRD      CALD       CORR       RHOB        SPR       TENR        ILD        ILM        SFL   
# ...
 1396.0000   493.6546    94.0853     9.3497     0.0293     2.5219   -44.7940   357.4787     8.3866     8.1810     9.1264
 1396.5000   496.9344    92.2302     9.3495     0.0449     2.5340   -44.6494   356.4868     8.5060     8.3479     9.4578
 1397.0000   503.5877    89.5992     9.3577     0.0505     2.5393   -44.6026   355.4950     8.6271     8.4606     9.6503
 1397.5000   510.2410    88.8999     9.3688     0.0521     2.5401   -44.5297   354.5031     8.6895     8.5725     9.6529
 1398.0000   532.1285    93.0126     9.3707     0.0513     2.5393   -44.3875   353.5113     8.7524     8.6871     9.5888
 1398.5000   532.1285    95.6829     9.3227     0.0474     2.5417   -44.6303   352.5194     8.6937     8.6825     9.3294
 1399.0000   532.1285    95.3989     9.2912     0.0395     2.5431   -44.8775   366.7679     8.6359     8.6778     8.9521
 1399.5000   532.1285    92.1608     9.2911     0.0289     2.5334   -45.0015   365.7335     8.6388     8.6731     8.8313
 1400.0000   532.1285    89.8061     9.2912     0.0185     2.5019   -45.1559   379.9392     8.5814     8.6087     8.7727
 1400.5000   532.1285    90.1158     9.2870     0.0108     2.4985   -45.3815   394.1450     8.5779     8.4803     8.8742
 1401.0000   532.1285    90.7182     9.2719     0.0079     2.5226   -45.5701   388.1078     8.2940     8.3639     9.1533
 1401.5000   532.1285    91.0272     9.2710     0.0125     2.5561   -45.7629   376.4153     8.2384     8.3018     9.1570
 1402.0000   532.1285    92.2542     9.2711     0.0231     2.5740   -45.9867   375.3028     8.2411     8.2402     9.1607
 1402.5000   532.1285    93.7097     9.2711     0.0321     2.5694   -46.1653   374.1900     8.3007     8.2358     9.1644
 1403.0000   532.1285    94.6075     9.2711     0.0337     2.5585   -46.3651   373.0772     8.4776     8.2895     9.2318
 1403.5000   532.1285    94.6190     9.2711     0.0306     2.5422   -46.3720   387.1620     8.5983     8.4574     9.3643
 1404.0000   532.1285    94.0368     9.2711     0.0292     2.5282   -46.3764   401.2467     8.7208     8.5115     9.4332
 1404.5000   532.1285    93.4574     9.2711     0.0292     2.5292   -46.3236   399.8557     9.0309     8.5069     9.5026
 1405.0000   532.1285    92.5855     9.2711     0.0307     2.5384   -46.1827   398.7429     9.1595     8.5023     9.4355
 1405.5000   530.8730    90.4449     9.2711     0.0307     2.5447   -46.1761   397.6301     8.8376     8.8168     9.1876
 1406.0000   529.1789    87.2750     9.2715     0.0331     2.5525   -46.1746   396.5176     8.4913     8.6323     9.0023
 1406.5000   527.4847    86.1207     9.2712     0.0345     2.5587   -46.0409   395.4048     8.3766     8.5700     8.8821
 1407.0000   525.7906    87.3168     9.2928     0.0338     2.5603   -45.8931   394.2920     8.3210     8.4495     8.7626
 1407.5000   524.0964    87.9191     9.2909     0.0315     2.5526   -45.7448   393.1792     8.1524     8.4466     8.6464
 1408.0000   522.4022    87.3398     9.2906     0.0270     2.5370   -45.5940   392.0664     8.0417     8.4438     8.4712
 1408.5000   520.7081    87.0529     9.2942     0.0187     2.5293   -45.5079   390.9536     8.2707     8.4409     8.3588
 1409.0000   519.0139    88.2490     9.3188     0.0157     2.5340   -45.4234   389.8177     8.5057     8.4379     8.4789
 1409.5000   517.3197    90.0330     9.3500     0.0210     2.5459   -45.3359   388.6779     8.5672     8.4345     8.8494
 1410.0000   515.6255    91.2262     9.3499     0.0301     2.5551   -45.2424   387.3372     8.5103     8.4908     9.0944
 1410.5000   513.9313    91.2378     9.3498     0.0309     2.5496   -44.9748   386.3982     8.2797     8.4872     9.2257
 1411.0000   512.2372    90.6116     9.3515     0.0240     2.5419   -45.3224   385.2584     8.1679     8.4843     8.9773
 1411.5000   510.5430    90.6727     9.3164     0.0155     2.5326   -45.7149   383.9988     8.1136     8.4231     8.7356
 1412.0000   508.8488    91.8659     9.2940     0.0136     2.5334   -46.0069   382.8860     8.1164     8.4202     8.5004
 1412.5000   507.1547    93.3545     9.2710     0.0234     2.5350   -46.1715   381.7732     8.1465     8.4174     8.5038
 1413.0000   505.4605    93.6614     9.2714     0.0272     2.5358   -46.1671   380.6604     8.2342     8.4145     8.5073
 1413.5000   503.7663    93.3746     9.2711     0.0189     2.5296   -46.3883   379.5476     8.2936     8.4701     8.5698
 1414.0000   502.0721    94.8660     9.2713     0.0099     2.5211   -46.5307   363.2219     8.2960     8.4671     8.6949
 1414.5000   500.3780    96.9455     9.2618     0.0023     2.5165   -46.7667   362.0821     8.3560     8.4642     8.7656
 1415.0000   498.6838    98.1388     9.2511     0.0069     2.5189   -46.7097   360.7337     8.3582     8.4030     8.8221
 1415.5000   496.9896    97.5622     9.2515     0.0167     2.5335   -46.4353   359.8025     8.3605     8.4001     8.8257
 1416.0000   495.2955    96.0937     9.2515     0.0250     2.5523   -46.0099   358.5081     8.3050     8.3968     8.7675
 1416.5000   493.6013    94.9235     9.2515     0.0280     2.5562   -45.8836   357.3953     8.1928     8.2787     8.6512
 1417.0000   491.9679    94.3441     9.2510     0.0241     2.5407   -45.7796   371.7582     8.0821     8.1623     8.5348
 1417.5000   491.9679    94.3585     9.2685     0.0205     2.5306   -45.6307   370.3672     8.2198     8.0317     8.4217
 1418.0000   491.9679    94.6654     9.2900     0.0168     2.5299   -45.3743   369.2544     8.1121     7.9347     8.3092
 1418.5000   491.9679    94.9723     9.2910     0.0160     2.5315   -45.3375   368.1419     8.0593     7.8772     8.2552
 1419.0000   491.9679    95.2793     9.2950     0.0160     2.5299   -45.2899   367.0213     8.0647     7.8745     8.2016
 1419.5000   492.2595    96.2030     9.2994     0.0191     2.5292   -45.2383   365.8815     8.0691     7.8176     8.1483
 1420.0000   492.9016    98.2593     9.3038     0.0236     2.5285   -45.2290   349.3277     8.0735     7.8150     8.0953
 1420.5000   493.5434    99.7479     9.3082     0.0297     2.5285   -45.4401   348.2149     8.0220     7.8123     8.0435
 1421.0000   494.1855    99.7594     9.3125     0.0319     2.5285   -45.6434   347.1021     7.9709     7.8097     8.0468
 1421.5000   494.8277    98.5892     9.3169     0.0289     2.5301   -45.8373   361.4651     8.0942     7.8678     8.2761
 1422.0000   495.4698    98.6007     9.3213     0.0252     2.5333   -45.5671   360.0741     8.4360     7.9128     8.8119
 1422.5000   496.1118    98.0213     9.3257     0.0290     2.5473   -45.8216   358.9615     8.5573     7.9097     9.0004
 1423.0000   496.7539    97.7371     9.3300     0.0327     2.5644   -45.9608   357.8487     8.3288     7.9070     8.7582
 1423.5000   497.3960    98.0443     9.3297     0.0350     2.5676   -46.2299   356.7359     7.9937     7.9043     8.2739
 1424.0000   498.0380    98.6470     9.3300     0.0343     2.5606   -46.1897   355.6231     7.7781     7.9016     7.9013
 1424.5000   498.6801    97.4793     9.3089     0.0313     2.5420   -46.5725   354.4833     7.7834     7.8990     7.8491
 1425.0000   499.3221    95.4229     9.2926     0.0260     2.5249   -46.5671   353.1193     7.8418     7.8963     7.9626
 1425.5000   499.9642    93.9544     9.2719     0.0223     2.5241   -46.5711   367.2041     8.0668     7.8936     8.3615
 1426.0000   500.6062    94.2642     9.2710     0.0222     2.5304   -46.5719   366.0913     8.3560     7.8909     8.8414
 1426.5000   501.2483    95.1619     9.2711     0.0261     2.5367   -46.4797   364.9787     8.5363     7.9475     9.0934
 1427.0000   501.8904    93.9918     9.2711     0.0322     2.5382   -46.3943   363.8659     8.5411     7.9953     8.9719
 1427.5000   502.5324    92.8216     9.2711     0.0445     2.5491   -46.1660   393.1483     8.4865     8.1032     8.8521
 1428.0000   503.1745    93.1324     9.2708     0.0495     2.5647   -45.9625   392.0355     8.3753     8.1573     8.6697
 1428.5000   503.8165    94.9505     9.2711     0.0495     2.5624   -45.8338   406.1550     8.2633     8.2110     8.4886
 1429.0000   504.4586    97.5856     9.2494     0.0412     2.5516   -45.7882   389.8098     8.2689     8.2076     8.3273
