~VERSION INFORMATION
 VERS.                2.0:   CWLS LOG ASCII STANDARD - VERSION 2.0
 WRAP.                 NO:   ONE LINE PER DEPTH STEP
~WELL INFORMATION
#MNEM.UNIT      DATA TYPE    INFORMATION
#----------   ------------   ------------------------------
 STRT.F          620.0000:   START DEPTH
 STOP.F         3209.0000:   STOP DEPTH
 STEP.F            0.5000:   STEP LENGTH
 NULL.          -999.2500:   NO VALUE
 COMP. FENIX & SCISSON - US NAVY:   COMPANY
 WELL.   FENIX "A" #23-33:   WELL
 FLD .             NPR #3:   FIELD
 LOC .      S33 T39N R78W:   LOCATION
 CNTY.            NATRONA:   COUNTY
 STAT.            WYOMING:   STATE
 CTRY. UNITED STATES OF AMERICA:   COUNTRY
 SRVC.              WELEX:   SERVICE COMPANY
 DATE.        26-MAR-1977:   LOGDATE
 API .     49025103250000:   API NUMBER
~CURVE INFORMATION
#MNEM.UNIT       API CODE    CURVE DESCRIPTION
#----------   ------------   ------------------------------
 DEPT.F                  :   
 GRD .GAPI   45 310 01 00:   GAMMA RAY FROM DENSITY LOG
 CALD.IN     45 280 60 00:   CALIPER FROM DENSITY LOG
 CORR.G/C3   45 356 01 00:   DENSITY CORRECTION
 RHOB.G/C3   45 350 01 00:   BULK DENSITY
 SPR .MV     07 010 01 00:   SPONTANEOUS POTENTIAL
 ILD .OHMM   07 120 46 00:   DEEP INDUCTION RESISTIVITY
 ILM .OHMM   07 120 44 00:   INDUCTION LOG MEDIUM RESISTIVITY
 SGRD.OHMM   07 220 05 00:   SHALLOW SHORT GUARD RESISTIVITY
~PARAMETER INFORMATION
#MNEM.UNIT          VALUE    DESCRIPTION
#----------   ------------   ------------------------------
 EKB .F         5183.0000:   Kelly bushing
 EGL .F         5172.0000:   Ground level
 TD  .F         3213.0000:   Total depth
 CLNT.            A2DTECH:   Client Code
 SL  . 900' FWL & 1650' FNL:   Surface Location
 PD  .                 GL:   Permanent Datum
 EPD .F              5172:   Elevation Permanent Datum
 LMF .                 KB:   Log Measured From
 DMF .                 KB:   Drilling Measured From
 DAPD.F                11:   Feet Above Permanent Datum
 DATE.        26-MAR-1977:   Date Logged [DD-MMM-YYYY]
 DD  .F              3210:   Depth driller
 DL  .F              3213:   Depth logger
 BLI .F              3211:   Bottom log interval
 TLI .F               625:   Top log interval
 CS1 .IN            8.625:   Casing size
 CBD1.      8.625" @ 633':   Casing driller 1
 CBL1.F               635:   Casing logger 1
 BS1 .IN            7.875:   Bit size
 BSD1.F              3210:   Depth drilled with bit1
 DFT .            KCL MUD:   Type fluid in hole
 DFD .                9.5:   Density
 DFV .                 34:   Viscosity
 DFPH.                8.5:   pH
 DFL .                 14:   Fluid loss
 MSS .           FLOWLINE:   Source of sample
 RMS .OHMM           0.34:   Rm
 MST .F                86:   Rm Meas. temp.
 RMF .OHMM           0.25:   Rmf
 MFST.F                86:   Rmf Meas. temp.
 MFSS.            FANN KL:   Source Rmf.
 RMC .OHMM           0.55:   Rmc
 MCST.F                86:   Rmc Meas. temp.
 MCSS.            FANN KL:   Source Rmc.
 RMB .OHMM           0.31:   Rm. at BHT
 BHT .F                92:   BHT.
 TCS .HRS             2.5:   Time Circ. stopped
 MRT .F                92:   Maximum recorded temp.
 LUN .               8611:   Logging unit number
 LUL .             CASPER:   Logging unit location
 ENGI.            C. DOAK:   Recorded By
 WITN.            K. JAPP:   Witnessed by
 ORIG.           5" PRINT:   Origin of data
 UWI .     49025103250000:   Unique Well ID
 DICO. A2D TECHNOLOGIES, INC.:   Digitizing Company
~OTHER INFORMATION
~A   DEPT       GRD        CALD      CORR        RHOB      SPR        ILD        ILM       SGRD   
# ...
  944.0000    73.0109    10.3462     0.0262     2.4414   -38.7735     6.5538     6.5746     7.8469
  944.5000    73.1832    10.3475     0.0220     2.4482   -38.7641     5.9948     5.9308     6.9841
  945.0000    73.4747    10.3636     0.0176     2.4633   -38.7546     5.5597     6.0665     5.7023
  945.5000    72.8958    10.3798     0.0148     2.4716   -38.7452     5.4420     6.6685     5.5730
  946.0000    72.3169    10.3960     0.0120     2.4807   -38.5885     5.7206     7.0953     7.3614
  946.5000    71.7344    10.4121     0.0152     2.4860   -38.4317     5.9653     7.3445     7.5525
  947.0000    72.4945    10.4283     0.0184     2.4868   -38.4223     6.1772     7.3962     7.4536
  947.5000    73.5477    10.4592     0.0225     2.4869   -38.1183     6.3618     7.4998     7.4579
  948.0000    74.1558    10.4754     0.0225     2.4808   -38.1089     6.6312     7.3474     7.6703
  948.5000    73.5770    10.4915     0.0210     2.4687   -38.0994     6.8607     7.0515     7.8889
  949.0000    72.7014    10.5226     0.0195     2.4631   -38.2372     6.9115     6.9560     7.8934
  949.5000    71.9741    10.5536     0.0180     2.4624   -38.3751     6.9148     6.9570     7.7900
  950.0000    71.5436    10.5722     0.0120     2.4608   -38.5129     6.9181     6.9581     7.7400
  950.5000    71.2615    10.5876     0.0060     2.4501   -38.5011     6.9214     6.9590     7.6914
  951.0000    71.1278    10.6171     0.0000     2.4400   -38.4917     6.9247     6.9598     7.6969
  951.5000    70.6973    10.6492    -0.0055     2.4334   -38.4822     6.7862     6.9608     7.7013
  952.0000    70.7122    10.6672    -0.0069     2.4245   -38.3255     6.7420     7.0100     7.7058
  952.5000    71.3625    10.6804    -0.0098     2.4170   -38.0215     6.6993     7.0109     7.7102
  953.0000    72.5252    10.7263    -0.0111     2.4148   -38.0133     6.6111     7.0602     7.7147
  953.5000    73.7267    10.7467    -0.0095     2.4171   -37.8564     6.5680     7.1098     7.7191
  954.0000    74.3348    10.7734    -0.0033     2.4255   -37.6986     6.5107     7.1599     7.6425
  954.5000    73.7559    10.7896     0.0074     2.4368   -37.6892     6.4736     7.1678     7.5713
  955.0000    72.8803    10.8057     0.0165     2.4534   -37.6804     6.3985     7.2478     7.5226
  955.5000    71.7080    10.8367     0.0212     2.4685   -37.6703     6.3582     7.3277     7.5280
  956.0000    71.1255    10.8380     0.0243     2.4783   -37.6613     6.3176     7.4077     7.5324
  956.5000    70.9917    10.8393     0.0245     2.4829   -37.6517     6.3207     7.4876     7.5367
  957.0000    70.5613    10.8110     0.0246     2.4852   -37.6420     6.5005     7.5676     7.6455
  957.5000    69.5409    10.7961     0.0233     2.4830   -37.7798     6.7333     7.6475     7.7559
  958.0000    68.9621    10.7520     0.0219     2.4777   -37.7702     6.9271     7.7275     7.9768
  958.5000    68.9767    10.6962     0.0221     2.4764   -37.7607     7.0289     7.8042     8.1478
  959.0000    68.9913    10.6679     0.0222     2.4795   -37.7742     7.1730     7.9691     8.3225
  959.5000    69.1543    10.6396     0.0224     2.4825   -37.8893     7.2768     8.0263     8.4427
  960.0000    69.4659    10.6111     0.0205     2.4841   -37.8775     7.3813     8.1397     8.5645
  960.5000    69.4807    10.5980     0.0207     2.4849   -37.5735     7.4874     8.1419     8.6286
  961.0000    69.4985    10.5843     0.0209     2.4827   -37.4168     7.5428     8.1441     8.6932
  961.5000    69.5131    10.5857     0.0211     2.4783   -37.2601     7.5986     8.1463     8.6982
  962.0000    69.2273    10.5871     0.0228     2.4768   -37.1034     7.6022     8.0921     8.7455
  962.5000    69.2456    10.5883     0.0245     2.4799   -36.9466     7.6058     8.0388     8.7685
  963.0000    69.2602    10.5897     0.0247     2.4792   -36.7899     7.6094     7.9864     8.8344
  963.5000    69.2748    10.5910     0.0249     2.4740   -36.7813     7.6131     7.8794     8.8403
  964.0000    69.2894    10.5923     0.0251     2.4681   -36.7710     7.6167     7.8275     8.8446
  964.5000    69.6008    10.5936     0.0237     2.4636   -36.9112     7.6203     7.8837     8.8505
  965.0000    70.0605    10.5949     0.0239     2.4622   -36.8994     7.5716     7.8858     8.8556
  965.5000    70.3718    10.5814     0.0241     2.4631   -37.0376     7.5223     7.9518     8.8601
  966.0000    70.2344    10.5828     0.0228     2.4624   -37.1751     7.4955     8.0551     8.8658
  966.5000    69.9555    10.5844     0.0231     2.4640   -37.1656     7.4663     8.1129     8.8705
  967.0000    70.1189    10.5857     0.0233     2.4685   -37.0088     7.4371     8.1711     8.8760
  967.5000    70.5787    10.5870     0.0235     2.4753   -37.1468     7.4078     8.2865     8.8190
  968.0000    70.5935    10.5883     0.0236     2.4807   -37.1370     7.3786     8.2885     8.8253
  968.5000    70.1461    10.5748     0.0238     2.4837   -37.1274     7.3494     8.2910     8.8914
  969.0000    69.8551    10.5761     0.0240     2.4846   -37.1161     7.3201     8.3505     9.0820
  969.5000    69.4502    10.5774     0.0242     2.4839   -37.1066     7.2956     8.3528     9.2767
  970.0000    69.1717    10.5636     0.0244     2.4779   -37.0972     7.2999     8.3550     9.3461
  970.5000    69.1863    10.5501     0.0246     2.4787   -37.2374     7.3034     8.3497     9.0353
  971.0000    69.4977    10.5217     0.0248     2.4811   -37.3752     7.3069     8.3595     8.9059
  971.5000    69.8090    10.5085     0.0250     2.4841   -37.4397     7.3103     8.3045     8.8002
  972.0000    69.8236    10.4950     0.0282     2.4872   -37.6485     7.2635     8.3068     8.6267
  972.5000    69.9866    10.4815     0.0299     2.4873   -37.6391     7.2671     8.3090     8.5713
  973.0000    70.1496    10.4531     0.0301     2.4851   -37.6560     7.2713     8.2548     8.5775
  973.5000    70.4609    10.4396     0.0318     2.4822   -37.7698     7.2747     8.2570     8.5818
  974.0000    70.7723    10.4242     0.0320     2.4800   -37.7572     7.2273     8.2021     8.5868
  974.5000    71.6771    10.4009     0.0307     2.4815   -37.8962     7.1810     8.1481     8.5923
  975.0000    72.2852    10.3842     0.0293     2.4801   -37.8864     7.1359     8.1508     8.5972
  975.5000    71.4096    10.3610     0.0281     2.4749   -38.0243     7.1390     8.1530     8.6022
  976.0000    70.5222    10.3517     0.0267     2.4697   -37.8675     7.1921     8.1730     8.5469
  976.5000    69.7920    10.3289     0.0270     2.4683   -37.8579     7.1955     8.2136     8.4944
  977.0000    69.3763    10.3154     0.0256     2.4729   -37.8483     7.2620     8.2160     8.4993
  977.5000    70.1364    10.3019     0.0258     2.4819   -37.8368     7.3023     8.2531     8.5042
  978.0000    70.7444    10.2734     0.0245     2.4850   -37.6801     7.3057     8.2771     8.4508
  978.5000    71.2042    10.2602     0.0247     2.4836   -37.6707     7.3355     8.2794     8.4558
  979.0000    71.2188    10.2467     0.0249     2.4829   -37.6612     7.3692     8.2818     8.4607
  979.5000    71.3818    10.2420     0.0251     2.4822   -37.5045     7.4186     8.2839     8.4666
  980.0000    71.5447    10.2196     0.0253     2.4815   -37.4951     7.4735     8.2862     8.5300
  980.5000    71.5593    10.2209     0.0255     2.4816   -37.6353     7.5282     8.2889     8.5341
  981.0000    71.7223    10.2074     0.0257     2.4824   -37.7731     7.5323     8.2908     8.5398
  981.5000    71.7369    10.2088     0.0289     2.4855   -37.9109     7.5354     8.2931     8.5448
  982.0000    71.7515    10.2101     0.0291     2.4916   -37.8991     7.5394     8.2956     8.5497
  982.5000    71.6172    10.2140     0.0323     2.4976   -37.7424     7.6297     8.2979     8.5546
  983.0000    71.6324    10.2276     0.0325     2.5007   -37.7330     7.7043     8.2999     8.4996
  983.5000    71.0535    10.2292     0.0327     2.4963   -37.7235     7.7613     8.3022     8.5054
  984.0000    70.3185    10.2305     0.0329     2.4888   -37.5668     7.7649     8.3048     8.5107
