~VERSION INFORMATION
 VERS.                2.0:   CWLS LOG ASCII STANDARD - VERSION 2.0
 WRAP.                 NO:   ONE LINE PER DEPTH STEP
~WELL INFORMATION
#MNEM.UNIT      DATA TYPE    INFORMATION
#----------   ------------   ------------------------------
 STRT.F          545.0000:   START DEPTH
 STOP.F         3193.0000:   STOP DEPTH
 STEP.F            0.5000:   STEP LENGTH
 NULL.          -999.2500:   NO VALUE
 COMP. FENIX & SCISSON-U.S. NAVY:   COMPANY
 WELL.   FENIX "A" #47-34:   WELL
 FLD .          N.P.R. #3:   FIELD
 LOC .      S34 T39N R78W:   LOCATION
 CNTY.            NATRONA:   COUNTY
 STAT.            WYOMING:   STATE
 CTRY. UNITED STATES OF AMERICA:   COUNTRY
 SRVC.       SCHLUMBERGER:   SERVICE COMPANY
 DATE.        26-MAR-1977:   LOGDATE
 API .     49025103260000:   API NUMBER
~CURVE INFORMATION
#MNEM.UNIT       API CODE    CURVE DESCRIPTION
#----------   ------------   ------------------------------
 DEPT.F                  :   
 SPR .MV     07 010 01 00:   SPONTANEOUS POTENTIAL FROM RES.
 ILM .OHMM   07 120 44 00:   INDUCTION LOG MEDIUM RESISTIVITY
 ILD .OHMM   07 120 46 00:   DEEP INDUCTION RESISTIVITY
 LL8 .OHMM   07 220 08 00:   LATEROLOG-8 RES.
 CALD.IN     45 280 60 00:   CALIPER FROM DENSITY LOG
 GRD .GAPI   45 310 01 00:   GAMMA RAY FROM DENSITY LOG
 RHOB.G/C3   45 350 01 00:   BULK DENSITY
 CORR.G/C3   45 356 01 00:   DENSITY CORRECTION
~PARAMETER INFORMATION
#MNEM.UNIT          VALUE    DESCRIPTION
#----------   ------------   ------------------------------
 EKB .F         5144.0000:   Kelly bushing
 EGL .F         5132.0000:   Ground level
 TD  .F         3194.0000:   Total depth
 CLNT.            A2DTECH:   Client Code
 SL  . 2310' FWL & 990' FSL:   Surface Location
 PD  .                 GL:   Permanent Datum
 EPD .F              5132:   Elevation Permanent Datum
 LMF .                 KB:   Log Measured From
 DMF .                 KB:   Drilling Measured From
 DAPD.F                12:   Feet Above Permanent Datum
 DATE.        26-MAR-1977:   Date Logged [DD-MMM-YYYY]
 DD  .F              3188:   Depth driller
 DL  .F              3194:   Depth logger
 BLI .F              3188:   Bottom log interval
 TLI .F               564:   Top log interval
 CS1 .IN            8.625:   Casing size
 CBD1.      8.625" @ 570':   Casing driller 1
 CBL1.F               564:   Casing logger 1
 BS1 .IN            7.875:   Bit size
 BSD1.F              3188:   Depth drilled with bit1
 DFT .                KCL:   Type fluid in hole
 DFD .                9.2:   Density
 DFV .                 30:   Viscosity
 DFL .                9.2:   Fluid loss
 MSS .                PIT:   Source of sample
 RMS .OHMM          0.354:   Rm
 MST .F                70:   Rm Meas. temp.
 RMF .OHMM          0.326:   Rmf
 MFST.F                70:   Rmf Meas. temp.
 MFSS.               MEAS:   Source Rmf.
 RMC .OHMM          0.531:   Rmc
 MCST.F                70:   Rmc Meas. temp.
 MCSS.               CALC:   Source Rmc.
 RMB .OHMM          0.205:   Rm. at BHT
 BHT .F               121:   BHT.
 TLAB.HRS            1900:   Time logger at bottom
 MRT .F               121:   Maximum recorded temp.
 LUN .               5642:   Logging unit number
 LUL .               CSPR:   Logging unit location
 ENGI.             MARTIN:   Recorded By
 WITN.         PETTINGILL:   Witnessed by
 ORIG.           5" PRINT:   Origin of data
 UWI .     49025103260000:   Unique Well ID
 DICO. A2D TECHNOLOGIES, INC.:   Digitizing Company
~OTHER INFORMATION
~A   DEPT      SPR        ILM        ILD        LL8       CALD         GRD      RHOB       CORR   
# ...
 1922.0000   -63.9822     7.8646     7.4152    14.4994     8.0652   146.1349     2.5474     0.0499
 1922.5000   -63.7363     7.9244     7.4299    15.1228     8.0652   148.4393     2.5242     0.0267
 1923.0000   -63.6553     7.9297     7.5341    15.5566     8.0652   150.3539     2.5041     0.0020
 1923.5000   -63.6381     7.9350     7.5934    16.0030     8.0652   151.7182     2.4944     0.0129
 1924.0000   -63.4751     7.9954     7.6532    15.3638     8.0652   154.5729     2.4998     0.0316
 1924.5000   -63.4608     8.0007     7.5546    14.5480     8.0652   154.5959     2.5096     0.0139
 1925.0000   -63.5985     7.8962     7.2031    13.6653     8.0652   151.4903     2.5015     0.0046
 1925.5000   -63.5805     7.7943     6.7266    13.2253     8.0652   148.6866     2.4896     0.0272
 1926.0000   -63.7147     7.3801     6.1815    13.7962     8.0652   144.5368     2.5100     0.0413
 1926.5000   -63.8489     6.1282     5.7465    16.4063     8.0652   141.4302     2.5011     0.0382
 1927.0000   -63.9831     5.3778     4.9378     7.7351     8.0652   138.4726     2.4779     0.0592
 1927.5000   -63.8165     5.5329     4.3916     4.5800     8.0652   136.8332     2.4398     0.0838
 1928.0000   -63.6536     6.6721     5.0507     5.8763     8.0652   140.0090     2.3792     0.0112
 1928.5000   -63.7877     7.0062     4.9857     9.5344     8.0652   144.6507     2.4052     0.0059
 1929.0000   -64.0741     6.5439     4.7868    12.0931     8.0652   148.1086     2.4829     0.0123
 1929.5000   -64.3533     5.8226     4.5621    13.1183     8.0652   147.2375     2.5085     0.0256
 1930.0000   -64.0416     5.1095     4.7305    12.0833     8.0652   146.0683     2.5138     0.0443
 1930.5000   -63.7296     5.2930     5.0748     6.1464     8.0652   146.9855     2.4982     0.0730
 1931.0000   -63.7122     5.4555     5.3692     6.5902     8.0652   148.4989     2.4653     0.0359
 1931.5000   -63.8499     5.7989     5.6024     9.0598     8.0652   150.9103     2.4466     0.0205
 1932.0000   -63.9841     6.0484     5.6858    14.1031     8.0652   152.4236     2.4872     0.0190
 1932.5000   -64.2669     6.2221     5.5352    13.6314     8.0652   153.1919     2.5046     0.0176
 1933.0000   -64.5497     6.1408     5.3514    12.4029     8.0652   153.9601     2.4918     0.0153
 1933.5000   -64.6803     6.1449     5.3741    10.4310     8.0652   155.7715     2.4905     0.0138
 1934.0000   -64.9631     6.1916     5.6682    10.1519     8.0652   158.3281     2.4951     0.0116
 1934.5000   -65.0973     6.2000     6.0388    11.0381     8.0652   164.6208     2.4795     0.0071
 1935.0000   -65.2315     6.2872     6.1699    11.3548     8.0652   172.3889     2.4804     0.0025
 1935.5000   -65.3656     6.2914     6.1329    11.3624     8.0652   175.5416     2.4842     0.0157
 1936.0000   -65.6448     6.2513     6.0552    11.6884     8.0652   172.4350     2.4821     0.0197
 1936.5000   -65.6304     6.1281     6.0607    12.8833     8.0652   169.3284     2.4807     0.0166
 1937.0000   -65.6160     6.0890     6.0243    12.8490     8.0652   164.5825     2.4815     0.0183
 1937.5000   -65.4530     6.0103     5.9069    11.7138     8.0652   163.1152     2.4876     0.0246
 1938.0000   -65.4383     5.9319     5.7905    10.4957     8.0652   160.8633     2.5072     0.0340
 1938.5000   -65.2721     5.8141     5.5595     9.8700     8.0652   158.5471     2.5358     0.0403
 1939.0000   -65.1091     5.6996     5.3009     9.6741     8.0652   155.5896     2.5412     0.0481
 1939.5000   -64.9461     5.5479     5.0894     9.6806     8.0652   154.2714     2.5210     0.0505
 1940.0000   -64.6345     5.4003     4.7198     9.9583     8.0652   153.9906     2.5017     0.0281
 1940.5000   -64.3229     4.7719     4.3730    10.6774     8.0652   153.5723     2.4920     0.0173
 1941.0000   -63.8628     4.4872     4.1169     7.9413     8.0652   153.4079     2.4734     0.0291
 1941.5000   -63.6998     4.4915     4.1493     3.7441     8.0652   154.9625     2.4420     0.0509
 1942.0000   -63.3709     5.0690     4.4513     5.3279     8.0652   155.2808     2.3941    -0.0002
 1942.5000   -63.5188     5.4568     4.5807    10.7077     8.0652   153.8193     2.3208    -0.0032
 1943.0000   -63.8052     5.6524     4.4594    13.0001     8.0652   144.3025     2.4888     0.0186
 1943.5000   -64.2330     5.5786     4.3413    12.6544     8.0652   138.3643     2.4964     0.0132
 1944.0000   -64.2186     5.5048     4.5003    11.1830     8.0652   139.1444     2.5110     0.0304
 1944.5000   -64.3564     5.3592     4.8372    10.4315     8.0652   142.8307     2.5316     0.0398
 1945.0000   -64.4874     5.2528     5.0020     9.8229     8.0652   145.2946     2.5447     0.0590
 1945.5000   -64.4725     5.2201     4.9364     8.9239     8.0652   144.7216     2.5276     0.0500
 1946.0000   -64.2883     5.1173     4.9420     8.9917     8.0652   141.6150     2.5119     0.0377
 1946.5000   -64.1430     5.0846     5.0505     7.7833     8.0652   139.5516     2.5308     0.0556
 1947.0000   -63.9800     5.0529     5.0551     6.3753     8.0652   139.2528     2.5136     0.0510
 1947.5000   -63.5198     5.1275     4.9212     6.3366     8.0652   140.3429     2.4845     0.0286
 1948.0000   -63.3568     5.2747     4.7500    10.4225     8.0652   142.1908     2.4718     0.0179
 1948.5000   -63.1939     5.3888     4.5061    13.1407     8.0652   141.2889     2.4825     0.0171
 1949.0000   -62.8823     5.0632     4.4163    13.6614     8.0652   138.0333     2.4970     0.0365
 1949.5000   -62.5706     5.1778     4.5457     8.7893     8.0652   138.9506     2.4707     0.1015
 1950.0000   -62.2338     5.5136     4.8428     4.3491     8.0652   145.6800     2.4363     0.0311
 1950.5000   -61.6468     6.0777     5.1953     6.4953     8.0652   147.0194     2.4274     0.0267
 1951.0000   -61.6324     6.5620     5.2021    11.5284     8.0652   146.4587     2.5310     0.0403
 1951.5000   -62.2124     6.2564     4.9874    12.1073     8.0652   141.7014     2.5101     0.0239
 1952.0000   -62.7923     5.7624     4.6633    12.5468     8.0652   140.8201     2.5027     0.0285
 1952.5000   -63.0751     5.3801     4.9339    12.8120     8.0652   142.4854     2.4990     0.0316
 1953.0000   -63.3581     5.4457     5.2564     7.2286     8.0652   144.9244     2.5081     0.0459
 1953.5000   -63.5014     6.3615     5.5613     6.9880     8.0652   148.5256     2.5188     0.0355
 1954.0000   -63.7748     6.7741     5.8029    13.3837     8.0651   151.9703     2.5151     0.0168
 1954.5000   -63.7568     6.9206     5.9715    13.7677     8.0647   153.1945     2.5040     0.0094
 1955.0000   -63.7424     6.7832     6.1041    13.7769     8.0642   153.5075     2.5123     0.0050
 1955.5000   -63.7281     6.7408     6.1937    13.5948     8.0638   154.2804     2.5244     0.0021
 1956.0000   -63.7136     6.7455     6.1562    13.3272     8.0634   157.5860     2.5178     0.0037
 1956.5000   -63.5513     7.0412     6.1632    13.0627     8.0630   160.8915     2.5134     0.0053
 1957.0000   -63.3877     7.0904     6.0838    13.0715     8.0626   162.8537     2.5142     0.0099
 1957.5000   -63.2244     6.9017     6.0472    15.0559     8.0621   163.6220     2.5188     0.0264
 1958.0000   -62.9095     6.7647     5.9281    10.2102     8.0617   165.4350     2.5173     0.0461
 1958.5000   -62.5980     6.7692     5.7711     9.2751     8.0613   167.3972     2.5019     0.0409
 1959.0000   -62.4350     6.6348     5.6135     7.7549     8.0609   168.7625     2.4884     0.0357
 1959.5000   -62.2720     6.5030     5.3581    10.0898     8.0604   168.3366     2.5267     0.0441
 1960.0000   -62.2576     6.2346     5.2162    12.2786     8.0600   168.8063     2.5201     0.0209
 1960.5000   -62.3923     5.6331     5.0430    11.3635     8.0596   174.6783     2.5082     0.0323
 1961.0000   -62.5260     5.1526     4.6124     8.2200     8.0592   183.7526     2.4986     0.0481
 1961.5000   -62.9744     4.7787     4.3978     6.1550     8.0587   196.1705     2.4912     0.0392
 1962.0000   -63.2401     4.5877     4.3713     7.5244     8.0583   224.1235     2.5093     0.0288
