~VERSION INFORMATION
 VERS.                2.0:   CWLS LOG ASCII STANDARD - VERSION 2.0
 WRAP.                 NO:   ONE LINE PER DEPTH STEP
~WELL INFORMATION
#MNEM.UNIT      DATA TYPE    INFORMATION
#----------   ------------   ------------------------------
 STRT.F          180.0000:   START DEPTH
 STOP.F         3044.0000:   STOP DEPTH
 STEP.F            0.5000:   STEP LENGTH
 NULL.          -999.2500:   NO VALUE
 COMP.    FENIX & SCISSON:   COMPANY
 WELL.   FENIX "A" #55-29:   WELL
 FLD .           N P R #3:   FIELD
 LOC .      S29 T39N R78W:   LOCATION
 CNTY.            NATRONA:   COUNTY
 STAT.            WYOMING:   STATE
 CTRY. UNITED STATES OF AMERICA:   COUNTRY
 SRVC.              WELEX:   SERVICE COMPANY
 DATE.        21-JUL-1977:   LOGDATE
 API .     49025104020000:   API NUMBER
~CURVE INFORMATION
#MNEM.UNIT       API CODE    CURVE DESCRIPTION
#----------   ------------   ------------------------------
 DEPT.F                  :   
 CALD.IN     45 280 60 00:   CALIPER FROM DENSITY LOG
 RHOB.G/C3   45 350 01 00:   BULK DENSITY
 CORR.G/C3   45 356 01 00:   DENSITY CORRECTION
 GRD .GAPI   45 310 01 00:   GAMMA RAY FROM DENSITY LOG
 SPR .MV     07 010 01 00:   SPONTANEOUS POTENTIAL
 ILD .OHMM   07 120 46 00:   DEEP INDUCTION RESISTIVITY
 ILM .OHMM   07 120 44 00:   INDUCTION LOG MEDIUM RESISTIVITY
 SGRD.OHMM   07 220 05 00:   SHALLOW SHORT GUARD RESISTIVITY
~PARAMETER INFORMATION
#MNEM.UNIT          VALUE    DESCRIPTION
#----------   ------------   ------------------------------
 EKB .F         4995.0000:   Kelly bushing
 EGL .F         4985.0000:   Ground level
 EDF .F            0.0000:   Drilling floor
 EPD .F         4985.0000:   Permanent datum
 TD  .F         3045.0000:   Total depth
 DATE.        21-JUL-1977:   Date logged
 CLNT.            A2DTECH:   Client Code
 SL  . 2310' FSL & 2310' FEL:   Surface Location
 PD  .                 GL:   Permanent Datum
 DD  .F              3045:   Depth driller
 DL  .F              3045:   Depth logger
 BLI .F              3043:   Bottom log interval
 CS1 .IN            8.625:   Casing size
 CBD1.      8.625" @ 230':   Casing driller 1
 CBL1.F               216:   Casing logger 1
 BS1 .IN            7.875:   Bit size
 DFT .            KCL-MUD:   Type fluid in hole
 DFD .                8.8:   Density
 DFV .                 45:   Viscosity
 DFPH.                7.5:   pH
 DFL .                8.4:   Fluid loss
 MSS .           FLOWLINE:   Source of sample
 RMS .OHMM            .45:   Rm
 MST .F                86:   Rm Meas. temp.
 RMF .OHMM            .33:   Rmf
 MFST.F                86:   Rmf Meas. temp.
 RMC .OHMM            .72:   Rmc
 MCST.F                86:   Rmc Meas. temp.
 MFSS.               MEAS:   Source Rmf.
 RMB .OHMM            .30:   Rm. at BHT
 BHT .F               127:   BHT.
 TCS .HRS             2.5:   Time Circ. stopped
 MRT .F               127:   Maximum recorded temp.
 LUN .               8611:   Logging unit number
 LUL .             CASPER:   Logging unit location
 ENGI.            C. DOAK:   Recorded By
 WITN.      W. PETTINGILL:   Witnessed by
 ORIG.           5" PRINT:   Origin of data
 UWI .     49025104020000:   Unique Well ID
 DICO. A2D TECHNOLOGIES, INC.:   Digitizing Company
 DAPD.                 10:   Feet Above Permanent Datum
 BSD1.               3045:   Depth drilled with bit1
 MCSS.               MEAS:   Source Rmc.
 LMF .                 KB:   Log Measured From
 DMF .                 KB:   Drilling Measured From
 TLI .                200:   Top log interval
~OTHER INFORMATION
~A   DEPT       CALD     RHOB       CORR         GRD       SPR        ILD        ILM       SGRD   
# ...
 2448.0000     8.1840     2.4440    -0.0090   109.0190   -70.1970     6.4600     7.0720    11.2190
 2448.5000     8.2100     2.4410    -0.0060   109.6390   -70.1500     6.4010     7.0530    11.1430
 2449.0000     8.2370     2.4390    -0.0030   108.3270   -70.0960     6.3420     7.0360    11.0670
 2449.5000     8.2470     2.4430     0.0000   105.0890   -70.0430     6.2830     7.0360    10.9910
 2450.0000     8.2430     2.4590     0.0020   102.2140   -69.9900     6.2240     7.0360    10.9230
 2450.5000     8.2430     2.4650     0.0020   102.5040   -69.9360     6.1650     7.0360    10.2060
 2451.0000     8.2430     2.4680     0.0020   105.4940   -69.8830     6.1060     7.0350     9.8760
 2451.5000     8.2390     2.4720     0.0030   109.2500   -69.8300     6.0760     7.0360    10.2550
 2452.0000     8.2340     2.4750     0.0040   110.1460   -69.7760     6.0760     7.0360    10.4340
 2452.5000     8.2290     2.4790     0.0100   107.8050   -69.7230     6.2240     7.0350    10.5300
 2453.0000     8.2240     2.4830     0.0140   108.1990   -69.6700     6.4420     7.1140    10.2560
 2453.5000     8.2230     2.4850     0.0150   110.2800   -69.6160     6.6590     7.1750    10.0580
 2454.0000     8.2230     2.4810     0.0170   112.3210   -69.5630     6.8770     7.2320    10.6310
 2454.5000     8.2230     2.4730     0.0170   114.3570   -69.5100     7.0940     7.5290    11.7160
 2455.0000     8.2230     2.4760     0.0170   114.9770   -69.4560     7.2980     7.8080    12.5320
 2455.5000     8.2230     2.4820     0.0160   111.9430   -69.4080     7.4720     8.0870    13.2050
 2456.0000     8.2230     2.4870     0.0150   108.3220   -69.4260     7.6370     8.3650    13.8750
 2456.5000     8.2140     2.4920     0.0190   104.6370   -69.4460     7.8010     8.6440    14.5440
 2457.0000     8.1970     2.4960     0.0240   102.2300   -69.4660     7.9650     8.7100    14.7800
 2457.5000     8.1800     2.4990     0.0280   101.7410   -69.4860     8.2220     8.7620    14.1050
 2458.0000     8.1640     2.5050     0.0320   101.9410   -69.5060     8.1990     8.8150    13.0550
 2458.5000     8.1470     2.5160     0.0360   102.0470   -69.5250     8.1460     8.8670    12.7200
 2459.0000     8.1290     2.5180     0.0410   100.7010   -69.5450     8.0930     8.9290    12.6480
 2459.5000     8.1190     2.5250     0.0430   102.4560   -69.5650     8.0400     8.8910    13.0120
 2460.0000     8.1100     2.5320     0.0460   106.8310   -69.5850     7.9900     8.8470    13.5920
 2460.5000     8.1010     2.5320     0.0480   110.1990   -69.6040     7.9500     8.8020    14.5120
 2461.0000     8.0920     2.5270     0.0470   109.2570   -69.6240     7.9100     8.7660    14.2740
 2461.5000     8.0830     2.5210     0.0440   108.7750   -69.6440     7.8700     8.8350    13.6990
 2462.0000     8.0740     2.5100     0.0420   110.3390   -69.6630     7.8310     8.9210    13.2410
 2462.5000     8.0660     2.4970     0.0410   108.4560   -69.6830     7.7910     9.0060    13.1200
 2463.0000     8.0680     2.4870     0.0390   107.7230   -69.7030     7.7510     9.0910    13.1200
 2463.5000     8.0710     2.4860     0.0370   109.0580   -69.7230     7.7110     9.1760    13.3180
 2464.0000     8.0740     2.4910     0.0360   107.8090   -69.7420     7.7250     9.2620    13.5660
 2464.5000     8.0760     2.5060     0.0350   106.0810   -69.7620     7.7390     9.1900    13.8150
 2465.0000     8.0790     2.5070     0.0340   104.5090   -69.7820     7.7530     9.1180    14.0640
 2465.5000     8.0820     2.5050     0.0320   103.2770   -69.8020     7.7670     9.0450    14.1180
 2466.0000     8.0850     2.5030     0.0310   102.3580   -69.8210     7.7820     8.9720    12.7370
 2466.5000     8.0900     2.5000     0.0290   101.4120   -69.8410     7.6590     8.9000    11.9710
 2467.0000     8.0960     2.4930     0.0270   102.4710   -69.8610     7.4990     8.8270    12.1760
 2467.5000     8.1010     2.4850     0.0240   103.9070   -69.8800     7.3650     8.7660    12.5330
 2468.0000     8.1070     2.4780     0.0210   106.2980   -69.9000     7.3650     8.7660    12.4240
 2468.5000     8.1120     2.4810     0.0170   109.9480   -69.9200     7.3820     8.7660    12.3050
 2469.0000     8.1180     2.4850     0.0130   109.2420   -69.9400     7.4130     8.7660    12.3050
 2469.5000     8.1240     2.4820     0.0060   108.3390   -69.9590     7.4440     8.7660    12.8520
 2470.0000     8.1240     2.4710     0.0000   110.4680   -69.9790     7.4740     8.7660    13.2570
 2470.5000     8.1240     2.4570    -0.0040   112.7460   -70.0000     7.5050     8.7660    13.3630
 2471.0000     8.1250     2.4430    -0.0030   111.6830   -70.0220     7.5360     8.7660    12.6590
 2471.5000     8.1300     2.4320    -0.0030   110.4970   -70.0460     7.5660     8.7660    12.4180
 2472.0000     8.1630     2.4300    -0.0020   109.3230   -70.0690     7.5970     8.7660    12.4180
 2472.5000     8.1970     2.4330     0.0000   108.1520   -70.0930     7.6280     8.7660    12.7810
 2473.0000     8.1790     2.4380     0.0010   106.8860   -70.1170     7.6580     8.7660    13.1730
 2473.5000     8.1460     2.4350     0.0030   106.4970   -70.1400     7.6890     8.7660    13.3630
 2474.0000     8.1140     2.4350     0.0040   108.1430   -70.1640     7.7200     8.7660    13.1670
 2474.5000     8.0850     2.4450     0.0070   109.5580   -70.1870     7.7500     8.7660    12.8910
 2475.0000     8.0810     2.4570     0.0100   105.2410   -70.2110     7.7810     8.7660    12.6160
 2475.5000     8.0780     2.4680     0.0140   104.0210   -70.2350     7.8120     8.7660    12.5330
 2476.0000     8.0750     2.4790     0.0180   106.0860   -70.2580     7.8420     8.7670    12.9240
 2476.5000     8.0720     2.4810     0.0220   108.1230   -70.2820     7.8730     8.7530    13.6100
 2477.0000     8.0690     2.4820     0.0230   109.7400   -70.3060     7.9040     8.7340    13.3190
 2477.5000     8.0660     2.4840     0.0230   110.0920   -70.3290     7.9260     8.7150    12.7200
 2478.0000     8.0630     2.4880     0.0230   110.4470   -70.3530     7.8290     8.6960    12.6480
 2478.5000     8.0600     2.4900     0.0230   110.2080   -70.3760     7.7400     8.5460    13.1340
 2479.0000     8.0570     2.4900     0.0240   108.7880   -70.4000     7.6510     8.2500    13.5850
 2479.5000     8.0540     2.4890     0.0240   104.1400   -70.4240     7.5610     7.9530    13.7360
 2480.0000     8.0510     2.4860     0.0240   102.8270   -70.4470     7.4720     7.8530    13.0080
 2480.5000     8.0470     2.4880     0.0250   106.5280   -70.4710     7.3830     7.8530    11.9710
 2481.0000     8.0460     2.4920     0.0250   112.1870   -70.4950     7.2980     7.8320    10.8230
 2481.5000     8.0480     2.4890     0.0250   118.0320   -70.5180     7.1820     7.8000     9.6960
 2482.0000     8.0510     2.4820     0.0240   122.6550   -70.5420     7.0720     7.7680    11.2970
 2482.5000     8.0530     2.4740     0.0220   122.3010   -70.5650     6.9620     7.7360    14.2480
 2483.0000     8.0550     2.4650     0.0200   119.5670   -70.5890     6.8520     7.7040    12.8250
 2483.5000     8.0570     2.4660     0.0180   115.3390   -70.6130     6.7420     7.6720    10.6270
 2484.0000     8.0590     2.4710     0.0160   110.2200   -70.6360     6.6320     7.6400    10.6270
 2484.5000     8.0610     2.4720     0.0150   112.4480   -70.6600     6.5210     7.4060    11.1350
 2485.0000     8.0640     2.4620     0.0150   117.5080   -70.6830     6.4110     7.1780    11.5400
 2485.5000     8.0670     2.4520     0.0140   120.6240   -70.7070     6.3030     6.9500    11.6470
 2486.0000     8.0730     2.4380     0.0130   120.2790   -70.7310     6.4220     6.9080    10.0270
 2486.5000     8.0790     2.4420     0.0130   122.6110   -70.7540     6.5380     6.9080     8.6410
 2487.0000     8.0850     2.4580     0.0120   125.2380   -70.7770     6.6740     7.0540     8.3740
 2487.5000     8.0910     2.4500     0.0120   127.9400   -70.7810     6.8100     7.2590    12.0240
 2488.0000     8.0970     2.4390     0.0110   125.4690   -70.7530     6.9450     7.4640    13.2410
