~VERSION INFORMATION
 VERS.                2.0:   CWLS LOG ASCII STANDARD - VERSION 2.0
 WRAP.                 NO:   ONE LINE PER DEPTH STEP
~WELL INFORMATION
#MNEM.UNIT      DATA TYPE    INFORMATION
#----------   ------------   ------------------------------
 STRT.F          180.0000:   START DEPTH
 STOP.F         3044.0000:   STOP DEPTH
 STEP.F            0.5000:   STEP LENGTH
 NULL.          -999.2500:   NO VALUE
 COMP.    FENIX & SCISSON:   COMPANY
 WELL.   FENIX "A" #55-29:   WELL
 FLD .           N P R #3:   FIELD
 LOC .      S29 T39N R78W:   LOCATION
 CNTY.            NATRONA:   COUNTY
 STAT.            WYOMING:   STATE
 CTRY. UNITED STATES OF AMERICA:   COUNTRY
 SRVC.              WELEX:   SERVICE COMPANY
 DATE.        21-JUL-1977:   LOGDATE
 API .     49025104020000:   API NUMBER
~CURVE INFORMATION
#MNEM.UNIT       API CODE    CURVE DESCRIPTION
#----------   ------------   ------------------------------
 DEPT.F                  :   
 CALD.IN     45 280 60 00:   CALIPER FROM DENSITY LOG
 RHOB.G/C3   45 350 01 00:   BULK DENSITY
 CORR.G/C3   45 356 01 00:   DENSITY CORRECTION
 GRD .GAPI   45 310 01 00:   GAMMA RAY FROM DENSITY LOG
 SPR .MV     07 010 01 00:   SPONTANEOUS POTENTIAL
 ILD .OHMM   07 120 46 00:   DEEP INDUCTION RESISTIVITY
 ILM .OHMM   07 120 44 00:   INDUCTION LOG MEDIUM RESISTIVITY
 SGRD.OHMM   07 220 05 00:   SHALLOW SHORT GUARD RESISTIVITY
~PARAMETER INFORMATION
#MNEM.UNIT          VALUE    DESCRIPTION
#----------   ------------   ------------------------------
 EKB .F         4995.0000:   Kelly bushing
 EGL .F         4985.0000:   Ground level
 EDF .F            0.0000:   Drilling floor
 EPD .F         4985.0000:   Permanent datum
 TD  .F         3045.0000:   Total depth
 DATE.        21-JUL-1977:   Date logged
 CLNT.            A2DTECH:   Client Code
 SL  . 2310' FSL & 2310' FEL:   Surface Location
 PD  .                 GL:   Permanent Datum
 DD  .F              3045:   Depth driller
 DL  .F              3045:   Depth logger
 BLI .F              3043:   Bottom log interval
 CS1 .IN            8.625:   Casing size
 CBD1.      8.625" @ 230':   Casing driller 1
 CBL1.F               216:   Casing logger 1
 BS1 .IN            7.875:   Bit size
 DFT .            KCL-MUD:   Type fluid in hole
 DFD .                8.8:   Density
 DFV .                 45:   Viscosity
 DFPH.                7.5:   pH
 DFL .                8.4:   Fluid loss
 MSS .           FLOWLINE:   Source of sample
 RMS .OHMM            .45:   Rm
 MST .F                86:   Rm Meas. temp.
 RMF .OHMM            .33:   Rmf
 MFST.F                86:   Rmf Meas. temp.
 RMC .OHMM            .72:   Rmc
 MCST.F                86:   Rmc Meas. temp.
 MFSS.               MEAS:   Source Rmf.
 RMB .OHMM            .30:   Rm. at BHT
 BHT .F               127:   BHT.
 TCS .HRS             2.5:   Time Circ. stopped
 MRT .F               127:   Maximum recorded temp.
 LUN .               8611:   Logging unit number
 LUL .             CASPER:   Logging unit location
 ENGI.            C. DOAK:   Recorded By
 WITN.      W. PETTINGILL:   Witnessed by
 ORIG.           5" PRINT:   Origin of data
 UWI .     49025104020000:   Unique Well ID
 DICO. A2D TECHNOLOGIES, INC.:   Digitizing Company
 DAPD.                 10:   Feet Above Permanent Datum
 BSD1.               3045:   Depth drilled with bit1
 MCSS.               MEAS:   Source Rmc.
 LMF .                 KB:   Log Measured From
 DMF .                 KB:   Drilling Measured From
 TLI .                200:   Top log interval
~OTHER INFORMATION
~A   DEPT       CALD     RHOB       CORR         GRD       SPR        ILD        ILM       SGRD   
# ...
 2812.5000     8.0530     2.4550     0.0410   117.0480   -72.5180     5.4320     7.1370     9.6720
 2813.0000     8.0540     2.4600     0.0370   118.1650   -72.5310     5.4790     7.1560     9.6230
 2813.5000     8.0560     2.4650     0.0340   119.0500   -72.5440     5.5220     7.1750     9.5450
 2814.0000     8.0570     2.4660     0.0310   120.1710   -72.5570     5.5640     7.1940     9.4150
 2814.5000     8.0590     2.4630     0.0290   119.4550   -72.5700     5.6050     7.2130     9.3470
 2815.0000     8.0610     2.4590     0.0290   114.9450   -72.5740     5.6470     7.2320     9.6790
 2815.5000     8.0620     2.4550     0.0310   110.4920   -72.5740     5.6890     7.2510    10.1510
 2816.0000     8.0640     2.4560     0.0340   107.2590   -72.5740     5.7300     7.2700    10.2440
 2816.5000     8.0650     2.4650     0.0360   106.0420   -72.5740     5.7720     7.2890     9.5200
 2817.0000     8.0640     2.4740     0.0390   106.4310   -72.5740     5.8040     7.3090     9.8440
 2817.5000     8.0630     2.4830     0.0410   107.8230   -72.5740     5.7640     7.3270    10.2440
 2818.0000     8.0620     2.4910     0.0430   109.1160   -72.5740     5.7310     7.3460     9.8330
 2818.5000     8.0620     2.4940     0.0400   112.8760   -72.5740     5.6980     7.3650     9.4330
 2819.0000     8.0610     2.4940     0.0360   116.0660   -72.5740     5.6460     7.2340    10.0420
 2819.5000     8.0600     2.4780     0.0300   118.1350   -72.5740     5.5810     7.1540    10.6270
 2820.0000     8.0590     2.4590     0.0240   119.4730   -72.5740     5.5150     7.0730     9.6960
 2820.5000     8.0580     2.4390     0.0180   118.2500   -72.5740     5.4490     6.9930     9.2620
 2821.0000     8.0570     2.4240     0.0150   118.0610   -72.5740     5.3830     6.9130     9.3470
 2821.5000     8.0570     2.4170     0.0150   119.0720   -72.5740     5.3170     6.8330     8.9860
 2822.0000     8.0560     2.4140     0.0170   119.4030   -72.5740     5.2470     6.7530     8.5130
 2822.5000     8.0550     2.4230     0.0190   115.3500   -72.5740     5.2430     6.6720     8.2970
 2823.0000     8.0540     2.4330     0.0220   113.2690   -72.5740     5.2150     6.5920     8.3540
 2823.5000     8.0530     2.4360     0.0260   113.6580   -72.5740     5.1870     6.5250     8.4300
 2824.0000     8.0520     2.4360     0.0300   115.2770   -72.5740     5.1590     6.4830     8.6950
 2824.5000     8.0510     2.4300     0.0340   116.7080   -72.5740     5.1300     6.4410     8.9290
 2825.0000     8.0510     2.4300     0.0340   118.2400   -72.5740     5.1050     6.3990     8.7040
 2825.5000     8.0500     2.4410     0.0330   118.4050   -72.5740     5.1260     6.3610     8.3850
 2826.0000     8.0490     2.4560     0.0310   115.6570   -72.5740     5.1690     6.3610     8.2220
 2826.5000     8.0480     2.4700     0.0330   112.6270   -72.5740     5.2120     6.3930     8.2550
 2827.0000     8.0470     2.4720     0.0350   112.4790   -72.5740     5.2550     6.5070     8.3230
 2827.5000     8.0460     2.4700     0.0370   114.5560   -72.5740     5.2960     6.6210     8.3740
 2828.0000     8.0460     2.4670     0.0390   116.4030   -72.5740     5.3440     6.7360     9.0520
 2828.5000     8.0490     2.4730     0.0400   117.9340   -72.5740     5.2650     6.8450     9.8420
 2829.0000     8.0520     2.4820     0.0420   118.1720   -72.5750     5.0880     6.6800     9.9660
 2829.5000     8.0550     2.4900     0.0440   118.3610   -72.5730     4.9100     6.5120     9.7370
 2830.0000     8.0590     2.4980     0.0470   116.9900   -72.5210     4.7330     6.3440     9.2060
 2830.5000     8.0620     2.5010     0.0490   116.0150   -72.2610     4.4830     6.1320     8.6750
 2831.0000     8.0660     2.4990     0.0510   116.9710   -72.0050     4.2170     5.8580     8.1470
 2831.5000     8.0690     2.4890     0.0500   121.2820   -71.7490     3.9510     5.4230     7.2980
 2832.0000     8.0730     2.4790     0.0460   127.7580   -71.4910     3.7670     4.9480     5.7960
 2832.5000     8.0760     2.4670     0.0410   135.9370   -71.3900     3.6370     4.4740     4.4160
 2833.0000     8.0790     2.4510     0.0360   144.3670   -71.4820     3.6040     4.3690     4.1160
 2833.5000     8.0830     2.4340     0.0310   152.4400   -71.5800     3.6560     4.4690     3.9140
 2834.0000     8.0850     2.4170     0.0250   160.8130   -71.6790     3.7990     5.0770     5.8040
 2834.5000     8.0850     2.4040     0.0190   162.9740   -71.7770     3.9500     5.6430    10.0580
 2835.0000     8.0850     2.3920     0.0130   156.2040   -71.8760     4.2390     5.9680    10.0110
 2835.5000     8.0850     2.3870     0.0090   138.4710   -71.9760     4.6280     6.2930     9.9760
 2836.0000     8.0750     2.4010     0.0090   120.2040   -71.9560     5.0160     6.6170     9.9660
 2836.5000     8.0620     2.4250     0.0110   104.7320   -71.9280     5.4050     6.9420    10.2400
 2837.0000     8.0500     2.4520     0.0150   103.3090   -71.9000     5.7770     7.2210    10.5370
 2837.5000     8.0370     2.4660     0.0190   107.5760   -71.8730     6.0180     7.4010    10.8330
 2838.0000     8.0240     2.4670     0.0230   107.3580   -71.8460     6.1880     7.5810    10.9230
 2838.5000     8.0120     2.4860     0.0270   103.3580   -71.8180     6.1880     7.7600    10.3330
 2839.0000     7.9990     2.5050     0.0310   106.7520   -71.7900     6.1880     7.8530     9.8780
 2839.5000     7.9860     2.5130     0.0310   104.9500   -71.7920     6.1880     7.6110     9.4220
 2840.0000     7.9740     2.5040     0.0310   105.9000   -71.8310     6.1580     7.4220     9.0940
 2840.5000     7.9680     2.4910     0.0310   110.1400   -71.8690     6.0930     7.2320     9.0630
 2841.0000     7.9700     2.4800     0.0320   111.8710   -71.9070     6.0270     7.1660     8.9400
 2841.5000     7.9730     2.4790     0.0330   112.3170   -71.9460     5.9620     7.2100     8.8470
 2842.0000     7.9750     2.4770     0.0330   112.4150   -71.9840     5.8570     7.2800     9.2660
 2842.5000     7.9780     2.4690     0.0310   117.6530   -72.0220     5.8270     7.3500     9.6700
 2843.0000     7.9800     2.4570     0.0280   118.3620   -72.0600     5.8040     7.4200    10.0740
 2843.5000     7.9830     2.4530     0.0250   116.1260   -72.0990     5.5830     7.4330    10.2440
 2844.0000     7.9850     2.4520     0.0230   112.9770   -72.1370     5.3650     7.1710    10.0750
 2844.5000     7.9880     2.4550     0.0200   111.4200   -72.1750     5.1470     6.8960     9.6900
 2845.0000     7.9900     2.4570     0.0190   116.7040   -72.2130     4.9290     6.7020     9.0940
 2845.5000     7.9930     2.4550     0.0180   125.1300   -72.2520     4.7110     6.2680     8.3120
 2846.0000     7.9950     2.4470     0.0170   133.0380   -72.2890     4.5320     5.7650     7.3120
 2846.5000     7.9980     2.4360     0.0170   137.9930   -72.3280     4.4900     5.4930     6.3120
 2847.0000     8.0010     2.4240     0.0160   140.6010   -72.3780     4.4900     5.5440     5.3120
 2847.5000     8.0030     2.4210     0.0150   149.3570   -71.9850     4.5740     5.9070     5.0580
 2848.0000     8.0060     2.4200     0.0140   154.6840   -71.4690     4.8180     6.2890     8.3950
 2848.5000     8.0030     2.4210     0.0120   151.1130   -70.9520     5.0620     6.6720     9.8140
 2849.0000     7.9990     2.4250     0.0090   138.6480   -70.5870     5.3060     7.0550     9.9340
 2849.5000     7.9960     2.4290     0.0070   123.9510   -70.5890     5.5500     7.4380    10.0580
 2850.0000     7.9920     2.4410     0.0060   112.9150   -70.5690     5.7940     7.7820    10.0580
 2850.5000     7.9890     2.4570     0.0090   112.1080   -70.5490     6.0140     8.0470    10.3090
 2851.0000     7.9850     2.4610     0.0090   112.0420   -70.5300     6.1780     8.2130    10.5880
 2851.5000     7.9820     2.4650     0.0090   111.9080   -70.5100     6.3410     8.3690    10.8670
 2852.0000     7.9780     2.4620     0.0090   111.7840   -70.4910     6.4880     8.5260    11.1250
 2852.5000     7.9750     2.4590     0.0120   111.7370   -70.4710     6.6320     8.6830    10.9250
