~VERSION INFORMATION
 VERS.                2.0:   CWLS LOG ASCII STANDARD - VERSION 2.0
 WRAP.                 NO:   ONE LINE PER DEPTH STEP
~WELL INFORMATION
#MNEM.UNIT      DATA TYPE    INFORMATION
#----------   ------------   ------------------------------
 STRT.F          176.0000:   START DEPTH
 STOP.F         3442.0000:   STOP DEPTH
 STEP.F            0.5000:   STEP LENGTH
 NULL.          -999.2500:   NO VALUE
 COMP.  FENIX AND SCISSON:   COMPANY
 WELL.  FENIX "AX" #65-15:   WELL
 FLD . NAVAL PETROLEUM RESERVE #3:   FIELD
 LOC .      S15 T38N R78W:   LOCATION
 CNTY.            NATRONA:   COUNTY
 STAT.            WYOMING:   STATE
 CTRY. UNITED STATES OF AMERICA:   COUNTRY
 SRVC.       SCHLUMBERGER:   SERVICE COMPANY
 DATE.        09-APR-1981:   LOGDATE
 API .     49025108710000:   API NUMBER
~CURVE INFORMATION
#MNEM.UNIT       API CODE    CURVE DESCRIPTION
#----------   ------------   ------------------------------
 DEPT.F                  :   
 TENR.LBS    07 635 01 00:   TENSION
 SPR .MV     07 010 01 00:   SPONTANEOUS POTENTIAL
 ILD .OHMM   07 120 46 00:   INDUCTION LOG DEEP RESISTIVITY
 ILM .OHMM   07 120 44 00:   INDUCTION LOG MEDIUM RESISTIVITY
 SFL .OHMM   07 220 01 00:   SHALLOW FOCUSED LOG RESISTIVITY
 TEND.LBS    45 635 01 00:   TENSION FROM DENSITY LOG
 CALD.IN     45 280 60 00:   CALIPER FROM DENSITY LOG
 GRD .GAPI   45 310 01 00:   GAMMA RAY FROM DENSITY LOG
 RHOB.G/C3   45 350 01 00:   BULK DENSITY
 CORR.G/C3   45 356 01 00:   DENSITY CORRECTION
~PARAMETER INFORMATION
#MNEM.UNIT          VALUE    DESCRIPTION
#----------   ------------   ------------------------------
 EKB .F         5287.0000:   Kelly bushing
 EGL .F         5277.0000:   Ground level
 EDF .F            0.0000:   Drilling floor
 TD  .F         5476.0000:   Total depth
 DATE.        09-APR-1981:   Date logged
 CLNT.            A2DTECH:   Client Code
 SL  . 1945' FSL & 1161' FEL:   Surface Location
 PD  .                 GL:   Permanent Datum
 EPD .F              5277:   Elevation Permanent Datum
 LMF .                 KB:   Log Measured From
 DMF .                 KB:   Drilling Measured From
 DAPD.F                10:   Feet Above Permanent Datum
 DD  .F              5476:   Depth driller
 DL  .F              5436:   Depth logger
 BLI .F              5430:   Bottom log interval
 TLI .F               190:   Top log interval
 CS1 .IN            8.625:   Casing size
 CBD1.      8.625" @ 190':   Casing driller 1
 CBL1.F               190:   Casing logger 1
 BS1 .IN            7.875:   Bit size
 BSD1.F              5476:   Depth drilled with bit1
 DFT .           CHEM GEL:   Type fluid in hole
 DFD .                9.1:   Density
 DFV .                 42:   Viscosity
 DFPH.                9.5:   pH
 DFL .                  8:   Fluid loss
 MSS .            MUDTANK:   Source of sample
 RMS .OHMM           1.62:   Rm
 MST .F                71:   Rm Meas. temp.
 RMF .OHMM           1.45:   Rmf
 MFST.F                71:   Rmf Meas. temp.
 MFSS.               MEAS:   Source Rmf.
 RMB .OHMM           1.02:   Rm. at BHT
 BHT .F               116:   BHT.
 TCS .HRS            1600:   Time Circ. stopped
 TLAB.HRS            1830:   Time logger at bottom
 MRT .F               116:   Maximum recorded temp.
 LUN .               8035:   Logging unit number
 LUL .               CSPR:   Logging unit location
 ENGI.            BEATTIE:   Recorded By
 WITN.              EIVAS:   Witnessed by
 ORIG.           5" PRINT:   Origin of data
 UWI .     49025108710000:   Unique Well ID
 DICO. A2D TECHNOLOGIES, INC.:   Digitizing Company
~OTHER INFORMATION
~A   DEPT     TENR        SPR        ILD        ILM        SFL       TEND       CALD         GRD      RHOB       CORR   
# ...
  812.5000   385.3750   -18.6200     9.1130     8.1720     8.8650   356.8460     8.5740   101.6890     2.4890     0.0240
  813.0000   385.3750   -18.6380     8.4520     7.2830     8.3680   356.6160     8.6190   106.9710     2.4400     0.0380
  813.5000   385.3750   -18.6760     7.7910     6.0710     7.8710   356.3850     8.6710   112.1420     2.3740     0.0680
  814.0000   385.3750   -18.7150     7.1300     6.5110     6.5890   356.1550     8.7230   112.4880     2.2680     0.0770
  814.5000   385.3750   -18.7560     6.7710     7.2010     4.9690   355.9240     8.7600   106.1430     2.2110     0.0400
  815.0000   385.3750   -18.7950     7.4350     7.8920     5.5030   355.6940     8.7790   100.8160     2.2600    -0.0060
  815.5000   385.3750   -18.8350     8.0600     8.5820     7.4400   355.4630     8.7980    99.2820     2.3660     0.0010
  816.0000   385.3750   -18.8750     8.6850     9.2170     9.3760   355.2330     8.8180   101.5660     2.4720     0.0160
  816.5000   385.3750   -18.9150     9.3100     9.7270    11.0690   355.0020     8.8450   104.1560     2.5110     0.0340
  817.0000   385.3750   -18.9540     9.9340    10.2380    11.0690   354.7720     8.8710   105.0150     2.5260     0.0520
  817.5000   385.3750   -18.9970    10.5590    10.7480    11.0690   354.5410     8.8900   103.8490     2.5320     0.0700
  818.0000   385.3750   -19.0220    11.1840    11.2580    11.5440   354.2910     8.8900   102.5220     2.5320     0.0700
  818.5000   385.3750   -19.0190    11.6900    11.7680    11.7170   355.0930     8.8900   103.0320     2.5240     0.0630
  819.0000   385.3750   -19.0200    12.3460    12.2790    11.8910   356.6370     8.8900   103.9860     2.5170     0.0560
  819.5000   385.3750   -19.0200    12.4260    12.7890    12.0650   358.1820     8.9060   103.0860     2.5220     0.0730
  820.0000   385.3750   -19.0200    12.5550    13.2790    12.2380   359.7270     8.9370   100.9740     2.5370     0.1070
  820.5000   385.3750   -19.0200    12.6840    13.5230    12.4120   361.2710     8.9690    96.2510     2.5380     0.1420
  821.0000   385.3750   -19.0200    12.8040    13.5230    12.5730   362.8160     9.0020    93.3110     2.4990     0.1070
  821.5000   385.3750   -19.0200    12.5210    13.5230    12.4170   364.3610     9.0770    90.8950     2.4740     0.0700
  822.0000   385.3750   -19.0200    12.2570    12.8040    12.2700   365.9050     9.1970    92.4790     2.4660     0.0400
  822.5000   385.3750   -19.0200    11.9930    12.4660    12.1240   367.4500     9.2140    97.0080     2.5150     0.0310
  823.0000   385.3750   -19.0200    11.7290    12.1590    11.9780   368.9940     8.9820   101.7410     2.5310     0.0300
  823.5000   385.3750   -19.0200    11.4650    11.8530    11.8320   370.5390     8.7480   105.0260     2.5360     0.0270
  824.0000   385.3750   -19.0200    11.2010    11.5460    11.6860   372.0840     8.5480   106.7100     2.5320     0.0180
  824.5000   385.3750   -19.0200    10.9370    11.2390    11.5390   373.6280     8.5580   107.8200     2.5260     0.0090
  825.0000   385.3750   -19.0200    10.6720    10.9320    11.2720   373.8240     8.5620   108.0790     2.5210     0.0030
  825.5000   385.3750   -19.0200    10.4080    10.6260    11.0570   373.1070     8.5650   108.2670     2.5230     0.0070
  826.0000   385.3750   -19.0200    10.1440    10.3190    10.8760   372.3900     8.5680   108.4750     2.5260     0.0140
  826.5000   385.3750   -19.0200     9.8800    10.0120    10.6960   371.6720     8.5710   108.6810     2.5320     0.0230
  827.0000   385.3750   -19.0200     9.6160     9.7050    10.5160   370.9550     8.5750   108.1160     2.5380     0.0310
  827.5000   385.3750   -19.0200     9.3520     9.3990    10.3360   370.2380     8.5780   106.7990     2.5440     0.0340
  828.0000   385.3750   -19.0200     9.0610     9.0610    10.1550   369.5210     8.5810   106.7850     2.5490     0.0360
  828.5000   385.3750   -19.0200     9.2270     9.0080     9.9750   368.8040     8.5850   108.9400     2.5500     0.0370
  829.0000   385.3750   -19.0190     9.2270     8.9500     9.8900   368.0870     8.5880   110.1740     2.5450     0.0260
  829.5000   385.3750   -19.0210     9.2270     8.8920     9.8420   367.3700     8.5910   110.7710     2.5370     0.0150
  830.0000   385.3750   -19.0190     9.2270     8.8340     9.7950   366.6520     8.5950   110.4860     2.5310     0.0050
  830.5000   385.3750   -19.0110     9.2270     8.7750     9.7480   365.9350     8.5980   110.2350     2.5250     0.0040
  831.0000   385.3750   -18.8940     9.2270     8.7170     9.7000   365.2180     8.6010   110.9880     2.5190     0.0040
  831.5000   385.3750   -18.7940     9.2270     8.6590     9.6530   364.5010     8.6040   112.8840     2.5140     0.0050
  832.0000   385.3750   -18.6860     9.2270     8.6010     9.6050   364.5010     8.6080   113.7540     2.5070     0.0050
  832.5000   385.3750   -18.5820     9.1200     8.5790     9.5440   364.9800     8.6110   112.8350     2.5010     0.0060
  833.0000   385.3750   -18.4760     9.0160     8.5790     9.4360   365.4580     8.6150   111.8070     2.4980     0.0070
  833.5000   385.3750   -18.3730     8.9120     8.5790     9.3280   365.9360     8.6220   112.3720     2.5080     0.0090
  834.0000   385.3750   -18.2680     8.8080     8.4720     9.2200   366.4140     8.6280   112.5660     2.5170     0.0120
  834.5000   385.3750   -18.2290     8.7040     8.3510     9.1120   366.8920     8.6340   112.5590     2.5200     0.0160
  835.0000   385.3750   -18.2710     8.6000     8.2290     9.0030   367.3700     8.6400   113.1690     2.5230     0.0190
  835.5000   385.3750   -18.3520     8.4950     8.1070     8.8950   367.8480     8.6470   114.8150     2.5300     0.0230
  836.0000   385.3750   -18.4270     8.3910     7.9850     8.7870   368.3260     8.6530   115.8250     2.5320     0.0260
  836.5000   385.3750   -18.5040     8.2870     7.8630     8.6790   368.8040     8.6590   114.6420     2.5260     0.0260
  837.0000   385.3750   -18.5810     8.1830     7.7410     8.5710   369.2820     8.6650   111.5470     2.5200     0.0270
  837.5000   385.3750   -18.6570     8.0790     7.6190     8.4630   369.7600     8.6720   109.3920     2.5250     0.0320
  838.0000   385.3750   -18.7350     7.9750     7.4970     8.3550   370.2390     8.6780   109.0580     2.5300     0.0350
  838.5000   385.3750   -18.8110     7.8700     7.3750     8.2470   370.7170     8.6840   109.5770     2.5270     0.0280
  839.0000   385.3750   -18.8870     7.8330     7.2830     8.1230   371.1950     8.6910   108.2790     2.5150     0.0210
  839.5000   385.3750   -18.9670     7.8330     7.2830     7.8310   371.6730     8.6970   106.5170     2.5010     0.0270
  840.0000   385.3750   -19.0190     7.8330     7.2830     7.4880   372.1510     8.7040   107.5210     2.4870     0.0420
  840.5000   385.3750   -19.0110     7.8330     7.2830     7.1440   372.6290     8.7090   109.5010     2.4710     0.0550
  841.0000   385.3750   -18.8900     7.8330     7.2830     6.7710   373.1070     8.7230   113.7070     2.4530     0.0430
  841.5000   385.3750   -18.7760     7.8330     7.2830     7.2100   373.5850     8.6590   117.8620     2.4510     0.0210
  842.0000   385.3750   -18.6550     7.8330     7.4660     7.6890   374.0630     8.5970   119.9300     2.4750     0.0040
  842.5000   385.3750   -18.5400     7.9380     7.7170     8.1690   374.2510     8.5740   119.7140     2.5020     0.0040
  843.0000   385.3750   -18.4230     8.1300     7.9680     8.6490   374.2510     8.5740   116.9620     2.5090     0.0050
  843.5000   385.3750   -18.2980     8.3220     8.2190     9.1290   374.2510     8.5700   113.4790     2.5120     0.0050
  844.0000   385.3750   -18.2300     8.5140     8.4700     9.2980   374.2510     8.5550   109.1000     2.5130     0.0040
  844.5000   385.3750   -18.2330     8.7050     8.7210     9.4750   374.2510     8.5560   105.5000     2.5140     0.0030
  845.0000   385.3750   -18.2730     8.8970     8.9720     9.6520   374.2510     8.5570   104.6770     2.5170     0.0050
  845.5000   385.3750   -18.3710     9.0890     9.0710     9.8290   374.2510     8.5590   105.2600     2.5240     0.0130
