~VERSION INFORMATION
 VERS.                2.0:   CWLS LOG ASCII STANDARD - VERSION 2.0
 WRAP.                 NO:   ONE LINE PER DEPTH STEP
~WELL INFORMATION
#MNEM.UNIT      DATA TYPE    INFORMATION
#----------   ------------   ------------------------------
 STRT.F          206.0000:   START DEPTH
 STOP.F         2974.0000:   STOP DEPTH
 STEP.F            0.5000:   STEP LENGTH
 NULL.          -999.2500:   NO VALUE
 COMP.    FENIX & SCISSON:   COMPANY
 WELL.    FENIX AX #32-21:   WELL
 FLD .                NPR:   FIELD
 LOC .      S21 T39N R78W:   LOCATION
 CNTY.            NATRONA:   COUNTY
 STAT.            WYOMING:   STATE
 CTRY. UNITED STATES OF AMERICA:   COUNTRY
 SRVC.              WELEX:   SERVICE COMPANY
 DATE.        29-JUL-1977:   LOGDATE
 API .     49025104050000:   API NUMBER
~CURVE INFORMATION
#MNEM.UNIT       API CODE    CURVE DESCRIPTION
#----------   ------------   ------------------------------
 DEPT.F                  :   
 SPR .MV     07 010 01 00:   SPONTANEOUS POTENTIAL
 RILM.OHMM   07 120 44 00:   INDUCTION LOG MEDIUM RESISTIVITY
 RILD.OHMM   07 120 46 00:   INDUCTION LOG DEEP RESISTIVITY
 SGRD.OHMM   07 220 05 00:   SHALLOW GUARD LOG RESISTIVITY
 CALD.IN     45 280 60 00:   CALIPER FROM DENSITY LOG
 RHOB.G/C3   45 350 01 00:   BULK DENSITY
 DCOR.G/C3   45 356 01 00:   DENSITY CORRECTION
 GRD .GAPI   45 310 01 00:   GAMMA RAY FROM DENSITY LOG
~PARAMETER INFORMATION
#MNEM.UNIT          VALUE    DESCRIPTION
#----------   ------------   ------------------------------
 EKB .F         4995.0000:   Kelly bushing
 EGL .F         4985.0000:   Ground level
 EDF .F            0.0000:   Drilling floor
 EPD .F         4985.0000:   Permanent datum
 TD  .F         2978.0000:   Total depth
 DATE.        29-JUL-1977:   Date logged
 CLNT.            A2DTECH:   Client Code
 SL  . 1040' FNL & 1500' FWL:   Surface Location
 PD  .                 GL:   Permanent Datum
 LMF .                 KB:   Log Measured From
 DMF .                 KB:   Drilling Measured From
 DAPD.F                10:   Feet Above Permanent Datum
 DD  .F              2972:   Depth driller
 DL  .F              2978:   Depth logger
 BLI .F              2976:   Bottom log interval
 TLI .F               120:   Top log interval
 CS1 .IN            8.625:   Casing size
 CBD1.      8.625" @ 205':   Casing driller 1
 CBL1.F               220:   Casing logger 1
 BS1 .IN            7.875:   Bit size
 BSD1.F              2972:   Depth drilled with bit1
 DFT .                KCL:   Type fluid in hole
 DFD .                9.2:   Density
 DFV .                 43:   Viscosity
 DFPH.                 10:   pH
 DFL .                  8:   Fluid loss
 MSS .            MUD PIT:   Source of sample
 RMS .OHMM            .21:   Rm
 MST .F                91:   Rm Meas. temp.
 RMF .OHMM            .18:   Rmf
 MFST.F                91:   Rmf Meas. temp.
 RMC .OHMM            .23:   Rmc
 MCST.F                91:   Rmc Meas. temp.
 MFSS.               MEAS:   Source Rmf.
 MCSS.               MEAS:   Source Rmc.
 RMB .OHMM            .17:   Rm. at BHT
 BHT .F               110:   BHT.
 TCS .HRS               3:   Time Circ. stopped
 MRT .F               110:   Maximum recorded temp.
 LUN .               9685:   Logging unit number
 LUL .             CASPER:   Logging unit location
 ENGI.   T JOYNER/ E HOCH:   Recorded By
 WITN.         PETTINGILL:   Witnessed by
 ORIG.     2.5", 5" PRINT:   Origin of data
 UWI .     49025104050000:   Unique Well ID
 DICO. A2D TECHNOLOGIES, INC.:   Digitizing Company
~OTHER INFORMATION
~A   DEPT      SPR       RILM       RILD       SGRD       CALD       RHOB       DCOR         GRD  
# ...
 2190.5000   -70.6600     3.2090     3.9590     5.3870     8.5230     2.5090     0.0310   142.9300
 2191.0000   -70.6900     3.1330     3.8750     4.9490     8.5220     2.5080     0.0320   144.3020
 2191.5000   -70.5950     3.0570     3.7920     4.5110     8.5220     2.5080     0.0310   145.6620
 2192.0000   -70.5030     2.9800     3.7090     4.0720     8.5210     2.5070     0.0300   146.7740
 2192.5000   -70.4070     2.9040     3.6260     3.6610     8.5200     2.5020     0.0280   147.1860
 2193.0000   -70.3130     2.8280     3.5420     3.9520     8.5200     2.4940     0.0310   147.5110
 2193.5000   -70.2190     2.7510     3.4630     4.3220     8.5190     2.4960     0.0360   147.8290
 2194.0000   -70.1240     2.7250     3.4400     4.0650     8.5180     2.4990     0.0400   148.2800
 2194.5000   -70.0300     2.7250     3.4170     3.5280     8.5170     2.5080     0.0450   147.4330
 2195.0000   -69.9350     2.8020     3.4000     3.7820     8.5170     2.5170     0.0500   144.4950
 2195.5000   -69.8410     2.8760     3.4000     4.1780     8.5160     2.5130     0.0520   141.6210
 2196.0000   -69.7470     2.9720     3.5470     4.3220     8.5150     2.5110     0.0510   139.7920
 2196.5000   -69.6520     3.1400     3.6900     4.4070     8.5150     2.5090     0.0500   138.8360
 2197.0000   -69.5580     3.3380     3.8320     4.5090     8.5140     2.5190     0.0490   137.8130
 2197.5000   -69.4630     3.5090     3.9740     4.7520     8.5130     2.5340     0.0480   136.8650
 2198.0000   -69.3690     3.7170     4.1160     5.1870     8.5130     2.5380     0.0470   135.9370
 2198.5000   -69.2750     3.9250     4.2580     5.6210     8.5120     2.5360     0.0460   135.4340
 2199.0000   -69.1760     4.0890     4.4010     6.0550     8.5110     2.5430     0.0450   132.7220
 2199.5000   -69.0920     4.0890     4.5430     6.4870     8.5100     2.5520     0.0440   129.9160
 2200.0000   -69.0250     4.0890     4.6850     6.2690     8.5100     2.5540     0.0430   127.7720
 2200.5000   -68.9530     4.0890     4.8280     5.9670     8.5090     2.5510     0.0420   129.6120
 2201.0000   -68.8830     4.0890     4.8490     5.5350     8.5080     2.5420     0.0410   130.8090
 2201.5000   -68.8110     4.1390     4.8690     4.9180     8.5080     2.5340     0.0380   130.5730
 2202.0000   -68.7400     4.3170     4.8900     5.2370     8.5070     2.5240     0.0320   129.3410
 2202.5000   -68.5820     4.4850     4.9110     5.7920     8.5060     2.5170     0.0260   131.6040
 2203.0000   -68.3930     4.4850     4.9310     6.4170     8.5060     2.5160     0.0250   131.0060
 2203.5000   -68.2040     4.4850     4.9520     6.2760     8.5050     2.5220     0.0270   130.1170
 2204.0000   -68.0170     4.4850     4.9730     5.8070     8.5040     2.5280     0.0290   129.2820
 2204.5000   -67.8270     4.5750     4.9930     5.9220     8.5030     2.5280     0.0310   130.7270
 2205.0000   -67.6410     4.6540     5.0140     6.2700     8.5030     2.5240     0.0320   130.4600
 2205.5000   -67.4540     4.7400     5.0340     6.4540     8.5020     2.5200     0.0320   130.1650
 2206.0000   -67.2490     4.6550     5.0550     6.6080     8.5010     2.5170     0.0320   130.1970
 2206.5000   -67.1200     4.5620     5.0750     6.3540     8.5010     2.5170     0.0320   130.7640
 2207.0000   -67.1360     4.4230     5.0960     5.9920     8.5000     2.5200     0.0320   131.2550
 2207.5000   -67.1310     4.4630     5.1320     5.6310     8.4980     2.5230     0.0320   131.6930
 2208.0000   -67.1310     4.6790     5.1760     5.2950     8.4970     2.5260     0.0320   132.3390
 2208.5000   -67.1320     4.8940     5.2190     6.0880     8.4950     2.5290     0.0320   131.5270
 2209.0000   -67.1310     5.0530     5.2630     6.8270     8.4940     2.5320     0.0320   130.4700
 2209.5000   -67.1320     5.1460     5.3140     7.3510     8.4920     2.5350     0.0320   129.5850
 2210.0000   -67.1310     5.2390     5.3880     7.2280     8.4900     2.5380     0.0360   128.7370
 2210.5000   -67.1310     5.3330     5.4630     7.1040     8.4890     2.5460     0.0390   127.8350
 2211.0000   -67.1310     5.4260     5.5380     6.9840     8.4870     2.5530     0.0430   126.9320
 2211.5000   -67.1320     5.5190     5.6120     7.3920     8.4860     2.5610     0.0470   126.1340
 2212.0000   -67.1310     5.6120     5.6870     7.9470     8.4840     2.5590     0.0510   125.1470
 2212.5000   -67.1320     5.7060     5.7620     7.7390     8.4830     2.5630     0.0520   125.8100
 2213.0000   -67.1320     5.7990     5.8360     7.3950     8.4810     2.5710     0.0520   124.4550
 2213.5000   -67.1310     5.8920     5.9110     7.1140     8.4790     2.5740     0.0510   122.4590
 2214.0000   -67.1340     6.0250     5.9850     7.5190     8.4780     2.5710     0.0510   122.3610
 2214.5000   -67.1010     5.9930     6.0600     7.8020     8.4760     2.5680     0.0510   123.5690
 2215.0000   -67.0390     5.9350     6.1380     7.8020     8.4750     2.5640     0.0500   124.7700
 2215.5000   -66.9820     5.8780     6.0770     7.8020     8.4730     2.5640     0.0500   124.5190
 2216.0000   -66.9240     5.8200     6.0140     7.7380     8.4720     2.5640     0.0490   122.9310
 2216.5000   -66.8670     5.7630     5.9510     7.5540     8.4700     2.5650     0.0490   123.9400
 2217.0000   -66.8050     5.7010     5.8880     7.3690     8.4680     2.5650     0.0490   125.0970
 2217.5000   -66.7500     5.7010     5.8250     7.1850     8.4670     2.5640     0.0480   126.3070
 2218.0000   -66.6190     5.7010     5.7380     6.9840     8.4650     2.5690     0.0490   127.5060
 2218.5000   -66.4350     5.7010     5.6420     8.7160     8.4640     2.5760     0.0520   128.6650
 2219.0000   -66.3510     5.6240     5.5470     8.6080     8.4620     2.5750     0.0550   129.9240
 2219.5000   -66.4550     5.5550     5.4510     8.2470     8.4600     2.5680     0.0530   130.3690
 2220.0000   -66.5430     5.4860     5.3550     7.8860     8.4600     2.5560     0.0420   130.8180
 2220.5000   -66.6270     5.4170     5.2590     7.5250     8.4610     2.5470     0.0320   131.2230
 2221.0000   -66.7210     5.3470     5.1630     7.1140     8.4620     2.5380     0.0200   131.6580
 2221.5000   -66.6020     5.2780     5.0670     6.7260     8.4620     2.5470     0.0170   132.0780
 2222.0000   -66.4520     5.1980     4.9180     6.0250     8.4630     2.5540     0.0210   132.6320
 2222.5000   -66.2960     5.3350     4.9830     6.2520     8.4640     2.5540     0.0230   133.6770
 2223.0000   -66.1480     5.5240     5.1280     6.6080     8.4640     2.5520     0.0260   134.6030
 2223.5000   -65.9910     5.7290     5.2740     7.2230     8.4650     2.5530     0.0290   135.4260
 2224.0000   -65.9320     5.9340     5.4190     7.9640     8.4660     2.5580     0.0320   133.5330
 2224.5000   -65.9370     6.1380     5.5650     8.4530     8.4660     2.5600     0.0350   131.6260
 2225.0000   -65.9370     6.1510     5.7100     8.5560     8.4670     2.5660     0.0370   129.5600
 2225.5000   -65.9360     6.1640     5.8550     8.4990     8.4680     2.5760     0.0400   127.6530
 2226.0000   -65.9370     6.1760     5.9440     8.4510     8.4690     2.5730     0.0430   126.0010
 2226.5000   -65.9360     6.1890     5.9930     8.4030     8.4690     2.5680     0.0440   127.4740
 2227.0000   -65.9360     6.2020     6.0420     8.3540     8.4700     2.5640     0.0420   129.8480
 2227.5000   -65.9360     6.2150     6.0910     8.3060     8.4710     2.5580     0.0410   128.7900
 2228.0000   -65.9370     6.2280     6.1390     8.2580     8.4710     2.5560     0.0410   127.8870
 2228.5000   -65.9360     6.2410     6.1880     8.2980     8.4720     2.5560     0.0440   127.7230
 2229.0000   -65.9350     6.2520     6.2370     8.3660     8.4730     2.5650     0.0460   128.6770
 2229.5000   -65.9310     6.3730     6.2860     8.4350     8.4730     2.5730     0.0490   129.2270
 2230.0000   -65.6770     6.4800     6.3680     8.5030     8.4740     2.5720     0.0510   128.7490
 2230.5000   -65.6340     6.5870     6.3600     8.5720     8.4750     2.5670     0.0520   129.9570
