~VERSION INFORMATION
 VERS.                2.0:   CWLS LOG ASCII STANDARD - VERSION 2.0
 WRAP.                 NO:   ONE LINE PER DEPTH STEP
~WELL INFORMATION
#MNEM.UNIT      DATA TYPE    INFORMATION
#----------   ------------   ------------------------------
 STRT.F         2299.0000:   START DEPTH
 STOP.F         3387.5000:   STOP DEPTH
 STEP.F            0.5000:   STEP LENGTH
 NULL.          -999.2500:   NO VALUE
 COMP. LAWRENCE ALLISON AND ASSOCIATES:   COMPANY
 WELL. 		  62-AX-3:   WELL
 FLD .                NPR:   FIELD
 LOC .       S3 T38N R78W:   LOCATION
 CNTY.            NATRONA:   COUNTY
 STAT.            WYOMING:   STATE
 CTRY. UNITED STATES OF AMERICA:   COUNTRY
 SRVC.      DRESSER ATLAS:   SERVICE COMPANY
 DATE.        14-JUN-1985:   LOGDATE
 API .     49025110330000:   API NUMBER
~CURVE INFORMATION
#MNEM.UNIT       API CODE    CURVE DESCRIPTION
#----------   ------------   ------------------------------
 DEPT.F                  :   
 NPHI.DEC    42 890 01 00:   NEUTRON POROSITY
 TEND.LBS    45 635 01 00:   TENSION
 RHOB.G/C3   45 350 01 00:   BULK DENSITY
 CORR.DEC    45 356 01 00:   CORRECTION
~PARAMETER INFORMATION
#MNEM.UNIT          VALUE    DESCRIPTION
#----------   ------------   ------------------------------
 EKB .F         5160.0000:   Kelly bushing
 EGL .F         5148.0000:   Ground level
 EDF .F            0.0000:   Drilling floor
 EPD .F         5148.0000:   Permanent datum
 TD  .F         3380.0000:   Total depth
 DATE.        14-JUN-1985:   Date logged
 CLNT.            A2DTECH:   Client Code
 PD  .                 GL:   Permanent Datum
 LMF .                 KB:   Log Measured From
 DMF .                 KB:   Drilling Measured From
 DL  .F              3380:   Depth logger
 BLI .F              3378:   Bottom log interval
 CS1 .IN            8.625:   Casing size
 CBD1.      8.625" @ 603':   Casing driller 1
 DFT .        KCL POLYMER:   Type fluid in hole
 ENGI.               MACK:   Recorded By
 WITN.             STRONG:   Witnessed by
 ORIG.       2.5"5" PRINT:   Origin of data
 UWI .     49025110330000:   Unique Well ID
 DICO. A2D TECHNOLOGIES, INC.:   Digitizing Company
 DAPD.F                12:   Feet Above Permanent Datum
 BS1 .IN            7.875:   Bit size
 DFD .                8.9:   Density
 DFV .                 46:   Viscosity
 DFPH.                8.5:   pH
 DFL .                9.6:   Fluid loss
 MSS .           FLOWLINE:   Source of sample
 RMS .OHMM           0.38:   Rm
 MST .F                74:   Rm Meas. temp.
 RMF .OHMM           0.29:   Rmf
 MFST.F                74:   Rmf Meas. temp.
 MFSS.               MEAS:   Source Rmf.
 RMC .OHMM           0.23:   Rmc
 MCST.F               120:   Rmc Meas. temp.
 MCSS.               MEAS:   Source Rmc.
 RMB .OHMM           0.23:   Rm. at BHT
 BHT .F               120:   BHT.
 TCS .                  8:   Time Circ. stopped
 MRT .                122:   Maximum recorded temp.
 LUN .            HL-6274:   Logging unit number
 LUL .               GLTE:   Logging unit location
~OTHER INFORMATION
~A     DEPTH         CORR         NPHI         RHOB         TEND
# ...
   2485.0000      -0.0110       0.3190       2.5150       0.2031
   2485.5000      -0.0180       0.3150       2.5010       0.2017
   2486.0000      -0.0070       0.3090       2.4870       0.2004
   2486.5000       0.0010       0.3080       2.4750       0.1990
   2487.0000      -0.0040       0.3163       2.4800       0.1976
   2487.5000      -0.0090       0.3190       2.4870       0.1962
   2488.0000      -0.0050       0.3102       2.4910       0.1948
   2488.5000       0.0010       0.3011       2.4950       0.1953
   2489.0000       0.0030       0.2987       2.4940       0.2052
   2489.5000       0.0010       0.2878       2.4920       0.2152
   2490.0000      -0.0030       0.2793       2.4880       0.2215
   2490.5000      -0.0100       0.2893       2.4970       0.2108
   2491.0000      -0.0130       0.2983       2.5080       0.2001
   2491.5000      -0.0010       0.3040       2.5150       0.1974
   2492.0000       0.0060       0.2976       2.5220       0.2067
   2492.5000      -0.0040       0.2988       2.5130       0.2161
   2493.0000      -0.0130       0.2969       2.5020       0.2224
   2493.5000      -0.0180       0.2957       2.4920       0.2174
   2494.0000      -0.0080       0.2953       2.4910       0.2129
   2494.5000       0.0010       0.2940       2.5070       0.2101
   2495.0000       0.0030       0.2853       2.5170       0.2073
   2495.5000       0.0010       0.2762       2.5160       0.2046
   2496.0000      -0.0010       0.2683       2.5140       0.2018
   2496.5000      -0.0020       0.2697       2.5140       0.1990
   2497.0000      -0.0010       0.2784       2.5210       0.1962
   2497.5000       0.0120       0.2799       2.5280       0.1936
   2498.0000       0.0280       0.2687       2.5500       0.1970
   2498.5000       0.0490       0.2605       2.5820       0.2001
   2499.0000       0.0520       0.2640       2.5920       0.2032
   2499.5000       0.0500       0.2655       2.5880       0.2063
   2500.0000       0.0420       0.2669       2.5800       0.2094
   2500.5000       0.0330       0.2699       2.5470       0.2126
   2501.0000       0.0360       0.2739       2.5290       0.2125
   2501.5000       0.0410       0.2800       2.5260       0.2111
   2502.0000       0.0440       0.2880       2.5390       0.2097
   2502.5000       0.0210       0.2868       2.5560       0.2083
   2503.0000       0.0030       0.2849       2.5580       0.2069
   2503.5000       0.0000       0.2824       2.5600       0.2054
   2504.0000       0.0050       0.2752       2.5590       0.2040
   2504.5000       0.0120       0.2715       2.5550       0.2068
   2505.0000       0.0180       0.2690       2.5520       0.2115
   2505.5000       0.0170       0.2626       2.5520       0.2162
   2506.0000       0.0140       0.2557       2.5520       0.2210
   2506.5000       0.0120       0.2562       2.5530       0.2215
   2507.0000       0.0150       0.2763       2.5540       0.2173
   2507.5000       0.0190       0.2921       2.5630       0.2132
   2508.0000       0.0240       0.2956       2.5720       0.2091
   2508.5000       0.0290       0.2923       2.5760       0.2050
   2509.0000       0.0200       0.2814       2.5740       0.2008
   2509.5000       0.0110       0.2706       2.5700       0.1967
   2510.0000       0.0030       0.2672       2.5610       0.1954
   2510.5000       0.0010       0.2687       2.5520       0.2022
   2511.0000      -0.0010       0.2770       2.5450       0.2089
   2511.5000       0.0020       0.2815       2.5410       0.2157
   2512.0000       0.0070       0.2762       2.5280       0.2224
   2512.5000       0.0090       0.2732       2.5140       0.2189
   2513.0000       0.0020       0.2726       2.5070       0.2136
   2513.5000      -0.0050       0.2770       2.5030       0.2083
   2514.0000      -0.0040       0.2827       2.5000       0.2030
   2514.5000       0.0060       0.2802       2.4980       0.1977
   2515.0000       0.0060       0.2703       2.5000       0.1962
   2515.5000       0.0000       0.2501       2.5030       0.2066
   2516.0000      -0.0030       0.2405       2.5090       0.2170
   2516.5000       0.0020       0.2470       2.5190       0.2275
   2517.0000      -0.0040       0.2566       2.5200       0.2328
   2517.5000      -0.0110       0.2628       2.5210       0.2314
   2518.0000      -0.0120       0.2594       2.5190       0.2301
   2518.5000      -0.0080       0.2522       2.5180       0.2288
   2519.0000      -0.0030       0.2476       2.5200       0.2274
   2519.5000       0.0010       0.2473       2.5200       0.2261
   2520.0000       0.0010       0.2550       2.5160       0.2248
   2520.5000      -0.0060       0.2604       2.5100       0.2234
   2521.0000      -0.0090       0.2687       2.5090       0.2221
   2521.5000      -0.0030       0.2692       2.5110       0.2207
   2522.0000       0.0030       0.2604       2.5120       0.2194
   2522.5000       0.0040       0.2532       2.5120       0.2181
   2523.0000      -0.0010       0.2517       2.5100       0.2167
   2523.5000       0.0000       0.2534       2.5090       0.2154
   2524.0000      -0.0030       0.2593       2.5090       0.2140
   2524.5000       0.0020       0.2713       2.5150       0.2143
   2525.0000       0.0010       0.2736       2.5250       0.2156
   2525.5000       0.0090       0.2742       2.5310       0.2169
   2526.0000       0.0020       0.2579       2.5290       0.2182
   2526.5000      -0.0020       0.2435       2.5310       0.2195
   2527.0000      -0.0030       0.2446       2.5350       0.2208
   2527.5000       0.0060       0.2476       2.5470       0.2221
   2528.0000       0.0200       0.2412       2.5580       0.2234
   2528.5000       0.0350       0.2397       2.5590       0.2234
   2529.0000       0.0340       0.2511       2.5570       0.2234
   2529.5000       0.0290       0.2653       2.5560       0.2234
   2530.0000       0.0290       0.2752       2.5550       0.2234
   2530.5000      -0.0010       0.2736       2.5440       0.2234
   2531.0000       0.0030       0.2669       2.5340       0.2234
   2531.5000       0.0020       0.2603       2.5290       0.2234
   2532.0000       0.0000       0.2530       2.5290       0.2234
   2532.5000       0.0220       0.2524       2.5440       0.2234
   2533.0000       0.0450       0.2541       2.5590       0.2234
   2533.5000       0.0500       0.2559       2.5730       0.2203
   2534.0000       0.0260       0.2558       2.5620       0.2148
   2534.5000      -0.0140       0.2561       2.5410       0.2157
   2535.0000      -0.0170       0.2569       2.5260       0.2185
   2535.5000      -0.0150       0.2646       2.5130       0.2213
   2536.0000      -0.0150       0.2721       2.4990       0.2242
   2536.5000      -0.0300       0.2615       2.4980       0.2270
   2537.0000      -0.0300       0.2576       2.5070       0.2298
   2537.5000      -0.0260       0.2628       2.5090       0.2327
   2538.0000      -0.0090       0.2817       2.5100       0.2235
   2538.5000       0.0180       0.2808       2.5190       0.2102
   2539.0000       0.0220       0.2732       2.5230       0.1970
   2539.5000       0.0110       0.2627       2.5260       0.2001
   2540.0000      -0.0030       0.2605       2.5200       0.2089
   2540.5000      -0.0160       0.2677       2.5110       0.2176
   2541.0000      -0.0180       0.2750       2.5090       0.2214
   2541.5000      -0.0190       0.2837       2.5060       0.2152
   2542.0000      -0.0190       0.2831       2.5050       0.2090
   2542.5000      -0.0180       0.2782       2.5050       0.2036
   2543.0000      -0.0110       0.2664       2.5070       0.2036
   2543.5000      -0.0050       0.2538       2.5100       0.2036
   2544.0000       0.0010       0.2637       2.5130       0.2036
   2544.5000       0.0080       0.2759       2.5120       0.2036
   2545.0000       0.0020       0.2810       2.5090       0.2036
   2545.5000      -0.0070       0.2791       2.5090       0.2036
   2546.0000      -0.0150       0.2623       2.5110       0.2036
   2546.5000      -0.0130       0.2619       2.5160       0.2036
