~VERSION INFORMATION
 VERS.                2.0:   CWLS LOG ASCII STANDARD - VERSION 2.0
 WRAP.                 NO:   ONE LINE PER DEPTH STEP
~WELL INFORMATION
#MNEM.UNIT      DATA TYPE    INFORMATION
#----------   ------------   ------------------------------
 STRT.F           10.0000:   START DEPTH
 STOP.F         5812.0000:   STOP DEPTH
 STEP.F            0.5000:   STEP LENGTH
 NULL.          -999.2500:   NO VALUE
 COMP. LAWRENCE - ALLSISON:   COMPANY
 WELL. LAWRENCE "X" #11-11:   WELL
 FLD .              NPR 3:   FIELD
 LOC .      S11 T38N R78W:   LOCATION
 CNTY.            NATRONA:   COUNTY
 STAT.            WYOMING:   STATE
 CTRY. UNITED STATES OF AMERICA:   COUNTRY
 SRVC.      DRESSER ATLAS:   SERVICE COMPANY
 DATE.        12-NOV-1982:   LOGDATE
 API .     49025109160000:   API NUMBER
~CURVE INFORMATION
#MNEM.UNIT       API CODE    CURVE DESCRIPTION
#----------   ------------   ------------------------------
 DEPT.F                  :   
 TEND.LBS    45 635 01 00:   TENSION FROM DENSITY LOG
 CALD.IN     45 280 60 00:   CALIPER FROM DENSITY LOG
 CORR.G/C3   45 356 01 00:   DENSITY CORRECTION
 RHOB.G/C3   45 350 01 00:   BULK DENSITY
 CN  .DEC    42 890 03 00:   COMPENSATED NEUTRON POROSITY SANDSTONE
 AC  .US/F   60 520 00 00:   ACOUSTIC
 TENS.LBS    60 635 01 00:   TENSION FROM SONIC
 GRR .GAPI   11 310 01 00:   GAMMA RAY FROM RESISTIVITY
 RD  .OHMM   11 220 10 00:   RESISTIVITY DEEP
 RMLL.OHMM   11 270 04 00:   RESISTIVITY MICROLATEROLOG
 RS  .OHMM   11 220 09 00:   RESISTIVITY SHALLOW
 SPR .MV     11 010 01 00:   SPONTANEOUS POTENTIAL FROM RESISTIVITY
 TENR.LBS    11 635 01 00:   TENSION FROM RESISTIVITY
~PARAMETER INFORMATION
#MNEM.UNIT          VALUE    DESCRIPTION
#----------   ------------   ------------------------------
 EKB .F         5160.0000:   Kelly bushing
 EGL .F         5150.0000:   Ground level
 EDF .F            0.0000:   Drilling floor
 TD  .F         5800.0000:   Total depth
 CLNT.            A2DTECH:   Client Code
 SL  . 660' FNL & 660' FWL:   Surface Location
 PD  .                 GL:   Permanent Datum
 EPD .F              5150:   Elevation Permanent Datum
 LMF .                 KB:   Log Measured From
 DMF .                 KB:   Drilling Measured From
 DAPD.F                10:   Feet Above Permanent Datum
 DATE.        12-NOV-1982:   Date Logged [DD-MMM-YYYY]
 DD  .F              5800:   Depth driller
 DL  .F              5795:   Depth logger
 BLI .F              5702:   Bottom log interval
 TLI .F                 0:   Top log interval
 CS1 .IN            9.625:   Casing size
 CBD1.      9.625" @ 664':   Casing driller 1
 CBL1.F               660:   Casing logger 1
 BS1 .IN             8.75:   Bit size
 BSD1.F              5800:   Depth drilled with bit1
 DFT .                KCL:   Type fluid in hole
 DFD .                8.6:   Density
 DFV .                 45:   Viscosity
 DFPH.                8.5:   pH
 DFL .                7.8:   Fluid loss
 MSS .           FLOWLINE:   Source of sample
 RMS .OHMM           0.32:   Rm
 MST .F                92:   Rm Meas. temp.
 RMF .OHMM           0.26:   Rmf
 MFST.F                90:   Rmf Meas. temp.
 MFSS.               MEAS:   Source Rmf.
 RMB .OHMM           0.19:   Rm. at BHT
 BHT .F               160:   BHT.
 TCS .HRS               3:   Time Circ. stopped
 MRT .F               160:   Maximum recorded temp.
 LUN .               6270:   Logging unit number
 LUL .              WLSTN:   Logging unit location
 ENGI.            QUICKEL:   Recorded By
 WITN.             STRONG:   Witnessed by
 ORIG.        2" 5" PRINT:   Origin of data
 UWI .     49025109160000:   Unique Well ID
 DICO. A2D TECHNIOLOGIES,INC.:   Digitizing Company
 RMC .OHMM           0.40:   Rmc
 MCST.F                92:   Rmc Meas. temp.
 MCSS.               CALC:   Source Rmc.
~OTHER INFORMATION
~A  DEPTH     TEND       CALD       CORR       RHOB         CN         AC       TENS        GRR         RD       RMLL         RS        SPR       TENR
# ...
 5080.0000   -67.8410    10.3736     0.0336     2.7119     0.1063    60.4378   -31.5167    74.1742    42.6599    46.2921    40.6858   -41.4461   -65.5121
 5080.5000   -75.1124    10.3753     0.0586     2.7058     0.1226    61.6481   -31.0809    79.0125    36.6166    38.6487    33.9588   -41.4490   -69.4653
 5081.0000   -78.6388    10.3876     0.0660     2.6952     0.1430    64.5176   -34.3888    83.6276    29.7356    28.4831    28.7400   -41.4518   -69.6536
 5081.5000   -78.4108    10.3868     0.0508     2.6847     0.1692    67.0099   -33.9339    94.8949    22.6886    19.5858    20.5936   -41.4549   -69.8419
 5082.0000   -59.4039    10.3862     0.0266     2.6733     0.1884    67.8432   -33.3970   103.9039    18.0461    16.5590    17.1886   -41.4579   -70.0609
 5082.5000   -44.1917    10.3857     0.0114     2.6680     0.2137    67.4589   -32.9557   105.1051    16.4857    15.7705    16.2543   -41.4608   -70.2452
 5083.0000   -21.4834    10.3850     0.0338     2.6815     0.2087    66.4472   -32.5824   105.4054    16.0288    16.3419    16.3608   -41.1625   -70.4297
 5083.5000   -28.8149    10.3694     0.0627     2.6950     0.1922    62.1990   -32.0741   105.7057    16.3587    18.0021    16.9639   -41.1662   -74.3792
 5084.0000   -32.3433    10.3539     0.1012     2.7047     0.1633    60.0157   -31.6333   105.4054    18.1560    20.3883    18.6481   -41.0178   -74.5481
 5084.5000   -35.8716    10.3384     0.0981     2.7077     0.1488    60.5472   -34.9462    98.7988    21.9289    23.0908    21.7131   -41.0215   -74.7365
 5085.0000   -31.8490    10.3228     0.0859     2.7053     0.1452    61.1542   -34.5346    93.0931    24.5821    25.9710    24.7614   -41.0244   -74.9325
 5085.5000   -20.3851    10.3223     0.0722     2.6978     0.1386    61.2333   -34.0839    88.5886    26.8869    28.4117    27.2751   -41.1780   -75.1168
 5086.0000   -12.6387    10.3217     0.0585     2.6823     0.1322    61.0108   -33.6233    86.1706    28.8031    30.0233    28.6203   -41.4821   -75.3011
 5086.5000   -12.4438    10.3210     0.0494     2.6766     0.1301    60.7882   -35.9929    87.5202    29.6031    30.4342    29.4134   -41.4851   -71.7206
 5087.0000    -8.4816    10.3204     0.0400     2.6735     0.1297    60.4148   -36.4955    91.2913    30.0038    30.4258    29.6090   -41.7892   -71.9127
 5087.5000   -12.0100    10.3049     0.0155     2.6667     0.1300    60.3431   -36.0361    93.0931    29.9885    30.2073    29.5940   -42.0934   -68.3704
 5088.0000   -11.7355    10.2893    -0.0052     2.6599     0.1306    61.1772   -31.7494    91.8919    29.3600    29.5776    28.9728   -42.0964   -68.5549
 5088.5000   -11.5157    10.2888    -0.0144     2.6659     0.1348    62.0105   -23.8011    90.0901    28.7447    28.7595    28.1655   -42.1000   -66.4375
 5089.0000   -11.2962    10.2882     0.0065     2.6703     0.1396    62.5420   -27.2243    88.8889    26.6255    27.3902    27.3865   -42.1029   -65.1125
 5089.5000   -11.0764    10.3026     0.0229     2.6688     0.1453    62.6965   -30.5372    89.4895    24.9927    27.1936    26.1942   -42.1059   -69.1081
 5090.0000   -10.8567    10.3018     0.0303     2.6657     0.1516    62.7756   -37.6039    90.6907    24.3132    27.7574    24.6582   -42.1088   -69.2771
 5090.5000   -10.6371    10.3013     0.0256     2.6611     0.1545    62.8547   -44.6701    91.8919    23.9669    28.5299    24.1406   -41.9612   -69.4769
 5091.0000   -10.4174    10.3158     0.0085     2.6566     0.1548    62.8584   -44.1191    92.7928    23.6277    28.9222    23.7984   -41.6629   -69.6614
 5091.5000   -10.1950    10.3150     0.0028     2.6501     0.1533    62.8621   -43.6783    94.3423    23.1325    27.5433    23.1378   -41.5145   -69.8419
 5092.0000    -9.9700    10.3145     0.0222     2.6339     0.1478    62.7131   -35.7300    96.1994    22.6477    26.4143    22.4956   -41.4548   -70.0302
 5092.5000    -9.7036    10.3139     0.0296     2.6323     0.1497    62.4924   -33.9925    95.4955    22.3271    26.4072    22.1767   -41.2199   -70.2183
 5093.0000    -9.4838    10.3133     0.0204     2.6440     0.1545    62.4206   -27.3272    94.5946    22.1640    26.7685    21.8623   -41.0723   -70.4066
 5093.5000    -1.7678    10.3277     0.0293     2.6714     0.1700    62.6515   -30.6533    93.9940    22.3112    26.9778    21.8534   -41.0331   -70.5950
 5094.0000     5.9480    10.3421     0.0457     2.6833     0.1859    63.1076   -30.1023    93.6937    21.3923    27.1274    20.5226   -40.9276   -70.8139
 5094.5000     9.9159    10.3413     0.0561     2.6848     0.1874    65.1475   -25.9078    94.8949    19.6785    26.9309    19.0011   -40.9312   -70.9982
 5095.0000    17.6319    10.3408     0.0514     2.6772     0.1868    65.9807   -25.4669   100.3003    18.5938    24.7751    18.3347   -40.9036   -71.1827
 5095.5000    17.8514    10.3402     0.0438     2.6727     0.1771    65.7582   -25.0257   107.5075    17.8258    21.4137    17.9651   -40.6352   -71.3672
 5096.0000    14.3178    10.3396     0.0376     2.6688     0.1618    64.8569   -24.5849   110.5105    17.5913    19.4284    18.7208   -40.7895   -71.5515
 5096.5000    10.7797    10.3540     0.0269     2.6749     0.1473    63.2014   -24.1742   109.2841    18.5858    20.6732    21.4975   -40.9430   -67.9248
 5097.0000     3.5179    10.3384     0.0223     2.6880     0.1397    60.6193   -23.7032    95.8366    21.1908    24.9204    25.0309   -40.9459   -64.3826
 5097.5000    -0.0104    10.3377     0.0282     2.7025     0.1347    58.2173   -23.2733    86.7868    25.3611    28.2236    27.7639   -41.0995   -60.8057
 5098.0000     4.0122    10.3372     0.0467     2.7070     0.1207    56.9530   -22.8227    85.8859    27.9316    29.4140    29.5401   -41.4036   -57.2289
 5098.5000    15.4761    10.3366     0.0760     2.7077     0.1065    58.3151   -22.3724    85.2853    29.7158    30.4562    30.3618   -41.5651   -57.4171
 5099.0000    19.4440    10.3360     0.0804     2.7031     0.1023    59.5254   -21.9028    84.0841    30.9639    31.3896    31.6358   -41.7325   -57.6054
 5099.5000    19.6638    10.3504     0.0366     2.6963     0.0984    59.3028   -25.2253    82.5826    33.1707    35.6817    33.6597   -41.7137   -61.5933
 5100.0000    19.8833    10.3498    -0.0132     2.6902     0.0938    58.9294   -24.7015    76.5766    35.2896    45.7804    35.3198   -41.7174   -61.7778
 5100.5000    16.3180    10.3342    -0.0058     2.6947     0.0914    58.4806   -24.2602    73.2733    36.6807    51.8487    36.7851   -41.5697   -58.1510
 5101.0000    20.3172    10.3335     0.0317     2.6939     0.0911    58.1801   -31.5974    72.6887    38.2168    52.1951    38.6030   -41.4718   -58.3815
 5101.5000    20.5183    10.3329     0.0451     2.6878     0.0892    57.6697   -31.2684    71.3987    39.6343    52.3928    39.9532   -41.3116   -53.1444
 5102.0000    20.7191    10.3324     0.0208     2.6787     0.0814    56.7578   -30.9310    69.3694    40.7494    54.4334    42.2041   -41.1515   -50.7455
 5102.5000    17.1217    10.3318     0.0026     2.6734     0.0829    56.5532   -30.5287    64.8649    44.5300    61.8822    45.2107   -40.9913   -48.3466
 5103.0000    21.1210    10.3163    -0.0035     2.6839     0.0894    57.0903   -30.2000    61.2613    45.4464    66.2782    46.7846   -40.8312   -45.9476
 5103.5000    28.8183    10.3306     0.0054     2.6899     0.0984    58.8321   -26.1175    61.8619    42.3771    63.5358    44.9311   -40.6710   -43.5487
 5104.0000    36.5155    10.3300     0.0293     2.6811     0.1325    60.8757   -25.8257    69.3694    35.6212    43.9751    35.4044   -40.3977   -41.1497
 5104.5000    36.7164    10.3443     0.0412     2.6702     0.1740    64.1259   -29.2956    80.7808    28.7237    30.8613    27.7589   -40.4021   -38.7508
 5105.0000    40.6671    10.3588     0.0304     2.6680     0.1869    65.7923   -28.8847    94.1484    23.3228    23.3739    23.8178   -39.9294   -37.2527
 5105.5000    37.1182    10.3581     0.0364     2.6657     0.1983    66.3394   -24.8122   102.3095    21.1564    18.8413    21.7526   -39.8084   -37.4816
