~VERSION INFORMATION
 VERS.                2.0:   CWLS LOG ASCII STANDARD - VERSION 2.0
 WRAP.                 NO:   ONE LINE PER DEPTH STEP
~WELL INFORMATION
#MNEM.UNIT      DATA TYPE    INFORMATION
#----------   ------------   ------------------------------
 STRT.F          190.0000:   START DEPTH
 STOP.F         2998.5000:   STOP DEPTH
 STEP.F            0.5000:   STEP LENGTH
 NULL.          -999.2500:   NO VALUE
 COMP.    FENIX & SCISSON:   COMPANY
 WELL.   FENIX "A" #52-28:   WELL
 FLD .        TEAPOT DOME:   FIELD
 LOC .      S28 T39N R78W:   LOCATION
 CNTY.            NATRONA:   COUNTY
 STAT.            WYOMING:   STATE
 CTRY. UNITED STATES OF AMERICA:   COUNTRY
 SRVC.           BIRDWELL:   SERVICE COMPANY
 DATE.        14-AUG-1977:   LOGDATE
 API .     49025104130000:   API NUMBER
~CURVE INFORMATION
#MNEM.UNIT       API CODE    CURVE DESCRIPTION
#----------   ------------   ------------------------------
 DEPT.F                  :   
 SPR .MV     05 010 01 00:   SPONTANEOUS POTENTIAL FROM RES.
 SN  .OHMM   05 040 16 00:   SHORT NORMAL 16"
 ILD .OHMM   05 120 46 00:   INDUCTION LOG DEEP
 GRD .GAPI   45 310 01 00:   GAMMA RAY FROM DENSITY LOG
 CALD.IN     45 280 60 00:   CALIPER FROM DENSITY LOG
 RHOB.G/C3   45 350 01 00:   BULK DENSITY
 CORR.G/C3   45 356 01 00:   DENSITY CORRECTION
~PARAMETER INFORMATION
#MNEM.UNIT          VALUE    DESCRIPTION
#----------   ------------   ------------------------------
 EKB .F         5026.0000:   Kelly bushing
 EGL .F         5016.0000:   Ground level
 EDF .F            0.0000:   Drilling floor
 TD  .F         3000.0000:   Total depth
 DATE.        14-AUG-1977:   Date logged
 CLNT.            A2DTECH:   Client Code
 SL  . 990' FNL & 2310' FEL:   Surface Location
 PD  .                 GL:   Permanent Datum
 EPD .F              5016:   Elevation Permanent Datum
 LMF .                 KB:   Log Measured From
 DMF .                 KB:   Drilling Measured From
 DAPD.F                10:   Feet Above Permanent Datum
 DD  .F              3000:   Depth driller
 DL  .F              3000:   Depth logger
 BLI .F              2994:   Bottom log interval
 TLI .F               214:   Top log interval
 CS1 .IN            8.625:   Casing size
 CBD1.      8.625" @ 214':   Casing driller 1
 CBL1.F               212:   Casing logger 1
 BS1 .IN            7.875:   Bit size
 BSD1.F              3000:   Depth drilled with bit1
 DFT .                KCL:   Type fluid in hole
 DFD .                8.8:   Density
 DFV .                 30:   Viscosity
 DFPH.               10.5:   pH
 DFL .               10.4:   Fluid loss
 MSS .           FLOWLINE:   Source of sample
 RMS .OHMM           0.13:   Rm
 MST .F                82:   Rm Meas. temp.
 RMF .OHMM           0.12:   Rmf
 MFST.F                72:   Rmf Meas. temp.
 RMC .OHMM           0.16:   Rmc
 MCST.F                72:   Rmc Meas. temp.
 MFSS.               MEAS:   Source Rmf.
 MCSS.               MEAS:   Source Rmc.
 TCS .HRS               4:   Time Circ. stopped
 LUN .               2958:   Logging unit number
 LUL .             CASPER:   Logging unit location
 ENGI.                LAW:   Recorded By
 WITN.         PETTINGILL:   Witnessed by
 ORIG.           5" PRINT:   Origin of data
 UWI .     49025104130000:   Unique Well ID
 DICO. A2D TECHNOLOGIES, INC.:   Digitizing Company
~OTHER INFORMATION
~A   DEPT      SPR         SN        ILD         GRD      CALD       RHOB       CORR   
# ...
  736.0000   -14.8620     6.3990     8.9550   114.0600     9.0370     2.5180     0.0120
  736.5000   -14.8620     6.3890     8.9370   111.6420     9.0370     2.5100     0.0100
  737.0000   -14.8620     6.3790     8.9200   108.7220     9.0360     2.5070     0.0100
  737.5000   -14.8620     6.3690     8.9020   106.0800     9.0350     2.5060     0.0100
  738.0000   -14.8620     6.3590     8.8850   107.7920     9.0340     2.5070     0.0100
  738.5000   -14.8620     6.3490     8.8640   104.4660     9.0340     2.5070     0.0100
  739.0000   -14.8620     6.3390     8.8280   105.3640     9.0330     2.5060     0.0100
  739.5000   -14.8620     6.3260     8.7920   104.1120     9.0320     2.5070     0.0110
  740.0000   -14.8620     6.3140     8.7560   102.4660     9.0320     2.5130     0.0200
  740.5000   -14.8620     6.3010     8.7190   102.9770     9.0310     2.5220     0.0270
  741.0000   -14.8620     6.2890     8.7060   104.0370     9.0300     2.5350     0.0300
  741.5000   -14.8600     6.2760     8.6990   104.2560     9.0300     2.5390     0.0340
  742.0000   -14.8540     6.2630     8.6910   108.1940     9.0290     2.5430     0.0380
  742.5000   -14.8490     6.2510     8.6830   110.7160     9.0280     2.5450     0.0400
  743.0000   -14.8430     6.2380     8.6750   110.2360     9.0270     2.5470     0.0410
  743.5000   -14.8380     6.2250     8.6670   109.7810     9.0270     2.5480     0.0400
  744.0000   -14.8320     6.2280     8.6590   106.7850     9.0260     2.5460     0.0380
  744.5000   -14.8270     6.2320     8.6510   111.7730     9.0250     2.5410     0.0310
  745.0000   -14.8210     6.2360     8.6430   115.0910     9.0250     2.5350     0.0290
  745.5000   -14.8160     6.2400     8.6330   113.9660     9.0240     2.5350     0.0300
  746.0000   -14.8100     6.2440     8.6450   112.3170     9.0230     2.5350     0.0290
  746.5000   -14.8040     6.2470     8.6630   112.1470     9.0220     2.5290     0.0260
  747.0000   -14.7990     6.2510     8.6800   111.9410     9.0220     2.5260     0.0230
  747.5000   -14.7930     6.2550     8.6980   111.7300     9.0170     2.5250     0.0200
  748.0000   -14.7880     6.2590     8.7150   111.7140     9.0110     2.5190     0.0180
  748.5000   -14.7820     6.2620     8.7330   111.9850     9.0050     2.5180     0.0190
  749.0000   -14.7770     6.2660     8.7500   110.2180     8.9990     2.5220     0.0170
  749.5000   -14.7710     6.2700     8.7680   106.7950     8.9930     2.5180     0.0110
  750.0000   -14.7660     6.2740     8.7910   105.3240     8.9870     2.5100     0.0100
  750.5000   -14.7600     6.2780     8.7800   104.9200     8.9870     2.5050     0.0090
  751.0000   -14.7540     6.2810     8.7590   107.5600     9.0280     2.5040     0.0140
  751.5000   -14.7490     6.2730     8.7380   112.8010     9.0710     2.5050     0.0210
  752.0000   -14.7430     6.2630     8.7170   114.3470     9.0780     2.5210     0.0280
  752.5000   -14.7380     6.2540     8.6630   111.8090     9.0750     2.5260     0.0290
  753.0000   -14.7320     6.2440     8.5700   109.0390     9.0720     2.5370     0.0290
  753.5000   -14.7270     6.2350     8.4770   110.3760     9.0680     2.5370     0.0290
  754.0000   -14.7210     6.2250     8.3850   111.7800     9.0650     2.5360     0.0280
  754.5000   -14.7160     6.2160     8.2920   109.9430     9.0620     2.5360     0.0240
  755.0000   -14.7100     6.2060     8.1990   111.3030     9.0580     2.5350     0.0200
  755.5000   -14.7040     6.1970     8.1670   109.6110     9.0550     2.5330     0.0200
  756.0000   -14.6990     6.1870     8.1560   106.7640     9.0520     2.5310     0.0210
  756.5000   -14.6930     6.1780     8.1450   104.9850     9.0480     2.5400     0.0290
  757.0000   -14.6880     6.1680     8.1340   107.2890     9.0450     2.5430     0.0290
  757.5000   -14.6820     6.1590     8.1230   109.0220     9.0420     2.5390     0.0290
  758.0000   -14.6760     6.1490     8.1120   111.0130     9.0410     2.5380     0.0290
  758.5000   -14.6700     6.1390     8.1010   111.0010     9.0410     2.5390     0.0230
  759.0000   -14.6690     6.1300     8.0820   110.8850     9.0410     2.5350     0.0190
  759.5000   -14.8020     6.1200     8.0620   112.3590     9.0410     2.5280     0.0190
  760.0000   -14.9430     6.1110     8.0420   112.4820     9.0410     2.5270     0.0190
  760.5000   -15.0850     6.1010     8.0220   114.7320     9.0410     2.5260     0.0230
  761.0000   -15.2340     6.0920     8.0020   114.0990     9.0410     2.5350     0.0250
  761.5000   -15.0300     6.0820     7.9820   117.1350     9.0410     2.5380     0.0220
  762.0000   -14.5580     6.0730     7.9620   117.5740     9.0410     2.5380     0.0170
  762.5000   -14.0640     6.0580     7.9420   112.9640     9.0410     2.5250     0.0180
  763.0000   -14.0550     6.0640     7.9220   115.1220     9.0410     2.5270     0.0190
  763.5000   -14.0390     6.0810     7.9030   113.9030     9.0410     2.5280     0.0150
  764.0000   -14.0240     6.0980     7.8830   113.9800     9.0410     2.5210     0.0140
  764.5000   -14.0090     6.1150     7.9420   117.2350     9.0410     2.5160     0.0140
  765.0000   -13.9940     6.1320     8.0160   116.5380     9.0410     2.5180     0.0120
  765.5000   -13.9790     6.1490     8.0890   113.9920     9.0410     2.5140     0.0110
  766.0000   -13.9650     6.1660     8.1620   111.4940     9.0410     2.5190     0.0170
  766.5000   -13.9500     6.1820     8.2680   111.2440     9.0410     2.5290     0.0180
  767.0000   -13.9350     6.1970     8.3810   113.0180     9.0410     2.5210     0.0160
  767.5000   -13.9200     6.2130     8.4940   113.6410     9.0410     2.5140     0.0160
  768.0000   -13.9050     6.2470     8.6060   114.6880     9.0410     2.5270     0.0210
  768.5000   -13.8900     6.3370     8.7190   113.6770     9.0410     2.5440     0.0300
  769.0000   -13.8750     6.4280     8.8320   114.3010     9.0410     2.5490     0.0320
  769.5000   -13.8600     6.5190     8.9110   111.5480     9.0420     2.5480     0.0330
  770.0000   -13.8450     6.6090     8.9720   106.7420     9.0430     2.5440     0.0360
  770.5000   -13.8310     6.6940     9.0330   104.9500     9.0430     2.5470     0.0340
  771.0000   -13.8160     6.6940     9.0940   105.0540     9.0440     2.5360     0.0290
  771.5000   -13.8010     6.6940     9.1550   103.6970     9.0450     2.5310     0.0250
  772.0000   -13.7860     6.6940     9.1990   101.7130     9.0460     2.5300     0.0280
  772.5000   -13.7710     6.6940     9.1510   100.2570     9.0470     2.5300     0.0270
  773.0000   -13.7560     6.6940     9.1130    99.8060     9.0480     2.5250     0.0230
  773.5000   -13.7410     6.6940     9.0750   100.3740     9.0480     2.5240     0.0220
  774.0000   -13.7260     6.6940     9.0380   104.2550     9.0490     2.5240     0.0220
  774.5000   -13.7110     6.6940     9.0210   105.4730     9.0500     2.5230     0.0220
  775.0000   -13.6960     6.6940     9.0070   103.3720     9.0510     2.5220     0.0220
  775.5000   -13.6820     6.6880     8.9920   101.3640     9.0520     2.5200     0.0210
  776.0000   -13.6670     6.6290     8.9780   103.2430     9.0520     2.5180     0.0190
  776.5000   -13.6520     6.5860     8.9640   105.8400     9.0530     2.5130     0.0170
  777.0000   -13.6370     6.5440     8.9490   108.4790     9.0540     2.5080     0.0180
  777.5000   -13.6220     6.5020     8.9350   111.9180     9.0550     2.5080     0.0190
  778.0000   -13.6070     6.4590     8.9210   111.1580     9.0560     2.5090     0.0210
  778.5000   -13.5920     6.3970     8.9060   110.8460     9.0560     2.5080     0.0160
  779.0000   -13.5770     6.4010     8.8920   113.0910     9.0570     2.5070     0.0180
  779.5000   -13.5620     6.4080     8.8780   111.8600     9.0580     2.5130     0.0220
  780.0000   -13.5470     6.4160     8.8710   113.0470     9.0590     2.5230     0.0270
  780.5000   -13.5330     6.4230     8.8840   114.2190     9.0600     2.5290     0.0280
  781.0000   -13.5180     6.4310     8.8940   110.9430     9.0610     2.5290     0.0280
