~VERSION INFORMATION
 VERS.                2.0:   CWLS LOG ASCII STANDARD - VERSION 2.0
 WRAP.                 NO:   ONE LINE PER DEPTH STEP
~WELL INFORMATION
#MNEM.UNIT      DATA TYPE    INFORMATION
#----------   ------------   ------------------------------
 STRT.F            0.0000:   START DEPTH
 STOP.F         1064.0000:   STOP DEPTH
 STEP.F            0.5000:   STEP LENGTH
 NULL.          -999.2500:   NO VALUE
 COMP.  JOHN BROWN E. & C:   COMPANY
 WELL. JOHN BROWN NPR 3-1 "X" #68-2:   WELL
 FLD .                NPR:   FIELD
 LOC .       S2 T38N R78W:   LOCATION
 CNTY.            NATRONA:   COUNTY
 STAT.            WYOMING:   STATE
 CTRY. UNITED STATES OF AMERICA:   COUNTRY
 SRVC.     ATLAS WIRELINE:   SERVICE COMPANY
 DATE.        25-JAN-1992:   LOGDATE
 API .     49025224850000:   API NUMBER
~CURVE INFORMATION
#MNEM.UNIT       API CODE    CURVE DESCRIPTION
#----------   ------------   ------------------------------
 DEPT.F                  :   
 GRR .GAPI   07 310 01 00:   GAMMA RAY FROM RESISTIVITY
 TENR.LBS    07 635 01 00:   TENSION
 RILD.OHMM   07 120 46 00:   INDUCTION LOG DEEP RESISTIVITY
 RILM.OHMM   07 120 44 00:   INDUCTION LOG MEDIUM RESISTIVITY
~PARAMETER INFORMATION
#MNEM.UNIT          VALUE    DESCRIPTION
#----------   ------------   ------------------------------
 EKB .F         5197.0000:   Kelly bushing
 EGL .F         5187.0000:   Ground level
 TD  .F         1060.0000:   Total depth
 DATE.        25-JAN-1992:   Date logged
 CLNT.            A2DTECH:   Client Code
 PD  .                 GL:   Permanent Datum
 EPD .F               518:   Elevation Permanent Datum
 LMF .                 KB:   Log Measured From
 DMF .                 KB:   Drilling Measured From
 DAPD.F                10:   Feet Above Permanent Datum
 DD  .F              1060:   Depth driller
 DL  .F              1057:   Depth logger
 BLI .F              1055:   Bottom log interval
 CS1 .IN            10.75:   Casing size
 CBD1.       10.75" @ 50':   Casing driller 1
 CBL1.F                50:   Casing logger 1
 BS1 .IN             8.75:   Bit size
 BSD1.F              1060:   Depth drilled with bit1
 DFT .                AIR:   Type fluid in hole
 LUN .            HL-6307:   Logging unit number
 LUL .             CASPER:   Logging unit location
 ENGI.             ZIEGER:   Recorded By
 WITN.             STRONG:   Witnessed by
 ORIG.           5" PRINT:   Origin of data
 UWI .     49025224850000:   Unique Well ID
 DICO. A2D TECHNOLOGIES, INC.:   Digitizing Company
~OTHER INFORMATION
~A    DEPT      GRR      TENR       RILD       RILM   
# ...
  876.0000    97.3830     5.3000    16.0230    15.4790
  876.5000    95.4960     5.4890    15.9970    15.5850
  877.0000    93.4590     5.6790    15.9480    15.3620
  877.5000    91.7200     6.1060    15.8980    14.9410
  878.0000    92.5490     6.7380    15.7290    14.5190
  878.5000    95.4650     7.3700    15.4590    14.0790
  879.0000    97.5030     8.0020    15.1900    13.8670
  879.5000    97.7270     8.6330    14.8510    13.6450
  880.0000    96.5410     9.2650    14.3940    13.4230
  880.5000    95.5960     9.8970    13.9370    13.2010
  881.0000    95.2060    10.5290    13.5680    12.9790
  881.5000    95.7530    11.1610    13.4140    12.7580
  882.0000    97.7940    11.7930    13.2590    12.5360
  882.5000    99.5890    12.4250    13.1040    12.3140
  883.0000   100.2730    13.0570    12.9600    12.0920
  883.5000   100.9900    13.6890    12.8180    11.9220
  884.0000   100.9140    14.3200    12.6760    11.9220
  884.5000    99.7770    14.9520    12.5350    11.9220
  885.0000    98.6480    15.5840    12.3710    11.9220
  885.5000    97.5190    16.2160    12.4570    11.9220
  886.0000    97.3800    16.8480    12.5380    12.1280
  886.5000    98.6400    17.4800    12.6190    12.4860
  887.0000    99.7830    18.1120    12.7000    12.4540
  887.5000    97.4800    18.7440    12.7800    12.3870
  888.0000    94.6670    19.3760    12.8370    12.3210
  888.5000    94.6450    20.0080    12.7140    12.2550
  889.0000    95.6670    20.6390    12.6200    12.1890
  889.5000    96.6890    21.2710    12.5260    12.0810
  890.0000    98.1450    21.9030    12.4330    11.8900
  890.5000    99.7460    22.5350    12.3390    11.6980
  891.0000   101.3640    23.1670    12.2450    11.5060
  891.5000   102.7070    23.7990    12.1510    11.3690
  892.0000   100.5780    24.4310    12.0570    11.3280
  892.5000    97.7370    25.0630    11.9630    11.2870
  893.0000    96.8370    25.6950    11.8700    11.2450
  893.5000    98.2810    25.8270    11.7810    11.2040
  894.0000    99.7130    25.8270    11.7010    11.1630
  894.5000    99.7750    25.8270    11.6210    11.1210
  895.0000    97.7390    25.8270    11.5410    11.0800
  895.5000    95.9120    25.8270    11.4610    10.9800
  896.0000    96.2340    25.8270    11.3840    10.8660
  896.5000    98.2940    25.8270    11.2470    10.7520
  897.0000    98.4890    25.8270    11.1160    10.6390
  897.5000    96.1020    25.8270    10.9840    10.5250
  898.0000    93.6020    25.8270    10.8520    10.4120
  898.5000    93.6420    25.8270    10.7200    10.2980
  899.0000    96.3910    25.8270    10.5880    10.2550
  899.5000    98.6550    25.8270    10.5560    10.2220
  900.0000    97.3320    25.8270    10.5360    10.1890
  900.5000    95.7320    25.8270    10.5170    10.1560
  901.0000    97.0760    25.8270    10.4970    10.1240
  901.5000    98.9290    25.8270    10.4780    10.0910
  902.0000   100.3170    25.8270    10.4580    10.0580
  902.5000   100.5540    25.8270    10.4390    10.0250
  903.0000    98.5810    25.8270    10.4190     9.9950
  903.5000    96.4180    25.8270    10.4000     9.9720
  904.0000    94.3970    25.8270    10.3790     9.9500
  904.5000    97.4990    25.8270    10.3360     9.9270
  905.0000   101.3600    25.8270    10.2890     9.9040
  905.5000   104.9850    25.8270    10.2430     9.8810
  906.0000   103.6330    25.8270    10.1970     9.8580
  906.5000   101.8040    25.8270    10.1510     9.8360
  907.0000   100.7880    25.8270    10.1050     9.8130
  907.5000   100.0220    25.8270    10.0580     9.7900
  908.0000    98.2000    25.8270    10.0120     9.7670
  908.5000    96.6630    25.8270     9.9660     9.7440
  909.0000    97.8470    25.8270     9.9120     9.7220
  909.5000    99.3730    25.8270     9.9150     9.6990
  910.0000   100.6270    25.8270     9.9210     9.6760
  910.5000   100.1600    25.8270     9.9280     9.6530
  911.0000    99.7910    25.8270     9.9340     9.6400
  911.5000   100.6550    25.8270     9.9410     9.6920
  912.0000   104.2160    25.8270     9.9480     9.7350
  912.5000   105.6130    25.8270     9.9540     9.7770
  913.0000   105.7830    25.8270     9.9610     9.8200
  913.5000   104.0330    25.8270     9.9670     9.8620
  914.0000    99.7640    25.8270     9.9740     9.9050
  914.5000    96.9800    25.8270     9.9800     9.9470
  915.0000    96.0730    25.8270     9.9870    10.0030
  915.5000    96.3190    25.8270     9.9930     9.9120
  916.0000    99.4170    25.8270    10.0000     9.7780
  916.5000    99.3680    25.8270    10.0240     9.6440
  917.0000    97.2020    25.8270    10.0660     9.5100
  917.5000    95.4100    25.8270    10.0960     9.3760
  918.0000    98.0530    25.8270     9.8520     9.2430
  918.5000   103.3330    25.8270     9.6860     9.1880
  919.0000   108.9050    25.8270     9.5940     9.1660
  919.5000   111.5400    25.8270     9.5310     9.1430
  920.0000   109.8190    25.8270     9.4680     9.1200
  920.5000   107.5670    25.8270     9.4060     9.0970
  921.0000   106.6100    25.8270     9.3430     9.0740
  921.5000   106.4240    25.8270     9.2900     9.0400
  922.0000   106.5330    25.8270     9.3070     9.0500
  922.5000   107.2630    25.8270     9.3220     9.0890
  923.0000   107.9900    25.8270     9.3360     9.1270
  923.5000   108.0840    25.8270     9.3500     9.1660
  924.0000   107.1150    25.8270     9.3650     9.2050
  924.5000   105.0570    25.8270     9.4110     9.3410
  925.0000   103.8130    25.8270     9.5920     9.5120
  925.5000   103.0830    25.8270     9.7730     9.6840
  926.0000   102.9270    25.8270     9.9540     9.8650
  926.5000   103.9530    25.8270    10.1400    10.0820
  927.0000   105.2200    25.8270    10.3440    10.2990
  927.5000   107.1810    25.8270    11.1190    10.9400
  928.0000   105.6830    25.8270    12.0150    11.8350
  928.5000   104.0420    25.8270    12.9110    12.7300
  929.0000   101.3920    25.8270    13.8070    13.6260
  929.5000    98.2270    25.8270    14.7030    14.5210
  930.0000    93.2390    25.8270    15.6000    15.4160
  930.5000    89.1880    25.8270    16.4960    16.3110
  931.0000    89.4890    25.8270    17.3920    17.2060
  931.5000    89.6480    25.8270    18.2880    18.1020
  932.0000    88.7770    25.8270    19.1840    18.9970
  932.5000    85.1750    25.8270    20.0000    19.6340
  933.0000    81.9360    25.8270    20.1860    19.4550
  933.5000    80.2120    25.8270    19.6860    19.3160
  934.0000    79.0310    25.8270    19.2360    18.4170
  934.5000    81.4210    25.8270    18.7480    17.0930
  935.0000    86.4980    25.8270    18.1170    16.6230
  935.5000    91.9380    25.5270    17.4270    16.1090
  936.0000    93.3350    23.1240    16.7380    15.5940
  936.5000    91.9590    20.7220    16.0480    15.0800
  937.0000    91.7050    18.3190    15.3590    14.5660
  937.5000    94.4840    15.7970    14.6690    14.0510
  938.0000    97.2600    17.1290    13.9500    13.6950
  938.5000    97.0090    18.5310    13.7970    13.4660
  939.0000    96.7520    19.9320    13.6380    13.2360
  939.5000    97.4430    21.3330    13.4790    13.0070
  940.0000    99.6980    22.7350    13.4080    12.9560
  940.5000   100.9190    24.1360    13.3150    12.9560
  941.0000   100.4530    25.5380    13.2230    12.9560
  941.5000    98.8690    26.9390    13.1300    12.9740
  942.0000    95.4100    28.3410    13.0370    13.0210
  942.5000    92.9020    29.7420    12.9440    13.0670
  943.0000    92.6230    31.1430    12.8510    13.1200
  943.5000    95.5660    32.5450    12.7580    13.1920
  944.0000    97.3520    33.9460    12.6650    13.2650
  944.5000    97.3560    35.3480    12.5720    13.3200
  945.0000    97.5320    36.7490    12.4790    13.1530
  945.5000    98.3440    38.1510    12.3860    13.0180
  946.0000    98.5850    39.5520    12.2930    12.8830
  946.5000    98.9280    40.9530    12.2010    12.7080
  947.0000   100.4090    42.3550    12.1080    12.5110
  947.5000   100.4870    43.7560    12.0150    12.3140
  948.0000   100.3060    45.1580    11.9220    12.1170
  948.5000   100.4350    45.8880    11.8290    11.9200
