~VERSION INFORMATION
 VERS.                2.0:   CWLS LOG ASCII STANDARD - VERSION 2.0
 WRAP.                 NO:   ONE LINE PER DEPTH STEP
~WELL INFORMATION
#MNEM.UNIT      DATA TYPE    INFORMATION
#----------   ------------   ------------------------------
 STRT.F           42.0000:   START DEPTH
 STOP.F         4542.0000:   STOP DEPTH
 STEP.F            0.5000:   STEP LENGTH
 NULL.          -999.2500:   NO VALUE
 COMP. LAWRENCE ALLISON & ASSOC.:   COMPANY
 WELL. ALLISON NPR 3 #86-27:   WELL
 FLD .                NPR:   FIELD
 LOC .      S27 T39N R78W:   LOCATION
 CNTY.            NATRONA:   COUNTY
 STAT.            WYOMING:   STATE
 CTRY. UNITED STATES OF AMERICA:   COUNTRY
 SRVC.      DRESSER ATLAS:   SERVICE COMPANY
 DATE.        20-MAR-1985:   LOGDATE
 API .     49025110190000:   API NUMBER
~CURVE INFORMATION
#MNEM.UNIT       API CODE    CURVE DESCRIPTION
#----------   ------------   ------------------------------
 DEPT.F                  :   
 CALD.IN     45 280 60 00:   CALIPER FROM DENSITY LOG
 TEND.LBS    45 635 01 00:   TENSION FROM DENSITY LOG
 CORR.G/C3   45 356 01 00:   DENSITY CORRECTION
 RHOB.G/C3   45 350 01 00:   BULK DENSITY
 CNC .DEC    42 890 03 00:   NEUTRON PORISITY SANDSTONE
 TENR.LBS    07 635 01 00:   TENSION FROM RESISTIVITY
 GRR .GAPI   07 310 01 00:   GAMMA RAY FROM RESISTIVITY
 SFL .OHMM   07 220 01 00:   SHALLOW FOCUSED LOG RESISTIVITY
 ILD .OHMM   07 120 46 00:   DEEP INDUCTION RESISTIVITY
 ILM .OHMM   07 120 44 00:   INDUCTION LOG MEDIUM RESISTIVITY
 TENS.LBS    60 635 01 00:   TENSION FROM SONIC LOG
 DT  .US/F   60 520 00 00:   DELTA TIME
 CALS.IN     60 280 50 00:   CALIPER FROM SONIC LOG
 GRS .GAPI   60 310 01 00:   GAMMA RAY FROM SONIC LOG
~PARAMETER INFORMATION
#MNEM.UNIT          VALUE    DESCRIPTION
#----------   ------------   ------------------------------
 EKB .F         5095.0000:   Kelly bushing
 EGL .F         5083.0000:   Ground level
 EDF .F            0.0000:   Drilling floor
 TD  .F         4545.0000:   Total depth
 DATE.        20-MAR-1985:   Date logged
 CLNT.            A2DTECH:   Client Code
 SL  . 292' FEL & 1975' FWL:   Surface Location
 PD  .                 GL:   Permanent Datum
 EPD .F              5083:   Elevation Permanent Datum
 LMF .                 KB:   Log Measured From
 DMF .                 KB:   Drilling Measured From
 DAPD.F                12:   Feet Above Permanent Datum
 DD  .F              4545:   Depth driller
 DL  .F              4533:   Depth logger
 BLI .F              4534:   Bottom log interval
 TLI .F              1045:   Top log interval
 CS1 .IN            8.625:   Casing size
 CBD1.     8.625" @ 1033':   Casing driller 1
 CBL1.F              1045:   Casing logger 1
 BS1 .IN            7.875:   Bit size
 BSD1.F              4545:   Depth drilled with bit1
 DFT .    GEL/KCL/STA/FLO:   Type fluid in hole
 DFD .                9.1:   Density
 DFV .                 30:   Viscosity
 DFPH.                  8:   pH
 DFL .                 12:   Fluid loss
 MSS .           MUD/TANK:   Source of sample
 RMS .OHMM            .46:   Rm
 MST .F                74:   Rm Meas. temp.
 RMF .OHMM            .37:   Rmf
 MFST.F                72:   Rmf Meas. temp.
 RMC .OHMM            .58:   Rmc
 MCST.F                74:   Rmc Meas. temp.
 MFSS.               MEAS:   Source Rmf.
 MCSS.               CALC:   Source Rmc.
 RMB .OHMM            .25:   Rm. at BHT
 BHT .F               138:   BHT.
 TCS .HRS             4.5:   Time Circ. stopped
 MRT .F               138:   Maximum recorded temp.
 LUN .            HL-6274:   Logging unit number
 LUL .           GILLETTE:   Logging unit location
 ENGI.             RAUTIO:   Recorded By
 WITN.             STRONG:   Witnessed by
 ORIG.           5" PRINT:   Origin of data
 UWI .     49025110190000:   Unique Well ID
 DICO. A2D TECHNOLOGIES, INC.:   Digitizing Company
~OTHER INFORMATION
~A   DEPT     CALD       TEND       CORR       RHOB        CNC       TENR        GRR        SFL        ILD        ILM       TENS         DT        CALS        GRS  
# ...
 3545.5000     9.0520   -60.3790     0.0020     2.4320     0.2850    -1.4910    84.7070     2.9900     2.5190     2.5160  -999.2500  -999.2500  -999.2500  -999.2500
 3546.0000     9.0500   -60.3790    -0.0010     2.4290     0.2870    -1.4910    87.0860     2.9510     2.6680     2.7150  -999.2500  -999.2500  -999.2500  -999.2500
 3546.5000     9.0480   -60.3790     0.0030     2.4330     0.2630    -1.4910    89.5540     2.8950     2.8160     3.0180  -999.2500  -999.2500  -999.2500  -999.2500
 3547.0000     9.0460   -60.3790     0.0040     2.4370     0.2550    -1.4910    92.1390     2.9760     2.9650     3.3220  -999.2500  -999.2500  -999.2500  -999.2500
 3547.5000     9.0440   -60.3790    -0.0020     2.4420     0.2480    -1.4910    94.6500     3.1170     3.1140     3.6250  -999.2500  -999.2500  -999.2500  -999.2500
 3548.0000     9.0420   -57.7300    -0.0060     2.4400     0.2390    -1.4910    96.6630     3.3440     3.2350     3.9280  -999.2500  -999.2500  -999.2500  -999.2500
 3548.5000     9.0400   -53.1750     0.0030     2.4430     0.2430    -1.4910    97.2450     3.6350     3.5610     4.1960  -999.2500  -999.2500  -999.2500  -999.2500
 3549.0000     9.0380   -48.6210    -0.0060     2.4460     0.2490    -1.4910    96.1480     3.9250     3.8370     4.4080  -999.2500  -999.2500  -999.2500  -999.2500
 3549.5000     9.0370   -44.0660    -0.0200     2.4520     0.2520    -1.4910    94.0960     4.2150     4.1130     4.6190  -999.2500  -999.2500  -999.2500  -999.2500
 3550.0000     9.0350   -40.4190    -0.0100     2.4570     0.2450    -1.4910    90.4790     4.5060     4.3890     4.8310  -999.2500  -999.2500  -999.2500  -999.2500
 3550.5000     9.0330   -40.4190     0.0050     2.4730     0.2370    -1.4910    85.4500     4.7960     4.6640     5.0430  -999.2500  -999.2500  -999.2500  -999.2500
 3551.0000     9.0320   -40.4190     0.0000     2.4850     0.2290    -1.4910    80.7820     5.1370     4.9050     5.2540  -999.2500  -999.2500  -999.2500  -999.2500
 3551.5000     9.0320   -40.4190    -0.0050     2.4850     0.2220    -1.4910    76.3970     5.2240     5.1240     5.4660  -999.2500  -999.2500  -999.2500  -999.2500
 3552.0000     9.0320   -40.4190    -0.0100     2.4810     0.2160    -1.4910    75.4290     5.3300     5.3420     5.6780  -999.2500  -999.2500  -999.2500  -999.2500
 3552.5000     9.0320   -40.4190    -0.0170     2.4800     0.2190    -1.4910    74.6710     5.4300     5.5610     5.8900  -999.2500  -999.2500  -999.2500  -999.2500
 3553.0000     9.0320   -40.4190    -0.0050     2.4830     0.2220    -1.4910    73.6050     5.7170     5.7800     6.1010  -999.2500  -999.2500  -999.2500  -999.2500
 3553.5000     9.0320   -40.4190     0.0160     2.4900     0.2250    -1.4910    72.1730     5.9880     5.9980     6.2950  -999.2500  -999.2500  -999.2500  -999.2500
 3554.0000     9.0320   -40.4190     0.0030     2.4850     0.2240    -1.9110    70.7390     6.2140     6.1420     6.3250  -999.2500  -999.2500  -999.2500  -999.2500
 3554.5000     9.0320   -40.4190    -0.0190     2.4810     0.2230    -3.3480    70.8020     6.4130     6.2520     6.3520  -999.2500  -999.2500  -999.2500  -999.2500
 3555.0000     9.0320   -40.4190    -0.0240     2.4790     0.2230    -4.7860    72.4920     6.3900     6.3610     6.3790  -999.2500  -999.2500  -999.2500  -999.2500
 3555.5000     9.0320   -40.4190    -0.0200     2.4830     0.2230    -6.2230    72.3340     6.3170     6.4130     6.4060  -999.2500  -999.2500  -999.2500  -999.2500
 3556.0000     9.0320   -40.4190    -0.0120     2.4900     0.2190    -7.6600    72.1240     6.2440     6.2660     6.2840  -999.2500  -999.2500  -999.2500  -999.2500
 3556.5000     9.0320   -40.4190    -0.0010     2.5010     0.2150    -9.0970    71.9480     6.1710     6.1350     6.1090  -999.2500  -999.2500  -999.2500  -999.2500
 3557.0000     9.0320   -40.4190     0.0090     2.5070     0.2140   -10.5340    72.7870     6.0670     6.0050     5.9340  -999.2500  -999.2500  -999.2500  -999.2500
 3557.5000     9.0320   -49.6010     0.0180     2.5060     0.2200   -11.9710    73.1120     6.0900     5.8750     5.7590  -999.2500  -999.2500  -999.2500  -999.2500
 3558.0000     9.0320   -69.6410     0.0180     2.5040     0.2280   -13.4080    72.5250     6.1310     5.6710     5.5840  -999.2500  -999.2500  -999.2500  -999.2500
 3558.5000     9.0320   -72.5550     0.0070     2.4990     0.2390   -14.8450    74.5300     6.1800     5.4460     5.4090  -999.2500  -999.2500  -999.2500  -999.2500
 3559.0000     9.0320   -60.3790    -0.0060     2.4880     0.2500   -16.2820    78.4130     5.8250     5.2220     5.2340  -999.2500  -999.2500  -999.2500  -999.2500
 3559.5000     9.0320   -60.3790    -0.0180     2.4810     0.2550   -17.7190    81.1610     5.3850     5.0350     5.0590  -999.2500  -999.2500  -999.2500  -999.2500
 3560.0000     9.0320   -60.3790    -0.0320     2.4740     0.2530   -19.1560    82.4810     4.9880     4.8710     4.8840  -999.2500  -999.2500  -999.2500  -999.2500
 3560.5000     9.0320   -60.3790    -0.0330     2.4740     0.2490   -20.5940    82.8540     4.5970     4.6830     4.6830  -999.2500  -999.2500  -999.2500  -999.2500
 3561.0000     9.0320   -60.3790    -0.0180     2.4780     0.2470   -21.3720    83.2830     4.5970     4.7310     4.7260  -999.2500  -999.2500  -999.2500  -999.2500
 3561.5000     9.0320   -60.3790    -0.0050     2.4810     0.2470   -21.3720    83.6710     4.5970     4.7870     4.7770  -999.2500  -999.2500  -999.2500  -999.2500
 3562.0000     9.0320   -60.3790     0.0080     2.4850     0.2490   -21.3720    85.2100     4.7360     4.8440     4.8270  -999.2500  -999.2500  -999.2500  -999.2500
 3562.5000     9.0320   -60.3790     0.0230     2.4890     0.2440   -21.3720    87.3870     5.0230     4.9000     4.8780  -999.2500  -999.2500  -999.2500  -999.2500
 3563.0000     9.0320   -60.3790     0.0110     2.4900     0.2370   -21.3720    87.0410     5.3100     4.9500     4.9280  -999.2500  -999.2500  -999.2500  -999.2500
 3563.5000     9.0320   -60.3790    -0.0150     2.4880     0.2300   -21.3720    85.7250     5.5980     4.9790     4.9790  -999.2500  -999.2500  -999.2500  -999.2500
 3564.0000     9.0320   -60.3790    -0.0400     2.4890     0.2270   -21.3720    84.3180     5.8460     5.0050     5.0420  -999.2500  -999.2500  -999.2500  -999.2500
 3564.5000     9.0320   -60.3790    -0.0350     2.4950     0.2360   -21.3720    84.6380     5.5030     5.0420     5.0100  -999.2500  -999.2500  -999.2500  -999.2500
 3565.0000     9.0320   -60.3790    -0.0280     2.4980     0.2340   -21.3720    85.5580     5.2010     4.9830     4.9140  -999.2500  -999.2500  -999.2500  -999.2500
 3565.5000     9.0320   -60.3790    -0.0200     2.4930     0.2310   -21.3720    89.9400     4.8980     4.8750     4.8180  -999.2500  -999.2500  -999.2500  -999.2500
 3566.0000     9.0320   -60.3790    -0.0080     2.4870     0.2250   -21.3720    90.3480     4.7200     4.7670     4.7230  -999.2500  -999.2500  -999.2500  -999.2500
 3566.5000     9.0320   -60.3790     0.0040     2.4820     0.2270   -21.3720    88.1130     4.5970     4.6600     4.6270  -999.2500  -999.2500  -999.2500  -999.2500
 3567.0000     9.0320   -60.3790     0.0160     2.4820     0.2270   -21.3720    85.8140     4.6940     4.5520     4.5320  -999.2500  -999.2500  -999.2500  -999.2500
 3567.5000     9.0320   -60.3790     0.0000     2.4830     0.2280   -21.3720    84.4850     4.8550     4.4440     4.4360  -999.2500  -999.2500  -999.2500  -999.2500
 3568.0000     9.0320   -60.3790    -0.0180     2.4850     0.2280   -21.3720    85.0490     5.0420     4.3370     4.3400  -999.2500  -999.2500  -999.2500  -999.2500
 3568.5000     9.0320   -60.3790    -0.0360     2.4870     0.2370   -21.3720    86.5470     4.9280     4.2290     4.2450  -999.2500  -999.2500  -999.2500  -999.2500
 3569.0000     9.0320   -60.3790    -0.0280     2.4880     0.2460   -21.3720    87.7090     4.7700     4.1230     4.1490  -999.2500  -999.2500  -999.2500  -999.2500
 3569.5000     9.0320   -60.3790    -0.0050     2.4840     0.2540   -21.3720    88.1780     4.5060     4.0190     4.0540  -999.2500  -999.2500  -999.2500  -999.2500
