~VERSION INFORMATION
 VERS.                2.0:   CWLS LOG ASCII STANDARD - VERSION 2.0
 WRAP.                 NO:   ONE LINE PER DEPTH STEP
~WELL INFORMATION
#MNEM.UNIT      DATA TYPE    INFORMATION
#----------   ------------   ------------------------------
 STRT.F          196.5000:   START DEPTH
 STOP.F         3219.0000:   STOP DEPTH
 STEP.F            0.5000:   STEP LENGTH
 NULL.          -999.2500:   NO VALUE
 COMP.    FENIX & SCISSON:   COMPANY
 WELL.  FENIX "AX" #73-15:   WELL
 FLD .              NPR 3:   FIELD
 LOC .      S15 T38N R78W:   LOCATION
 CNTY.            NATRONA:   COUNTY
 STAT.            WYOMING:   STATE
 CTRY. UNITED STATES OF AMERICA:   COUNTRY
 SRVC.       SCHLUMBERGER:   SERVICE COMPANY
 DATE.        30-AUG-1977:   LOGDATE
 API .     49025104270000:   API NUMBER
~CURVE INFORMATION
#MNEM.UNIT       API CODE    CURVE DESCRIPTION
#----------   ------------   ------------------------------
 DEPT.F                  :   
 NPHI.DEC    42 890 03 00:   NEUTRON POROSITY SANDSTONE
 CALD.IN     45 280 60 00:   CALIPER FROM DENSITY LOG
 GRD .GAPI   45 310 01 00:   GAMMA RAY FROM DENSITY LOG
 CORR.G/C3   45 356 01 00:   DENSITY CORRECTION
 RHOB.G/C3   45 350 01 00:   BULK DENSITY
 SPR .MV     07 010 01 00:   SPONTANEOUS POTENTIAL
 RILD.OHMM   07 120 46 00:   DEEP INDUCTION RESISTIVITY
 RILM.OHMM   07 120 44 00:   INDUCTION LOG MEDIUM RESISTIVITY
 LL8 .OHMM   07 220 08 00:   LATEROLOG-8 RES.
~PARAMETER INFORMATION
#MNEM.UNIT          VALUE    DESCRIPTION
#----------   ------------   ------------------------------
 EKB .F         5263.0000:   Kelly bushing
 EGL .F         5253.0000:   Ground level
 TD  .F         3220.0000:   Total depth
 CLNT.            A2DTECH:   Client Code
 SL  . 1650' FNL & 875' FEL:   Surface Location
 PD  .                 GL:   Permanent Datum
 EPD .F              5253:   Elevation Permanent Datum
 LMF .                 KB:   Log Measured From
 DMF .                 KB:   Drilling Measured From
 DAPD.F                10:   Feet Above Permanent Datum
 DATE.        30-AUG-1977:   Date Logged [DD-MMM-YYYY]
 DD  .F              3220:   Depth driller
 DL  .F              3219:   Depth logger
 BLI .F              3209:   Bottom log interval
 TLI .F               216:   Top log interval
 CS1 .IN            8.625:   Casing size
 CBL1.F               216:   Casing logger 1
 BS1 .IN            7.875:   Bit size
 BSD1.F              3220:   Depth drilled with bit1
 DFT .                FGM:   Type fluid in hole
 DFD .                8.9:   Density
 DFPH.                 11:   pH
 MSS .            MUDTANK:   Source of sample
 RMS .OHMM           0.40:   Rm
 MST .F                82:   Rm Meas. temp.
 RMF .OHMM           0.25:   Rmf
 MFST.F                72:   Rmf Meas. temp.
 MFSS.               MEAS:   Source Rmf.
 RMC .OHMM           0.60:   Rmc
 MCST.F                82:   Rmc Meas. temp.
 MCSS.               CALC:   Source Rmc.
 RMB .OHMM           0.27:   Rm. at BHT
 BHT .F               120:   BHT.
 MRT .F               120:   Maximum recorded temp.
 LUN .               5642:   Logging unit number
 LUL .               CSPR:   Logging unit location
 ENGI.                FIX:   Recorded By
 WITN.         RETTINGILL:   Witnessed by
 ORIG.           5" PRINT:   Origin of data
 UWI .     49025104270000:   Unique Well ID
 DICO. A2D TECHNOLOGIES, INC.:   Digitizing Company
 DFV .                 35:   Viscosity
 DFL .                8.4:   Fluid loss
 CBD1.      8.625" @ 216':   Casing driller 1
~OTHER INFORMATION
~A   DEPT       NPHI     CALD        GRD       CORR       RHOB        SPR       RILD       RILM        LL8   
# ...
 2204.0000     0.3439     8.6860    86.1786     0.0032     2.4705   -60.3048     8.0381     7.8544     8.3963
 2204.5000     0.3454     8.7031    80.4254     0.0048     2.4586   -60.2863     7.8712     7.8478     8.2152
 2205.0000     0.3466     8.7202    80.0052     0.0034     2.4482   -60.5736     7.7043     7.8086     8.3289
 2205.5000     0.3521     8.7224    79.8158     0.0035     2.4400   -60.5589     7.5373     7.8139     8.6253
 2206.0000     0.3591     8.7396    81.6377     0.0250     2.4889   -60.8462     7.4288     7.8725     8.8706
 2206.5000     0.3587     8.7263    82.7836     0.0745     2.5085   -60.8308     7.4316     7.8768     8.8123
 2207.0000     0.3566     8.7291    82.3634     0.0370     2.4711   -60.8130     7.4859     7.9359     8.5745
 2207.5000     0.3422     8.7611    82.6274     0.0070     2.4502   -60.7982     7.5408     8.0404     8.3374
 2208.0000     0.3344     8.7633    85.9988     0.0109     2.4691   -60.7834     7.6690     8.1495     8.1179
 2208.5000     0.3316     8.7655    88.0349     0.0193     2.4684   -60.7687     7.7812     8.2585     8.2346
 2209.0000     0.3340     8.7678    87.6230     0.0284     2.4640   -60.9086     7.9587     8.3675     8.5277
 2209.5000     0.3448     8.8147    87.2028     0.0338     2.4416   -61.0449     8.1516     8.4766     8.8925
 2210.0000     0.3625     8.8914    89.9148     0.0881     2.4762   -61.1775     8.3310     8.5856     9.3373
 2210.5000     0.3567     8.9086    91.0525     0.1403     2.4808   -61.1627     8.5607     8.6946     9.7368
 2211.0000     0.3513     8.6723    90.2037     0.0786     2.4314   -61.2991     8.8043     8.8037    10.1533
 2211.5000     0.3555     8.6442    89.7835     0.0410     2.4210   -61.2840     8.9303     8.9160     9.8793
 2212.0000     0.3609     8.6619    89.8249     0.0298     2.4474   -61.2689     8.9954     8.9805     9.6127
 2212.5000     0.3584     8.6641    89.8581     0.0597     2.4798   -61.2510     8.9981     9.0454     9.4182
 2213.0000     0.3506     8.6514    89.4379     0.0489     2.4971   -61.3910     9.0223     9.1897     9.4214
 2213.5000     0.3401     8.6089    89.7019     0.0114     2.4372   -61.5236     9.0664     9.3047     9.6225
 2214.0000     0.3476     8.5962    93.2959     0.0069     2.4748   -61.5088     9.0075     9.3719     9.8997
 2214.5000     0.3508     8.5984    97.7801     0.0071     2.4817   -61.4940     8.9648     9.3091    10.1866
 2215.0000     0.3469     8.6007    99.8162     0.0117     2.4870   -61.4793     8.9504     9.2212    10.4678
 2215.5000     0.3383     8.5880   100.5170     0.0140     2.4819   -61.4645     8.8276     9.1231    10.6174
 2216.0000     0.3322     8.5902   100.3276     0.0089     2.4865   -61.4497     8.6405     8.8148    10.4749
 2216.5000     0.3427     8.5924    98.5804     0.0120     2.4911   -61.7371     8.3613     8.5120    10.1922
 2217.0000     0.3576     8.5946    97.9451     0.0136     2.4762   -61.7223     8.1355     8.2863     9.8487
 2217.5000     0.3618     8.5968    98.2016     0.0085     2.4710   -62.0096     7.9157     7.9515     9.3211
 2218.0000     0.3627     8.5842    99.5701     0.0041     2.4644   -62.1459     7.7555     7.8348     8.8217
 2218.5000     0.3614     8.5715   100.2709     0.0019     2.4660   -62.2822     7.6336     7.6735     8.3491
 2219.0000     0.3521     8.5738   100.5267     0.0036     2.4676   -62.2637     7.4958     7.5288     8.0671
 2219.5000     0.3440     8.5760   100.5598     0.0082     2.4722   -62.2489     7.4471     7.4783     8.5302
 2220.0000     0.3392     8.5787   100.6232     0.0151     2.4693   -62.2342     7.4497     7.4942     8.8951
 2220.5000     0.3484     8.5809   101.0712     0.0174     2.4724   -62.2194     7.4535     7.5081     9.2121
 2221.0000     0.3547     8.5831    99.0224     0.0085     2.4831   -62.5067     7.5648     7.5220     9.4135
 2221.5000     0.3634     8.5853    97.1004     0.0033     2.4764   -62.4920     7.6675     7.5359     9.4114
 2222.0000     0.3612     8.5876    96.7196     0.0178     2.4915   -62.4772     7.7772     7.5673     9.2851
 2222.5000     0.3648     8.5898    97.4287     0.0028     2.4667   -62.4622     7.8985     7.6507     9.0353
 2223.0000     0.3669     8.5920   100.1325    -0.0001     2.4617   -62.4471     8.0569     7.7664     8.5513
 2223.5000     0.3621     8.6091   105.7295     0.0031     2.4625   -62.5839     8.1156     7.9780     8.2060
 2224.0000     0.3472     8.6113   108.4333     0.0077     2.4544   -62.4144     8.2317     8.1478     8.1515
 2224.5000     0.3296     8.6136   104.9056     0.0123     2.4639   -62.3996     8.3494     8.3213     8.5009
 2225.0000     0.3182     8.6307   103.8177     0.0117     2.4611   -62.3849     8.4103     8.4397     9.1769
 2225.5000     0.3263     8.6329   104.0817     0.0118     2.4570   -62.2190     8.4717     8.6193     9.9755
 2226.0000     0.3418     8.6351   106.7855    -0.0017     2.4578   -62.2043     8.5335     8.7420    10.1172
 2226.5000     0.3478     8.6522   113.4952    -0.0053     2.4347   -62.3442     8.5365     8.7444     9.4443
 2227.0000     0.3409     8.6694   116.8667    -0.0059     2.4220   -62.6279     8.5400     8.6863     8.6941
 2227.5000     0.3319     8.6716   119.1253    -0.0051     2.4221   -62.6131     8.4253     8.5691     9.9986
 2228.0000     0.3301     8.6738   115.3751    -0.0035     2.4328   -62.7494     8.3693     8.4535    10.4967
 2228.5000     0.3348     8.6611   111.8392    -0.0018     2.4576   -62.7145     8.3150     8.3346     9.6754
 2229.0000     0.3405     8.6633   112.3257    -0.0025     2.4532   -62.5680     8.2603     8.2840     8.5870
 2229.5000     0.3441     8.6656   113.9167    -0.0054     2.4436   -62.5503     8.2054     8.6387     8.1834
 2230.0000     0.3467     8.6827   107.4959    -0.0068     2.4369   -62.5378     8.1515     9.0705     8.8955
 2230.5000     0.3419     8.6849   101.2976    -0.0052     2.4340   -62.5208     8.2116     9.3280     9.6029
 2231.0000     0.3305     8.6871    94.2091    -0.0081     2.4259   -62.5060     8.2144     9.0755     9.9446
 2231.5000     0.3201     8.6893    86.0079    -0.0095     2.4342   -62.4924     8.1604     8.4701    10.2985
 2232.0000     0.3080     8.6915    78.4743    -0.0046     2.4456   -62.4765     8.1068     8.0155    10.4457
 2232.5000     0.3004     8.6938    76.2819    -0.0002     2.4540   -62.6127     8.1103     8.0734    10.0936
 2233.0000     0.3109     8.6811    76.5376     0.0007     2.4676   -62.7492     8.0490     8.5360     9.3565
 2233.5000     0.3244     8.6833    77.0159    -0.0022     2.4782   -63.1874     7.9374     8.6575     8.7941
 2234.0000     0.3262     8.6706    78.3843    -0.0036     2.4648   -63.3237     7.8259     8.6598     8.3230
 2234.5000     0.3183     8.6729    79.3077    -0.0065     2.4551   -63.4600     7.7143     8.2951     7.9286
 2235.0000     0.3054     8.6751    77.1153    -0.0034     2.4650   -63.5963     7.7391     7.8001     7.8254
 2235.5000     0.2970     8.6773    69.3592     0.0005     2.4651   -63.5778     7.7956     8.2570     8.7460
 2236.0000     0.2907     8.6903    66.9443     0.0036     2.4637   -63.4120     7.8371     8.7908    10.4027
 2236.5000     0.2912     8.6967    65.6421     0.0015     2.4630   -63.5520     7.9104     9.1032    11.2299
 2237.0000     0.2963     8.7143    65.4525     0.0023     2.4631   -63.6846     7.8578     9.2328    11.0028
 2237.5000     0.3057     8.7011    67.2663    -0.0013     2.4760   -63.8245     7.6993     8.4397     9.9895
 2238.0000     0.3307     8.7038    78.3016     0.0048     2.4971   -63.8061     7.5435     7.8223     8.9448
 2238.5000     0.3421     8.7060    88.9939     0.0095     2.4994   -63.9426     7.3397     7.3513     7.8992
 2239.0000     0.3457     8.7083    93.2363     0.0126     2.4861   -63.9275     7.0922     7.0051     7.1718
 2239.5000     0.3415     8.6950    93.8827     0.0097     2.4652   -64.0639     6.9006     6.9105     7.0261
 2240.0000     0.3342     8.7127    95.1189     0.0023     2.4465   -64.0454     6.8552     7.1067     7.2265
