~VERSION INFORMATION
 VERS.                2.0:   CWLS LOG ASCII STANDARD - VERSION 2.0
 WRAP.                 NO:   ONE LINE PER DEPTH STEP
~WELL INFORMATION
#MNEM.UNIT      DATA TYPE    INFORMATION
#----------   ------------   ------------------------------
 STRT.F          200.0000:   START DEPTH
 STOP.F         3078.0000:   STOP DEPTH
 STEP.F            0.5000:   STEP LENGTH
 NULL.          -999.2500:   NO VALUE
 COMP.   FENIX & SCISSION:   COMPANY
 WELL. FENIX NPR 72 "A" #3-28:   WELL
 FLD .              NPR-3:   FIELD
 LOC .      S28 T39N R78W:   LOCATION
 CNTY.            NATRONA:   COUNTY
 STAT.            WYOMING:   STATE
 CTRY. UNITED STATES OF AMERICA:   COUNTRY
 SRVC.              WELEX:   SERVICE COMPANY
 DATE.        06-JUN-1977:   LOGDATE
 API .     49025103770000:   API NUMBER
~CURVE INFORMATION
#MNEM.UNIT       API CODE    CURVE DESCRIPTION
#----------   ------------   ------------------------------
 DEPT.F                  :   
 CORR.G/C3   45 356 01 00:   DENSITY CORRECTION
 RHOB.G/C3   45 350 01 00:   BULK DENSITY
 CALD.IN     45 280 60 00:   CALIPER FROM DENSITY LOG
 SPR .MV     07 010 01 00:   SPONTANEOUS POTENTIAL
 GURD.OHMM   07 220 05 00:   GUARD LOG RESISTIVITY
 ILM .OHMM   07 120 44 00:   INDUCTION LOG MEDIUM RESISTIVITY
 ILD .OHMM   07 120 46 00:   DEEP INDUCTION RESISTIVITY
 GRD .GAPI   45 310 01 00:   GAMMA RAY FROM DENSITY LOG
~PARAMETER INFORMATION
#MNEM.UNIT          VALUE    DESCRIPTION
#----------   ------------   ------------------------------
 EKB .F         5022.0000:   Kelly bushing
 EGL .F         5011.0000:   Ground level
 EDF .F            0.0000:   Drilling floor
 EPD .F         5011.0000:   Permanent datum
 TD  .F         3081.0000:   Total depth
 DATE.        06-JUN-1977:   Date logged
 CLNT.            A2DTECH:   Client Code
 SL  . 990' FNL & 990' FEL:   Surface Location
 PD  .                 GL:   Permanent Datum
 DAPD.F                11:   Feet Above Permanent Datum
 DD  .F              3041:   Depth driller
 DL  .F              3081:   Depth logger
 BLI .F              3079:   Bottom log interval
 TLI .F               200:   Top log interval
 CS1 .IN            8.625:   Casing size
 CBD1.      8.625" @ 200':   Casing driller 1
 CBL1.F               218:   Casing logger 1
 BS1 .IN            7.875:   Bit size
 BSD1.F              3041:   Depth drilled with bit1
 DFT .            KCL MUD:   Type fluid in hole
 DFD .                8.8:   Density
 DFV .                 38:   Viscosity
 DFPH.                7.5:   pH
 DFL .                5.8:   Fluid loss
 MSS .           FLOWLINE:   Source of sample
 RMS .OHMM           1.19:   Rm
 MST .F                89:   Rm Meas. temp.
 RMF .OHMM           1.05:   Rmf
 MFST.F                89:   Rmf Meas. temp.
 RMC .OHMM           2.17:   Rmc
 MCST.F                89:   Rmc Meas. temp.
 MFSS.               FANN:   Source Rmf.
 MCSS.                KIT:   Source Rmc.
 RMB .OHMM           0.98:   Rm. at BHT
 BHT .F               108:   BHT.
 TCS .HRS             2.5:   Time Circ. stopped
 MRT .F               108:   Maximum recorded temp.
 LUN .               8611:   Logging unit number
 LUL .             CASPER:   Logging unit location
 ENGI.          T. JOYNER:   Recorded By
 WITN.      W. PETTINGILL:   Witnessed by
 ORIG.           5" PRINT:   Origin of data
 UWI .     49025103770000:   Unique Well ID
 DICO. A2D TECHNOLOGIES, INC.:   Digitizing Company
~OTHER INFORMATION
~A   DEPT     CORR       RHOB         CALD      SPR       GURD        ILM        ILD         GRD  
# ...
  402.5000     0.0120     2.3550    10.7130   -49.7000    13.9620    16.4340    13.5260    78.4310
  403.0000     0.0130     2.3560    10.7090   -49.6520    14.1290    16.5110    13.8320    77.3530
  403.5000     0.0140     2.3560    10.7080   -49.5910    14.0230    16.1510    14.1380    78.0710
  404.0000     0.0150     2.3590    10.7080   -49.5300    13.8720    15.8160    14.4440    79.3760
  404.5000     0.0150     2.3610    10.7080   -49.4690    13.9090    15.7710    14.7910    80.6940
  405.0000     0.0160     2.3640    10.7080   -49.4080    13.9890    15.7710    14.2340    81.7810
  405.5000     0.0170     2.3610    10.7080   -49.3470    13.8370    15.6730    13.3930    81.2510
  406.0000     0.0170     2.3560    10.7080   -49.2860    13.6200    15.2910    12.5530    80.6830
  406.5000     0.0170     2.3510    10.7130   -49.2260    13.7020    14.9280    12.0430    81.1000
  407.0000     0.0160     2.3460    10.7240   -49.1630    13.7990    14.6730    11.8530    81.6910
  407.5000     0.0160     2.3410    10.7420   -49.0410    13.8720    14.4290    11.6640    82.2810
  408.0000     0.0150     2.3360    10.7620   -48.6940    13.5490    14.0790    11.4430    82.8860
  408.5000     0.0150     2.3310    10.7830   -48.3510    13.2880    13.4960    11.6430    82.2350
  409.0000     0.0150     2.3240    10.8030   -48.0110    13.0280    13.7880    11.9590    80.7700
  409.5000     0.0150     2.3170    10.8240   -47.6810    12.7740    14.4670    12.2740    79.2510
  410.0000     0.0150     2.3090    10.8250   -47.4190    13.2970    15.1460    12.5900    76.9800
  410.5000     0.0140     2.3000    10.8250   -47.1530    13.8080    15.8260    13.0870    72.4810
  411.0000     0.0130     2.2910    10.8570   -46.8860    14.3180    16.4090    13.8370    69.0960
  411.5000     0.0120     2.2870    10.8920   -46.6170    14.9280    16.6360    14.5880    67.5450
  412.0000     0.0110     2.2830    10.9210   -46.5900    14.8780    16.8170    15.3380    65.9870
  412.5000     0.0130     2.2800    10.9150   -46.6130    14.7910    16.5620    16.0890    65.4570
  413.0000     0.0140     2.2820    10.9080   -46.6390    15.1270    15.8170    16.8390    65.7430
  413.5000     0.0150     2.2830    10.9000   -46.6640    15.6870    14.9490    17.4450    66.0310
  414.0000     0.0150     2.2830    10.8880   -46.6890    16.0630    14.0810    17.4450    66.3240
  414.5000     0.0140     2.2870    10.8750   -46.7140    15.7720    13.3730    17.2920    66.6170
  415.0000     0.0140     2.2840    10.8570   -46.7390    15.0650    13.4590    17.0310    66.9970
  415.5000     0.0130     2.2810    10.8180   -46.7650    15.3350    13.5470    16.7290    67.7830
  416.0000     0.0120     2.2770    10.7790   -46.8330    15.6280    13.7570    16.2310    68.5620
  416.5000     0.0120     2.2800    10.7400   -46.9020    15.4030    14.5510    15.9170    69.1270
  417.0000     0.0120     2.2820    10.7010   -46.9720    15.2040    15.3450    15.9170    68.4380
  417.5000     0.0120     2.2840    10.6620   -47.0420    15.2040    16.1390    15.7120    69.2030
  418.0000     0.0130     2.2870    10.6290   -47.1110    15.2040    16.9330    15.4810    70.0090
  418.5000     0.0130     2.2880    10.6330   -47.1580    15.4540    17.6050    15.4520    70.7600
  419.0000     0.0140     2.2860    10.6360   -47.1570    15.7160    17.1020    15.4240    69.8180
  419.5000     0.0150     2.2870    10.6390   -47.1570    15.9780    16.6630    15.3960    68.7820
  420.0000     0.0160     2.2930    10.6420   -47.1570    16.2400    16.9230    15.3680    67.7510
  420.5000     0.0170     2.2950    10.6450   -47.1550    16.3600    17.1280    15.2730    66.7150
  421.0000     0.0180     2.2950    10.6480   -47.0860    16.3600    15.1540    14.7590    65.7260
  421.5000     0.0190     2.2980    10.6570   -46.8400    16.1380    12.7740    14.0000    66.2300
  422.0000     0.0200     2.3010    10.6680   -46.6020    15.8340    12.8590    14.3520    66.7930
  422.5000     0.0210     2.3040    10.6780   -46.3650    15.4540    13.0100    15.0210    67.1640
  423.0000     0.0210     2.3000    10.6890   -46.1280    14.9140    12.9160    15.3440    66.5600
  423.5000     0.0200     2.2960    10.6990   -45.8900    14.3730    12.7740    15.2040    66.2380
  424.0000     0.0180     2.2910    10.7090   -45.6500    13.9670    12.7740    14.3900    67.2540
  424.5000     0.0210     2.2970    10.7120   -45.4030    13.8880    14.2040    14.5430    68.2710
  425.0000     0.0230     2.3050    10.7150   -45.3900    14.2820    15.2960    14.8460    67.9130
  425.5000     0.0260     2.3120    10.7180   -45.3920    14.6530    16.1220    15.1490    67.2750
  426.0000     0.0270     2.3130    10.7220   -45.3930    15.0250    16.3220    15.4520    67.2290
  426.5000     0.0270     2.3110    10.7250   -45.4560    15.1330    16.5210    15.5840    68.1230
  427.0000     0.0270     2.3100    10.7270   -45.5860    15.2040    16.6630    15.7710    68.7710
  427.5000     0.0270     2.3090    10.7270   -45.7160    14.7910    15.4250    15.5570    68.2950
  428.0000     0.0260     2.3090    10.7280   -45.8690    14.9320    12.8910    15.2290    67.8460
  428.5000     0.0250     2.3110    10.7250   -46.0470    15.2040    12.9480    15.4850    67.3930
  429.0000     0.0240     2.3120    10.6560   -46.2250    15.2040    13.0790    15.4030    66.8980
  429.5000     0.0220     2.3100    10.5870   -46.4030    15.1040    13.3370    15.2300    68.2070
  430.0000     0.0210     2.3080    10.4660   -46.5610    14.7270    13.5060    15.0560    69.8260
  430.5000     0.0190     2.3090    10.3400   -46.4460    14.3900    14.0650    14.9280    71.4660
  431.0000     0.0200     2.3150    10.3020   -46.3270    14.8010    15.7970    15.1330    73.0800
  431.5000     0.0210     2.3210    10.2820   -46.2100    15.1910    17.4450    15.2960    74.1300
  432.0000     0.0210     2.3240    10.2620   -46.0920    15.6660    17.4450    15.4850    72.8090
  432.5000     0.0210     2.3190    10.2590   -45.9850    16.4070    16.5110    15.1940    71.5470
  433.0000     0.0210     2.3140    10.2590   -46.0600    17.0080    16.6530    14.7910    71.1120
  433.5000     0.0210     2.3130    10.2590   -46.1400    17.1280    15.9020    14.8720    71.8060
  434.0000     0.0200     2.3160    10.2490   -46.2180    16.3890    14.4990    15.0590    72.4870
  434.5000     0.0190     2.3160    10.2390   -46.2970    15.5010    13.1300    15.2040    73.1710
  435.0000     0.0200     2.3110    10.2300   -46.3690    15.0920    12.8030    14.9520    73.3210
  435.5000     0.0210     2.3080    10.2200   -46.3150    14.7910    12.6570    14.7910    72.7550
  436.0000     0.0210     2.3100    10.2100   -46.2570    14.6560    13.0720    15.0720    72.1740
  436.5000     0.0200     2.3120    10.2000   -46.1990    14.6990    13.5810    15.3020    72.7810
  437.0000     0.0180     2.3080    10.1820   -46.1770    14.9060    14.5760    15.5550    72.9370
  437.5000     0.0160     2.3030    10.1630   -46.1770    15.1120    15.5720    15.8950    72.5870
  438.0000     0.0150     2.2990    10.1450   -46.1760    15.3180    16.5680    16.2360    72.4380
  438.5000     0.0140     2.3000    10.1480   -46.1760    15.4850    17.2850    16.5110    72.5480
  439.0000     0.0150     2.3040    10.1560   -46.1760    15.1910    16.6040    16.1260    72.6570
  439.5000     0.0160     2.3070    10.1590   -46.1770    14.9440    15.2610    15.8030    72.7640
  440.0000     0.0180     2.3170    10.0960   -46.1780    14.7190    13.9170    15.4800    72.0800
  440.5000     0.0190     2.3250    10.0330   -46.3140    14.5300    12.5420    15.1720    71.2680
  441.0000     0.0200     2.3330     9.9850   -46.5440    14.3400    12.4620    14.8750    71.5390
  441.5000     0.0220     2.3390     9.9920   -46.7760    14.1360    12.3140    14.5780    73.1100
  442.0000     0.0230     2.3420     9.9980   -47.0070    14.0000    12.7010    14.3900    73.6550
  442.5000     0.0230     2.3410    10.0040   -47.1190    14.3900    13.7620    14.8750    73.2980
