~VERSION INFORMATION
 VERS.                2.0:   CWLS LOG ASCII STANDARD - VERSION 2.0
 WRAP.                 NO:   ONE LINE PER DEPTH STEP
~WELL INFORMATION
#MNEM.UNIT      DATA TYPE    INFORMATION
#----------   ------------   ------------------------------
 STRT.F          212.5000:   START DEPTH
 STOP.F         3098.0000:   STOP DEPTH
 STEP.F            0.5000:   STEP LENGTH
 NULL.          -999.2500:   NO VALUE
 COMP.    FENIX & SCISSON:   COMPANY
 WELL. FENIX NPR 77 "A" #3-33:   WELL
 FLD .                NPR:   FIELD
 LOC .      S33 T39N R78W:   LOCATION
 CNTY.            NATRONA:   COUNTY
 STAT.            WYOMING:   STATE
 CTRY. UNITED STATES OF AMERICA:   COUNTRY
 SRVC.       SCHLUMBERGER:   SERVICE COMPANY
 DATE.        07-MAY-1977:   LOGDATE
 API .     49025103700000:   API NUMBER
~CURVE INFORMATION
#MNEM.UNIT       API CODE    CURVE DESCRIPTION
#----------   ------------   ------------------------------
 DEPT.F                  :   
 SPR .MV     07 010 01 00:   SPONTANEOUS POTENTIAL
 LL8 .OHMM   11 220 08 00:   LATERALOG-8 RESISTIVITY
 ILD .OHMM   07 120 46 00:   DEEP INDUCTION RESISTIVITY
 CALD.IN     45 280 60 00:   CALIPER FROM DENSITY LOG
 GRD .GAPI   45 310 01 00:   GAMMA RAY FROM DENSITY LOG
 RHOB.G/C3   45 350 01 00:   BULK DENSITY
 CORR.G/C3   45 356 01 00:   DENSITY CORRECTION
 ILM .OHMM   07 120 44 00:   INDUCTION LOG MEDIUM RESISTIVITY
~PARAMETER INFORMATION
#MNEM.UNIT          VALUE    DESCRIPTION
#----------   ------------   ------------------------------
 EKB .F         5152.0000:   Kelly bushing
 EGL .F         5141.0000:   Ground level
 TD  .F         3097.0000:   Total depth
 DATE.        07-MAY-1977:   Date logged
 CLNT.            A2DTECH:   Client Code
 SL  . 990' FEL & 990' FSL:   Surface Location
 PD  .                 GL:   Permanent Datum
 EPD .F              5141:   Elevation Permanent Datum
 LMF .                 KB:   Log Measured From
 DMF .                 KB:   Drilling Measured From
 DAPD.F                11:   Feet Above Permanent Datum
 DD  .F              3096:   Depth driller
 DL  .F              3097:   Depth logger
 BLI .F              3091:   Bottom log interval
 TLI .F               222:   Top log interval
 CS1 .IN            8.625:   Casing size
 CBD1.      8.625" @ 200':   Casing driller 1
 CBL1.F               222:   Casing logger 1
 BS1 .IN            7.875:   Bit size
 BSD1.F              3096:   Depth drilled with bit1
 DFT .                KCL:   Type fluid in hole
 DFD .                9.2:   Density
 DFV .                 38:   Viscosity
 DFPH.                  8:   pH
 DFL .                7.6:   Fluid loss
 MSS .           FLOWLINE:   Source of sample
 RMS .OHMM           .191:   Rm
 MST .F                76:   Rm Meas. temp.
 RMF .OHMM           .185:   Rmf
 MFST.F                76:   Rmf Meas. temp.
 MFSS.               MEAS:   Source Rmf.
 RMB .OHMM           .126:   Rm. at BHT
 BHT .F               115:   BHT.
 TCS .HRS            1200:   Time Circ. stopped
 TLAB.HRS            1530:   Time logger at bottom
 MRT .F                15:   Maximum recorded temp.
 LUN .               6442:   Logging unit number
 LUL .               CSPR:   Logging unit location
 ENGI.             MARTIN:   Recorded By
 WITN.          PETTMGILL:   Witnessed by
 ORIG.      2.5" 5" PRINT:   Origin of data
 UWI .     49025103700000:   Unique Well ID
 DICO. A2D TECHNOLOGIES, INC.:   Digitizing Company
~OTHER INFORMATION
~A   DEPT      SPR        LL8        ILD       CALD         GRD      RHOB       CORR        ILM   
# ...
 1711.0000   -86.2270     7.8530     6.2310     8.9810   109.6810     2.5780     0.0830     6.9440
 1711.5000   -85.7040     7.8350     6.2870     8.9910   108.0680     2.5910     0.0920     6.9860
 1712.0000   -85.1890     7.8350     6.3430     9.0010   110.1490     2.6080     0.1010     7.0290
 1712.5000   -84.6750     7.9800     6.4000     9.0110   112.4110     2.5940     0.0890     7.0720
 1713.0000   -84.1610     8.1250     6.4560     9.0210   113.5580     2.5870     0.0750     7.1140
 1713.5000   -83.6460     8.2690     6.5120     9.0310   111.8420     2.5920     0.0800     7.1570
 1714.0000   -83.1320     8.3580     6.5680     9.0410   110.2600     2.5950     0.0800     7.2000
 1714.5000   -82.6180     8.3290     6.6250     9.0500   108.6160     2.5730     0.0710     7.2420
 1715.0000   -82.0960     8.2920     6.6810     9.0600   106.8350     2.5770     0.0640     7.2770
 1715.5000   -82.0390     8.2550     6.7370     9.0700   105.8700     2.5890     0.0600     7.2740
 1716.0000   -82.2220     8.2180     6.7930     9.0800   105.9340     2.6070     0.0670     7.2560
 1716.5000   -82.4080     8.1820     6.8500     9.0900   110.2820     2.6020     0.0770     7.2380
 1717.0000   -82.5940     8.1450     6.8850     9.1000   109.9300     2.5930     0.0860     7.2190
 1717.5000   -82.7800     8.1080     6.8580     9.1100   109.7140     2.6010     0.0850     7.2010
 1718.0000   -82.9660     8.0710     6.8300     9.1160   109.6190     2.6040     0.0780     7.1830
 1718.5000   -83.1520     8.0550     6.8020     9.1150   115.0320     2.5940     0.0690     7.1650
 1719.0000   -83.3380     8.0550     6.7740     9.1150   120.0690     2.5860     0.0890     7.1460
 1719.5000   -83.5250     8.0550     6.7460     9.1150   120.9720     2.5670     0.0800     7.1280
 1720.0000   -83.7120     8.0550     6.7180     9.1150   117.5440     2.6420     0.0780     7.1100
 1720.5000   -83.8910     8.1510     6.6900     9.1150   114.4300     2.6940     0.0890     7.0920
 1721.0000   -83.8850     8.5130     6.6610     9.1150   111.5160     2.6180     0.0980     7.0730
 1721.5000   -83.5920     8.2130     6.6330     9.1150   110.9920     2.5650     0.0830     7.0550
 1722.0000   -83.2920     7.8030     6.6050     9.1150   110.3030     2.5840     0.0710     7.0370
 1722.5000   -82.9940     7.2770     6.5750     9.1150   109.6540     2.5920     0.0810     7.0180
 1723.0000   -82.6960     7.6000     6.5960     9.1150   108.8650     2.5960     0.1000     7.0140
 1723.5000   -82.3980     7.9080     6.6180     9.1150   108.5150     2.5820     0.0880     7.0710
 1724.0000   -82.0990     7.7930     6.6410     9.1160   108.7610     2.5660     0.0730     7.1140
 1724.5000   -81.8020     7.6920     6.6630     9.1040   113.0300     2.5630     0.0640     7.1570
 1725.0000   -81.5090     8.4350     6.6860     9.0830   115.3380     2.5770     0.0690     7.2000
 1725.5000   -81.4280     8.2120     6.6970     9.0640   113.0290     2.5910     0.0730     7.2430
 1726.0000   -81.9770     8.0030     6.6970     9.0440   110.9410     2.5870     0.0780     7.2870
 1726.5000   -82.5210     7.9810     6.6970     9.0240   109.9820     2.5810     0.0830     7.3300
 1727.0000   -83.0640     8.2830     6.6970     9.0040   112.5420     2.5740     0.0860     7.3730
 1727.5000   -83.6080     8.4350     6.6970     8.9930   114.5390     2.5810     0.0790     7.4130
 1728.0000   -84.1500     8.3630     6.6980     8.9890   115.9790     2.5870     0.0730     7.4010
 1728.5000   -84.4950     8.2110     6.6880     8.9840   112.8880     2.5790     0.0670     7.3910
 1729.0000   -84.3160     8.0590     6.6540     8.9790   111.5100     2.5670     0.0600     7.3800
 1729.5000   -84.1040     7.9070     6.6200     8.9750   112.7340     2.5620     0.0670     7.3690
 1730.0000   -83.8890     7.7550     6.5860     8.9700   113.3280     2.5920     0.0830     7.3580
 1730.5000   -83.6750     7.6030     6.5530     8.9660   113.0740     2.6110     0.1000     7.3480
 1731.0000   -83.4910     7.4820     6.5190     8.9610   112.9490     2.5630     0.0830     7.3370
 1731.5000   -83.3260     7.6910     6.4850     8.9560   112.8270     2.5480     0.0580     7.3260
 1732.0000   -83.0370     7.8900     6.4510     8.9520   111.7300     2.5410     0.0670     7.3160
 1732.5000   -82.7460     8.0890     6.4170     8.9470   110.6700     2.5610     0.0840     7.3050
 1733.0000   -82.4530     8.2810     6.3830     8.9420   109.6630     2.5770     0.0990     7.2940
 1733.5000   -82.1610     8.1850     6.3490     8.9380   111.3240     2.5720     0.0840     7.2840
 1734.0000   -81.8690     8.0330     6.3370     8.9330   111.4090     2.5560     0.0710     7.2770
 1734.5000   -81.5770     7.8810     6.3670     8.9280   110.3240     2.5400     0.0560     7.2770
 1735.0000   -81.2850     7.6920     6.3950     8.9240   109.6150     2.5230     0.0430     7.2770
 1735.5000   -80.9920     7.8530     6.3880     8.9190   110.3180     2.5150     0.0480     7.2700
 1736.0000   -80.6970     8.0490     6.3810     8.9150   111.7010     2.5300     0.0640     7.2580
 1736.5000   -80.4060     8.2050     6.3740     8.9100   113.1720     2.5450     0.0790     7.2460
 1737.0000   -80.3310     8.0810     6.3670     8.9050   114.8960     2.5600     0.0930     7.2340
 1737.5000   -80.9710     7.9580     6.3600     8.9010   115.9000     2.5760     0.0930     7.2220
 1738.0000   -81.5890     7.8350     6.3520     8.8960   115.2480     2.5890     0.0930     7.2100
 1738.5000   -82.1140     7.9130     6.3450     8.8910   113.6840     2.5920     0.1040     7.1980
 1739.0000   -82.0910     8.0430     6.3380     8.8870   113.1940     2.5860     0.1150     7.1860
 1739.5000   -82.0020     8.1740     6.3350     8.8820   112.8530     2.5780     0.1200     7.1750
 1740.0000   -81.9240     8.3580     6.3670     8.8770   113.5570     2.5700     0.1050     7.1630
 1740.5000   -82.0350     8.2560     6.4180     8.8830   114.7330     2.5620     0.0840     7.1510
 1741.0000   -82.4460     8.1530     6.4690     8.8960   115.8270     2.5540     0.0720     7.1390
 1741.5000   -82.8410     8.1290     6.5210     8.9100   116.8610     2.5520     0.0920     7.1270
 1742.0000   -83.2320     8.2000     6.5720     8.9230   117.5980     2.5680     0.1120     7.1150
 1742.5000   -83.5010     8.2720     6.6230     8.9350   117.3740     2.5840     0.1280     7.1030
 1743.0000   -83.4400     8.3450     6.6750     8.9520   117.3080     2.5960     0.1220     7.0910
 1743.5000   -83.2350     8.4170     6.7260     8.9530   118.2510     2.5800     0.1130     7.0790
 1744.0000   -83.0390     8.4640     6.7590     8.9880   119.5270     2.5890     0.1190     7.0790
 1744.5000   -82.9090     8.5160     6.7470     8.9960   119.5710     2.6150     0.1330     7.1440
 1745.0000   -82.6590     8.5680     6.7380     8.9970   118.6260     2.5860     0.1280     7.1800
 1745.5000   -82.3220     8.6200     6.7290     8.9950   117.1930     2.5580     0.1060     7.2190
 1746.0000   -81.9830     8.6720     6.7200     8.9960   115.2410     2.5360     0.0820     7.2570
 1746.5000   -81.6430     8.7240     6.7110     8.9960   113.1790     2.5510     0.0790     7.2960
 1747.0000   -81.3040     8.7760     6.7020     8.9960   112.6450     2.5660     0.0900     7.3340
 1747.5000   -80.9670     8.8280     6.6970     8.9960   112.2950     2.5610     0.1020     7.3580
 1748.0000   -80.7480     8.8800     6.6970     8.9950   111.7470     2.5560     0.1140     7.3770
 1748.5000   -80.9430     8.9150     6.6970     8.9940   110.0380     2.5630     0.1190     7.3960
 1749.0000   -81.1350     8.6710     6.6970     8.9930   109.6310     2.5850     0.1000     7.4130
 1749.5000   -81.3260     8.4030     6.6970     8.9910   111.0930     2.5850     0.1300     7.4470
 1750.0000   -81.5170     8.1350     6.6970     8.9900   112.7760     2.5630     0.1260     7.7760
 1750.5000   -81.7100     8.0550     6.6970     8.9890   112.4070     2.5500     0.0870     8.1050
 1751.0000   -81.9100     8.3910     7.2450     8.9870   111.0630     2.5600     0.1010     8.4330
