~VERSION INFORMATION
 VERS.                2.0:   CWLS LOG ASCII STANDARD - VERSION 2.0
 WRAP.                 NO:   ONE LINE PER DEPTH STEP
~WELL INFORMATION
#MNEM.UNIT      DATA TYPE    INFORMATION
#----------   ------------   ------------------------------
 STRT.F          190.0000:   START DEPTH
 STOP.F         2998.5000:   STOP DEPTH
 STEP.F            0.5000:   STEP LENGTH
 NULL.          -999.2500:   NO VALUE
 COMP.    FENIX & SCISSON:   COMPANY
 WELL.   FENIX "A" #52-28:   WELL
 FLD .        TEAPOT DOME:   FIELD
 LOC .      S28 T39N R78W:   LOCATION
 CNTY.            NATRONA:   COUNTY
 STAT.            WYOMING:   STATE
 CTRY. UNITED STATES OF AMERICA:   COUNTRY
 SRVC.           BIRDWELL:   SERVICE COMPANY
 DATE.        14-AUG-1977:   LOGDATE
 API .     49025104130000:   API NUMBER
~CURVE INFORMATION
#MNEM.UNIT       API CODE    CURVE DESCRIPTION
#----------   ------------   ------------------------------
 DEPT.F                  :   
 SPR .MV     05 010 01 00:   SPONTANEOUS POTENTIAL FROM RES.
 SN  .OHMM   05 040 16 00:   SHORT NORMAL 16"
 ILD .OHMM   05 120 46 00:   INDUCTION LOG DEEP
 GRD .GAPI   45 310 01 00:   GAMMA RAY FROM DENSITY LOG
 CALD.IN     45 280 60 00:   CALIPER FROM DENSITY LOG
 RHOB.G/C3   45 350 01 00:   BULK DENSITY
 CORR.G/C3   45 356 01 00:   DENSITY CORRECTION
~PARAMETER INFORMATION
#MNEM.UNIT          VALUE    DESCRIPTION
#----------   ------------   ------------------------------
 EKB .F         5026.0000:   Kelly bushing
 EGL .F         5016.0000:   Ground level
 EDF .F            0.0000:   Drilling floor
 TD  .F         3000.0000:   Total depth
 DATE.        14-AUG-1977:   Date logged
 CLNT.            A2DTECH:   Client Code
 SL  . 990' FNL & 2310' FEL:   Surface Location
 PD  .                 GL:   Permanent Datum
 EPD .F              5016:   Elevation Permanent Datum
 LMF .                 KB:   Log Measured From
 DMF .                 KB:   Drilling Measured From
 DAPD.F                10:   Feet Above Permanent Datum
 DD  .F              3000:   Depth driller
 DL  .F              3000:   Depth logger
 BLI .F              2994:   Bottom log interval
 TLI .F               214:   Top log interval
 CS1 .IN            8.625:   Casing size
 CBD1.      8.625" @ 214':   Casing driller 1
 CBL1.F               212:   Casing logger 1
 BS1 .IN            7.875:   Bit size
 BSD1.F              3000:   Depth drilled with bit1
 DFT .                KCL:   Type fluid in hole
 DFD .                8.8:   Density
 DFV .                 30:   Viscosity
 DFPH.               10.5:   pH
 DFL .               10.4:   Fluid loss
 MSS .           FLOWLINE:   Source of sample
 RMS .OHMM           0.13:   Rm
 MST .F                82:   Rm Meas. temp.
 RMF .OHMM           0.12:   Rmf
 MFST.F                72:   Rmf Meas. temp.
 RMC .OHMM           0.16:   Rmc
 MCST.F                72:   Rmc Meas. temp.
 MFSS.               MEAS:   Source Rmf.
 MCSS.               MEAS:   Source Rmc.
 TCS .HRS               4:   Time Circ. stopped
 LUN .               2958:   Logging unit number
 LUL .             CASPER:   Logging unit location
 ENGI.                LAW:   Recorded By
 WITN.         PETTINGILL:   Witnessed by
 ORIG.           5" PRINT:   Origin of data
 UWI .     49025104130000:   Unique Well ID
 DICO. A2D TECHNOLOGIES, INC.:   Digitizing Company
~OTHER INFORMATION
~A   DEPT      SPR         SN        ILD         GRD      CALD       RHOB       CORR   
# ...
 2965.5000   -74.8410     4.0180     4.1360   129.3500     8.5970     2.5110     0.0370
 2966.0000   -74.5180     4.0220     4.1520   131.6910     8.5720     2.5120     0.0360
 2966.5000   -74.6710     4.0260     4.1970   133.2680     8.5510     2.5120     0.0360
 2967.0000   -74.8250     4.0330     4.2420   126.3040     8.5290     2.5130     0.0350
 2967.5000   -74.7460     4.0390     4.2870   130.4410     8.5070     2.5150     0.0350
 2968.0000   -74.4470     4.0450     4.3320   130.1940     8.4860     2.5170     0.0340
 2968.5000   -73.5310     4.0520     4.3770   128.8640     8.4640     2.5140     0.0300
 2969.0000   -72.0440     4.0580     4.4480   129.6660     8.4450     2.5110     0.0260
 2969.5000   -70.1130     4.0760     4.4230   132.1510     8.4300     2.5070     0.0220
 2970.0000   -69.5960     4.1440     4.3630   131.4060     8.4160     2.5050     0.0270
 2970.5000   -69.5840     4.2120     4.3020   128.5750     8.4010     2.5070     0.0330
 2971.0000   -69.5810     4.2580     4.2410   129.0850     8.3870     2.5220     0.0390
 2971.5000   -69.4090     4.2760     4.1810   127.5030     8.3720     2.5230     0.0360
 2972.0000   -68.5690     4.2940     4.0990   129.0830     8.3570     2.5180     0.0310
 2972.5000   -67.6390     4.3120     4.1170   126.0550     8.3540     2.5130     0.0340
 2973.0000   -66.6500     4.3280     4.1440   122.4360     8.3560     2.5130     0.0400
 2973.5000   -65.6740     4.3280     4.1710   124.2090     8.3590     2.5160     0.0450
 2974.0000   -65.5220     4.3280     4.2270   129.0010     8.3610     2.5080     0.0400
 2974.5000   -65.9680     4.3500     4.2870   131.4990     8.3630     2.5050     0.0410
 2975.0000   -65.8470     4.3820     4.3470   134.0780     8.3660     2.5150     0.0440
 2975.5000   -65.4840     4.4140     4.4070   131.7980     8.3680     2.5270     0.0480
 2976.0000   -64.3400     4.4480     4.4480   127.5010     8.3710     2.5350     0.0510
 2976.5000   -63.6880     4.4140     4.3770   120.8480     8.3770     2.5510     0.0500
 2977.0000   -63.4580     4.3770     4.3230   115.8660     8.3960     2.5360     0.0380
 2977.5000   -62.9240     4.3390     4.2690   112.9850     8.4080     2.5310     0.0390
 2978.0000   -61.9790     4.3020     4.2140   113.8570     8.3870     2.5300     0.0410
 2978.5000   -60.4480     4.2650     4.1600   116.0760     8.3650     2.5290     0.0440
 2979.0000   -60.2160     4.2270     4.1140   122.1600     8.3440     2.5340     0.0500
 2979.5000   -59.9810     4.1740     4.0620   125.1200     8.3220     2.5400     0.0490
 2980.0000   -59.7220     4.1880     4.2100   121.6780     8.3170     2.5330     0.0380
 2980.5000   -59.0810     4.2120     4.3360   117.8450     8.3230     2.5170     0.0330
 2981.0000   -58.4470     4.3020     4.4630   119.9230     8.3290     2.5090     0.0290
 2981.5000   -57.5010     4.3930     4.5900   122.5400     8.3350     2.5060     0.0250
 2982.0000   -57.0330     4.4840     4.7160   123.0380     8.3410     2.5030     0.0220
 2982.5000   -58.0450     4.5750     4.8430   123.5840     8.3480     2.5040     0.0230
 2983.0000   -58.1550     4.6650     5.0060   126.3500     8.3520     2.5070     0.0320
 2983.5000   -58.4150     4.7560     5.2210   126.9400     8.3500     2.5220     0.0370
 2984.0000   -58.2390     4.8470     5.4000   119.9070     8.3470     2.5330     0.0370
 2984.5000   -57.7850     4.9150     5.4720   113.2910     8.3450     2.5300     0.0360
 2985.0000   -57.6880     4.9040     5.4040   112.1190     8.3430     2.5250     0.0360
 2985.5000   -58.5960     4.8870     5.3140   112.3240     8.3410     2.5240     0.0370
 2986.0000   -59.1210     4.8710     5.2230   112.2510     8.3390     2.5230     0.0370
 2986.5000   -58.5610     4.8240     5.1330   109.3690     8.3360     2.5220     0.0380
 2987.0000   -58.7860     4.7810     5.0420   110.5410     8.3340     2.5180     0.0390
 2987.5000   -58.9320     4.7380     4.9520   111.7590     8.3320     2.5210     0.0450
 2988.0000   -57.6760     4.6940     4.8630   109.1960     8.3300     2.5230     0.0480
 2988.5000   -56.7870     4.6510     4.7850   108.0760     8.3290     2.5240     0.0470
 2989.0000   -57.2520     4.6130     4.7070   111.0570     8.3270     2.5240     0.0440
 2989.5000   -58.5180     4.6130     4.6550   112.9890     8.3250     2.5190     0.0460
 2990.0000   -59.0780     4.6170     4.7050   110.4500     8.3230     2.5240     0.0470
 2990.5000   -58.5910     4.6460     4.7420   111.8550     8.3220     2.5240     0.0470
 2991.0000   -58.4060     4.6760     4.7800   113.0760     8.3200     2.5230     0.0440
 2991.5000   -59.6990     4.7060     4.8170   111.1750     8.3180     2.5220     0.0400
 2992.0000   -61.0770     4.7350     4.8550   105.2500     8.3160     2.5200     0.0370
 2992.5000   -61.0500     4.7650     4.8850  -999.2500     8.3150     2.5170     0.0370
 2993.0000   -59.6480     4.7830     4.9080  -999.2500     8.3130     2.5140     0.0380
 2993.5000   -58.5970     4.7830     4.9320  -999.2500     8.3100     2.5130     0.0390
 2994.0000   -56.9670     4.7830     4.9560  -999.2500     8.3080     2.5190     0.0430
 2994.5000   -61.1180  -999.2500  -999.2500  -999.2500     8.3050     2.5190     0.0460
 2995.0000  -999.2500  -999.2500  -999.2500  -999.2500     8.3020     2.5190     0.0390
 2995.5000  -999.2500  -999.2500  -999.2500  -999.2500     8.3000     2.5100     0.0370
 2996.0000  -999.2500  -999.2500  -999.2500  -999.2500     8.2970     2.5000     0.0450
 2996.5000  -999.2500  -999.2500  -999.2500  -999.2500     8.2920     2.4930     0.0480
 2997.0000  -999.2500  -999.2500  -999.2500  -999.2500     8.3060     2.4880     0.0470
 2997.5000  -999.2500  -999.2500  -999.2500  -999.2500     8.6120     2.4860     0.0510
 2998.0000  -999.2500  -999.2500  -999.2500  -999.2500     8.5890     2.5030     0.0570
 2998.5000  -999.2500  -999.2500  -999.2500  -999.2500     8.5710     2.5100     0.0590
