~VERSION INFORMATION
 VERS.                2.0:   CWLS LOG ASCII STANDARD - VERSION 2.0
 WRAP.                 NO:   ONE LINE PER DEPTH STEP
~WELL INFORMATION
#MNEM.UNIT      DATA TYPE    INFORMATION
#----------   ------------   ------------------------------
 STRT.F          450.5000:   START DEPTH
 STOP.F         3173.5000:   STOP DEPTH
 STEP.F            0.5000:   STEP LENGTH
 NULL.          -999.2500:   NO VALUE
 COMP.    FENIX & SCISSON:   COMPANY
 WELL. FENIX & SCISSONNPR #72-TX-33:   WELL
 FLD .              N.P.R:   FIELD
 LOC .      S33 T39N R78W:   LOCATION
 CNTY.            NATRONA:   COUNTY
 STAT.            WYOMING:   STATE
 CTRY. UNITED STATES OF AMERICA:   COUNTRY
 SRVC.       SCHLUMBERGER:   SERVICE COMPANY
 DATE.        03-SEP-1981:   LOGDATE
 API .     49025108810000:   API NUMBER
~CURVE INFORMATION
#MNEM.UNIT       API CODE    CURVE DESCRIPTION
#----------   ------------   ------------------------------
 DEPT.F                  :   
 CALD.IN     45 280 60 00:   CALIPER FROM DENSITY LOG
 GRD .GAPI   45 310 01 00:   GAMMA RAY FROM DENSITY LOG
 DPHI.DEC    45 890 03 00:   
 RHOB.G/C3   45 350 01 00:   BULK DENSITY
 CORR.G/C3   45 356 01 00:   DENSITY CORRECTION
 SPR .MV     07 010 01 00:   SPONTANEOUS POTENTIAL
 SFL .OHMM   07 220 01 00:   SHALLOW FOCUSED LOG RESISTIVITY
 ILD .OHMM   07 120 46 00:   DEEP INDUCTION RESISTIVITY
 ILM .OHMM   07 120 44 00:   INDUCTION LOG MEDIUM RESISTIVITY
 TENR.LBS    07 635 01 00:   TENSION FROM RESISTIVITY
~PARAMETER INFORMATION
#MNEM.UNIT          VALUE    DESCRIPTION
#----------   ------------   ------------------------------
 EKB .F         5115.0000:   Kelly bushing
 EGL .F         5105.0000:   Ground level
 EDF .F            0.0000:   Drilling floor
 TD  .F         3162.0000:   Total depth
 DATE.        03-SEP-1981:   Date logged
 CLNT.            A2DTECH:   Client Code
 CTRY.                USA:   Country
 SL  . 808' FNL & 954' FEL:   Surface Location
 PD  .                 GL:   Permanent Datum
 EPD .F              5105:   Elevation Permanent Datum
 LMF .                 KB:   Log Measured From
 DMF .                 KB:   Drilling Measured From
 DAPD.F                10:   Feet Above Permanent Datum
 DD  .F              3162:   Depth driller
 DL  .F              3162:   Depth logger
 BLI .F              3158:   Bottom log interval
 TLI .F              1612:   Top log interval
 CS1 .IN            9.625:   Casing size
 CBD1.      9.625" @ 480':   Casing driller 1
 BS1 .IN            7.875:   Bit size
 BSD1.F              3162:   Depth drilled with bit1
 DFT .              WATER:   Type fluid in hole
 MSS .               TANK:   Source of sample
 RMS .OHMM            6.3:   Rm
 MST .F                73:   Rm Meas. temp.
 RMF .OHMM            6.3:   Rmf
 MFST.F                73:   Rmf Meas. temp.
 TCS .HRS            2200:   Time Circ. stopped
 TLAB.HRS            0300:   Time logger at bottom
 MRT .F               100:   Maximum recorded temp.
 LUN .               8039:   Logging unit number
 LUL .               CSPR:   Logging unit location
 ENGI.           C. PEARR:   Recorded By
 WITN.           R. SCOTT:   Witnessed by
 ORIG.         2.5" PRINT:   Origin of data
 UWI .     49025108810000:   Unique Well ID
 DICO. A2D TECHNOLOGIES, INC.:   Digitizing Company
~OTHER INFORMATION
~A   DEPT     CALD         GRD      DPHI       RHOB       CORR        SPR        SFL        ILD        ILM       TENR   
# ...
 1556.0000     9.0194   127.8890    -0.0034     2.6723     0.2531  -999.2500  -999.2500  -999.2500  -999.2500  -999.2500
 1556.5000     9.0195   127.8910     0.0233     2.6449     0.2531  -999.2500  -999.2500  -999.2500  -999.2500  -999.2500
 1557.0000     9.0195   127.3135     0.0514     2.5216     0.2512  -999.2500  -999.2500  -999.2500  -999.2500  -999.2500
 1557.5000     8.9809   124.4133     0.1321     2.4531     0.1337  -999.2500  -999.2500  -999.2500  -999.2500  -999.2500
 1558.0000     9.0196   120.3530     0.0906     2.4531     0.0574  -999.2500  -999.2500  -999.2500  -999.2500  -999.2500
 1558.5000     8.8649   119.1939     0.0640     2.5646     0.1180  -999.2500  -999.2500  -999.2500  -999.2500  -999.2500
 1559.0000     8.8650   118.6162     0.0468     2.5960     0.1396  -999.2500  -999.2500  -999.2500  -999.2500  -999.2500
 1559.5000     8.9424   118.6180     0.0554     2.5999     0.1279  -999.2500  -999.2500  -999.2500  -999.2500  -999.2500
 1560.0000     8.9424   117.4597     0.0820     2.5490     0.0887  -999.2500  -999.2500  -999.2500  -999.2500  -999.2500
 1560.5000     8.8651   117.4615     0.0781     2.5392     0.0359  -999.2500  -999.2500  -999.2500  -999.2500  -999.2500
 1561.0000     8.8652   119.2058     0.0843     2.5392     0.0320  -999.2500  -999.2500  -999.2500  -999.2500  -999.2500
 1561.5000     8.8652   120.3687     0.0820     2.5412     0.0241  -999.2500  -999.2500  -999.2500  -999.2500  -999.2500
 1562.0000     8.9427   120.3714     0.0765     2.5509     0.0496  -999.2500  -999.2500  -999.2500  -999.2500  -999.2500
 1562.5000     8.9427   120.3733     0.0749     2.5549     0.0437  -999.2500  -999.2500  -999.2500  -999.2500  -999.2500
 1563.0000     9.0202   118.6344     0.0788     2.5392     0.0242  -999.2500  -999.2500  -999.2500  -999.2500  -999.2500
 1563.5000     9.0977   118.6371     0.0843     2.5275     0.0183  -999.2500  -999.2500  -999.2500  -999.2500  -999.2500
 1564.0000     9.0977   120.9612     0.0969     2.5196     0.0124  -999.2500  -999.2500  -999.2500  -999.2500  -999.2500
 1564.5000     9.0204   123.2864     0.0937     2.5216     0.0163  -999.2500  -999.2500  -999.2500  -999.2500  -999.2500
 1565.0000     8.9430   123.2883     0.0875     2.5333     0.0203  -999.2500  -999.2500  -999.2500  -999.2500  -999.2500
 1565.5000     8.9431   121.5492     0.0851     2.5372     0.0222  -999.2500  -999.2500  -999.2500  -999.2500  -999.2500
 1566.0000     8.9431   120.3898     0.0798     2.5490     0.0555  -999.2500  -999.2500  -999.2500  -999.2500  -999.2500
 1566.5000     8.8658   119.2313     0.0744     2.5607     0.0692  -999.2500  -999.2500  -999.2500  -999.2500  -999.2500
 1567.0000     8.8658   118.0719     0.0687     2.5627     0.0828  -999.2500  -999.2500  -999.2500  -999.2500  -999.2500
 1567.5000     8.8955   115.1713     0.0726     2.5510     0.0692  -999.2500  -999.2500  -999.2500  -999.2500  -999.2500
 1568.0000     8.9434   115.1730     0.0859     2.5451     0.0301  -999.2500  -999.2500  -999.2500  -999.2500  -999.2500
 1568.5000     8.8273   118.0791     0.0929     2.5235     0.0203  -999.2500  -999.2500  -999.2500  -999.2500  -999.2500
 1569.0000     8.8273   120.9844     0.0870     2.5392     0.0183  -999.2500  -999.2500  -999.2500  -999.2500  -999.2500
 1569.5000     8.8274   126.2135     0.0702     2.5549     0.0281  -999.2500  -999.2500  -999.2500  -999.2500  -999.2500
 1570.0000     8.8274   129.6998     0.0694     2.5705     0.0379  -999.2500  -999.2500  -999.2500  -999.2500  -999.2500
 1570.5000     8.8275   129.7028     0.0679     2.5725     0.0419  -999.2500  -999.2500  -999.2500  -999.2500  -999.2500
 1571.0000     8.8275   129.1240     0.0616     2.5745     0.0419  -999.2500  -999.2500  -999.2500  -999.2500  -999.2500
 1571.5000     8.8276   129.1270     0.0671     2.5686     0.0360  -999.2500  -999.2500  -999.2500  -999.2500  -999.2500
 1572.0000     8.9051   128.5482     0.0718     2.5608     0.0360  -999.2500  -999.2500  -999.2500  -999.2500  -999.2500
 1572.5000     8.8277   126.2281     0.0718     2.5686     0.0282  -999.2500  -999.2500  -999.2500  -999.2500  -999.2500
 1573.0000     8.8665   124.4876     0.0655     2.5803     0.0380  -999.2500  -999.2500  -999.2500  -999.2500  -999.2500
 1573.5000     8.8333   125.6521     0.0561     2.5843     0.0419  -999.2500  -999.2500  -999.2500  -999.2500  -999.2500
 1574.0000     8.8666   127.3964     0.0569     2.5823     0.0419  -999.2500  -999.2500  -999.2500  -999.2500  -999.2500
 1574.5000     8.8279   129.7227     0.0577     2.5804     0.0341  -999.2500  -999.2500  -999.2500  -999.2500  -999.2500
 1575.0000     8.8667   130.3065     0.0593     2.5862     0.0282  -999.2500  -999.2500  -999.2500  -999.2500  -999.2500
 1575.5000     8.8668   130.3084     0.0514     2.5921     0.0282  -999.2500  -999.2500  -999.2500  -999.2500  -999.2500
 1576.0000     8.8668   129.1497     0.0538     2.5902     0.0282  -999.2500  -999.2500  -999.2500  -999.2500  -999.2500
 1576.5000     8.8669   127.9900     0.0624     2.5784     0.0263  -999.2500  -999.2500  -999.2500  -999.2500  -999.2500
 1577.0000     8.8669   127.9929     0.0679     2.5725     0.0243  -999.2500  -999.2500  -999.2500  -999.2500  -999.2500
 1577.5000     8.8670   127.9949     0.0741     2.5608     0.0184  -999.2500  -999.2500  -999.2500  -999.2500  -999.2500
 1578.0000     8.8670   127.9978     0.0773     2.5549     0.0184  -999.2500  -999.2500  -999.2500  -999.2500  -999.2500
 1578.5000     8.8671   127.9998     0.0726     2.5608     0.0145  -999.2500  -999.2500  -999.2500  -999.2500  -999.2500
 1579.0000     8.8671   130.3264     0.0679     2.5667     0.0263  -999.2500  -999.2500  -999.2500  -999.2500  -999.2500
 1579.5000     8.9812   133.2331     0.0616     2.5745     0.0361  -999.2500  -999.2500  -999.2500  -999.2500  -999.2500
 1580.0000     8.9447   133.2362     0.0577     2.5980     0.0380  -999.2500  -999.2500  -999.2500  -999.2500  -999.2500
 1580.5000     8.9448   131.4953     0.0616     2.5706     0.0263  -999.2500  -999.2500  -999.2500  -999.2500  -999.2500
 1581.0000     8.8674   128.0126     0.0694     2.5588     0.0243  -999.2500  -999.2500  -999.2500  -999.2500  -999.2500
 1581.5000     8.8674   126.8526     0.0780     2.5490     0.0200  -999.2500  -999.2500  -999.2500  -999.2500  -999.2500
 1582.0000     8.8675   126.8555     0.0780     2.5529     0.0185  -999.2500  -999.2500  -999.2500  -999.2500  -999.2500
 1582.5000     8.8675   127.4384     0.0733     2.5529     0.0165  -999.2500  -999.2500  -999.2500  -999.2500  -999.2500
 1583.0000     8.8676   128.0224     0.0733     2.5529     0.0126  -999.2500  -999.2500  -999.2500  -999.2500  -999.2500
 1583.5000     8.9451   128.0243     0.0796     2.5431     0.0048  -999.2500  -999.2500  -999.2500  -999.2500  -999.2500
 1584.0000     8.9452   125.1221     0.0843     2.5373     0.0028  -999.2500  -999.2500  -999.2500  -999.2500  -999.2500
 1584.5000     8.8677   123.9620     0.0882     2.5334     0.0028  -999.2500  -999.2500  -999.2500  -999.2500  -999.2500
 1585.0000     8.8678   123.3837     0.0882     2.5373     0.0028  -999.2500  -999.2500  -999.2500  -999.2500  -999.2500
 1585.5000     8.8679   124.5487     0.0843     2.5490     0.0068  -999.2500  -999.2500  -999.2500  -999.2500  -999.2500
 1586.0000     8.8679   125.7128     0.0749     2.5549     0.0165  -999.2500  -999.2500  -999.2500  -999.2500  -999.2500
 1586.5000     8.8680   126.2967     0.0718     2.5569     0.0283  -999.2500  -999.2500  -999.2500  -999.2500  -999.2500
 1587.0000     8.8680   126.8798     0.0749     2.5510     0.0342  -999.2500  -999.2500  -999.2500  -999.2500  -999.2500
 1587.5000     8.8681   126.8827     0.0757     2.5549     0.0420  -999.2500  -999.2500  -999.2500  -999.2500  -999.2500
 1588.0000     8.8681   126.8847     0.0765     2.5490     0.0440  -999.2500  -999.2500  -999.2500  -999.2500  -999.2500
 1588.5000     8.8682   126.8876     0.0812     2.5392     0.0460  -999.2500  -999.2500  -999.2500  -999.2500  -999.2500
 1589.0000     8.8683   126.3084     0.0875     2.5471     0.0284  -999.2500  -999.2500  -999.2500  -999.2500  -999.2500
