~VERSION INFORMATION
 VERS.                2.0:   CWLS LOG ASCII STANDARD - VERSION 2.0
 WRAP.                 NO:   ONE LINE PER DEPTH STEP
~WELL INFORMATION
#MNEM.UNIT      DATA TYPE    INFORMATION
#----------   ------------   ------------------------------
 STRT.F            0.5000:   START DEPTH
 STOP.F         5758.0000:   STOP DEPTH
 STEP.F            0.5000:   STEP LENGTH
 NULL.          -999.2500:   NO VALUE
 COMP.   LAWRENCE ALLISON:   COMPANY
 WELL. LAWRENCE "X" #51-10:   WELL
 FLD .          NPR NO. 3:   FIELD
 LOC .      S10 T38N R78W:   LOCATION
 CNTY.            NATRONA:   COUNTY
 STAT.            WYOMING:   STATE
 CTRY. UNITED STATES OF AMERICA:   COUNTRY
 SRVC.      DRESSER ATLAS:   SERVICE COMPANY
 DATE.        31-JAN-1987:   LOGDATE
 API .     49025111230000:   API NUMBER
~CURVE INFORMATION
#MNEM.UNIT       API CODE    CURVE DESCRIPTION
#----------   ------------   ------------------------------
 DEPT.F                  :   
 GRR .GAPI   07 310 01 00:   GAMMA RAY FROM RESISTIVITY
 TENR.LBS    07 635 01 00:   TENSION FROM RESISTIVITY
 SPR .MV     07 010 01 00:   SPONTANEOUS POTENTIAL
 RD  .OHMM   11 220 10 00:   RESISTIVITY DEEP
 RS  .OHMM   11 220 09 00:   RESISTIVITY SHALLOW
 CNC .DEC    42 890 03 00:   NEUTRON POROSITY
 CALD.IN     45 280 60 00:   CALIPER FROM DENSITY LOG
 DEN .G/C3   45 350 01 00:   BULK DENSITY
 CORR.G/C3   45 356 01 00:   DENSITY CORRECTION
 TEND.LBS    45 635 01 00:   TENSION FORM DENSITY LOG
~PARAMETER INFORMATION
#MNEM.UNIT          VALUE    DESCRIPTION
#----------   ------------   ------------------------------
 EKB .F         5227.0000:   Kelly bushing
 EGL .F         5215.0000:   Ground level
 EDF .F            0.0000:   Drilling floor
 TD  .F         5750.0000:   Total depth
 CLNT.            A2DTECH:   Client Code
 SL  . 2356' FEL & 170' FNL:   Surface Location
 PD  .                 GL:   Permanent Datum
 EPD .F              5215:   Elevation Permanent Datum
 LMF .                 KB:   Log Measured From
 DMF .                 KB:   Drilling Measured From
 DAPD.F                12:   Feet Above Permanent Datum
 DATE.        31-JAN-1987:   Date Logged [DD-MMM-YYYY]
 DD  .F              5747:   Depth driller
 DL  .F              5750:   Depth logger
 BLI .F              5748:   Bottom log interval
 CS1 .IN            9.625:   Casing size
 CBD1.      9.625" @ 511':   Casing driller 1
 CBL1.F               512:   Casing logger 1
 BS1 .IN             8.75:   Bit size
 BSD1.F              5747:   Depth drilled with bit1
 DFT .        KCL POLYMER:   Type fluid in hole
 DFD .                9.3:   Density
 DFV .                 43:   Viscosity
 DFPH.                9.5:   pH
 MSS .           FLOWLINE:   Source of sample
 RMS .OHMM          0.247:   Rm
 MST .F                74:   Rm Meas. temp.
 RMF .OHMM          0.162:   Rmf
 MFST.F                74:   Rmf Meas. temp.
 MFSS.               MEAS:   Source Rmf.
 RMC .OHMM          0.310:   Rmc
 MCST.F                74:   Rmc Meas. temp.
 MCSS.               CALC:   Source Rmc.
 RMB .OHMM          0.109:   Rm. at BHT
 BHT .F               167:   BHT.
 TCS .HRS               5:   Time Circ. stopped
 MRT .F               167:   Maximum recorded temp.
 LUN .            HL-6274:   Logging unit number
 LUL .           GILLETTE:   Logging unit location
 ORIG.        2" 5" PRINT:   Origin of data
 UWI .     49025111230000:   Unique Well ID
 DICO. A2D TECHNOLOGIES, INC.:   Digitizing Company
 ENGI.             RAUTIO:   Recorded By
 WITN.             STRONG:   Witnessed by
 DFL .                7.8:   Fluid loss
~OTHER INFORMATION
~A  DEPTH      GRR       TENR        SPR         RD         RS        CNC       CALD        DEN       CORR       TEND
# ...
 2278.5000   124.3690   -80.9356   -71.2735     6.0340     6.5615  -999.2500  -999.2500  -999.2500  -999.2500  -999.2500
 2279.0000   119.7546   -80.8676   -70.9521     7.3155     8.4891  -999.2500  -999.2500  -999.2500  -999.2500  -999.2500
 2279.5000   116.0690   -80.7997   -70.3241     9.5279    10.7499  -999.2500  -999.2500  -999.2500  -999.2500  -999.2500
 2280.0000   114.5506   -80.7318   -71.0834    10.7929    11.6312  -999.2500  -999.2500  -999.2500  -999.2500  -999.2500
 2280.5000   114.5875   -80.6638   -71.2264    11.4090    11.3051  -999.2500  -999.2500  -999.2500  -999.2500  -999.2500
 2281.0000   114.6171   -80.5959   -71.2117    10.5026    10.4514  -999.2500  -999.2500  -999.2500  -999.2500  -999.2500
 2281.5000   117.1234   -80.5280   -71.2000     8.8988     9.0598  -999.2500  -999.2500  -999.2500  -999.2500  -999.2500
 2282.0000   130.1561   -80.4600   -71.0334     8.0793     7.9667  -999.2500  -999.2500  -999.2500  -999.2500  -999.2500
 2282.5000   141.3768   -80.3921   -71.0191     7.8063     7.3653  -999.2500  -999.2500  -999.2500  -999.2500  -999.2500
 2283.0000   142.5991   -80.3242   -71.3165     7.4389     7.0569  -999.2500  -999.2500  -999.2500  -999.2500  -999.2500
 2283.5000   138.6113   -80.2562   -71.6173     7.2347     6.9574  -999.2500  -999.2500  -999.2500  -999.2500  -999.2500
 2284.0000   138.0143   -80.1883   -71.7603     6.9932     6.9090  -999.2500  -999.2500  -999.2500  -999.2500  -999.2500
 2284.5000   140.5280   -80.1204   -71.7456     6.0492     6.2220  -999.2500  -999.2500  -999.2500  -999.2500  -999.2500
 2285.0000   139.6287   -80.0524   -71.7286     4.7498     4.6306  -999.2500  -999.2500  -999.2500  -999.2500  -999.2500
 2285.5000   136.9877   -79.9845   -71.4095     4.4333     3.8455  -999.2500  -999.2500  -999.2500  -999.2500  -999.2500
 2286.0000   128.8593   -79.9165   -71.0882     4.2159     3.4058  -999.2500  -999.2500  -999.2500  -999.2500  -999.2500
 2286.5000   123.6257   -79.8486   -70.9216     3.9983     3.5051  -999.2500  -999.2500  -999.2500  -999.2500  -999.2500
 2287.0000   121.4807   -79.7807   -71.2194     3.9170     3.8538  -999.2500  -999.2500  -999.2500  -999.2500  -999.2500
 2287.5000   122.4464   -79.7127   -71.5173     4.1693     4.0742  -999.2500  -999.2500  -999.2500  -999.2500  -999.2500
 2288.0000   121.5151   -79.6448   -71.6603     4.3785     4.1631  -999.2500  -999.2500  -999.2500  -999.2500  -999.2500
 2288.5000   117.8690   -79.5769   -71.8033     4.5952     4.2237  -999.2500  -999.2500  -999.2500  -999.2500  -999.2500
 2289.0000   112.9450   -79.5089   -71.9434     4.7250     4.2851  -999.2500  -999.2500  -999.2500  -999.2500  -999.2500
 2289.5000   106.4730   -79.4410   -72.0867     4.8584     4.3476  -999.2500  -999.2500  -999.2500  -999.2500  -999.2500
 2290.0000    99.3818   -79.3731   -72.5594     4.9957     4.3794  -999.2500  -999.2500  -999.2500  -999.2500  -999.2500
 2290.5000   101.6676   -79.3051   -72.9888     5.0314     4.4114  -999.2500  -999.2500  -999.2500  -999.2500  -999.2500
 2291.0000   107.8074   -79.2372   -73.1318     5.0673     4.4120  -999.2500  -999.2500  -999.2500  -999.2500  -999.2500
 2291.5000   111.2425   -79.1693   -73.2778     5.1391     4.3799  -999.2500  -999.2500  -999.2500  -999.2500  -999.2500
 2292.0000   113.4393   -79.1013   -73.2631     5.1401     4.2887  -999.2500  -999.2500  -999.2500  -999.2500  -999.2500
 2292.5000   112.8497   -79.0334   -73.2484     5.0705     4.1685  -999.2500  -999.2500  -999.2500  -999.2500  -999.2500
 2293.0000   109.7814   -78.9654   -72.6174     5.0717     4.0515  -999.2500  -999.2500  -999.2500  -999.2500  -999.2500
 2293.5000   109.1936   -78.8975   -72.2960     5.0727     3.9378  -999.2500  -999.2500  -999.2500  -999.2500  -999.2500
 2294.0000   111.7073   -78.8296   -72.2843     5.1444     4.0013  -999.2500  -999.2500  -999.2500  -999.2500  -999.2500
 2294.5000   111.4273   -78.7616   -72.4273     5.2170     4.2920  -999.2500  -999.2500  -999.2500  -999.2500  -999.2500
 2295.0000   111.7664   -78.6937   -72.5704     5.3727     4.4171  -999.2500  -999.2500  -999.2500  -999.2500  -999.2500
 2295.5000   113.0344   -78.6258   -73.0200     5.5545     4.5135  -999.2500  -999.2500  -999.2500  -999.2500  -999.2500
 2296.0000   111.7810   -78.5578   -73.0083     5.6720     4.5465  -999.2500  -999.2500  -999.2500  -999.2500  -999.2500
 2296.5000   108.7665   -78.4899   -72.9965     5.7920     4.4190  -999.2500  -999.2500  -999.2500  -999.2500  -999.2500
 2297.0000   106.9311   -78.4220   -72.9845     5.7532     4.3258  -999.2500  -999.2500  -999.2500  -999.2500  -999.2500
 2297.5000   106.3414   -78.3540   -73.1248     5.3332     4.1745  -999.2500  -999.2500  -999.2500  -999.2500  -999.2500
 2298.0000   106.9976   -78.2861   -73.1131     4.9436     3.9429  -999.2500  -999.2500  -999.2500  -999.2500  -999.2500
 2298.5000   107.0576   -78.2181   -73.4109     4.6784     3.8042  -999.2500  -999.2500  -999.2500  -999.2500  -999.2500
 2299.0000   108.6121   -78.1502   -73.3991     4.5559     3.6457  -999.2500  -999.2500  -999.2500  -999.2500  -999.2500
 2299.5000   111.4280   -78.0823   -73.3870     4.4844     3.4931  -999.2500  -999.2500  -999.2500  -999.2500  -999.2500
 2300.0000   109.2904   -78.0143   -73.2179     4.3687     3.3230  -999.2500  -999.2500  -999.2500  -999.2500  -999.2500
 2300.5000   104.6760   -77.9464   -72.8965     4.3698     3.3235  -999.2500  -999.2500  -999.2500  -999.2500  -999.2500
 2301.0000   100.3706   -77.8785   -72.7710     4.3106     3.3478  -999.2500  -999.2500  -999.2500  -999.2500  -999.2500
 2301.5000    99.4614   -77.8105   -72.8666     4.3120     3.3948  -999.2500  -999.2500  -999.2500  -999.2500  -999.2500
 2302.0000   106.3052   -77.7426   -73.1664     4.3732     3.4977  -999.2500  -999.2500  -999.2500  -999.2500  -999.2500
 2302.5000   110.3561   -77.6747   -73.6144     4.3746     3.5745  -999.2500  -999.2500  -999.2500  -999.2500  -999.2500
 2303.0000   113.1752   -77.6067   -73.7561     4.3157     3.5247  -999.2500  -999.2500  -999.2500  -999.2500  -999.2500
 2303.5000   112.2726   -77.5388   -73.8945     4.0563     3.3713  -999.2500  -999.2500  -999.2500  -999.2500  -999.2500
 2304.0000   110.7507   -77.4708   -73.8814     3.6517     3.0568  -999.2500  -999.2500  -999.2500  -999.2500  -999.2500
 2304.5000   110.1577   -77.4029   -73.8683     3.3675     2.6502  -999.2500  -999.2500  -999.2500  -999.2500  -999.2500
 2305.0000   110.4934   -77.3350   -73.5424     3.1871     2.4329  -999.2500  -999.2500  -999.2500  -999.2500  -999.2500
 2305.5000   108.6685   -77.2670   -73.5293     3.1009     2.4162  -999.2500  -999.2500  -999.2500  -999.2500  -999.2500
 2306.0000   105.5987   -77.1991   -73.8258     3.0804     2.6525  -999.2500  -999.2500  -999.2500  -999.2500  -999.2500
 2306.5000   104.0768   -77.1312   -73.8127     3.2342     2.8909  -999.2500  -999.2500  -999.2500  -999.2500  -999.2500
 2307.0000   104.1095   -77.0632   -73.9511     3.5393     3.0839  -999.2500  -999.2500  -999.2500  -999.2500  -999.2500
 2307.5000   104.1356   -76.9953   -74.4024     3.7418     3.1973  -999.2500  -999.2500  -999.2500  -999.2500  -999.2500
 2308.0000   104.1618   -76.9274   -74.5474     3.8212     3.1080  -999.2500  -999.2500  -999.2500  -999.2500  -999.2500
 2308.5000   104.2766   -76.8594   -74.6859     3.8487     3.0428  -999.2500  -999.2500  -999.2500  -999.2500  -999.2500
 2309.0000   107.9358   -76.7915   -74.3599     3.8497     3.0219  -999.2500  -999.2500  -999.2500  -999.2500  -999.2500
 2309.5000   111.6771   -76.7235   -74.3468     3.8799     3.0665  -999.2500  -999.2500  -999.2500  -999.2500  -999.2500
 2310.0000   112.0128   -76.6556   -74.3337     3.9327     3.1563  -999.2500  -999.2500  -999.2500  -999.2500  -999.2500
 2310.5000   114.2127   -76.5877   -74.3204     3.9337     3.1572  -999.2500  -999.2500  -999.2500  -999.2500  -999.2500
 2311.0000   115.7868   -76.5197   -74.3043     3.9621     3.0690  -999.2500  -999.2500  -999.2500  -999.2500  -999.2500
 2311.5000   113.6458   -76.4518   -74.2912     3.9908     2.9834  -999.2500  -999.2500  -999.2500  -999.2500  -999.2500
