~VERSION INFORMATION
 VERS.                2.0:   CWLS LOG ASCII STANDARD - VERSION 2.0
 WRAP.                 NO:   ONE LINE PER DEPTH STEP
~WELL INFORMATION
#MNEM.UNIT      DATA TYPE    INFORMATION
#----------   ------------   ------------------------------
 STRT.F          206.0000:   START DEPTH
 STOP.F         2974.0000:   STOP DEPTH
 STEP.F            0.5000:   STEP LENGTH
 NULL.          -999.2500:   NO VALUE
 COMP.    FENIX & SCISSON:   COMPANY
 WELL.    FENIX AX #32-21:   WELL
 FLD .                NPR:   FIELD
 LOC .      S21 T39N R78W:   LOCATION
 CNTY.            NATRONA:   COUNTY
 STAT.            WYOMING:   STATE
 CTRY. UNITED STATES OF AMERICA:   COUNTRY
 SRVC.              WELEX:   SERVICE COMPANY
 DATE.        29-JUL-1977:   LOGDATE
 API .     49025104050000:   API NUMBER
~CURVE INFORMATION
#MNEM.UNIT       API CODE    CURVE DESCRIPTION
#----------   ------------   ------------------------------
 DEPT.F                  :   
 SPR .MV     07 010 01 00:   SPONTANEOUS POTENTIAL
 RILM.OHMM   07 120 44 00:   INDUCTION LOG MEDIUM RESISTIVITY
 RILD.OHMM   07 120 46 00:   INDUCTION LOG DEEP RESISTIVITY
 SGRD.OHMM   07 220 05 00:   SHALLOW GUARD LOG RESISTIVITY
 CALD.IN     45 280 60 00:   CALIPER FROM DENSITY LOG
 RHOB.G/C3   45 350 01 00:   BULK DENSITY
 DCOR.G/C3   45 356 01 00:   DENSITY CORRECTION
 GRD .GAPI   45 310 01 00:   GAMMA RAY FROM DENSITY LOG
~PARAMETER INFORMATION
#MNEM.UNIT          VALUE    DESCRIPTION
#----------   ------------   ------------------------------
 EKB .F         4995.0000:   Kelly bushing
 EGL .F         4985.0000:   Ground level
 EDF .F            0.0000:   Drilling floor
 EPD .F         4985.0000:   Permanent datum
 TD  .F         2978.0000:   Total depth
 DATE.        29-JUL-1977:   Date logged
 CLNT.            A2DTECH:   Client Code
 SL  . 1040' FNL & 1500' FWL:   Surface Location
 PD  .                 GL:   Permanent Datum
 LMF .                 KB:   Log Measured From
 DMF .                 KB:   Drilling Measured From
 DAPD.F                10:   Feet Above Permanent Datum
 DD  .F              2972:   Depth driller
 DL  .F              2978:   Depth logger
 BLI .F              2976:   Bottom log interval
 TLI .F               120:   Top log interval
 CS1 .IN            8.625:   Casing size
 CBD1.      8.625" @ 205':   Casing driller 1
 CBL1.F               220:   Casing logger 1
 BS1 .IN            7.875:   Bit size
 BSD1.F              2972:   Depth drilled with bit1
 DFT .                KCL:   Type fluid in hole
 DFD .                9.2:   Density
 DFV .                 43:   Viscosity
 DFPH.                 10:   pH
 DFL .                  8:   Fluid loss
 MSS .            MUD PIT:   Source of sample
 RMS .OHMM            .21:   Rm
 MST .F                91:   Rm Meas. temp.
 RMF .OHMM            .18:   Rmf
 MFST.F                91:   Rmf Meas. temp.
 RMC .OHMM            .23:   Rmc
 MCST.F                91:   Rmc Meas. temp.
 MFSS.               MEAS:   Source Rmf.
 MCSS.               MEAS:   Source Rmc.
 RMB .OHMM            .17:   Rm. at BHT
 BHT .F               110:   BHT.
 TCS .HRS               3:   Time Circ. stopped
 MRT .F               110:   Maximum recorded temp.
 LUN .               9685:   Logging unit number
 LUL .             CASPER:   Logging unit location
 ENGI.   T JOYNER/ E HOCH:   Recorded By
 WITN.         PETTINGILL:   Witnessed by
 ORIG.     2.5", 5" PRINT:   Origin of data
 UWI .     49025104050000:   Unique Well ID
 DICO. A2D TECHNOLOGIES, INC.:   Digitizing Company
~OTHER INFORMATION
~A   DEPT      SPR       RILM       RILD       SGRD       CALD       RHOB       DCOR         GRD  
# ...
 1826.0000   -66.9430     8.4950     8.0320    15.1060     8.3810     2.4880     0.0390   149.3780
 1826.5000   -67.0950     8.4440     8.0830    14.9550     8.3840     2.4840     0.0360   149.5110
 1827.0000   -67.2070     8.3930     8.0950    14.8040     8.3860     2.4810     0.0340   149.7290
 1827.5000   -67.3050     8.3430     8.0960    14.6530     8.3880     2.4790     0.0310   149.8490
 1828.0000   -67.4030     8.2920     8.0960    14.3040     8.3910     2.4810     0.0290   149.8850
 1828.5000   -67.5020     8.2470     8.0960    13.8830     8.3930     2.4770     0.0260   148.6310
 1829.0000   -67.6000     8.2760     8.0960    13.4630     8.3950     2.4820     0.0250   147.3760
 1829.5000   -67.6990     8.3030     8.1330    13.0820     8.3980     2.4870     0.0300   147.4640
 1830.0000   -67.7970     8.3290     8.1750    13.5330     8.4000     2.4860     0.0360   149.7630
 1830.5000   -67.8910     8.3550     8.2170    13.9450     8.4020     2.4790     0.0360   150.8990
 1831.0000   -67.9830     8.3810     8.2590    14.1630     8.4050     2.4750     0.0340   150.7590
 1831.5000   -68.0780     8.4080     8.3000    14.2820     8.4070     2.4770     0.0330   150.8130
 1832.0000   -68.1670     8.4340     8.3430    14.4010     8.4090     2.4770     0.0330   150.8300
 1832.5000   -68.2550     8.4600     8.3980    14.5200     8.4120     2.4790     0.0370   151.3270
 1833.0000   -68.3550     8.4870     8.3800    14.5850     8.4140     2.4760     0.0400   151.5960
 1833.5000   -68.4820     8.5140     8.3450    14.4500     8.4160     2.4710     0.0380   152.1710
 1834.0000   -68.6100     8.5550     8.3110    14.3150     8.4190     2.4650     0.0360   152.6540
 1834.5000   -68.7390     8.5360     8.2760    14.1800     8.4190     2.4650     0.0330   155.9100
 1835.0000   -68.8670     8.4790     8.2420    14.0450     8.4170     2.4700     0.0310   154.8250
 1835.5000   -68.9960     8.4220     8.2080    13.9090     8.4140     2.4650     0.0290   153.6350
 1836.0000   -69.1230     8.3650     8.1740    13.7740     8.4120     2.4610     0.0270   152.5480
 1836.5000   -69.2540     8.3090     8.1400    13.6390     8.4100     2.4560     0.0250   154.5000
 1837.0000   -69.3780     8.2530     8.1050    13.5040     8.4070     2.4590     0.0260   156.2740
 1837.5000   -69.5110     8.1960     8.0610    13.3690     8.4050     2.4670     0.0310   156.8190
 1838.0000   -69.5000     8.1400     8.0120    13.2340     8.4020     2.4740     0.0360   155.3790
 1838.5000   -69.4800     8.0830     7.9630    13.0820     8.4000     2.4800     0.0340   154.1420
 1839.0000   -69.4540     8.0270     7.9140    13.1660     8.3980     2.4810     0.0320   152.8880
 1839.5000   -69.4330     7.9710     7.8650    13.2630     8.3950     2.4790     0.0300   151.6420
 1840.0000   -69.4100     7.9140     7.8160    13.3600     8.3930     2.4720     0.0280   151.2990
 1840.5000   -69.3870     7.8580     7.7680    13.4570     8.3900     2.4740     0.0290   150.8700
 1841.0000   -69.3640     7.8020     7.7200    13.5540     8.3880     2.4780     0.0290   151.2930
 1841.5000   -69.3410     7.8270     7.6630    13.6500     8.3860     2.4810     0.0300   152.2900
 1842.0000   -69.3180     7.8490     7.6750    13.7470     8.3830     2.4830     0.0310   153.2030
 1842.5000   -69.2950     7.8710     7.6920    13.8270     8.3810     2.4860     0.0320   154.1080
 1843.0000   -69.2730     7.8930     7.7090    13.8260     8.3800     2.4870     0.0320   155.0900
 1843.5000   -69.2490     7.9160     7.7260    13.8260     8.3800     2.4900     0.0350   155.6930
 1844.0000   -69.2270     7.9380     7.7440    13.8260     8.3800     2.4970     0.0390   155.0470
 1844.5000   -69.2030     7.9610     7.7620    13.8260     8.3800     2.5040     0.0430   153.9920
 1845.0000   -69.1810     7.9840     7.7800    13.8260     8.3800     2.5090     0.0480   152.9700
 1845.5000   -69.1610     8.0060     7.8000    13.8260     8.3800     2.5060     0.0460   152.0200
 1846.0000   -69.1260     8.0290     7.7790    13.8250     8.3800     2.4970     0.0430   151.1390
 1846.5000   -69.2210     8.0510     7.7440    13.8540     8.3800     2.4890     0.0400   150.3170
 1847.0000   -69.4520     8.0730     7.7080    13.9110     8.3800     2.4800     0.0360   149.2190
 1847.5000   -69.6680     8.0940     7.6740    13.9670     8.3800     2.4820     0.0380   149.9740
 1848.0000   -69.8870     8.0540     7.6390    14.0240     8.3800     2.4850     0.0400   152.6570
 1848.5000   -70.1050     8.0160     7.6040    14.0780     8.3800     2.4920     0.0460   154.1240
 1849.0000   -70.3240     7.9790     7.5690    13.9210     8.3800     2.5040     0.0550   153.9980
 1849.5000   -70.5450     7.9410     7.5340    13.7630     8.3800     2.5160     0.0560   153.8710
 1850.0000   -70.7130     7.9020     7.5010    13.5740     8.3800     2.5120     0.0570   155.3940
 1850.5000   -70.7150     7.8630     7.4670    13.1700     8.3800     2.5070     0.0580   158.0530
 1851.0000   -70.7180     7.8050     7.4270    12.6630     8.3800     2.5040     0.0580   160.5760
 1851.5000   -70.7170     7.8260     7.3820    12.1510     8.3800     2.5040     0.0590   160.8530
 1852.0000   -70.7170     7.8920     7.5190    13.3170     8.3800     2.5030     0.0590   160.3390
 1852.5000   -70.7180     7.9570     7.5930    13.6360     8.3800     2.5010     0.0600   159.8270
 1853.0000   -70.7180     8.0220     7.6560    13.7150     8.3800     2.4960     0.0540   159.3550
 1853.5000   -70.7980     8.0860     7.7180    13.7950     8.3800     2.4910     0.0480   158.8000
 1854.0000   -70.9090     8.1510     7.7810    13.8740     8.3800     2.4850     0.0410   157.9420
 1854.5000   -71.0190     8.2160     7.8430    13.9540     8.3800     2.4800     0.0360   156.9290
 1855.0000   -71.1290     8.2810     7.9050    14.0840     8.3810     2.4780     0.0390   155.9800
 1855.5000   -71.2390     8.3450     7.9680    14.0080     8.3840     2.4820     0.0430   154.9000
 1856.0000   -71.3480     8.4100     8.0300    13.8260     8.3860     2.4850     0.0470   154.8450
 1856.5000   -71.4580     8.4750     8.0930    12.3770     8.3880     2.4880     0.0460   155.4600
 1857.0000   -71.5670     8.5390     8.1550    13.3840     8.3910     2.4930     0.0420   156.1180
 1857.5000   -71.6790     8.5030     8.2460    14.0840     8.3930     2.4870     0.0380   156.7650
 1858.0000   -71.7850     8.4310     8.2180    14.0840     8.3950     2.4740     0.0340   158.0850
 1858.5000   -71.9030     8.3580     8.1650    13.5740     8.3980     2.4720     0.0330   160.6110
 1859.0000   -71.9110     8.2860     8.1110    13.6860     8.4000     2.4860     0.0350   163.2350
 1859.5000   -71.9140     8.2140     8.0580    13.8980     8.4030     2.4820     0.0370   164.4330
 1860.0000   -71.9110     8.1420     8.0050    14.0840     8.4050     2.4840     0.0390   163.3890
 1860.5000   -71.9130     8.0700     7.9470    13.9040     8.4070     2.4870     0.0410   162.6070
 1861.0000   -71.9120     7.9970     7.8880    13.8260     8.4100     2.4850     0.0430   161.6010
 1861.5000   -71.9120     7.9470     7.8230    13.8260     8.4120     2.4810     0.0430   161.6160
 1862.0000   -71.9120     7.9470     7.7570    13.8260     8.4150     2.4810     0.0400   163.0270
 1862.5000   -71.9120     7.9470     7.6590    13.8260     8.4170     2.4810     0.0370   163.3000
 1863.0000   -71.9130     7.9470     7.6690    13.8260     8.4190     2.4810     0.0340   162.2830
 1863.5000   -71.9120     7.9470     7.6920    13.4860     8.4150     2.4770     0.0310   161.3870
 1864.0000   -71.9120     7.9470     7.7140    12.8420     8.4070     2.4750     0.0280   160.4830
 1864.5000   -71.9140     7.9480     7.7360    13.1960     8.4000     2.4710     0.0250   159.5690
 1865.0000   -71.9100     7.9480     7.7590    13.7110     8.3930     2.4680     0.0220   158.5120
 1865.5000   -71.9160     7.9480     7.7810    14.0130     8.3860     2.4600     0.0180   158.5700
 1866.0000   -71.9280     7.9460     7.8020    13.7550     8.3790     2.4500     0.0160   160.5810
