~VERSION INFORMATION
 VERS.                2.0:   CWLS LOG ASCII STANDARD - VERSION 2.0
 WRAP.                 NO:   ONE LINE PER DEPTH STEP
~WELL INFORMATION
#MNEM.UNIT      DATA TYPE    INFORMATION
#----------   ------------   ------------------------------
 STRT.F           31.0000:   START DEPTH
 STOP.F         2926.0000:   STOP DEPTH
 STEP.F            0.5000:   STEP LENGTH
 NULL.          -999.2500:   NO VALUE
 COMP. LAWERNCE ALLISON AND ASSOCIATES:   COMPANY
 WELL.   FENIX "X" #17-21:   WELL
 FLD .             NPR #3:   FIELD
 LOC .      S21 T39N R78W:   LOCATION
 CNTY.            NATRONA:   COUNTY
 STAT.            WYOMING:   STATE
 CTRY. UNITED STATES OF AMERICA:   COUNTRY
 SRVC.      WESTERN ATLAS:   SERVICE COMPANY
 DATE.        02-NOV-1987:   LOGDATE
 API .     49025111960000:   API NUMBER
~CURVE INFORMATION
#MNEM.UNIT       API CODE    CURVE DESCRIPTION
#----------   ------------   ------------------------------
 DEPT.F                  :   
 CALD.IN     45 280 60 00:   CALIPER FROM DENSITY LOG
 TEND.LBS    45 635 01 00:   TENSION FROM DENSITY LOG
 CORR.G/C3   45 356 01 00:   DENSITY CORRECTION
 RHOB.G/C3   45 350 01 00:   BULK DENSITY
 CNC .DEC    42 890 03 00:   NEUTRON POROSITY SANDSTONE
 SPR .MV     07 010 01 00:   SPONTANEOUS POTENTIAL
 GRR .GAPI   07 310 01 00:   GAMMA RAY FROM RESISTIVITY
 TENR.LBS    07 635 01 00:   TENSION FROM RESISTIVITY
 RFOC.OHMM   07 220 04 00:   RESISTIVITY FOCUSED LOG RES.
 RILD.OHMM   07 120 46 00:   DEEP INDUCTION RESISTIVITY
 RILM.OHMM   07 120 44 00:   INDUCTION LOG MEDIUM RESISTIVITY
~PARAMETER INFORMATION
#MNEM.UNIT          VALUE    DESCRIPTION
#----------   ------------   ------------------------------
 EKB .F         5006.0000:   Kelly bushing
 EGL .F         4995.0000:   Ground level
 EDF .F            0.0000:   Drilling floor
 TD  .F         2915.0000:   Total depth
 DATE.        02-NOV-1987:   Date logged
 CLNT.            A2DTECH:   Client Code
 SL  . 1824' FSL & 399' FWL:   Surface Location
 PD  .                 GL:   Permanent Datum
 DD  .F              2911:   Depth driller
 DL  .F              2915:   Depth logger
 BLI .F              2913:   Bottom log interval
 CS1 .IN            8.625:   Casing size
 CBD1.      8.625" @ 350':   Casing driller 1
 CBL1.F               350:   Casing logger 1
 BS1 .IN            7.875:   Bit size
 DFT .        KCL-POLYMER:   Type fluid in hole
 DFD .                8.8:   Density
 DFV .                 42:   Viscosity
 DFPH.                9.5:   pH
 DFL .                 11:   Fluid loss
 MSS .           FLOWLINE:   Source of sample
 RMS .OHMM           0.41:   Rm
 MST .F                78:   Rm Meas. temp.
 RMF .OHMM           0.29:   Rmf
 MFST.F                78:   Rmf Meas. temp.
 RMC .OHMM           0.51:   Rmc
 MCST.F                78:   Rmc Meas. temp.
 MFSS.               MEAS:   Source Rmf.
 RMB .OHMM           0.29:   Rm. at BHT
 BHT .F               108:   BHT.
 TCS .HRS               5:   Time Circ. stopped
 MRT .F               108:   Maximum recorded temp.
 LUN .            HL-6274:   Logging unit number
 LUL .           GILLETTE:   Logging unit location
 WITN.             STRONG:   Witnessed by
 ORIG.           5" PRINT:   Origin of data
 UWI .     49025111960000:   Unique Well ID
 DICO. A2D TECHNOLOGIES, INC.:   Digitizing Company
 DAPD.                 11:   Feet Above Permanent Datum
 BSD1.               2911:   Depth drilled with bit1
 MCSS.               CALC:   Source Rmc.
 EPD .               4995:   Elevation Permanent Datum
 LMF .                 KB:   Log Measured From
 DMF .                 KB:   Drilling Measured From
 TLI .                 11:   Top log interval
~OTHER INFORMATION
~A   DEPT     CALD       TEND       CORR       RHOB        CNC        SPR         GRR      TENR       RFOC       RILD       RILM   
# ...
 2898.0000     8.0590   375.0880     0.0170     2.4090  -999.2500   -19.4690  -999.2500   386.0710     5.5290     4.8690     5.0460
 2898.5000     8.0590   381.5620     0.0170     2.4110  -999.2500   -19.4220  -999.2500   392.8780     5.7290     4.8690     5.0460
 2899.0000     8.0590   388.0350     0.0160     2.4140  -999.2500   -19.3760  -999.2500   399.6850     5.8220     4.8690     5.0460
 2899.5000     8.0590   394.5090     0.0170     2.4170  -999.2500   -19.3310  -999.2500   406.4920     5.4360     4.8690     4.9340
 2900.0000     8.0590   400.9820     0.0170     2.4210  -999.2500   -19.2850  -999.2500   413.2990     5.0970     4.7330     4.7840
 2900.5000     8.0590   407.4560     0.0170     2.4250  -999.2500   -19.2390  -999.2500   419.9030     4.7580     4.5930     4.6340
 2901.0000     8.0590   413.9290     0.0170     2.4280  -999.2500   -19.1930  -999.2500   440.6810     4.3740     4.4530     4.4850
 2901.5000     8.0590   420.4030     0.0170     2.4280  -999.2500   -19.1470  -999.2500   446.0420     4.3740     4.3130     4.3350
 2902.0000     8.0590   426.8760     0.0170     2.4280  -999.2500   -19.1020  -999.2500   451.4030     4.4520     4.1730     4.1850
 2902.5000     8.0590   433.3500     0.0170     2.4280  -999.2500   -19.0560  -999.2500   456.7640     4.4520     4.0330     4.0350
 2903.0000     8.0590   439.8230     0.0170     2.4280  -999.2500   -19.0100  -999.2500   462.1250     4.2960     3.9930     3.9990
 2903.5000     8.0590   446.2960     0.0170     2.4280  -999.2500   -18.9640  -999.2500   467.4860     4.2010     3.9840     3.9820
 2904.0000     8.0590   452.7700     0.0170     2.4280  -999.2500   -18.9190  -999.2500   472.8480     4.1050     3.9740     3.9640
 2904.5000     8.0590   459.2430     0.0170     2.4280  -999.2500   -18.8730  -999.2500   478.2090     4.0720     3.9650     3.9450
 2905.0000     8.0590   465.7170     0.0170     2.4280  -999.2500   -18.8270  -999.2500   483.5700     4.1840     3.9560     3.9270
 2905.5000     8.0590   472.1900     0.0170     2.4280  -999.2500   -18.7810  -999.2500   488.9310     4.2200     3.9470     3.9090
 2906.0000     8.0590   475.6460     0.0170     2.4280  -999.2500   -18.7350  -999.2500   494.2920     4.0760     3.9380     3.8910
 2906.5000     8.0590   488.8430     0.0170     2.4280  -999.2500   -18.6900  -999.2500   502.4270     3.9990     3.9290     3.8730
 2907.0000     8.0590   501.1170     0.0170     2.4280  -999.2500   -18.6430  -999.2500   514.9370     4.1940     3.9200     3.8590
 2907.5000     8.0590   513.3900     0.0170     2.4280  -999.2500   -18.5980  -999.2500   527.4460     4.4520     3.9110     3.8590
 2908.0000     8.0590   525.6640     0.0170     2.4280  -999.2500   -18.5530  -999.2500   539.9550     4.3630     3.9020     3.8590
 2908.5000     8.0590   537.9380     0.0170     2.4280  -999.2500   -18.5030  -999.2500   552.4650     4.0450     3.8930     3.8590
 2909.0000     8.0590   550.2120     0.0160     2.4280  -999.2500   -18.4920  -999.2500   564.9740     3.7280     3.8840     3.8590
 2909.5000     8.0590   562.4860     0.0160     2.4270  -999.2500   -18.5210  -999.2500   577.4830     3.3440     3.8750     3.8590
 2910.0000     8.0590   574.7600     0.0160     2.4270  -999.2500   -18.5460  -999.2500   589.9930     3.4390     3.8660     3.8580
 2910.5000     8.0590   587.0340     0.0160     2.4270  -999.2500   -18.5720  -999.2500   602.5020     3.6730     3.8590     3.8590
 2911.0000     8.0590   599.3070     0.0160     2.4270  -999.2500   -18.5980  -999.2500   614.0780     3.9070  -999.2500     3.8610
 2911.5000     8.0590   611.5810     0.0160     2.4270  -999.2500   -18.6240  -999.2500   612.2110     4.0720  -999.2500     3.8560
 2912.0000     8.0590   614.8110     0.0160     2.4270  -999.2500   -18.6500  -999.2500   605.9560     4.0720  -999.2500     3.8660
 2912.5000     8.0590   614.8110     0.0150     2.4270  -999.2500   -18.6760  -999.2500   599.7010     4.0720  -999.2500     3.8030
 2913.0000     8.0590   614.8110     0.0150     2.4270  -999.2500   -18.7020  -999.2500   593.4470     4.0720  -999.2500  -999.2500
 2913.5000     8.0590   614.8110     0.0150     2.4270  -999.2500   -18.7280  -999.2500   587.1920     4.0720  -999.2500  -999.2500
 2914.0000     8.0590   614.8110     0.0150     2.4270  -999.2500   -18.7540  -999.2500   580.9370     4.0720  -999.2500  -999.2500
 2914.5000     8.0590   678.0850     0.0150     2.4270  -999.2500   -18.7800  -999.2500   575.2430  -999.2500  -999.2500  -999.2500
 2915.0000     8.0590   805.2070     0.0150     2.4270  -999.2500   -18.8060  -999.2500   774.1470  -999.2500  -999.2500  -999.2500
 2915.5000     8.0590   932.3290     0.0150     2.4270  -999.2500   -18.8310  -999.2500   924.7570  -999.2500  -999.2500  -999.2500
 2916.0000     8.0590   992.5450     0.0140     2.4270  -999.2500   -18.8590  -999.2500   944.1750  -999.2500  -999.2500  -999.2500
 2916.5000     8.0610   793.6950     0.0140     2.4270  -999.2500   -18.8730  -999.2500   770.2080  -999.2500  -999.2500  -999.2500
 2917.0000     8.0630   618.5490     0.0140     2.4270  -999.2500  -999.2500  -999.2500   593.6060  -999.2500  -999.2500  -999.2500
 2917.5000     8.0650   443.4040     0.0140     2.4270  -999.2500  -999.2500  -999.2500   417.0030  -999.2500  -999.2500  -999.2500
 2918.0000     8.0670   268.2580     0.0140     2.4260  -999.2500  -999.2500  -999.2500   240.4010  -999.2500  -999.2500  -999.2500
 2918.5000     8.0690    93.1120     0.0140     2.4260  -999.2500  -999.2500  -999.2500    63.7990  -999.2500  -999.2500  -999.2500
 2919.0000     8.0710   -82.0330     0.0140     2.4250  -999.2500  -999.2500  -999.2500  -112.8040  -999.2500  -999.2500  -999.2500
 2919.5000     8.0730  -240.0600     0.0130     2.4240  -999.2500  -999.2500  -999.2500  -240.2910  -999.2500  -999.2500  -999.2500
 2920.0000     8.0750  -999.2500     0.0130     2.4230  -999.2500  -999.2500  -999.2500  -999.2500  -999.2500  -999.2500  -999.2500
 2920.5000     8.0770  -999.2500     0.0130     2.4220  -999.2500  -999.2500  -999.2500  -999.2500  -999.2500  -999.2500  -999.2500
 2921.0000     8.0790  -999.2500     0.0130     2.4210  -999.2500  -999.2500  -999.2500  -999.2500  -999.2500  -999.2500  -999.2500
 2921.5000     8.0810  -999.2500     0.0160     2.4210  -999.2500  -999.2500  -999.2500  -999.2500  -999.2500  -999.2500  -999.2500
 2922.0000     8.0830  -999.2500     0.0170     2.4170  -999.2500  -999.2500  -999.2500  -999.2500  -999.2500  -999.2500  -999.2500
 2922.5000     8.0850  -999.2500     0.0170     2.4480  -999.2500  -999.2500  -999.2500  -999.2500  -999.2500  -999.2500  -999.2500
 2923.0000     8.0870  -999.2500     0.0170     2.4900  -999.2500  -999.2500  -999.2500  -999.2500  -999.2500  -999.2500  -999.2500
 2923.5000     8.0890  -999.2500     0.0170     2.4920  -999.2500  -999.2500  -999.2500  -999.2500  -999.2500  -999.2500  -999.2500
 2924.0000     8.0910  -999.2500     0.0170     2.4920  -999.2500  -999.2500  -999.2500  -999.2500  -999.2500  -999.2500  -999.2500
 2924.5000     8.0930  -999.2500     0.0170     2.4920  -999.2500  -999.2500  -999.2500  -999.2500  -999.2500  -999.2500  -999.2500
 2925.0000     8.0940  -999.2500     0.0170     2.4920  -999.2500  -999.2500  -999.2500  -999.2500  -999.2500  -999.2500  -999.2500
 2925.5000     8.0960  -999.2500     0.0170     2.4920  -999.2500  -999.2500  -999.2500  -999.2500  -999.2500  -999.2500  -999.2500
 2926.0000     8.0980  -999.2500     0.0170     2.4920  -999.2500  -999.2500  -999.2500  -999.2500  -999.2500  -999.2500  -999.2500
