~VERSION INFORMATION
 VERS.                2.0:   CWLS LOG ASCII STANDARD - VERSION 2.0
 WRAP.                 NO:   ONE LINE PER DEPTH STEP
~WELL INFORMATION
#MNEM.UNIT      DATA TYPE    INFORMATION
#----------   ------------   ------------------------------
 STRT.F           42.0000:   START DEPTH
 STOP.F         4542.0000:   STOP DEPTH
 STEP.F            0.5000:   STEP LENGTH
 NULL.          -999.2500:   NO VALUE
 COMP. LAWRENCE ALLISON & ASSOC.:   COMPANY
 WELL. ALLISON NPR 3 #86-27:   WELL
 FLD .                NPR:   FIELD
 LOC .      S27 T39N R78W:   LOCATION
 CNTY.            NATRONA:   COUNTY
 STAT.            WYOMING:   STATE
 CTRY. UNITED STATES OF AMERICA:   COUNTRY
 SRVC.      DRESSER ATLAS:   SERVICE COMPANY
 DATE.        20-MAR-1985:   LOGDATE
 API .     49025110190000:   API NUMBER
~CURVE INFORMATION
#MNEM.UNIT       API CODE    CURVE DESCRIPTION
#----------   ------------   ------------------------------
 DEPT.F                  :   
 CALD.IN     45 280 60 00:   CALIPER FROM DENSITY LOG
 TEND.LBS    45 635 01 00:   TENSION FROM DENSITY LOG
 CORR.G/C3   45 356 01 00:   DENSITY CORRECTION
 RHOB.G/C3   45 350 01 00:   BULK DENSITY
 CNC .DEC    42 890 03 00:   NEUTRON PORISITY SANDSTONE
 TENR.LBS    07 635 01 00:   TENSION FROM RESISTIVITY
 GRR .GAPI   07 310 01 00:   GAMMA RAY FROM RESISTIVITY
 SFL .OHMM   07 220 01 00:   SHALLOW FOCUSED LOG RESISTIVITY
 ILD .OHMM   07 120 46 00:   DEEP INDUCTION RESISTIVITY
 ILM .OHMM   07 120 44 00:   INDUCTION LOG MEDIUM RESISTIVITY
 TENS.LBS    60 635 01 00:   TENSION FROM SONIC LOG
 DT  .US/F   60 520 00 00:   DELTA TIME
 CALS.IN     60 280 50 00:   CALIPER FROM SONIC LOG
 GRS .GAPI   60 310 01 00:   GAMMA RAY FROM SONIC LOG
~PARAMETER INFORMATION
#MNEM.UNIT          VALUE    DESCRIPTION
#----------   ------------   ------------------------------
 EKB .F         5095.0000:   Kelly bushing
 EGL .F         5083.0000:   Ground level
 EDF .F            0.0000:   Drilling floor
 TD  .F         4545.0000:   Total depth
 DATE.        20-MAR-1985:   Date logged
 CLNT.            A2DTECH:   Client Code
 SL  . 292' FEL & 1975' FWL:   Surface Location
 PD  .                 GL:   Permanent Datum
 EPD .F              5083:   Elevation Permanent Datum
 LMF .                 KB:   Log Measured From
 DMF .                 KB:   Drilling Measured From
 DAPD.F                12:   Feet Above Permanent Datum
 DD  .F              4545:   Depth driller
 DL  .F              4533:   Depth logger
 BLI .F              4534:   Bottom log interval
 TLI .F              1045:   Top log interval
 CS1 .IN            8.625:   Casing size
 CBD1.     8.625" @ 1033':   Casing driller 1
 CBL1.F              1045:   Casing logger 1
 BS1 .IN            7.875:   Bit size
 BSD1.F              4545:   Depth drilled with bit1
 DFT .    GEL/KCL/STA/FLO:   Type fluid in hole
 DFD .                9.1:   Density
 DFV .                 30:   Viscosity
 DFPH.                  8:   pH
 DFL .                 12:   Fluid loss
 MSS .           MUD/TANK:   Source of sample
 RMS .OHMM            .46:   Rm
 MST .F                74:   Rm Meas. temp.
 RMF .OHMM            .37:   Rmf
 MFST.F                72:   Rmf Meas. temp.
 RMC .OHMM            .58:   Rmc
 MCST.F                74:   Rmc Meas. temp.
 MFSS.               MEAS:   Source Rmf.
 MCSS.               CALC:   Source Rmc.
 RMB .OHMM            .25:   Rm. at BHT
 BHT .F               138:   BHT.
 TCS .HRS             4.5:   Time Circ. stopped
 MRT .F               138:   Maximum recorded temp.
 LUN .            HL-6274:   Logging unit number
 LUL .           GILLETTE:   Logging unit location
 ENGI.             RAUTIO:   Recorded By
 WITN.             STRONG:   Witnessed by
 ORIG.           5" PRINT:   Origin of data
 UWI .     49025110190000:   Unique Well ID
 DICO. A2D TECHNOLOGIES, INC.:   Digitizing Company
~OTHER INFORMATION
~A   DEPT     CALD       TEND       CORR       RHOB        CNC       TENR        GRR        SFL        ILD        ILM       TENS         DT        CALS        GRS  
# ...
 3006.5000     9.4440   -40.4190     0.0170     2.5460     0.2670    32.9490    90.5040     5.9560     5.9560     6.0080  -999.2500  -999.2500  -999.2500  -999.2500
 3007.0000     9.4320   -40.4190     0.0220     2.5490     0.2670    33.8600    88.1870     5.9970     5.9560     5.9970  -999.2500  -999.2500  -999.2500  -999.2500
 3007.5000     9.4230   -40.4190     0.0250     2.5450     0.2650    34.7700    84.4640     6.1290     5.9560     5.9850  -999.2500  -999.2500  -999.2500  -999.2500
 3008.0000     9.4100   -20.4590     0.0260     2.5360     0.2560    35.6810    82.2950     6.2610     5.9560     5.9740  -999.2500  -999.2500  -999.2500  -999.2500
 3008.5000     9.3970   -20.4590     0.0260     2.5300     0.2650    36.5920    82.6110     6.3930     5.9560     5.9630  -999.2500  -999.2500  -999.2500  -999.2500
 3009.0000     9.3930   -20.4590     0.0260     2.5390     0.2760    37.5020    82.9380     6.5330     5.9560     5.9020  -999.2500  -999.2500  -999.2500  -999.2500
 3009.5000     9.3930   -20.4590     0.0260     2.5470     0.2860    38.4130    83.3490     6.5330     5.9560     5.7440  -999.2500  -999.2500  -999.2500  -999.2500
 3010.0000     9.3900   -20.4590     0.0210     2.5490     0.2830    39.3240    83.8590     6.5330     5.9560     5.5870  -999.2500  -999.2500  -999.2500  -999.2500
 3010.5000     9.3880   -20.4590     0.0120     2.5490     0.2780    40.2340    84.4190     5.4300     5.8400     5.3300  -999.2500  -999.2500  -999.2500  -999.2500
 3011.0000     9.3850   -20.4590     0.0050     2.5440     0.2730    41.1450    85.0220     5.4790     5.7200     5.4580  -999.2500  -999.2500  -999.2500  -999.2500
 3011.5000     9.3820   -20.4590     0.0020     2.5420     0.2690    42.0560    85.2680     5.6120     5.6000     5.7390  -999.2500  -999.2500  -999.2500  -999.2500
 3012.0000     9.3790   -20.4590     0.0040     2.5400     0.2630    42.9660    84.7330     5.7440     5.4800     5.5580  -999.2500  -999.2500  -999.2500  -999.2500
 3012.5000     9.3770   -20.4590     0.0070     2.5390     0.2560    43.8770    82.9610     5.8770     5.3600     5.4050  -999.2500  -999.2500  -999.2500  -999.2500
 3013.0000     9.3740   -20.4590     0.0090     2.5370     0.2520    44.7880    83.2490     5.9840     5.2400     5.2520  -999.2500  -999.2500  -999.2500  -999.2500
 3013.5000     9.3710   -20.4590     0.0120     2.5360     0.2550    45.6980    83.7470     6.0670     5.1200     5.0990  -999.2500  -999.2500  -999.2500  -999.2500
 3014.0000     9.3690   -20.4590     0.0230     2.5340     0.2590    46.6090    84.0810     5.8750     4.9990     4.9500  -999.2500  -999.2500  -999.2500  -999.2500
 3014.5000     9.3660   -20.4590     0.0530     2.5310     0.2630    47.5200    84.0220     5.6400     4.8590     4.9760  -999.2500  -999.2500  -999.2500  -999.2500
 3015.0000     9.3630   -19.3000     0.0860     2.5370     0.2670    48.4300    84.1070     5.4060     5.0130     5.0020  -999.2500  -999.2500  -999.2500  -999.2500
 3015.5000     9.3600   -17.6840     0.0880     2.5470     0.2700    49.3410    84.3140     5.0420     5.1970     5.0280  -999.2500  -999.2500  -999.2500  -999.2500
 3016.0000     9.3580   -16.0680     0.0620     2.5540     0.2670    50.2520    84.4090     5.1720     5.3810     5.1880  -999.2500  -999.2500  -999.2500  -999.2500
 3016.5000     9.3540   -14.4520     0.0420     2.5600     0.2610    51.1620    84.6460     5.4590     5.5650     5.5110  -999.2500  -999.2500  -999.2500  -999.2500
 3017.0000     9.3560   -12.8360     0.0320     2.5620     0.2560    52.0730    83.2950     5.7460     5.7490     5.8340  -999.2500  -999.2500  -999.2500  -999.2500
 3017.5000     9.3260   -11.2190     0.0220     2.5590     0.2480    52.9840    81.5340     6.0670     5.9560     6.4470  -999.2500  -999.2500  -999.2500  -999.2500
 3018.0000     9.2740    -9.6030     0.0140     2.5430     0.2410    53.8940    77.1030     6.9030     6.4730     7.8140  -999.2500  -999.2500  -999.2500  -999.2500
 3018.5000     9.2280    -7.9870     0.0070     2.5140     0.2430    54.8050    70.8170     8.0460     8.0090     9.1810  -999.2500  -999.2500  -999.2500  -999.2500
 3019.0000     9.1830    -6.3710     0.0140     2.4740     0.2430    55.7150    63.7590     9.6510     9.9720    10.5480  -999.2500  -999.2500  -999.2500  -999.2500
 3019.5000     9.1330    -4.7550     0.0200     2.4310     0.2310    56.6260    56.9220    11.2560    11.9340    11.9150  -999.2500  -999.2500  -999.2500  -999.2500
 3020.0000     9.1100    -3.1390     0.0290     2.4080     0.2240    57.5370    52.4630    12.8620    13.8960    13.2830  -999.2500  -999.2500  -999.2500  -999.2500
 3020.5000     9.1100    -1.5230     0.0370     2.3910     0.2190    57.4420    49.9980    14.2050    15.8590    14.3390  -999.2500  -999.2500  -999.2500  -999.2500
 3021.0000     9.1060    -3.5600     0.0410     2.3790     0.2160    55.2640    51.6490    13.7000    18.0450    14.7510  -999.2500  -999.2500  -999.2500  -999.2500
 3021.5000     9.1030   -11.9100     0.0190     2.3740     0.2100    53.0860    54.0690    13.1570    20.5630    15.1640  -999.2500  -999.2500  -999.2500  -999.2500
 3022.0000     9.1000   -20.2590    -0.0030     2.3710     0.2050    50.9080    58.8700    12.5540    21.1210    15.5760  -999.2500  -999.2500  -999.2500  -999.2500
 3022.5000     9.0970   -28.6090    -0.0220     2.3750     0.2020    48.7290    64.0920    12.7130    21.7360    15.9880  -999.2500  -999.2500  -999.2500  -999.2500
 3023.0000     9.0940   -36.9590    -0.0110     2.3930     0.2050    46.5510    65.7450    14.1060    21.6550    16.1680  -999.2500  -999.2500  -999.2500  -999.2500
 3023.5000     9.0910   -40.4190     0.0030     2.4120     0.2040    44.3730    64.5180    15.5580    21.5720    16.1680  -999.2500  -999.2500  -999.2500  -999.2500
 3024.0000     9.0880   -40.4190     0.0170     2.4180     0.2130    42.1950    58.0750    16.1680    21.4880    16.1680  -999.2500  -999.2500  -999.2500  -999.2500
 3024.5000     9.0840   -40.4190     0.0130     2.4000     0.2140    40.0160    51.2810    14.6900    21.4040    15.7460  -999.2500  -999.2500  -999.2500  -999.2500
 3025.0000     9.0810   -40.4190     0.0100     2.3820     0.2150    37.8380    47.3530    13.1920    21.3370    15.3900  -999.2500  -999.2500  -999.2500  -999.2500
 3025.5000     9.0780   -40.4190     0.0030     2.3690     0.2170    35.6600    48.3640    13.1920    20.6260    15.0330  -999.2500  -999.2500  -999.2500  -999.2500
 3026.0000     9.0750   -40.4190     0.0010     2.3730     0.2180    33.4820    51.2750    13.5890    20.0320    14.4700  -999.2500  -999.2500  -999.2500  -999.2500
 3026.5000     9.0730   -40.4190     0.0150     2.3830     0.2220    31.3030    55.5040    14.2400    19.4530    14.5060  -999.2500  -999.2500  -999.2500  -999.2500
 3027.0000     9.0770   -40.4190     0.0380     2.3960     0.2240    29.1250    57.2540    14.7400    20.1860    14.5910  -999.2500  -999.2500  -999.2500  -999.2500
 3027.5000     9.0820   -40.4190     0.0300     2.3980     0.2270    26.9470    55.9640    14.4540    20.7900    14.6760  -999.2500  -999.2500  -999.2500  -999.2500
 3028.0000     9.0870   -40.4190     0.0160     2.3950     0.2280    24.7690    55.2000    13.4380    21.6110    15.1120  -999.2500  -999.2500  -999.2500  -999.2500
 3028.5000     9.0920   -40.4190     0.0070     2.3970     0.2260    22.5910    55.7580    13.6730    22.7250    16.6230  -999.2500  -999.2500  -999.2500  -999.2500
 3029.0000     9.0960   -40.4190     0.0090     2.4010     0.2200    20.4120    54.2450    14.1930    23.8380    18.1350  -999.2500  -999.2500  -999.2500  -999.2500
 3029.5000     9.1010   -40.4190     0.0100     2.4080     0.2150    18.2340    51.4630    15.0770    24.9520    19.6460  -999.2500  -999.2500  -999.2500  -999.2500
 3030.0000     9.1060   -40.4190     0.0070     2.4100     0.2070    16.0560    49.4100    16.3720    26.0650    21.3370  -999.2500  -999.2500  -999.2500  -999.2500
 3030.5000     9.1100   -40.4190     0.0090     2.4050     0.1960    13.8780    48.5940    17.6670    27.0100    21.0510  -999.2500  -999.2500  -999.2500  -999.2500
