~VERSION INFORMATION
 VERS.                2.0:   CWLS LOG ASCII STANDARD - VERSION 2.0
 WRAP.                 NO:   ONE LINE PER DEPTH STEP
~WELL INFORMATION
#MNEM.UNIT      DATA TYPE    INFORMATION
#----------   ------------   ------------------------------
 STRT.F            4.0000:   START DEPTH
 STOP.F         3266.0000:   STOP DEPTH
 STEP.F            0.5000:   STEP LENGTH
 NULL.          -999.2500:   NO VALUE
 COMP. LAWRENCE ALLISON & ASSOSCIATES:   COMPANY
 WELL. LAWRENCE "X" #27-11:   WELL
 FLD .          N.P.R. #3:   FIELD
 LOC .      S11 T38N R78W:   LOCATION
 CNTY.            NATRONA:   COUNTY
 STAT.            WYOMING:   STATE
 CTRY. UNITED STATES OF AMERICA:   COUNTRY
 SRVC.      DRESSER ATLAS:   SERVICE COMPANY
 DATE.        22-AUG-1986:   LOGDATE
 API .     49025111070000:   API NUMBER
~CURVE INFORMATION
#MNEM.UNIT       API CODE    CURVE DESCRIPTION
#----------   ------------   ------------------------------
 DEPT.F                  :   
 SPR .MV     07 010 01 00:   SPONTANEOUS POTENTIAL
 TENR.LBS    06 635 01 00:   TENSION FROM RESISTIVITY
 GRR .GAPI   07 310 01 00:   GAMMA RAY FROM RESISTIVITY
 RILD.OHMM   07 120 46 00:   DEEP INDUCTION RESISTIVITY
 RILM.OHMM   07 120 44 00:   INDUCTION LOG MEDIUM RESISTIVITY
 RFOC.OHMM   07 220 04 00:   RESISTIVITY FOCUSED LOG RES.
 NPHI.DEC    42 890 03 00:   NEUTRON POROSITY SANDSTONE
 CALD.IN     45 280 60 00:   CALIPER FROM DENSITY LOG
 RHOB.G/C3   45 350 01 00:   BULK DENSITY
 CORR.G/C3   45 356 01 00:   DENSITY CORRECTION
 TEND.LBS    45 635 01 00:   TENSION FORM DENSITY LOG
~PARAMETER INFORMATION
#MNEM.UNIT          VALUE    DESCRIPTION
#----------   ------------   ------------------------------
 EKB .F         5206.0000:   Kelly bushing
 EGL .F         5194.0000:   Ground level
 EDF .F         5205.0000:   Drilling floor
 EPD .F         5194.0000:   Permanent datum
 TD  .F         3250.0000:   Total depth
 CLNT.            A2DTECH:   Client Code
 SL  . 1197' FSL & 1088' FWL:   Surface Location
 PD  .                 GL:   Permanent Datum
 DAPD.F                12:   Feet Above Permanent Datum
 DATE.        22-AUG-1986:   Date Logged [DD-MMM-YYYY]
 DD  .F              3250:   Depth driller
 DL  .F              3246:   Depth logger
 BLI .F              3243:   Bottom log interval
 TLI .F               683:   Top log interval
 CS1 .IN            8.625:   Casing size
 CBD1.      8.625" @ 672':   Casing driller 1
 CBL1.F               673:   Casing logger 1
 BS1 .IN            7.875:   Bit size
 BSD1.F              3250:   Depth drilled with bit1
 DFT .            KCL-GEL:   Type fluid in hole
 DFD .                8.9:   Density
 DFV .                 35:   Viscosity
 MSS .               TANK:   Source of sample
 RMS .OHMM           0.31:   Rm
 MST .F                70:   Rm Meas. temp.
 RMF .OHMM           0.29:   Rmf
 MFST.F                67:   Rmf Meas. temp.
 MFSS.               CALC:   Source Rmf.
 RMC .OHMM           0.46:   Rmc
 MCST.F                70:   Rmc Meas. temp.
 MCSS.               CALC:   Source Rmc.
 RMB .OHMM           0.16:   Rm. at BHT
 BHT .F               136:   BHT.
 TCS .HRS               4:   Time Circ. stopped
 MRT .F               136:   Maximum recorded temp.
 LUN .            HL-6426:   Logging unit number
 LUL .          RK. SPGS.:   Logging unit location
 ENGI.               RALL:   Recorded By
 WITN.             STRONG:   Witnessed by
 ORIG.           5" PRINT:   Origin of data
 UWI .     49025111070000:   Unique Well ID
 DICO. A2D TECHNOLOGIES, INC.:   Digitizing Company
~OTHER INFORMATION
~A    DEPT     SPR       TENR         GRR      RILD       RILM       RFOC       NPHI       CALD       RHOB       CORR       TEND   
# ...
 1041.0000   -74.5466   -82.6700   109.1484     7.6341     7.8996     7.9018  -999.2500  -999.2500  -999.2500  -999.2500  -999.2500
 1041.5000   -74.3941   -82.9400   107.9511     7.6335     7.9579     7.8498  -999.2500  -999.2500  -999.2500  -999.2500  -999.2500
 1042.0000   -74.3145   -83.2100   108.2699     7.6867     8.0162     7.9646  -999.2500  -999.2500  -999.2500  -999.2500  -999.2500
 1042.5000   -74.3759   -83.4801   108.5887     7.7399     8.0749     8.1942  -999.2500  -999.2500  -999.2500  -999.2500  -999.2500
 1043.0000   -74.4332   -83.7501   107.6916     7.7394     8.1341     8.3132  -999.2500  -999.2500  -999.2500  -999.2500  -999.2500
 1043.5000   -74.5070   -84.0201   105.2748     7.6315     7.8553     8.2008  -999.2500  -999.2500  -999.2500  -999.2500  -999.2500
 1044.0000   -74.9532   -84.2902   105.5936     7.6924     7.9133     8.1469  -999.2500  -999.2500  -999.2500  -999.2500  -999.2500
 1044.5000   -75.4136   -84.5602   106.5203     7.8466     7.9155     8.1510  -999.2500  -999.2500  -999.2500  -999.2500  -999.2500
 1045.0000   -75.9490   -84.8302   107.7509     7.8461     7.9176     8.3275  -999.2500  -999.2500  -999.2500  -999.2500  -999.2500
 1045.5000   -76.4959   -85.1003   109.0031     7.8455     7.8092     8.3895  -999.2500  -999.2500  -999.2500  -999.2500  -999.2500
 1046.0000   -77.0207   -85.3703   109.9082     7.7361     7.8114     8.2760  -999.2500  -999.2500  -999.2500  -999.2500  -999.2500
 1046.5000   -77.4875   -85.6403   108.1030     7.6282     7.8141     8.1643  -999.2500  -999.2500  -999.2500  -999.2500  -999.2500
 1047.0000   -77.9185   -85.9104   107.2059     7.6277     7.8713     8.1106  -999.2500  -999.2500  -999.2500  -999.2500  -999.2500
 1047.5000   -77.9854   -86.1804   106.9131     7.6272     7.9289     7.9460  -999.2500  -999.2500  -999.2500  -999.2500  -999.2500
 1048.0000   -78.0400   -86.4504   106.9316     7.6267     7.9311     7.8929  -999.2500  -999.2500  -999.2500  -999.2500  -999.2500
 1048.5000   -78.0907   -86.7205   107.5543     7.6260     7.8772     7.8410  -999.2500  -999.2500  -999.2500  -999.2500  -999.2500
 1049.0000   -77.8465   -86.9907   108.4810     7.6791     7.8798     7.9557  -999.2500  -999.2500  -999.2500  -999.2500  -999.2500
 1049.5000   -77.2624   -87.2615   109.7116     7.7325     7.8820     8.1279  -999.2500  -999.2500  -999.2500  -999.2500  -999.2500
 1050.0000   -76.6823   -87.5306   110.9423     7.7318     7.8750     8.3152  -999.2500  -999.2500  -999.2500  -999.2500  -999.2500
 1050.5000   -76.0995   -87.6640   110.3182     7.7313     7.8311     8.3180  -999.2500  -999.2500  -999.2500  -999.2500  -999.2500
 1051.0000   -75.5139   -87.6640   108.5440     7.7308     7.7783     8.3208  -999.2500  -999.2500  -999.2500  -999.2500  -999.2500
 1051.5000   -74.9228   -87.6640   107.9472     7.6739     7.7260     8.2656  -999.2500  -999.2500  -999.2500  -999.2500  -999.2500
 1052.0000   -74.7482   -87.6640   107.9657     7.5602     7.7286     8.3271  -999.2500  -999.2500  -999.2500  -999.2500  -999.2500
 1052.5000   -74.5954   -97.5025   107.6729     7.4117     7.8401     8.4473  -999.2500  -999.2500  -999.2500  -999.2500  -999.2500
 1053.0000   -74.4628   -97.3738   105.8677     7.4633     7.9532     8.2747  -999.2500  -999.2500  -999.2500  -999.2500  -999.2500
 1053.5000   -74.3748   -97.4988   102.8430     7.7280     8.1326     8.1056  -999.2500  -999.2500  -999.2500  -999.2500  -999.2500
 1054.0000   -74.2858   -97.5025    99.5143     8.0584     8.4181     8.1084  -999.2500  -999.2500  -999.2500  -999.2500  -999.2500
 1054.5000   -74.1958   -97.5025    97.4015     8.3444     8.5998     8.2831  -999.2500  -999.2500  -999.2500  -999.2500  -999.2500
 1055.0000   -74.0976   -97.5025    96.5044     8.7621     8.7853     8.5290  -999.2500  -999.2500  -999.2500  -999.2500  -999.2500
 1055.5000   -74.4451   -97.5025   100.6782     9.2046     9.0382     8.8279  -999.2500  -999.2500  -999.2500  -999.2500  -999.2500
 1056.0000   -74.8739   -97.5025   105.9603     9.2000     9.2332     9.3390  -999.2500  -999.2500  -999.2500  -999.2500  -999.2500
 1056.5000   -75.3028   -97.5025   108.4067     9.2638     9.3664     9.8108  -999.2500  -999.2500  -999.2500  -999.2500  -999.2500
 1057.0000   -75.7235   -97.5025   108.7255     9.2632     9.5085    10.0926  -999.2500  -999.2500  -999.2500  -999.2500  -999.2500
 1057.5000   -76.2479   -97.5025   106.4752     9.3277     9.6392    10.0960  -999.2500  -999.2500  -999.2500  -999.2500  -999.2500
 1058.0000   -76.7601   -97.5025   101.3139     9.4582     9.7098     9.8888  -999.2500  -999.2500  -999.2500  -999.2500  -999.2500
 1058.5000   -77.2709   -97.5025    98.5827     9.5240     9.7803     9.7449  -999.2500  -999.2500  -999.2500  -999.2500  -999.2500
 1059.0000   -77.8050   -97.5025   102.8453     9.5232     9.7144     9.8972  -999.2500  -999.2500  -999.2500  -999.2500  -999.2500
 1059.5000   -77.7291   -97.5025   108.0184     9.6566     9.7177    10.1105  -999.2500  -999.2500  -999.2500  -999.2500  -999.2500
 1060.0000   -77.4642   -97.5025   111.6717     9.7918     9.7889    10.3283  -999.2500  -999.2500  -999.2500  -999.2500  -999.2500
 1060.5000   -77.1946   -97.5025   111.0710     9.7910     9.7966    10.3318  -999.2500  -999.2500  -999.2500  -999.2500  -999.2500
 1061.0000   -76.9153   -97.5025   108.9492     9.7904     9.8640    10.2631  -999.2500  -999.2500  -999.2500  -999.2500  -999.2500
 1061.5000   -76.4243   -97.5025   106.5235     9.7897     9.8666    10.0507  -999.2500  -999.2500  -999.2500  -999.2500  -999.2500
 1062.0000   -75.9136   -97.5025   104.7042     9.7890     9.8693     9.8481  -999.2500  -999.2500  -999.2500  -999.2500  -999.2500
 1062.5000   -75.4026   -97.5025   105.0154     9.7884     9.8720     9.7828  -999.2500  -999.2500  -999.2500  -999.2500  -999.2500
 1063.0000   -74.8931   -97.5025   106.8450     9.7195     9.9443     9.7869  -999.2500  -999.2500  -999.2500  -999.2500  -999.2500
 1063.5000   -74.4402   -97.5025   109.0213     9.7189     9.9470     9.9281  -999.2500  -999.2500  -999.2500  -999.2500  -999.2500
 1064.0000   -74.2078   -97.5025   109.5923     9.7181     9.9497    10.0012  -999.2500  -999.2500  -999.2500  -999.2500  -999.2500
 1064.5000   -73.9729   -97.5025   106.8640     9.7174     9.9531    10.0748  -999.2500  -999.2500  -999.2500  -999.2500  -999.2500
 1065.0000   -73.7365   -97.5025   106.2605     9.7167     9.8854    10.0033  -999.2500  -999.2500  -999.2500  -999.2500  -999.2500
 1065.5000   -73.4978   -97.5025   107.7876     9.7161     9.8189     9.9415  -999.2500  -999.2500  -999.2500  -999.2500  -999.2500
 1066.0000   -73.3082   -97.5025   108.4014     9.6478     9.6852     9.8756  -999.2500  -999.2500  -999.2500  -999.2500  -999.2500
 1066.5000   -73.7238   -97.5025   104.4014     9.5799     9.6193     9.8101  -999.2500  -999.2500  -999.2500  -999.2500  -999.2500
 1067.0000   -74.1358   -97.5025   102.0315     9.5126     9.4883     9.7450  -999.2500  -999.2500  -999.2500  -999.2500  -999.2500
 1067.5000   -74.5596   -97.5025   102.9493     9.4391     9.4239     9.6137  -999.2500  -999.2500  -999.2500  -999.2500  -999.2500
 1068.0000   -74.9967   -97.5025   104.4749     9.2677     9.2860     9.4833  -999.2500  -999.2500  -999.2500  -999.2500  -999.2500
 1068.5000   -75.4446   -97.5025   105.0886     9.1116     9.1041     9.2896  -999.2500  -999.2500  -999.2500  -999.2500  -999.2500
 1069.0000   -75.8927   -97.5025   104.1826     8.9555     9.0428     9.1006  -999.2500  -999.2500  -999.2500  -999.2500  -999.2500
 1069.5000   -76.3406   -97.5025   102.9727     8.7921     8.8572     9.0394  -999.2500  -999.2500  -999.2500  -999.2500  -999.2500
 1070.0000   -76.7885   -97.5025   100.8107     8.7928     8.8596     8.9176  -999.2500  -999.2500  -999.2500  -999.2500  -999.2500
 1070.5000   -77.2368   -97.5025   102.0740     8.6714     8.7383     8.8577  -999.2500  -999.2500  -999.2500  -999.2500  -999.2500
 1071.0000   -77.6864   -97.5025   106.0312     8.6720     8.6188     8.7376  -999.2500  -999.2500  -999.2500  -999.2500  -999.2500
