~VERSION INFORMATION
 VERS.                2.0:   CWLS LOG ASCII STANDARD - VERSION 2.0
 WRAP.                 NO:   ONE LINE PER DEPTH STEP
~WELL INFORMATION
#MNEM.UNIT      DATA TYPE    INFORMATION
#----------   ------------   ------------------------------
 STRT.F          620.0000:   START DEPTH
 STOP.F         3209.0000:   STOP DEPTH
 STEP.F            0.5000:   STEP LENGTH
 NULL.          -999.2500:   NO VALUE
 COMP. FENIX & SCISSON - US NAVY:   COMPANY
 WELL.   FENIX "A" #23-33:   WELL
 FLD .             NPR #3:   FIELD
 LOC .      S33 T39N R78W:   LOCATION
 CNTY.            NATRONA:   COUNTY
 STAT.            WYOMING:   STATE
 CTRY. UNITED STATES OF AMERICA:   COUNTRY
 SRVC.              WELEX:   SERVICE COMPANY
 DATE.        26-MAR-1977:   LOGDATE
 API .     49025103250000:   API NUMBER
~CURVE INFORMATION
#MNEM.UNIT       API CODE    CURVE DESCRIPTION
#----------   ------------   ------------------------------
 DEPT.F                  :   
 GRD .GAPI   45 310 01 00:   GAMMA RAY FROM DENSITY LOG
 CALD.IN     45 280 60 00:   CALIPER FROM DENSITY LOG
 CORR.G/C3   45 356 01 00:   DENSITY CORRECTION
 RHOB.G/C3   45 350 01 00:   BULK DENSITY
 SPR .MV     07 010 01 00:   SPONTANEOUS POTENTIAL
 ILD .OHMM   07 120 46 00:   DEEP INDUCTION RESISTIVITY
 ILM .OHMM   07 120 44 00:   INDUCTION LOG MEDIUM RESISTIVITY
 SGRD.OHMM   07 220 05 00:   SHALLOW SHORT GUARD RESISTIVITY
~PARAMETER INFORMATION
#MNEM.UNIT          VALUE    DESCRIPTION
#----------   ------------   ------------------------------
 EKB .F         5183.0000:   Kelly bushing
 EGL .F         5172.0000:   Ground level
 TD  .F         3213.0000:   Total depth
 CLNT.            A2DTECH:   Client Code
 SL  . 900' FWL & 1650' FNL:   Surface Location
 PD  .                 GL:   Permanent Datum
 EPD .F              5172:   Elevation Permanent Datum
 LMF .                 KB:   Log Measured From
 DMF .                 KB:   Drilling Measured From
 DAPD.F                11:   Feet Above Permanent Datum
 DATE.        26-MAR-1977:   Date Logged [DD-MMM-YYYY]
 DD  .F              3210:   Depth driller
 DL  .F              3213:   Depth logger
 BLI .F              3211:   Bottom log interval
 TLI .F               625:   Top log interval
 CS1 .IN            8.625:   Casing size
 CBD1.      8.625" @ 633':   Casing driller 1
 CBL1.F               635:   Casing logger 1
 BS1 .IN            7.875:   Bit size
 BSD1.F              3210:   Depth drilled with bit1
 DFT .            KCL MUD:   Type fluid in hole
 DFD .                9.5:   Density
 DFV .                 34:   Viscosity
 DFPH.                8.5:   pH
 DFL .                 14:   Fluid loss
 MSS .           FLOWLINE:   Source of sample
 RMS .OHMM           0.34:   Rm
 MST .F                86:   Rm Meas. temp.
 RMF .OHMM           0.25:   Rmf
 MFST.F                86:   Rmf Meas. temp.
 MFSS.            FANN KL:   Source Rmf.
 RMC .OHMM           0.55:   Rmc
 MCST.F                86:   Rmc Meas. temp.
 MCSS.            FANN KL:   Source Rmc.
 RMB .OHMM           0.31:   Rm. at BHT
 BHT .F                92:   BHT.
 TCS .HRS             2.5:   Time Circ. stopped
 MRT .F                92:   Maximum recorded temp.
 LUN .               8611:   Logging unit number
 LUL .             CASPER:   Logging unit location
 ENGI.            C. DOAK:   Recorded By
 WITN.            K. JAPP:   Witnessed by
 ORIG.           5" PRINT:   Origin of data
 UWI .     49025103250000:   Unique Well ID
 DICO. A2D TECHNOLOGIES, INC.:   Digitizing Company
~OTHER INFORMATION
~A   DEPT       GRD        CALD      CORR        RHOB      SPR        ILD        ILM       SGRD   
# ...
 1146.5000    74.5375    10.0471     0.0194     2.4875   -38.5817     7.4374     8.1792     9.5200
 1147.0000    74.8517    10.0486     0.0226     2.4891   -38.5649     7.4410     8.1973     9.5240
 1147.5000    75.0175    10.0353     0.0227     2.4914   -38.5515     7.3934     8.2440     9.5944
 1148.0000    75.4800    10.0220     0.0228     2.4892   -38.5381     7.3969     8.2479     9.6087
 1148.5000    75.7942    10.0235     0.0200     2.4863   -38.5247     7.3496     8.2515     9.6685
 1149.0000    76.1083    10.0102     0.0201     2.4848   -38.5112     7.3539     8.3126     9.7391
 1149.5000    76.4225    10.0121     0.0202     2.4872   -38.4978     7.3574     8.3166     9.5431
 1150.0000    76.2915     9.9985     0.0180     2.4895   -38.6319     7.3603     8.3205     9.3529
 1150.5000    75.8638    10.0003     0.0196     2.4877   -38.8674     7.3644     8.2674     9.2916
 1151.0000    75.2849    10.0018     0.0197     2.4862   -38.7069     7.3679     8.2146     9.4902
 1151.5000    74.4150    10.0182     0.0198     2.4844   -38.6915     7.3714     8.1621     9.5595
 1152.0000    73.8433    10.0345     0.0199     2.4822   -38.6789     7.3749     8.1669     9.3039
 1152.5000    73.4156    10.0361     0.0200     2.4807   -38.5222     7.3269     8.1708     9.1175
 1153.0000    72.9836    10.0673     0.0201     2.4785   -38.6539     7.2800     8.0629     9.1214
 1153.5000    72.1152    10.0688     0.0217     2.4771   -38.6380     7.2841     8.0105     9.1888
 1154.0000    71.5347    10.0703     0.0217     2.4839   -38.7758     7.2878     7.9593     9.3198
 1154.5000    73.0402    10.0719     0.0218     2.4945   -39.0547     7.2913     7.9085     9.3236
 1155.0000    74.2446    10.0437     0.0219     2.4990   -39.1925     7.2947     7.8589     9.4566
 1155.5000    75.3006    10.0456     0.0220     2.5006   -39.1767     7.2982     7.8626     9.3956
 1156.0000    75.9114    10.0469     0.0236     2.5021   -39.1610     7.3017     7.8124     9.3340
 1156.5000    75.6321    10.0486     0.0239     2.5060   -39.1485     7.3052     7.7625     9.2111
 1157.0000    75.3427    10.0581     0.0253     2.5075   -39.1359     7.3088     7.7663     9.1515
 1157.5000    74.9251    10.0813     0.0269     2.5083   -39.1233     7.3123     7.6646     9.0925
 1158.0000    74.6502    10.0829     0.0270     2.5069   -39.1105     7.3164     7.6156     8.9720
 1158.5000    74.2225    10.1141     0.0271     2.5054   -39.0972     7.3194     7.5670     9.0428
 1159.0000    74.2399    10.1304     0.0287     2.5039   -39.0839     7.3234     7.6228     9.3043
 1159.5000    74.4057    10.1468     0.0287     2.5032   -39.0698     7.2761     7.6791     9.6235
 1160.0000    74.2704    10.1335     0.0273     2.5041   -39.0572     7.2796     7.7891     9.6938
 1160.5000    73.8471    10.1354     0.0274     2.5019   -39.0442     7.2326     7.7928     9.6303
 1161.0000    73.5634    10.1217     0.0275     2.4937   -38.8816     7.2369     7.8503     9.4374
 1161.5000    73.5852    10.1236     0.0276     2.4869   -38.8691     7.1903     7.9082     9.3123
 1162.0000    73.8993    10.0954     0.0277     2.4795   -38.8565     7.1446     7.9119     9.1267
 1162.5000    74.2199    10.0969     0.0278     2.4788   -39.0004     7.1480     7.9157     9.1304
 1163.0000    74.5474    10.0684     0.0264     2.4797   -39.1521     7.1022     7.8651     9.1341
 1163.5000    74.8461    10.0406     0.0250     2.4835   -39.3037     7.1056     7.8149     9.1378
 1164.0000    74.4184    10.0125     0.0250     2.4857   -39.4554     7.1090     7.8195     9.1414
 1164.5000    73.6940    10.0140     0.0254     2.4895   -39.6123     7.1616     7.7154     9.1452
 1165.0000    73.4104     9.9859     0.0252     2.4911   -39.6023     7.1651     7.6135     9.1490
 1165.5000    73.4321     9.9878     0.0238     2.4911   -39.5920     7.1692     7.5131     9.1535
 1166.0000    73.7463     9.9893     0.0224     2.4942   -39.5797     7.2223     7.4651     9.1572
 1166.5000    74.0604     9.9908     0.0240     2.5002   -39.5714     7.1752     7.4695     9.1609
 1167.0000    74.2262     9.9921     0.0260     2.5063   -39.5611     7.1789     7.5246     9.1646
 1167.5000    74.5404    10.0087     0.0287     2.5131   -39.5496     7.1829     7.6324     8.9195
 1168.0000    75.0030    10.0250     0.0288     2.5162   -39.5405     7.1863     7.6360     8.8003
 1168.5000    75.3175    10.0266     0.0289     2.5125   -39.5302     7.1897     7.7745     8.9883
 1169.0000    75.6356    10.0281     0.0259     2.5072   -39.5187     7.1931     7.8566     9.1794
 1169.5000    75.8014    10.0593     0.0230     2.5002   -39.5096     7.1966     7.8611     9.2465
 1170.0000    75.8188    10.0757     0.0231     2.4856   -39.4993     7.2000     7.8648     9.2502
 1170.5000    75.6835    10.0921     0.0232     2.4871   -39.4890     7.2230     7.8685     9.1905
 1171.0000    75.4042    10.0939     0.0233     2.4925   -39.4769     7.2566     7.8722     9.1944
 1171.5000    75.2732    10.0954     0.0234     2.4978   -39.4668     7.2601     7.8759     9.1982
 1172.0000    76.0368    10.1266     0.0235     2.5016   -39.4568     7.3138     7.8796     9.2026
 1172.5000    76.4994    10.1281     0.0236     2.5031   -39.4468     7.3173     7.8834     9.2058
 1173.0000    76.3684    10.1445     0.0237     2.5032   -39.2894     7.3209     7.8869     9.2098
 1173.5000    76.0890    10.1460     0.0238     2.5010   -39.2794     7.2740     7.8908     9.2134
 1174.0000    75.4917    10.1475     0.0223     2.4980   -39.2695     7.2783     7.8945     9.2172
 1174.5000    74.5690    10.1639     0.0224     2.4958   -39.2592     7.2817     7.9528     9.2213
 1175.0000    74.2126    10.1654     0.0225     2.5041   -39.2489     7.2846     8.0116     9.2250
 1175.5000    75.2729    10.1670     0.0241     2.5126   -39.2386     7.3391     8.0708     9.2287
 1176.0000    75.8838    10.1689     0.0242     2.5186   -39.2267     7.3426     8.1310     9.2324
 1176.5000    76.4947    10.1505     0.0243     2.5178   -39.0694     7.3969     8.1349     9.2363
 1177.0000    76.8089    10.1418     0.0229     2.5156   -39.0604     7.4004     8.1949     9.3038
 1177.5000    76.9746    10.1435     0.0230     2.5149   -39.0464     7.4551     8.1987     9.3726
 1178.0000    76.8393    10.1156     0.0216     2.5172   -38.8925     7.4587     8.2026     9.4412
 1178.5000    76.4160    10.1171     0.0217     2.5225   -38.8803     7.4995     8.2065     9.5102
 1179.0000    75.9883    10.1185     0.0217     2.5256   -38.8712     7.5046     8.1539     9.5140
 1179.5000    76.3027    10.1202     0.0218     2.5226   -38.8616     7.5096     8.0465     9.5178
 1180.0000    76.6172    10.1217     0.0234     2.5189   -38.9312     7.5147     7.9951     9.5217
 1180.5000    76.7868    10.1232     0.0250     2.5197   -38.9882     7.5193     7.9989     9.5256
 1181.0000    76.8042    10.1248     0.0266     2.5228   -38.9775     7.5245     7.9478     9.5294
 1181.5000    76.6689    10.1266     0.0282     2.5259   -38.9676     7.5298     7.9524     9.4678
 1182.0000    76.6907    10.1427     0.0283     2.5289   -38.9573     7.5357     7.9562     9.4068
 1182.5000    77.0048    10.1591     0.0269     2.5252   -38.9465     7.5401     7.9594     9.4107
 1183.0000    77.4673    10.1609     0.0270     2.5200   -38.9365     7.5462     7.9632     9.4146
 1183.5000    77.9299    10.1622     0.0255     2.5140   -38.9264     7.5505     7.9675     9.3539
 1184.0000    77.9473    10.1639     0.0257     2.5051   -38.9161     7.5557     7.9709     9.3471
 1184.5000    77.2229    10.1654     0.0212     2.4976   -38.9039     7.5609     7.9750     9.2971
 1185.0000    76.7902    10.1373     0.0198     2.4932   -39.0436     7.5661     7.9787     9.3018
 1185.5000    75.5947    10.1388     0.0169     2.4902   -39.0311     7.5863     7.9824     9.3055
 1186.0000    74.4605    10.1255     0.0140     2.4888   -39.0211     7.6291     7.9863     9.3093
 1186.5000    73.7361    10.1271     0.0141     2.4888   -39.1608     7.6343     7.9901     9.2483
