~VERSION INFORMATION
 VERS.                2.0:   CWLS LOG ASCII STANDARD - VERSION 2.0
 WRAP.                 NO:   ONE LINE PER DEPTH STEP
~WELL INFORMATION
#MNEM.UNIT      DATA TYPE    INFORMATION
#----------   ------------   ------------------------------
 STRT.F            0.5000:   START DEPTH
 STOP.F         5663.0000:   STOP DEPTH
 STEP.F            0.5000:   STEP LENGTH
 NULL.          -999.2500:   NO VALUE
 COMP.         U. S. NAVY:   COMPANY
 WELL.         US TP #1-3:   WELL
 FLD . TEAPOT NAVAL RESERVE:   FIELD
 LOC .       S3 T38N R78W:   LOCATION
 CNTY.            NATRONA:   COUNTY
 STAT.            WYOMING:   STATE
 CTRY. UNITED STATES OF AMERICA:   COUNTRY
 SRVC.       SCHLUMBERGER:   SERVICE COMPANY
 DATE.        27-FEB-1953:   LOGDATE
 API .     49025064250000:   API NUMBER
~CURVE INFORMATION
#MNEM.UNIT       API CODE    CURVE DESCRIPTION
#----------   ------------   ------------------------------
 DEPT.F                  :   
 SPR .MV     01 010 01 00:   SPONTANEOUS POTENTIAL FROM RES.
 ASN .OHMM   01 041 16 00:   AMPLIFIED SHORT NORMAL 16"
 LAT .OHMM   01 070 00 00:   LATERAL
 LN  .OHMM   01 060 64 00:   LONG NORMAL 64"
 GRN .CPS    35 310 01 00:   GAMMA RAY
 NEUT.NAPI   35 330 01 00:   NEUTRON
~PARAMETER INFORMATION
#MNEM.UNIT          VALUE    DESCRIPTION
#----------   ------------   ------------------------------
 EKB .F            0.0000:   Kelly bushing
 EGL .F            0.0000:   Ground level
 EDF .F            0.0000:   Drilling floor
 EPD .F            0.0000:   Permanent datum
 TD  .F         5653.0000:   Total depth
 DATE.        27-FEB-1953:   Date logged
 CLNT.            A2DTECH:   Client Code
 DD  .F              5653:   Depth driller
 DL  .F              5653:   Depth logger
 BLI .F              5652:   Bottom log interval
 TLI .F               446:   Top log interval
 CBD1.F               445:   Casing driller 1
 CBL1.F               446:   Casing logger 1
 BS1 .IN                9:   Bit size
 BSD1.F              5653:   Depth drilled with bit1
 DFT .          LIMA/BASE:   Type fluid in hole
 DFD .                9.9:   Density
 DFV .                 43:   Viscosity
 RMS .OHMM            1.1:   Rm
 MST .F                55:   Rm Meas. temp.
 RMB .OHMM            .34:   Rm. at BHT
 BHT .F               166:   BHT.
 TCS .HRS               1:   Time Circ. stopped
 MRT .F               166:   Maximum recorded temp.
 LUN .                728:   Logging unit number
 LUL .               CSPR:   Logging unit location
 ENGI.            EVENSON:   Recorded By
 WITN.              MILLS:   Witnessed by
 ORIG.      1" 2.5" PRINT:   Origin of data
 UWI .     49025064250000:   Unique Well ID
 DICO. A2D TECHNOLOGIES, INC.:   Digitizing Company
~OTHER INFORMATION
~A  DEPTH      SPR        ASN        LAT         LN        GRN       NEUT
# ...
 5252.5000   -45.0068    11.4247    37.5637    25.2147    30.7500   328.5562
 5253.0000   -44.8916    12.0968    27.6168    25.0767    27.0000   466.0188
 5253.5000   -44.6213    12.9032    22.1054    24.6669    20.2500   658.4813
 5254.0000   -44.3216    14.1129    21.5671    24.5288    17.7500   865.9437
 5254.5000   -44.0464    16.1290    26.2708    24.1190    14.0000   945.9062
 5255.0000   -43.9431    17.4731    31.7808    23.8447    13.7500   953.3688
 5255.5000   -43.9472    19.4892    36.2156    23.4349    13.0000   925.8312
 5256.0000   -43.9518    20.8333    39.8440    22.8892    11.0000   835.7938
 5256.5000   -43.9553    21.7742    43.0691    21.9359    10.2500   853.2562
 5257.0000   -43.9594    22.0430    46.5631    20.8468    10.7500   863.2313
 5257.5000   -43.9636    21.5054    47.2042    19.2138    12.7500   855.6813
 5258.0000   -43.9676    19.8925    49.6531    18.6681    16.0000   785.6437
 5258.5000   -43.9722    17.7419    57.7170    19.2094    21.5000   565.6063
 5259.0000   -43.9761    14.6505    64.4367    20.1583    25.1240   255.5687
 5259.5000   -43.9797    11.5591    65.7803    20.4282    28.9862   225.5313
 5260.0000   -43.9840    10.2151    64.4354    19.8818    34.7500   225.4937
 5260.5000   -43.9886     9.8118    55.0261    19.3361    45.7500   250.4563
 5261.0000   -43.9919     9.8118    50.1297    19.0622    49.5000   325.4188
 5261.5000   -43.9959     9.8118    47.3635    18.9241    51.7500   472.8812
 5262.0000   -44.0004    10.6183    39.7015    18.7861    54.0000   515.3438
 5262.5000   -44.0041    11.5591    24.6471    18.7839    54.8282   525.3125
 5263.0000   -44.0081    12.5000    17.2540    18.7813    55.7500   527.7812
 5263.5000   -44.0129    13.4409    16.5812    18.9157    53.7500   477.7313
 5264.0000   -44.0163    13.9785    16.5805    19.5925    51.4654   315.1937
 5264.5000   -44.0203    14.2473    16.4455    20.8128    49.0000   320.1562
 5265.0000   -44.0244    14.3817    16.1760    22.0334    48.0000   322.6312
 5265.5000   -44.0285    14.3817    15.3549    24.3406    47.7500   320.0813
 5266.0000   -44.0325    14.5161    14.4255    26.6482    49.0000   287.5438
 5266.5000   -44.0366    14.6505    13.4858    27.7333    54.5000   265.0062
 5267.0000   -44.0406    15.0538    12.2754    28.2746    59.2500   262.4813
 5267.5000   -44.0447    15.1882    10.7963    28.8159    60.0000   297.4312
 5268.0000   -44.0491    15.7258     9.5860    29.4927    58.7500   327.4000
 5268.5000   -44.0528    16.2634     8.6445    30.0340    54.7500   337.3687
 5269.0000   -44.0570    17.0699     8.1062    30.0314    46.7500   334.8187
 5269.5000   -44.0610    17.7419     7.7022    30.0292    41.7500   404.7812
 5270.0000   -44.0650    18.2796     7.9703    30.4346    37.7500   567.2437
 5270.5000   -44.0691    18.4140     9.7170    30.9756    39.7500   574.7188
 5271.0000   -44.0732    18.4140    12.1357    32.0603    41.7987   452.1688
 5271.5000   -44.0772    18.2796    14.2856    33.2809    42.7500   344.6312
 5272.0000   -44.0813    18.0108    16.1665    34.3657    46.5000   287.0938
 5272.5000   -44.0854    17.8763    17.3952    35.4505    52.0000   254.5562
 5273.0000   -44.0894    17.8763    18.1814    36.3997    52.8208   249.5250
 5273.5000   -44.0935    18.0108    18.1808    37.4838    53.5000   284.4813
 5274.0000   -44.0978    18.2796    18.3145    37.7537    53.7500   379.4437
 5274.5000   -44.1016    18.8172    18.3358    38.0232    48.7500   446.9062
 5275.0000   -44.1057    19.3548    18.5820    38.1569    41.5000   511.8687
 5275.5000   -44.1098    20.0269    20.0597    38.2906    25.7500   554.3312
 5276.0000   -44.1138    20.8333    22.2096    38.1518    17.5000   579.3000
 5276.5000   -44.1179    21.5054    23.9790    38.0137    14.7500   611.7562
 5277.0000   -44.1220    22.5806    27.4502    37.4680    11.7500   666.7188
 5277.5000   -44.1260    23.7903    32.9602    37.4658    10.0000   744.1812
 5278.0000   -44.1301    25.2688    37.1262    37.5995    10.7500   771.6437
 5278.5000   -44.1341    25.8065    44.1148    38.4122    16.7500   774.1187
 5279.0000   -44.1382    26.2097    47.8776    40.1763    24.0000   729.0687
 5279.5000   -44.1423    26.0753    49.6243    43.5708    28.7500   586.5312
 5280.0000   -44.2909    25.2688    59.0321    46.8295    34.5000   383.9937
 5280.5000   -44.4214    24.7312    63.0639    48.4577    44.7500   313.9563
 5281.0000   -44.4260    24.5968    63.0631    53.2664    47.5000   273.9188
 5281.5000   -44.7010    24.3280    57.6861    59.1870    47.4439   266.3875
 5282.0000   -44.7046    24.3280    49.5931    60.5439    42.0000   303.8438
 5282.5000   -44.7087    24.5968    49.5436    60.5410    31.5000   473.8062
 5283.0000   -44.9845    25.0000    49.4851    59.1801    25.7500   633.7687
 5283.5000   -44.9878    25.9409    47.7371    49.3953    21.2500   693.7313
 5284.0000   -44.9924    27.5538    45.8548    47.4905    19.7500   681.1963
 5284.5000   -45.2669    29.4355    46.1229    47.2166    16.0000   668.6562
 5285.0000   -45.2713    30.1075    47.8696    47.2144    14.2500   663.6250
 5285.5000   -45.5991    30.6452    59.0248    47.7561    14.0000   703.5812
 5286.0000   -46.1247    31.1828    61.7123    49.3839    15.0000   753.5438
 5286.5000   -46.3678    31.3172    65.7440    53.4832    12.7500   791.0062
 5287.0000   -46.3717    30.6452    71.1195    57.8063    10.7500   780.9688
 5287.5000   -46.3753    29.4355    74.4792    64.5944    13.7500   683.4312
 5288.0000   -46.1976    28.4946    76.4947    67.3096    16.0000   520.8937
 5288.5000   -45.7831    27.9570    76.4938    68.6665    16.2500   523.3625
 5289.0000   -45.3042    27.8226    76.4933    68.6635    15.2500   550.8187
 5289.5000   -45.3076    27.9570    71.3678    68.6613    14.2500   620.7812
 5290.0000   -45.3117    28.4946    60.3628    67.3004    12.7500   705.7437
 5290.5000   -45.3157    29.4355    52.2977    68.6573    11.7500   793.2062
 5291.0000   -45.3198    30.7796    45.5766    70.0138    11.5000   808.1688
 5291.5000   -45.3239    32.2581    44.5006    70.0109    11.2500   863.1312
 5292.0000   -45.3279    33.3333    44.3655    72.7261    14.5000   895.5938
 5292.5000   -45.3320    34.4086    46.3810    76.8000    17.7500   885.5562
 5293.0000   -45.3360    36.0215    48.6653    80.8742    21.0000   803.0187
 5293.5000   -45.3403    36.6936    54.9818    84.9477    25.7500   612.9813
 5294.0000   -45.3443    37.0968    63.0457    89.0216    28.7500   462.9437
 5294.5000   -45.3489    37.2312    68.4376    97.1712    29.7500   400.4062
 5295.0000   -45.3528    37.6344    69.7649   102.6038    25.7500   372.8750
 5295.5000   -45.3568    38.0376    65.7318   106.6777    18.7500   440.3313
 5296.0000   -45.3604    38.8441    63.6894   109.3929    10.2500   645.2938
 5296.5000   -45.3645    39.9194    61.3663   110.7494     8.0000   832.7562
 5297.0000   -45.3693    41.9355    60.3534   113.4643     5.0000  1032.7188
 5297.5000   -45.3726    45.8333    61.6968   113.4621     4.5000  1132.6813
 5298.0000   -45.3767    47.4462    63.2271   114.8189     6.5000  1182.6438
 5298.5000   -45.3811    48.1183    65.7279   116.1754     5.5000  1232.6062
 5299.0000   -45.3851    49.0591    71.1036   118.8906     3.7500  1245.0813
 5299.5000   -45.3897    49.5968    81.8554   121.6051     2.7500  1142.5312
 5300.0000   -45.6644    50.0003    95.2957   124.3210     2.2500  1099.9938
 5300.5000   -45.6667    50.0998   109.3941   119.5110     4.6635  1072.4565
 5301.0000   -45.6697    49.9788   117.4259   114.0298     6.9812  1039.9194
 5301.5000   -45.6721    49.5950   124.1173   107.1899     9.3079  1004.7422
 5302.0000   -45.6749    48.9195   136.2031   101.7087    13.7139   947.3450
 5302.5000   -45.6775    47.4331   152.3540    96.2275    16.4552   864.8079
 5303.0000   -45.6802    45.6765   165.8021    90.7385    18.7175   642.2706
 5303.5000   -45.6128    43.2442   177.9098    86.6160    21.4379   559.7397
 5304.0000   -45.4144    41.6625   188.6552    85.2109    24.4292   592.1963
