~VERSION INFORMATION
 VERS.                2.0:   CWLS LOG ASCII STANDARD - VERSION 2.0
 WRAP.                 NO:   ONE LINE PER DEPTH STEP
~WELL INFORMATION
#MNEM.UNIT      DATA TYPE    INFORMATION
#----------   ------------   ------------------------------
 STRT.F          176.0000:   START DEPTH
 STOP.F         3380.0000:   STOP DEPTH
 STEP.F            0.5000:   STEP LENGTH
 NULL.          -999.2500:   NO VALUE
 COMP.    PENIX & SCISSON:   COMPANY
 WELL.  FENIX "AX" #85-15:   WELL
 FLD .             NPR #3:   FIELD
 LOC .      S15 T38N R78W:   LOCATION
 CNTY.            NATRONA:   COUNTY
 STAT.            WYOMING:   STATE
 CTRY. UNITED STATES OF AMERICA:   COUNTRY
 SRVC.       SCHLUMBERGER:   SERVICE COMPANY
 DATE.        28-APR-1981:   LOGDATE
 API .     49025108700000:   API NUMBER
~CURVE INFORMATION
#MNEM.UNIT       API CODE    CURVE DESCRIPTION
#----------   ------------   ------------------------------
 DEPT.F                  :   
 TEND.LBS    45 635 01 00:   TENSION FROM DENSITY LOG
 CALD.IN     45 280 60 00:   CALIPER FROM DENSITY LOG
 CORR.G/C3   45 356 01 00:   DENSITY CORRECTION
 GRD .GAPI   45 310 01 00:   GAMMA RAY FROM DENSITY LOG
 RHOB.G/C3   45 350 01 00:   BULK DENSITY
 SFL .OHMM   07 220 01 00:   SHALLOW FOCUSED LOG RESISTIVITY
 ILD .OHMM   07 120 46 00:   INDUCTIONLOG DEEP RESISTIVITY
 ILM .OHMM   07 120 44 00:   INDUCTION LOG MEDIUM RESISTIVITY
 TENR.LBS    07 635 01 00:   TENSION FROM RESISTIVITY
 SPR .MV     07 010 01 00:   SPONTANEOUS POTENTIAL
~PARAMETER INFORMATION
#MNEM.UNIT          VALUE    DESCRIPTION
#----------   ------------   ------------------------------
 EKB .F         5259.0000:   Kelly bushing
 EGL .F         5249.0000:   Ground level
 EDF .F            0.0000:   Drilling floor
 TD  .F         3333.0000:   Total depth
 DATE.        28-APR-1981:   Date logged
 CLNT.            A2DTECH:   Client Code
 SL  . 1927' FSL & 140' FEL:   Surface Location
 PD  .                 GL:   Permanent Datum
 DD  .F              3333:   Depth driller
 DL  .F              3382:   Depth logger
 BLI .F              3376:   Bottom log interval
 TLI .F               182:   Top log interval
 CS1 .IN            8.625:   Casing size
 CBD1.      8.625" @ 181':   Casing driller 1
 CBL1.F               182:   Casing logger 1
 BS1 .IN            7.875:   Bit size
 BSD1.F              3333:   Depth drilled with bit1
 DFT .                GEL:   Type fluid in hole
 DFD .                8.7:   Density
 DFV .                 35:   Viscosity
 DFPH.                9.5:   pH
 DFL .                  7:   Fluid loss
 MSS .               TANK:   Source of sample
 RMS .OHMM           1.79:   Rm
 MST .F                58:   Rm Meas. temp.
 RMF .OHMM           1.43:   Rmf
 MFST.F                58:   Rmf Meas. temp.
 MFSS.               MEAS:   Source Rmf.
 RMB .OHMM            .93:   Rm. at BHT
 BHT .F               112:   BHT.
 TCS .HRS             800:   Time Circ. stopped
 TLAB.HRS             200:   Time logger at bottom
 MRT .F               112:   Maximum recorded temp.
 LUN .               8039:   Logging unit number
 LUL .               CAPR:   Logging unit location
 ENGI.           HARRINER:   Recorded By
 WITN.              SCOTT:   Witnessed by
 ORIG.           5" PRINT:   Origin of data
 UWI .     49025108700000:   Unique Well ID
 DICO. A2D TECHNOLOGIES, INC.:   Digitizing Company
 EPD .               5249:   Elevation Permanent Datum
 LMF .                 KB:   Log Measured From
 DMF .                 KB:   Drilling Measured From
 DAPD.                 10:   Feet Above Permanent Datum
~OTHER INFORMATION
~A   DEPT     TEND       CALD       CORR         GRD      RHOB        SFL        ILD        ILM       TENR        SPR   
# ...
 2052.0000  1400.5870     8.8660     0.0050   118.5220     2.5070    10.6420     7.6320     6.8770  1415.8979   -26.4750
 2052.5000  1398.7900     8.8740     0.0030   117.6180     2.4970    10.8100     7.6650     7.0020  1416.2310   -26.2650
 2053.0000  1396.9930     8.8830     0.0030   121.7550     2.4890    10.2960     7.6650     7.0020  1416.5640   -26.1970
 2053.5000  1395.1960     8.8920     0.0020   126.3970     2.4790     9.6970     7.5280     6.7530  1416.8970   -26.4950
 2054.0000  1393.3990     8.9010     0.0010   132.7110     2.4730     9.0980     7.4770     6.6880  1417.2300   -26.7520
 2054.5000  1391.6021     8.9090     0.0000   131.0610     2.4830     8.4980     7.3760     6.6160  1417.5630   -27.0290
 2055.0000  1389.8060     8.9180     0.0000   126.5470     2.4990     7.9480     7.2750     6.5450  1417.8960   -27.2940
 2055.5000  1388.0090     8.9270    -0.0010   122.7130     2.5140     8.6510     7.1750     6.4730  1418.2290   -27.5710
 2056.0000  1386.2120     8.9350     0.0030   118.3250     2.5290     9.3020     7.0740     6.4020  1418.5620   -27.8310
 2056.5000  1384.4150     8.9440     0.0150   118.3510     2.5380    10.0560     6.9740     6.3300  1418.8960   -28.1230
 2057.0000  1382.6180     8.9530     0.0220   122.2820     2.5320     9.6960     6.8770     6.2590  1419.2290   -28.1490
 2057.5000  1380.8210     8.9600     0.0140   125.6700     2.5170     8.8740     6.8770     6.1870  1419.5620   -28.1530
 2058.0000  1379.0250     8.9590     0.0070   129.1510     2.5020     8.3910     6.8770     6.1160  1419.8950   -28.1990
 2058.5000  1377.2280     8.9570     0.0040   132.6300     2.4950     8.2680     6.8770     6.0590  1420.2280   -28.4830
 2059.0000  1375.4310     8.9550     0.0160   136.1910     2.5130     8.1470     6.8770     6.1120  1420.5610   -28.2340
 2059.5000  1373.6340     8.9530     0.0260   139.5120     2.5310     8.0250     6.8770     6.1690  1420.8940   -28.1130
 2060.0000  1371.8370     8.9520     0.0340   143.4750     2.5380     7.9480     6.8770     6.1690  1421.2271   -27.7530
 2060.5000  1370.0400     8.9500     0.0220   143.7720     2.5150     7.9480     6.8770     6.2820  1421.5601   -27.4620
 2061.0000  1368.2430     8.9480     0.0130   143.8430     2.4860     8.3790     6.8770     6.2820  1421.8929   -27.1020
 2061.5000  1366.3370     8.9460     0.0020   142.7170     2.4770     8.7540     6.8770     6.2820  1422.2260   -26.9580
 2062.0000  1367.0420     8.9450     0.0000   141.2990     2.4760     9.0210     6.8770     6.2820  1422.5590   -26.9730
 2062.5000  1368.3710     8.9430    -0.0020   140.3370     2.4810     9.0210     6.8770     6.2820  1422.8920   -26.9680
 2063.0000  1369.7000     8.9410    -0.0020   139.6560     2.4850     8.8040     6.8770     6.2820  1423.2250   -26.9670
 2063.5000  1371.0291     8.9390    -0.0010   138.3350     2.4870     8.6130     6.8770     6.2820  1423.5580   -26.9760
 2064.0000  1372.3590     8.9370     0.0000   137.4160     2.4890     8.4220     6.8770     6.2820  1423.8910   -26.8450
 2064.5000  1373.6880     8.9360     0.0010   134.7250     2.4920     8.2410     6.8760     6.2820  1424.2240   -26.3300
 2065.0000  1375.0170     8.9340     0.0020   131.0510     2.4940     8.2800     6.8780     6.2820  1424.5570   -26.2770
 2065.5000  1376.3459     8.9320     0.0030   127.6840     2.4960     8.4420     6.8790     6.2820  1424.8900   -26.4690
 2066.0000  1377.6750     8.9300     0.0010   126.5100     2.4980     8.6040     6.8710     6.2820  1425.2230   -26.6570
 2066.5000  1379.0040     8.9290     0.0000   129.2620     2.4950     8.8590     6.8860     6.2210  1425.5560   -26.8320
 2067.0000  1380.3340     8.9270     0.0010   134.5460     2.4970     8.8590     6.8770     6.1470  1425.8900   -26.8850
 2067.5000  1381.6630     8.9250     0.0040   139.4960     2.4970     8.5170     6.7530     6.0720  1426.2230   -26.5210
 2068.0000  1382.9919     8.9230     0.0040   144.3860     2.5030     8.2850     6.4760     5.9980  1426.5560   -26.2710
 2068.5000  1384.3210     8.9220    -0.0010   148.9580     2.4950     8.0520     6.1920     5.8430  1426.8890   -26.2230
 2069.0000  1385.6500     8.9230    -0.0030   148.4180     2.4850     7.9480     5.9500     5.5280  1427.2220   -26.3380
 2069.5000  1386.9800     8.9240     0.0050   147.3480     2.4740     7.9480     5.7220     5.1980  1427.5551   -26.4690
 2070.0000  1388.3090     8.9250     0.0190   146.2550     2.4730     7.1830     5.4140     4.8680  1427.8879   -26.6490
 2070.5000  1389.6379     8.9260     0.0320   143.8830     2.4710     6.0000     5.1060     4.5390  1428.2209   -26.9560
 2071.0000  1390.9670     8.9270     0.0420   139.3020     2.4690     4.4540     4.7980     4.3740  1428.5540   -26.7270
 2071.5000  1392.2960     8.9290     0.0270   134.5810     2.4570     4.6180     4.4540     4.2960  1428.8870   -26.5830
 2072.0000  1393.6250     8.9300     0.0060   133.2950     2.4570     5.5310     4.4540     4.2960  1429.2200   -26.4090
 2072.5000  1394.9550     8.9310    -0.0010   137.5430     2.4650     7.1300     4.4540     4.3740  1429.5530   -26.2370
 2073.0000  1396.2841     8.9320     0.0040   140.7690     2.4680     6.9700     4.5360     4.4910  1429.8860   -26.0710
 2073.5000  1397.6130     8.9330     0.0090   139.8550     2.4660     6.6170     4.6880     4.6280  1430.2190   -25.9020
 2074.0000  1398.9420     8.9340     0.0110   137.9780     2.4540     6.2640     4.8330     4.7640  1430.5520   -25.7300
 2074.5000  1400.2710     8.9360     0.0070   137.1130     2.4440     5.8430     4.9780     4.9010  1430.8850   -25.5660
 2075.0000  1401.6000     8.9370     0.0030   136.9060     2.4340     6.4270     5.1230     5.0370  1431.2180   -25.4010
 2075.5000  1402.9301     8.9380    -0.0010   139.0530     2.4450     7.8050     5.2680     5.1480  1431.5510   -25.3980
 2076.0000  1404.2590     8.9390    -0.0010   140.9820     2.4700     7.6640     5.4130     5.1260  1431.8840   -25.4060
 2076.5000  1405.5880     8.9400     0.0060   141.2380     2.4960     7.2930     5.5340     5.0690  1432.2170   -25.6470
 2077.0000  1405.9410     8.9410     0.0120   141.4760     2.5070     6.9220     5.5340     5.0560  1432.5500   -25.8970
 2077.5000  1405.9410     8.9420     0.0170   140.1320     2.5000     6.7530     5.6350     5.0560  1432.8831   -26.1580
 2078.0000  1405.9410     8.9440     0.0140   147.5810     2.4930     6.7910     5.6350     5.1430  1433.2170   -26.4090
 2078.5000  1405.9410     8.9450     0.0090   153.4910     2.4860     6.9050     5.6350     5.2200  1433.5500   -26.6690
 2079.0000  1405.9410     8.9460     0.0050   158.2110     2.4780     7.0190     5.6350     5.2420  1433.8831   -26.9230
 2079.5000  1405.9410     8.9470     0.0060   156.8000     2.4760     7.1330     5.6350     5.2420  1434.1851   -27.1670
 2080.0000  1405.9410     8.9480     0.0080   153.7690     2.4750     7.2600     5.5930     5.2420  1434.1851   -27.5230
 2080.5000  1405.9410     8.9490     0.0140   151.3050     2.4810     7.3930     5.5310     5.2420  1434.1851   -27.7780
 2081.0000  1405.9410     8.9510     0.0190   148.9850     2.4890     7.2110     5.4690     5.2420  1434.1851   -27.7470
 2081.5000  1405.9410     8.9520     0.0250   150.9340     2.4970     6.9360     5.4350     5.1480  1434.1851   -27.7620
 2082.0000  1405.9410     8.9530     0.0250   150.7200     2.5040     6.6620     5.4350     5.0560  1434.1851   -27.6520
 2082.5000  1405.9410     8.9540     0.0180   150.6550     2.5050     6.3870     5.2680     5.0560  1434.1851   -27.2230
 2083.0000  1405.9410     8.9550     0.0070   147.5850     2.4950     6.2820     5.1020     4.7700  1434.1851   -26.8120
 2083.5000  1405.9410     8.9560    -0.0050   141.3480     2.4830     6.2820     4.9370     4.4540  1434.1851   -26.3720
 2084.0000  1405.9410     8.9580    -0.0010   135.4860     2.4700     5.9630     4.7720     4.1380  1434.1851   -25.9600
 2084.5000  1405.9410     8.9590     0.0240   132.4570     2.4580     5.4240     4.6070     4.0340  1434.1851   -25.5380
 2085.0000  1405.9410     8.9600     0.0480   134.2380     2.4470     4.5360     4.3740     3.9960  1434.1851   -25.0230
