~VERSION INFORMATION
 VERS.                2.0:   CWLS LOG ASCII STANDARD - VERSION 2.0
 WRAP.                 NO:   ONE LINE PER DEPTH STEP
~WELL INFORMATION
#MNEM.UNIT      DATA TYPE    INFORMATION
#----------   ------------   ------------------------------
 STRT.F         1053.5000:   START DEPTH
 STOP.F         3062.0000:   STOP DEPTH
 STEP.F            0.5000:   STEP LENGTH
 NULL.          -999.2500:   NO VALUE
 COMP.    FENIX & SCISSON:   COMPANY
 WELL.  FENIX "A" #301-11:   WELL
 FLD .              NPR-3:   FIELD
 LOC .      S11 T38N R78W:   LOCATION
 CNTY.            NATRONA:   COUNTY
 STAT.            WYOMING:   STATE
 CTRY. UNITED STATES OF AMERICA:   COUNTRY
 SRVC.      NL MCCULLOUGH:   SERVICE COMPANY
 DATE.        13-OCT-1977:   LOGDATE
 API .     49025104410000:   API NUMBER
~CURVE INFORMATION
#MNEM.UNIT       API CODE    CURVE DESCRIPTION
#----------   ------------   ------------------------------
 DEPT.F                  :   
 GR  .GAPI   35 310 01 00:   GAMMA RAY
 NEUT.NAPI   35 330 01 00:   NEUTRON
~PARAMETER INFORMATION
#MNEM.UNIT          VALUE    DESCRIPTION
#----------   ------------   ------------------------------
 EDF .F         5165.0000:   Drilling floor
 TD  .F         3097.0000:   Total depth
 CLNT.            A2DTECH:   Client Code
 PD  .                 DF:   Permanent Datum
 EPD .F              5165:   Elevation Permanent Datum
 LMF .                 GL:   Log Measured From
 DMF .                 DF:   Drilling Measured From
 DATE.        13-OCT-1977:   Date Logged [DD-MMM-YYYY]
 DD  .F              3097:   Depth driller
 BLI .F              3060:   Bottom log interval
 TLI .F              1060:   Top log interval
 BSD1.F              3097:   Depth drilled with bit1
 DFT .              WATER:   Type fluid in hole
 ENGI.            MUNDELL:   Recorded By
 ORIG.           5" PRINT:   Origin of data
 UWI .     49025104410000:   Unique Well ID
 DICO. A2D TECHNOLOGIES, INC.:   Digitizing Company
~OTHER INFORMATION
~A  DEPT         GR      NEUT   
# ...
 2390.0000    81.6413   266.1374
 2390.5000    82.1111   266.1320
 2391.0000    83.4114   267.2420
 2391.5000    85.5402   265.0059
 2392.0000    86.6322   265.0003
 2392.5000    88.5019   264.9937
 2393.0000    92.2384   264.4307
 2393.5000    95.0415   260.5218
 2394.0000    95.9779   262.7470
 2394.5000    98.6254   263.3941
 2395.0000   100.8846   260.5056
 2395.5000   105.1658   260.5001
 2396.0000   102.6798   264.9547
 2396.5000   100.9709   267.1812
 2397.0000   101.5969   268.8474
 2397.5000   107.6668   275.5338
 2398.0000   110.0809   285.5661
 2398.5000   113.0616   262.6971
 2399.0000   115.7339   253.6006
 2399.5000   116.0452   248.7451
 2400.0000   115.2654   273.8326
 2400.5000   113.8580   293.9025
 2401.0000   113.7036   296.1291
 2401.5000   114.4902   278.8352
 2402.0000   112.4566   271.5804
 2402.5000   111.9895   254.2372
 2403.0000   114.9709   247.3336
 2403.5000   115.1306   244.2394
 2404.0000   115.6038   245.9056
 2404.5000   118.2710   235.8626
 2405.0000   120.9382   223.5889
 2405.5000   125.1726   212.4305
 2406.0000   126.6489   202.3875
 2406.5000   127.8435   200.1513
 2407.0000   128.3167   200.7024
 2407.5000   127.8496   203.4852
 2408.0000   125.3451   204.0388
 2408.5000   120.9601   190.0909
 2409.0000   112.6574   182.8360
 2409.5000   109.5261   180.0424
 2410.0000   106.8649   177.8063
 2410.5000   105.7709   179.4726
 2411.0000   107.4986   181.6978
 2411.5000   109.5389   182.2514
 2412.0000   109.6979   180.0141
 2412.5000   108.9173   173.3169
 2413.0000   107.0405   172.1962
 2413.5000   105.9465   183.3686
 2414.0000   107.5175   185.0114
 2414.5000   106.4235   184.4470
 2415.0000   103.9190   186.6722
 2415.5000   104.5489   186.1455
 2416.0000   105.3355   186.1241
 2416.5000   104.3982   183.8721
 2417.0000   104.8100   181.0624
 2417.5000   108.3230   182.7703
 2418.0000   107.5424   184.9231
 2418.5000   103.9409   183.7810
 2419.0000   102.0634   181.5290
 2419.5000   100.4992   176.4887
 2420.0000   100.5022   174.7943
 2420.5000   101.9158   173.0488
 2421.0000   102.7023   169.7326
 2421.5000   101.9218   171.3841
 2422.0000   101.7688   169.1267
 2422.5000   102.2420   169.6630
 2423.0000   101.7749   175.7757
 2423.5000   101.4644   181.3703
 2424.0000   101.1548   196.9181
 2424.5000    98.8063   199.1326
 2425.0000   100.8466   195.7599
 2425.5000   100.0668   189.6044
 2426.0000   101.1669   181.7759
 2426.5000   101.7968   169.4862
 2427.0000   102.1133   155.9565
 2427.5000   102.4304   146.5743
 2428.0000   103.6872   136.5152
 2428.5000   107.7648   134.2632
 2429.0000   108.2380   133.6841
 2429.5000   109.1813   131.9897
 2430.0000   107.7739   128.0641
 2430.5000   106.4998   130.2686
 2431.0000   107.9374   133.5930
 2431.5000   108.4106   131.8987
 2432.0000   105.2793   128.5313
 2432.5000   103.5584   108.4345
 2433.0000   102.7777    97.1326
 2433.5000   102.2878    91.6569
 2434.0000   100.9040    92.7561
 2434.5000   100.7496    88.8258
 2435.0000    99.9698    87.1314
 2435.5000    97.1519    91.5711
 2436.0000    95.7445   105.0371
 2436.5000    95.5749   109.3730
 2437.0000    97.3645   111.5769
 2437.5000    98.4185   112.6761
 2438.0000    99.2051   114.3222
 2438.5000   101.2454   122.6655
 2439.0000   103.1290   135.5920
 2439.5000   103.9156   142.6927
 2440.0000   103.2918   150.4783
 2440.5000   103.3184   153.2505
 2441.0000   104.2226   142.0707
 2441.5000   105.1812   130.8963
 2442.0000   105.3417   126.3250
 2442.5000   105.6582   124.7140
 2443.0000   105.8186   124.6925
 2443.5000   106.6052   125.7864
 2444.0000   110.9963   126.8803
 2444.5000   112.8799   126.2293
 2445.0000   112.7262   127.9527
 2445.5000   109.5949   125.1377
 2446.0000   107.6965   122.3280
 2446.5000   106.7808   116.7301
 2447.0000   103.6495   119.4969
 2447.5000   103.4951   127.8402
 2448.0000   104.1257   128.9341
 2448.5000   104.1287   130.5802
 2449.0000   103.9750   135.5830
 2449.5000   104.1355   133.3256
 2450.0000   104.7778   133.3042
 2450.5000   104.9234   134.4034
 2451.0000   105.3951   145.5296
 2451.5000   104.9265   148.3828
 2452.0000   103.9877   147.7119
 2452.5000   102.5788   140.9987
 2453.0000   101.6400   137.6314
 2453.5000   102.2687   150.9936
 2454.0000   103.0538   161.0098
 2454.5000   103.6822   174.1173
 2455.0000   104.1539   181.5946
 2455.5000   103.8420   182.6938
 2456.0000   102.7465   183.2247
 2456.5000   101.8077   189.8950
 2457.0000   101.6525   213.6074
 2457.5000   101.6544   215.8380
 2458.0000   102.4395   206.9156
 2458.5000   105.2619   197.9932
 2459.0000   106.8302   184.6096
 2459.5000   102.7575   182.9367
 2460.0000   101.6616   193.0092
 2460.5000   102.9173   209.1462
 2461.0000   100.9778   210.2615
 2461.5000    98.6890   200.2238
 2462.0000   104.1759   182.9367
 2462.5000   105.4312   177.3602
 2463.0000   105.5891   175.1296
 2463.5000   103.2402   175.1296
 2464.0000   102.1447   187.7345
 2464.5000   101.6761   200.2238
 2465.0000   101.3642   219.1839
 2465.5000   101.8359   235.9133
 2466.0000   100.1139   247.0663
 2466.5000    99.8016   249.2969
 2467.0000   100.4303   234.7980
 2467.5000   100.7453   231.4521
 2468.0000   101.0602   229.7197
 2468.5000   101.8453   223.6451
 2469.0000   102.7904   218.0686
 2469.5000   103.5723   207.4733
 2470.0000   103.1040   192.4167
 2470.5000   101.6951   192.9744
 2471.0000    99.0324   190.1861
 2471.5000    97.6235   166.2072
 2472.0000    96.5280   156.4108
 2472.5000    95.9027   143.9013
 2473.0000    95.5907   134.9789
 2473.5000    95.9262   128.8448
 2474.0000    96.3777   111.0000
 2474.5000    98.7300   114.9035
 2475.0000   101.2386   122.1530
 2475.5000   101.0834   143.3436
 2476.0000   101.2420   172.0788
 2476.5000   101.0868   205.2426
 2477.0000    99.9913   219.1839
 2477.5000   100.6197   221.9721
 2478.0000   100.3078   219.1839
 2478.5000   102.5037   203.5697
 2479.0000   104.3859   199.1085
 2479.5000   104.7004   201.3391
 2480.0000   103.2919   201.2280
 2480.5000    97.9650   196.8779
 2481.0000    96.7128   197.9932
 2481.5000    95.3951   197.4356
 2482.0000    93.8950   205.8003
 2482.5000    96.0909   211.9344
 2483.0000    98.7566   216.9533
 2483.5000   101.7358   221.9721
 2484.0000   102.5209   217.3067
 2484.5000   102.3657   204.1273
 2485.0000   101.2702   199.6662
 2485.5000   100.4464   194.6473
 2486.0000    99.2363   187.9555
 2486.5000    99.3945   186.2826
 2487.0000   102.2169   186.8402
 2487.5000   104.8826   209.7038
 2488.0000   105.1976   221.5042
 2488.5000   104.4155   225.8757
 2489.0000   102.0663   225.8757
 2489.5000    99.4036   226.9910
 2490.0000    99.2484   225.8757
 2490.5000    98.3100   222.5298
 2491.0000    96.5877   216.9533
 2491.5000    95.3355   211.3768
 2492.0000    96.2773   197.3333
 2492.5000    96.7486   189.0708
 2493.0000    94.8699   189.0708
 2493.5000    94.2347   194.0897
 2494.0000    95.3434   206.9156
 2494.5000    96.7554   214.7227
 2495.0000    96.4435   232.5674
 2495.5000    96.1316   241.4898
 2496.0000    95.1928   246.5087
 2496.5000    96.2913   240.1927
 2497.0000    98.1735   221.4145
 2497.5000    97.5402   220.2992
 2498.0000    96.9228   218.0686
 2498.5000    96.9247   221.4145
 2499.0000    99.1202   223.6451
 2499.5000   102.4128   224.2027
 2500.0000   102.0031   226.9910
 2500.5000   102.4710   232.1467
 2501.0000   102.7829   247.0663
 2501.5000   102.1550   250.4122
 2502.0000    99.0239   251.5275
 2502.5000    96.9881   252.6428
 2503.0000    94.4619   253.7581
 2503.5000    93.8550   248.1816
 2504.0000    89.4720   239.2592
 2504.5000    89.4705   234.0553
 2505.0000    89.3125   223.6451
 2505.5000    89.7804   201.5264
 2506.0000    91.0307   182.6707
 2506.5000    92.6045   182.0861
 2507.0000    93.0620   172.5845
 2507.5000    89.9304   168.6594
 2508.0000    87.5817   166.9648
 2508.5000    88.2065   161.9244
 2509.0000    89.3000   148.1687
 2509.5000    90.2374   136.2241
 2510.0000    88.3580   117.2424
 2510.5000    85.0703   106.0679
 2511.0000    83.1907    96.0140
