~VERSION INFORMATION
 VERS.                2.0:   CWLS LOG ASCII STANDARD - VERSION 2.0
 WRAP.                 NO:   ONE LINE PER DEPTH STEP
~WELL INFORMATION
#MNEM.UNIT      DATA TYPE    INFORMATION
#----------   ------------   ------------------------------
 STRT.F           15.0000:   START DEPTH
 STOP.F         3245.5000:   STOP DEPTH
 STEP.F            0.5000:   STEP LENGTH
 NULL.          -999.2500:   NO VALUE
 COMP. LAWRENCE ALLISON AND ASSOCIATES:   COMPANY
 WELL. LAWRENCE ALLISON 11 X34 #3-3:   WELL
 FLD .             NPR #3:   FIELD
 LOC .       S3 T38N R78W:   LOCATION
 CNTY.            NATRONA:   COUNTY
 STAT.            WYOMING:   STATE
 CTRY. UNITED STATES OF AMERICA:   COUNTRY
 SRVC.      DRESSER ATLAS:   SERVICE COMPANY
 DATE.        23-MAY-1985:   LOGDATE
 API .     49025110530000:   API NUMBER
~CURVE INFORMATION
#MNEM.UNIT       API CODE    CURVE DESCRIPTION
#----------   ------------   ------------------------------
 DEPT.F                  :   
 SPR .MV     07 010 01 00:   SPONTANEOUS POTENTIAL
 GRR .GAPI   07 310 01 00:   GAMMA RAY FROM RESISTIVITY
 SFL .OHMM   07 220 01 00:   SHALLOW FOCUSED LOG RES.
 ILD .OHMM   07 120 46 00:   INDUCTION LOG DEEP RESISTIVITY
 ILM .OHMM   07 120 44 00:   INDUCTION LOG MEDIUM RESISTIVITY
 TENR.LBS    07 635 01 00:   TENSION
 CALR.IN     07 280 01 00:   CALIPER FROM RESISTIVITY
 RHOB.G/C3   45 350 01 00:   BULK DENSITY
 CORR.G/C3   45 356 01 00:   DENSITY CORRECTION
 CNC .DEC    42 890 03 00:   NEUTRON POROSITY SANDSTONE
~PARAMETER INFORMATION
#MNEM.UNIT          VALUE    DESCRIPTION
#----------   ------------   ------------------------------
 EKB .F         5099.0000:   Kelly bushing
 EGL .F         5087.0000:   Ground level
 EDF .F            0.0000:   Drilling floor
 EPD .F         5087.0000:   Permanent datum
 TD  .F         3240.0000:   Total depth
 DATE.         2-MAY-1985:   Date logged
 CLNT.            A2DTECH:   Client Code
 PD  .                 GL:   Permanent Datum
 DD  .F              3239:   Depth driller
 DL  .F              3242:   Depth logger
 BLI .F              3240:   Bottom log interval
 TLI .F                15:   Top log interval
 CS1 .IN            8.625:   Casing size
 CBD1.      8.625" @ 487':   Casing driller 1
 CBL1.F               487:   Casing logger 1
 BSD1.F              3239:   Depth drilled with bit1
 DFT .            KCL GEL:   Type fluid in hole
 ENGI.      MACK. EDWARDS:   Recorded By
 WITN.         MR. STRONG:   Witnessed by
 ORIG.           5" PRINT:   Origin of data
 UWI .     49025110530000:   Unique Well ID
 DICO. A2D TECHNOLOGIES, INC.:   Digitizing Company
 DAPD.IN               12:   Feet Above Permanent Datum
 BS1 .              7.875:   Bit size
 DFD .                9.1:   Density
 DFV .                 35:   Viscosity
 DFPH.                  8:   pH
 DFL .                9.8:   Fluid loss
 MSS .           FLOWLINE:   Source of sample
 RMS .OHMM            .27:   Rm
 MST .F                68:   Rm Meas. temp.
 RMF .OHMM             .2:   Rmf
 MFST.F                68:   Rmf Meas. temp.
 MFSS.               MEAS:   Source Rmf.
 RMC .OHMM            .34:   Rmc
 MCST.F                68:   Rmc Meas. temp.
 MCSS.               CALC:   Source Rmc.
 RMB .OHMM            .15:   Rm. at BHT
 BHT .F               126:   BHT.
 TCS .HRS               3:   Time Circ. stopped
 MRT .F               126:   Maximum recorded temp.
 LUN .               6274:   Logging unit number
 LUL .               GLTE:   Logging unit location
~OTHER INFORMATION
~A   DEPT      SPR        GRR        SFL        ILD        ILM       TENR       CALR       RHOB       CORR        CNC   
# ...
  852.5000   -75.6838    69.7772     7.0614     7.8131     6.5004   -50.6964  -999.2500  -999.2500  -999.2500  -999.2500
  853.0000   -75.4834    69.4831     6.9329     7.5312     6.3821   -50.7937  -999.2500  -999.2500  -999.2500  -999.2500
  853.5000   -75.6799    68.2955     6.8068     7.7421     6.3824   -50.8910  -999.2500  -999.2500  -999.2500  -999.2500
  854.0000   -76.0747    67.1074     6.7447     8.0326     6.1520   -60.9796  -999.2500  -999.2500  -999.2500  -999.2500
  854.5000   -75.6759    65.3239     6.7449     7.9593     6.5013   -61.0771  -999.2500  -999.2500  -999.2500  -999.2500
  855.0000   -75.4755    64.1370     6.7452     7.8867     6.7451   -61.1745  -999.2500  -999.2500  -999.2500  -999.2500
  855.5000   -75.2751    67.7121     7.1940     7.9599     7.2605   -61.2720  -999.2500  -999.2500  -999.2500  -999.2500
  856.0000   -75.0747    68.3097     7.5328     7.9602     7.3955   -61.3694  -999.2500  -999.2500  -999.2500  -999.2500
  856.5000   -74.9239    67.4204     7.3281     8.2588     7.5331   -61.4668  -999.2500  -999.2500  -999.2500  -999.2500
  857.0000   -74.6739    67.7210     7.7441     8.8083     7.5333   -61.5643  -999.2500  -999.2500  -999.2500  -999.2500
  857.5000   -74.4735    69.5109     7.8159     8.9721     7.6735   -61.6617  -999.2500  -999.2500  -999.2500  -999.2500
  858.0000   -74.2731    68.6198     7.8162     9.0554     7.8162   -71.7513  -999.2500  -999.2500  -999.2500  -999.2500
  858.5000   -74.0728    68.6228     7.8165     9.1394     7.9616   -71.8488  -999.2500  -999.2500  -999.2500  -999.2500
  859.0000   -74.2692    70.1139     7.8890     9.2242     7.9619   -71.9464  -999.2500  -999.2500  -999.2500  -999.2500
  859.5000   -74.2672    71.9038     8.0358     9.3098     7.9622   -62.0516  -999.2500  -999.2500  -999.2500  -999.2500
  860.0000   -74.2653    71.9050     8.0361     9.3962     8.1103   -72.1415  -999.2500  -999.2500  -999.2500  -999.2500
  860.5000   -74.2632    69.8251     8.0364     9.6595     8.1106   -62.2465  -999.2500  -999.2500  -999.2500  -999.2500
  861.0000   -74.4597    68.6376     8.0367     9.8392     8.1109   -62.3439  -999.2500  -999.2500  -999.2500  -999.2500
  861.5000   -74.4577    68.9382     8.1862     9.8396     8.1112   -62.4414  -999.2500  -999.2500  -999.2500  -999.2500
  862.0000   -74.2574    69.5364     8.1865     9.7498     8.1115   -62.5389  -999.2500  -999.2500  -999.2500  -999.2500
  862.5000   -74.2554    70.4322     8.1118     9.9315     8.1118   -62.6363  -999.2500  -999.2500  -999.2500  -999.2500
  863.0000   -74.2534    69.5423     8.1871     9.7506     8.1121   -72.7269  -999.2500  -999.2500  -999.2500  -999.2500
  863.5000   -74.2514    69.2476     8.1124     9.6550     8.1124   -62.8508  -999.2500  -999.2500  -999.2500  -999.2500
  864.0000   -74.0510    69.2506     8.1127     9.5603     8.1127   -62.9288  -999.2500  -999.2500  -999.2500  -999.2500
  864.5000   -74.2487    67.4678     7.9651     9.4666     7.9651   -63.0457  -999.2500  -999.2500  -999.2500  -999.2500
  865.0000   -74.4033    66.5778     7.8202     9.3738     7.9654   -63.1237  -999.2500  -999.2500  -999.2500  -999.2500
  865.5000   -74.6404    67.1761     7.8205     9.2819     7.8205   -63.2212  -999.2500  -999.2500  -999.2500  -999.2500
  866.0000   -74.8368    68.6672     7.8208     9.1909     7.8207   -83.3060  -999.2500  -999.2500  -999.2500  -999.2500
  866.5000   -75.2317    69.8607     7.6785     9.1008     7.6785   -63.4162  -999.2500  -999.2500  -999.2500  -999.2500
  867.0000   -75.6266    69.8636     7.5389     9.0116     7.5387   -63.5137  -999.2500  -999.2500  -999.2500  -999.2500
  867.5000   -75.6246    68.9737     7.5390     8.8153     7.4016   -53.6172  -999.2500  -999.2500  -999.2500  -999.2500
  868.0000   -75.6226    68.0838     7.4018     8.7349     7.2670   -73.7027  -999.2500  -999.2500  -999.2500  -999.2500
  868.5000   -75.6210    66.8962     7.4021     8.2662     7.2672   -63.8061  -999.2500  -999.2500  -999.2500  -999.2500
  869.0000   -75.4943    67.1968     7.2942     8.1907     7.1350   -63.9036  -999.2500  -999.2500  -999.2500  -999.2500
  869.5000   -75.4179    67.7950     7.1878     8.1910     7.0051   -73.9955  -999.2500  -999.2500  -999.2500  -999.2500
  870.0000   -75.0194    68.0956     7.0830     8.2670     7.0054   -64.0986  -999.2500  -999.2500  -999.2500  -999.2500
  870.5000   -74.8187    69.8844     6.9415     8.0423     7.0056   -64.1961  -999.2500  -999.2500  -999.2500  -999.2500
  871.0000   -74.6183    71.3755     6.9417     7.9689     7.0059   -64.3131  -999.2500  -999.2500  -999.2500  -999.2500
  871.5000   -74.4179    71.3784     7.0062     7.9692     7.0061   -64.4106  -999.2500  -999.2500  -999.2500  -999.2500
  872.0000   -74.2175    70.7879     7.0064     7.9696     7.0064   -84.4783  -999.2500  -999.2500  -999.2500  -999.2500
  872.5000   -74.6123    71.3844     6.9425     7.9699     6.8789   -54.6107  -999.2500  -999.2500  -999.2500  -999.2500
  873.0000   -74.6119    71.9820     7.0069     7.9701     6.8791   -54.7081  -999.2500  -999.2500  -999.2500  -999.2500
  873.5000   -74.8068    73.1761     6.9430     8.0441     6.8793   -54.8055  -999.2500  -999.2500  -999.2500  -999.2500
  874.0000   -74.6064    73.1784     7.0722     8.0444     6.8796   -44.9076  -999.2500  -999.2500  -999.2500  -999.2500
  874.5000   -75.1997    69.0163     6.9435     8.0447     6.8798   -55.0003  -999.2500  -999.2500  -999.2500  -999.2500
  875.0000   -75.3962    66.0424     7.0079     7.9713     6.8801   -55.0977  -999.2500  -999.2500  -999.2500  -999.2500
  875.5000   -75.5942    66.3430     7.0081     7.9716     6.8803   -55.1952  -999.2500  -999.2500  -999.2500  -999.2500
  876.0000   -75.5906    66.6436     7.0084     8.1200     6.8806   -45.2969  -999.2500  -999.2500  -999.2500  -999.2500
  876.5000   -75.5886    66.6466     7.0734     8.0459     6.8808   -55.3900  -999.2500  -999.2500  -999.2500  -999.2500
  877.0000   -75.5875    67.5424     7.0737     8.0462     6.8811   -55.4874  -999.2500  -999.2500  -999.2500  -999.2500
  877.5000   -75.7167    67.8430     7.0091     8.0465     6.8813   -55.5849  -999.2500  -999.2500  -999.2500  -999.2500
  878.0000   -75.7811    67.8460     7.0094     8.1212     6.8816   -55.6823  -999.2500  -999.2500  -999.2500  -999.2500
  878.5000   -75.7792    69.6347     6.9454     8.0471     6.8818   -55.7797  -999.2500  -999.2500  -999.2500  -999.2500
  879.0000   -75.7772    70.5306     7.0099     8.0474     6.8820   -55.8772  -999.2500  -999.2500  -999.2500  -999.2500
  879.5000   -75.7752    68.7477     6.8823     7.9739     6.8822   -55.9746  -999.2500  -999.2500  -999.2500  -999.2500
  880.0000   -75.7732    67.8578     7.0105     7.9742     6.7570   -56.0720  -999.2500  -999.2500  -999.2500  -999.2500
  880.5000   -75.5729    69.0513     7.0106     7.7574     6.7572   -56.1695  -999.2500  -999.2500  -999.2500  -999.2500
  881.0000   -75.3725    70.8400     7.0108     7.6161     6.6343   -56.2669  -999.2500  -999.2500  -999.2500  -999.2500
  881.5000   -75.3721    72.0335     7.0110     7.7580     6.5136   -66.3611  -999.2500  -999.2500  -999.2500  -999.2500
  882.0000   -75.1701    73.2270     6.9340     7.7582     6.5137   -66.4587  -999.2500  -999.2500  -999.2500  -999.2500
  882.5000   -75.5650    73.5276     6.8579     7.6876     6.5140   -56.5592  -999.2500  -999.2500  -999.2500  -999.2500
  883.0000   -75.3646    73.2329     6.7826     7.6877     6.3954   -56.6567  -999.2500  -999.2500  -999.2500  -999.2500
  883.5000   -74.9657    71.1525     6.7081     7.6880     6.3957   -56.7542  -999.2500  -999.2500  -999.2500  -999.2500
  884.0000   -74.9638    69.9649     6.6357     7.6883     6.3958   -56.8516  -999.2500  -999.2500  -999.2500  -999.2500
  884.5000   -75.1602    68.4797     6.6359     7.7297     6.3961   -56.9491  -999.2500  -999.2500  -999.2500  -999.2500
  885.0000   -75.1582    67.8874     6.6362     7.7713     6.5151   -57.0465  -999.2500  -999.2500  -999.2500  -999.2500
  885.5000   -75.3551    68.1880     6.6363     7.8321     6.5154   -57.1440  -999.2500  -999.2500  -999.2500  -999.2500
