~VERSION INFORMATION
 VERS.                2.0:   CWLS LOG ASCII STANDARD - VERSION 2.0
 WRAP.                 NO:   ONE LINE PER DEPTH STEP
~WELL INFORMATION
#MNEM.UNIT      DATA TYPE    INFORMATION
#----------   ------------   ------------------------------
 STRT.F          740.0000:   START DEPTH
 STOP.F         2749.0000:   STOP DEPTH
 STEP.F            0.5000:   STEP LENGTH
 NULL.          -999.2500:   NO VALUE
 COMP.    FENIX & SCISSON:   COMPANY
 WELL.   FENIX SHX #11-10:   WELL
 FLD .                NPR:   FIELD
 LOC .      S10 T38N R78W:   LOCATION
 CNTY.            NATRONA:   COUNTY
 STAT.            WYOMING:   STATE
 CTRY. UNITED STATES OF AMERICA:   COUNTRY
 SRVC.              WELEX:   SERVICE COMPANY
 DATE.        09-APR-1980:   LOGDATE
 API .     49025108060000:   API NUMBER
~CURVE INFORMATION
#MNEM.UNIT       API CODE    CURVE DESCRIPTION
#----------   ------------   ------------------------------
 DEPT.F                  :   
 GRD .GAPI   45 310 01 00:   GAMMA RAY FROM DENSITY LOG
 CALD.IN     45 280 60 00:   CALIPER FROM DENSITY LOG
 TEND.LBS    45 635 01 00:   TENSION FROM DENSITY LOG
 RHOB.G/C3   45 350 01 00:   BULK DENSITY
 CORR.G/C3   45 356 01 00:   DENSITY CORRECTION
~PARAMETER INFORMATION
#MNEM.UNIT          VALUE    DESCRIPTION
#----------   ------------   ------------------------------
 EKB .F         5287.0000:   Kelly bushing
 EGL .F         5277.0000:   Ground level
 EDF .F            0.0000:   Drilling floor
 EPD .F         5277.0000:   Permanent datum
 TD  .F         2762.0000:   Total depth
 DATE.        09-APR-1980:   Date logged
 CLNT.            A2DTECH:   Client Code
 SL  . 474' FNL & 644' FWL:   Surface Location
 PD  .                 GL:   Permanent Datum
 LMF .                 KB:   Log Measured From
 DMF .                 KB:   Drilling Measured From
 DAPD.F                10:   Feet Above Permanent Datum
 DD  .F              2762:   Depth driller
 DL  .F            2751.5:   Depth logger
 BLI .F              2750:   Bottom log interval
 TLI .F               750:   Top log interval
 CS1 .IN            9.625:   Casing size
 CBD1.      9.625" @ 760':   Casing driller 1
 BS1 .IN             8.75:   Bit size
 BSD1.F              2762:   Depth drilled with bit1
 DFT .                AIR:   Type fluid in hole
 TCS .HRS               3:   Time Circ. stopped
 MRT .F               118:   Maximum recorded temp.
 ENGI.            BENTSEN:   Recorded By
 WITN.           DINSMORE:   Witnessed by
 ORIG.         2.5" PRINT:   Origin of data
 UWI .     49025108060000:   Unique Well ID
 DICO. A2D TECHNOLOGIES, INC.:   Digitizing Company
~OTHER INFORMATION
~A   DEPT       GRD      CALD       TEND       RHOB       CORR   
# ...
 2143.0000    91.3190     8.5680  1439.8270     2.4910     0.0190
 2143.5000    90.9020     8.5590  1439.9330     2.4790     0.0050
 2144.0000    90.5610     8.5600  1440.0389     2.4730     0.0050
 2144.5000    90.2780     8.5590  1440.1450     2.4850     0.0130
 2145.0000    91.6430     8.5590  1440.2510     2.4850     0.0090
 2145.5000    92.9960     8.5600  1440.3571     2.4800     0.0060
 2146.0000    94.4030     8.5650  1440.4630     2.4890     0.0150
 2146.5000    95.4840     8.5700  1440.5699     2.5130     0.0310
 2147.0000    95.1530     8.5750  1440.6760     2.5080     0.0250
 2147.5000    94.8850     8.5810  1440.7820     2.5020     0.0140
 2148.0000    94.5600     8.5860  1440.8879     2.4930     0.0150
 2148.5000    94.2570     8.5910  1440.9940     2.4850     0.0170
 2149.0000    93.9310     8.5960  1441.1000     2.4880     0.0130
 2149.5000    93.8050     8.6010  1441.2061     2.4790     0.0080
 2150.0000    94.1190     8.6060  1441.3120     2.4820    -0.0030
 2150.5000    94.4180     8.6110  1441.4180     2.4640    -0.0140
 2151.0000    95.6710     8.6170  1441.5250     2.4590    -0.0040
 2151.5000    96.9510     8.6210  1441.6310     2.4760     0.0060
 2152.0000    96.7450     8.6270  1441.7371     2.4940     0.0190
 2152.5000    95.8390     8.6320  1441.8430     2.5080     0.0300
 2153.0000    94.9580     8.6360  1441.9490     2.5120     0.0410
 2153.5000    94.1040     8.6520  1442.0551     2.5130     0.0430
 2154.0000    93.2440     8.6780  1442.1610     2.5130     0.0460
 2154.5000    92.3300     8.7010  1442.2670     2.5180     0.0470
 2155.0000    91.9180     8.7250  1442.3730     2.5230     0.0490
 2155.5000    92.0330     8.7490  1442.4790     2.5160     0.0410
 2156.0000    91.1220     8.7590  1442.5861     2.5050     0.0350
 2156.5000    89.6200     8.7580  1442.6920     2.5040     0.0300
 2157.0000    89.5950     8.7580  1442.7980     2.5150     0.0370
 2157.5000    89.5760     8.7580  1442.9041     2.5250     0.0440
 2158.0000    90.1120     8.7580  1443.0100     2.5340     0.0520
 2158.5000    90.8490     8.7640  1443.1160     2.5360     0.0560
 2159.0000    91.5780     8.7950  1443.2220     2.5320     0.0500
 2159.5000    92.2980     8.8240  1443.3280     2.5220     0.0450
 2160.0000    93.0330     8.8550  1443.4340     2.5150     0.0420
 2160.5000    93.7630     8.8850  1443.5410     2.5230     0.0550
 2161.0000    94.3350     8.9150  1443.6470     2.5310     0.0460
 2161.5000    94.3440     8.9470  1443.7531     2.5130     0.0250
 2162.0000    94.3520     8.9500  1443.8590     2.4910     0.0060
 2162.5000    94.3360     8.9390  1443.9650     2.4740    -0.0030
 2163.0000    94.1650     8.9250  1444.0710     2.4680    -0.0110
 2163.5000    94.0090     8.9130  1444.1770     2.4700    -0.0110
 2164.0000    93.8420     8.8570  1444.2830     2.4730    -0.0110
 2164.5000    93.6800     8.8130  1444.3890     2.4720    -0.0110
 2165.0000    93.5150     8.7680  1444.4960     2.4650    -0.0110
 2165.5000    93.3620     8.7240  1444.6021     2.4630    -0.0080
 2166.0000    93.1960     8.6830  1444.7080     2.4740     0.0000
 2166.5000    93.4870     8.6410  1444.8140     2.4880     0.0080
 2167.0000    93.9280     8.6390  1444.9200     2.5020     0.0160
 2167.5000    94.3290     8.6380  1445.0260     2.5090     0.0240
 2168.0000    94.3500     8.6390  1445.1320     2.5180     0.0320
 2168.5000    94.3430     8.6390  1445.2380     2.5160     0.0340
 2169.0000    94.3040     8.6390  1445.3440     2.5080     0.0200
 2169.5000    93.5340     8.6390  1445.4500     2.5020     0.0140
 2170.0000    92.7270     8.6390  1445.5570     2.4960     0.0100
 2170.5000    91.8520     8.6390  1445.6630     2.4890     0.0060
 2171.0000    91.0730     8.6390  1445.7690     2.4960     0.0080
 2171.5000    90.2710     8.6390  1445.8750     2.5100     0.0140
 2172.0000    91.1630     8.6390  1445.9810     2.5200     0.0210
 2172.5000    92.1570     8.6390  1446.0870     2.5360     0.0260
 2173.0000    92.7950     8.6400  1446.1930     2.5470     0.0510
 2173.5000    93.1410     8.6420  1446.2990     2.5400     0.0500
 2174.0000    93.4950     8.6440  1446.4050     2.5290     0.0380
 2174.5000    93.8490     8.6450  1446.5120     2.5290     0.0370
 2175.0000    94.2340     8.6470  1446.6180     2.5200     0.0360
 2175.5000    94.1820     8.6480  1446.7240     2.5110     0.0270
 2176.0000    93.8270     8.6500  1446.8300     2.5160     0.0220
 2176.5000    93.5040     8.6510  1446.9360     2.5150     0.0240
 2177.0000    93.1870     8.6530  1447.0420     2.5080     0.0260
 2177.5000    92.8630     8.6540  1447.1479     2.5090     0.0280
 2178.0000    92.5350     8.6560  1447.2540     2.5100     0.0310
 2178.5000    92.2220     8.6570  1447.3600     2.5120     0.0340
 2179.0000    91.9040     8.6590  1447.4659     2.5200     0.0440
 2179.5000    91.5300     8.6600  1447.5730     2.5330     0.0560
 2180.0000    91.6520     8.6620  1447.6790     2.5260     0.0500
 2180.5000    92.6610     8.6630  1447.7850     2.5080     0.0420
 2181.0000    93.4590     8.6650  1447.8910     2.4960     0.0350
 2181.5000    94.0670     8.6670  1447.9969     2.4870     0.0270
 2182.0000    94.7660     8.6680  1448.1030     2.4940     0.0310
 2182.5000    94.1980     8.6700  1448.2090     2.5130     0.0380
 2183.0000    93.8270     8.6710  1448.3149     2.5130     0.0440
 2183.5000    94.0990     8.6730  1448.4210     2.5040     0.0340
 2184.0000    94.3200     8.6740  1448.5280     2.4980     0.0240
 2184.5000    94.5350     8.6760  1448.6340     2.4810     0.0130
 2185.0000    94.7540     8.6770  1448.7400     2.4700     0.0030
 2185.5000    94.9090     8.6790  1448.8459     2.4660    -0.0080
 2186.0000    94.5490     8.6830  1448.9520     2.4730    -0.0060
 2186.5000    94.2420     8.6870  1449.0580     2.5120     0.0040
 2187.0000    93.8910     8.6920  1449.1639     2.5040     0.0070
 2187.5000    93.5760     8.6960  1449.2700     2.4990     0.0000
 2188.0000    93.2680     8.7000  1449.3760     2.4970    -0.0060
 2188.5000    93.7870     8.7040  1449.4830     2.4950    -0.0120
 2189.0000    94.8370     8.7080  1449.5890     2.4930    -0.0180
 2189.5000    93.9800     8.7120  1449.6949     2.4830    -0.0250
 2190.0000    93.1290     8.7160  1449.8010     2.4700    -0.0160
 2190.5000    92.8930     8.7200  1449.9070     2.4780     0.0060
 2191.0000    92.7200     8.7240  1450.0129     2.5080     0.0280
 2191.5000    92.6440     8.7290  1450.1190     2.5080     0.0360
 2192.0000    93.4730     8.7330  1450.2250     2.5060     0.0320
 2192.5000    94.2650     8.7370  1450.3311     2.5030     0.0290
 2193.0000    94.1600     8.7410  1450.4370     2.5010     0.0270
 2193.5000    93.9730     8.7450  1450.5439     2.4990     0.0230
 2194.0000    93.7520     8.7490  1450.6500     2.4970     0.0200
 2194.5000    93.5360     8.7530  1450.7560     2.5010     0.0180
 2195.0000    93.3550     8.7570  1450.8621     2.5080     0.0270
 2195.5000    93.2170     8.7440  1450.9680     2.5140     0.0380
 2196.0000    94.1400     8.7280  1451.0740     2.5210     0.0390
 2196.5000    95.0020     8.7120  1451.1801     2.5200     0.0350
 2197.0000    95.9200     8.6960  1451.2860     2.5160     0.0300
 2197.5000    96.8430     8.6790  1451.3920     2.5240     0.0340
 2198.0000    97.6390     8.6630  1451.4990     2.5410     0.0460
 2198.5000    98.2630     8.6460  1451.6050     2.5480     0.0530
 2199.0000    98.9260     8.6380  1451.7111     2.5460     0.0520
 2199.5000    98.7030     8.6390  1451.8170     2.5360     0.0340
 2200.0000    98.1220     8.6390  1451.9230     2.5170     0.0180
 2200.5000    97.4660     8.6390  1452.0291     2.4970     0.0020
 2201.0000    97.7610     8.6390  1452.1350     2.5110     0.0130
 2201.5000    98.6410     8.6390  1452.2410     2.5200     0.0150
 2202.0000    99.3660     8.6390  1452.3470     2.5260     0.0190
 2202.5000   100.1840     8.6390  1452.4540     2.5260     0.0220
 2203.0000    99.2970     8.6390  1452.5601     2.5260     0.0250
 2203.5000    98.0210     8.6390  1452.6660     2.5260     0.0230
