~VERSION INFORMATION
 VERS.                2.0:   CWLS LOG ASCII STANDARD - VERSION 2.0
 WRAP.                 NO:   ONE LINE PER DEPTH STEP
~WELL INFORMATION
#MNEM.UNIT      DATA TYPE    INFORMATION
#----------   ------------   ------------------------------
 STRT.F            0.5000:   START DEPTH
 STOP.F         5758.0000:   STOP DEPTH
 STEP.F            0.5000:   STEP LENGTH
 NULL.          -999.2500:   NO VALUE
 COMP.   LAWRENCE ALLISON:   COMPANY
 WELL. LAWRENCE "X" #51-10:   WELL
 FLD .          NPR NO. 3:   FIELD
 LOC .      S10 T38N R78W:   LOCATION
 CNTY.            NATRONA:   COUNTY
 STAT.            WYOMING:   STATE
 CTRY. UNITED STATES OF AMERICA:   COUNTRY
 SRVC.      DRESSER ATLAS:   SERVICE COMPANY
 DATE.        31-JAN-1987:   LOGDATE
 API .     49025111230000:   API NUMBER
~CURVE INFORMATION
#MNEM.UNIT       API CODE    CURVE DESCRIPTION
#----------   ------------   ------------------------------
 DEPT.F                  :   
 GRR .GAPI   07 310 01 00:   GAMMA RAY FROM RESISTIVITY
 TENR.LBS    07 635 01 00:   TENSION FROM RESISTIVITY
 SPR .MV     07 010 01 00:   SPONTANEOUS POTENTIAL
 RD  .OHMM   11 220 10 00:   RESISTIVITY DEEP
 RS  .OHMM   11 220 09 00:   RESISTIVITY SHALLOW
 CNC .DEC    42 890 03 00:   NEUTRON POROSITY
 CALD.IN     45 280 60 00:   CALIPER FROM DENSITY LOG
 DEN .G/C3   45 350 01 00:   BULK DENSITY
 CORR.G/C3   45 356 01 00:   DENSITY CORRECTION
 TEND.LBS    45 635 01 00:   TENSION FORM DENSITY LOG
~PARAMETER INFORMATION
#MNEM.UNIT          VALUE    DESCRIPTION
#----------   ------------   ------------------------------
 EKB .F         5227.0000:   Kelly bushing
 EGL .F         5215.0000:   Ground level
 EDF .F            0.0000:   Drilling floor
 TD  .F         5750.0000:   Total depth
 CLNT.            A2DTECH:   Client Code
 SL  . 2356' FEL & 170' FNL:   Surface Location
 PD  .                 GL:   Permanent Datum
 EPD .F              5215:   Elevation Permanent Datum
 LMF .                 KB:   Log Measured From
 DMF .                 KB:   Drilling Measured From
 DAPD.F                12:   Feet Above Permanent Datum
 DATE.        31-JAN-1987:   Date Logged [DD-MMM-YYYY]
 DD  .F              5747:   Depth driller
 DL  .F              5750:   Depth logger
 BLI .F              5748:   Bottom log interval
 CS1 .IN            9.625:   Casing size
 CBD1.      9.625" @ 511':   Casing driller 1
 CBL1.F               512:   Casing logger 1
 BS1 .IN             8.75:   Bit size
 BSD1.F              5747:   Depth drilled with bit1
 DFT .        KCL POLYMER:   Type fluid in hole
 DFD .                9.3:   Density
 DFV .                 43:   Viscosity
 DFPH.                9.5:   pH
 MSS .           FLOWLINE:   Source of sample
 RMS .OHMM          0.247:   Rm
 MST .F                74:   Rm Meas. temp.
 RMF .OHMM          0.162:   Rmf
 MFST.F                74:   Rmf Meas. temp.
 MFSS.               MEAS:   Source Rmf.
 RMC .OHMM          0.310:   Rmc
 MCST.F                74:   Rmc Meas. temp.
 MCSS.               CALC:   Source Rmc.
 RMB .OHMM          0.109:   Rm. at BHT
 BHT .F               167:   BHT.
 TCS .HRS               5:   Time Circ. stopped
 MRT .F               167:   Maximum recorded temp.
 LUN .            HL-6274:   Logging unit number
 LUL .           GILLETTE:   Logging unit location
 ORIG.        2" 5" PRINT:   Origin of data
 UWI .     49025111230000:   Unique Well ID
 DICO. A2D TECHNOLOGIES, INC.:   Digitizing Company
 ENGI.             RAUTIO:   Recorded By
 WITN.             STRONG:   Witnessed by
 DFL .                7.8:   Fluid loss
~OTHER INFORMATION
~A  DEPTH      GRR       TENR        SPR         RD         RS        CNC       CALD        DEN       CORR       TEND
# ...
 5360.5000    94.6687   -65.0000   -75.5256    37.5949    25.8803     0.1719     9.8148     2.6887    -0.0094   -63.2332
 5361.0000    94.7247   -65.0000   -75.5106    36.8327    25.3508     0.1749     9.8294     2.6887     0.0073   -62.9324
 5361.5000    96.3951   -65.0000   -75.3408    35.8396    24.6629     0.1788     9.8287     2.6864     0.0247   -62.5750
 5362.0000    98.6997   -65.0000   -75.4806    34.8708    24.1595     0.1867     9.8734     2.6833     0.0434   -62.2844
 5362.5000   101.4034   -65.0000   -75.3108    33.0019    23.3402     0.1908     9.8881     2.6779     0.0404   -54.4748
 5363.0000   102.6963   -65.0000   -75.2921    31.8778    21.6289     0.2003     9.9025     2.6750     0.0253   -61.7759
 5363.5000   102.7508   -65.0000   -75.2771    31.2419    20.7439     0.1994     9.9473     2.6908     0.0147   -61.4126
 5364.0000   104.6629   -65.0000   -75.1074    31.0372    20.3273     0.1981     9.9771     2.6991     0.0237   -68.6467
 5364.5000   102.8598   -65.0000   -75.0924    30.4079    20.1908     0.1963    10.0067     2.7013     0.0434   -68.3459
 5365.0000   101.3527   -65.0000   -75.0774    29.5859    20.1959     0.1957    10.0212     2.7028     0.0524   -67.9870
 5365.5000   101.0976   -65.0000   -74.9076    28.0003    19.3760     0.2066    10.0356     2.6945     0.0554   -90.2528
 5366.0000   104.2617   -65.0000   -75.0474    27.4136    18.5894     0.2148    10.0503     2.6845     0.0599  -105.0724
 5366.5000   106.4834   -65.0000   -75.0287    26.8783    18.0840     0.2184    10.0648     2.6778     0.0342   -89.6718
 5367.0000   106.5387   -65.4058   -75.0137    26.5143    17.7149     0.2202    10.0794     2.6755     0.0085   -66.8246
 5367.5000   105.6198   -67.1618   -74.9988    26.5235    17.5960     0.2199    10.0939     2.6815    -0.0036   -59.0152
 5368.0000   104.1837   -68.8969   -75.1423    26.9006    17.6004     0.2171    10.1083     2.6875    -0.0036   -58.7247
 5368.5000   102.9999   -70.6361   -75.1961    27.4724    17.9743     0.2099    10.1229     2.6731     0.0055   -73.3990
 5369.0000   102.1255   -72.3742   -75.2634    28.3108    19.2701     0.2023    10.1524     2.6602    -0.0247   -80.7000
 5369.5000    96.2977   -74.1122   -75.2447    31.7890    20.8031     0.1953    10.1822     2.6541    -0.0353   -72.8179
 5370.0000    89.8506   -75.8503   -75.2297    34.7909    21.8432     0.1877    10.1815     2.6642    -0.0444   -65.0086
 5370.5000    85.8804   -77.5884   -75.2147    36.0257    22.6191     0.1817    10.2111     2.6745    -0.0187   -64.7181
 5371.0000    86.2445   -79.3265   -75.1997    36.7915    23.2606     0.1837    10.2410     2.6858    -0.0067   -64.4273
 5371.5000    88.4662   -81.0646   -75.1848    36.2888    22.9457     0.1871    10.3007     2.7024     0.0175   -71.6555
 5372.0000    89.7590   -82.8027   -75.1698    35.5624    22.6339     0.1910    10.3306     2.7092     0.0462   -78.8838
 5372.5000    89.8142   -84.5408   -75.3096    34.8414    22.0186     0.1928    10.3775     2.7031     0.0552   -78.5205
 5373.0000    89.5162   -86.2789   -75.4494    33.8996    20.8335     0.1952    10.4200     2.7084     0.0053   -70.7112
 5373.5000    89.3034   -88.0170   -75.4307    32.7558    19.3060     0.1979    10.4495     2.7152    -0.0037   -70.4206
 5374.0000    90.6099   -89.7551   -75.4157    29.1285    18.1406     0.2018    10.4794     2.7196     0.0098   -77.6489
 5374.5000    90.6644   -91.4932   -75.4007    26.5878    16.4513     0.2088    10.5242     2.7204     0.0189   -77.3584
 5375.0000    91.3381   -93.2313   -75.3857    23.8471    14.5847     0.2170    10.5386     2.7218     0.0355   -84.5863
 5375.5000    93.5598   -94.9694   -75.3708    22.1054    13.5623     0.2241    10.5682     2.7203     0.0597   -84.2858
 5376.0000    97.6390   -96.7075   -75.3558    20.6332    12.7436     0.2351    10.5844     2.7127     0.0838   -99.0429
 5376.5000   100.4799   -98.4456   -75.3299    19.6630    12.0577     0.2394    10.5973     2.6976     0.0747  -113.7899
 5377.0000    98.9864  -100.1837   -75.1673    18.7384    11.7299     0.2412    10.5966     2.6892     0.0641  -113.4266
 5377.5000    96.5641  -101.9218   -75.3108    17.8265    11.6511     0.2436    10.5960     2.6877     0.0535  -113.1361
 5378.0000    94.4515  -103.6599   -75.2921    17.2559    11.4133     0.2481    10.6257     2.6854     0.0475   -97.8080
 5378.5000    96.7975  -105.3980   -75.2771    16.6737    11.1031     0.2478    10.6251     2.6846     0.0293   -82.4798
 5379.0000    99.2181  -107.1361   -75.2622    16.2230    10.8770     0.2472    10.6245     2.6868     0.0173   -82.1805
 5379.5000    97.1054  -108.8742   -75.2472    15.6756    10.7292     0.2466    10.6239     2.6891     0.0078   -81.8260
 5380.0000    94.3735  -110.6122   -75.5418    15.2519    10.5829     0.2468    10.5929     2.6906    -0.0054   -81.5355
 5380.5000    94.1048  -112.3503   -76.9089    14.7383    10.5118     0.2446    10.5923     2.6898     0.0021   -88.7635
 5381.0000    94.4825  -114.0884   -84.1768    14.4395    10.4412     0.2399    10.5464     2.6834     0.0111   -88.4729
 5381.5000    92.3698  -114.0433   -90.1990    14.3429    10.3716     0.2398    10.5307     2.6761     0.0293   -88.1824
 5382.0000    90.2571  -112.0315   -99.6267    14.4475    10.3738     0.2401    10.5301     2.6730     0.0474   -80.3731
 5382.5000    89.0733  -110.0197  -103.6378    14.5518    10.3763     0.2398    10.5144     2.6670     0.0307   -80.0752
 5383.0000    87.8885  -108.0079  -103.9324    14.6619    10.4507     0.2401    10.5138     2.6594     0.0110   -79.7192
 5383.5000    86.9895  -105.9961  -103.6041    15.0735    10.5256     0.2434    10.4980     2.6692    -0.0148   -79.4287
 5384.0000    82.5511  -103.9843  -103.1247    15.3939    10.8241     0.2580    10.5126     2.6805    -0.0131   -79.1382
 5384.5000    78.7650  -101.9724  -102.6453    15.8303    11.0541     0.2670    10.5119     2.6904    -0.0086   -78.8476
 5385.0000    77.9043   -99.9606  -102.0111    16.5060    11.2108     0.2549    10.4962     2.6978    -0.0131   -86.1484
 5385.5000    76.4108   -97.9488  -101.8414    17.4503    11.6959     0.2164    10.4653     2.7000    -0.0177   -78.2663
 5386.0000    73.9885   -95.9370  -101.8264    19.0207    12.8589     0.1758    10.4193     2.7106    -0.0011   -77.9699
 5386.5000    71.2566   -93.9252  -101.6563    22.0929    14.7055     0.1609    10.4036     2.7400    -0.0041   -77.6124
 5387.0000    67.9055   -91.9134  -101.4831    29.5524    17.7400     0.1100    10.3711     2.7967    -0.0320   -77.3219
 5387.5000    56.8146   -89.9016  -101.1585    37.4018    20.1048     0.0973    10.3418     2.8942    -0.0434   -77.0314
 5388.0000    46.0332   -87.8898  -100.8339    47.9956    34.7951     0.0894    10.3261     2.9312    -0.0223   -76.7408
 5388.5000    31.5366   -85.8780  -100.1997    93.2881    57.7632     0.0833    10.2801     2.9342    -0.0072   -76.4503
 5389.0000    25.3932   -83.8661   -99.8661    99.9997    72.6459     0.0806    10.2644     2.9137     0.0049   -61.1219
 5389.5000    25.5242   -81.8543   -99.3933    81.8401    81.2705     0.0796    10.2184     2.9031     0.0003   -53.3082
 5390.0000    28.9273   -79.8425   -99.0687    84.7505    75.7694     0.0766    10.2027     2.9144    -0.0042   -60.5408
 5390.5000    29.9106   -77.8307   -98.5893   101.4844    73.1961     0.0726    10.1708     2.9378    -0.0041   -67.6963
 5391.0000    28.7131   -75.8189   -98.1100   145.4764   125.8096     0.0672    10.1409     2.9507     0.0108   -67.4058
 5391.5000    26.3044   -73.8071   -97.9402   247.3530   190.8360     0.0635    10.1100     2.9521    -0.0133   -74.7068
 5392.0000    26.6685   -71.7953   -97.4608   478.5608   435.9649     0.0693    10.0943     2.9459    -0.0330   -74.3435
 5392.5000    30.1286   -69.7835   -97.1362   299.0401   475.2397     0.0772    10.0484     2.8682    -0.0270   -81.5789
 5393.0000    35.7559   -67.7717   -96.7906   204.4373   284.5660     0.0920    10.0326     2.8243     0.0168   -88.7998
 5393.5000    38.2871   -65.7598   -96.3285   169.6438   175.7357     0.0880    10.0018     2.8137     0.0531   -88.4367
