~VERSION INFORMATION
 VERS.                2.0:   CWLS LOG ASCII STANDARD - VERSION 2.0
 WRAP.                 NO:   ONE LINE PER DEPTH STEP
~WELL INFORMATION
#MNEM.UNIT      DATA TYPE    INFORMATION
#----------   ------------   ------------------------------
 STRT.F           22.0000:   START DEPTH
 STOP.F         4228.5000:   STOP DEPTH
 STEP.F            0.5000:   STEP LENGTH
 NULL.          -999.2500:   NO VALUE
 COMP. LAWRENCE ALLISON & ASSOCIATES:   COMPANY
 WELL. LAWRENCE NPR 3 "X" #25-2:   WELL
 FLD .                NPR:   FIELD
 LOC .       S2 T38N R78W:   LOCATION
 CNTY.            NATRONA:   COUNTY
 STAT.            WYOMING:   STATE
 CTRY. UNITED STATES OF AMERICA:   COUNTRY
 SRVC.      DRESSER ATLAS:   SERVICE COMPANY
 DATE.        22-DEC-1985:   LOGDATE
 API .     49025110700000:   API NUMBER
~CURVE INFORMATION
#MNEM.UNIT       API CODE    CURVE DESCRIPTION
#----------   ------------   ------------------------------
 DEPT.F                  :   
 TENS.LBS    60 635 01 00:   TENSION FROM SONIC
 DT  .US/F   60 520 00 00:   DELTA TIME
 SPHI.DEC    60 890 00 00:   SONIC POROSITY
 TENR.LBS    07 635 01 00:   TENSION FROM RESISTIVITY
 CALR.IN     07 280 01 00:   CALIPER FROM RESISTIVITY
 SPR .MV     07 010 01 00:   SPONTANEOUS POTENTIAL
 GRR .GAPI   07 310 01 00:   GAMMA RAY FROM RESISTIVITY
 SFL .OHMM   07 220 01 00:   SHALLOW FOCUSED LOG RESISTIVITY
 ILD .OHMM   07 120 46 00:   DEEP INDUCTION RESISTIVITY
 ILM .OHMM   07 120 44 00:   INDUCTION LOG MEDIUM RESISTIVITY
~PARAMETER INFORMATION
#MNEM.UNIT          VALUE    DESCRIPTION
#----------   ------------   ------------------------------
 EKB .F         5148.0000:   Kelly bushing
 EGL .F         5136.0000:   Ground level
 EDF .F            0.0000:   Drilling floor
 TD  .F         4228.0000:   Total depth
 DATE.        22-DEC-1985:   Date logged
 CLNT.            A2DTECH:   Client Code
 SL  . 1350' FWL & 1968' FSL:   Surface Location
 PD  .                 GL:   Permanent Datum
 DD  .F              4224:   Depth driller
 DL  .F              4228:   Depth logger
 BLI .F              4225:   Bottom log interval
 CS1 .IN            8.625:   Casing size
 CBD1.      8.625" @ 677':   Casing driller 1
 CBL1.F               677:   Casing logger 1
 BS1 .IN            7.875:   Bit size
 DFT .            KCL/GEL:   Type fluid in hole
 DFD .                9.2:   Density
 DFV .                 45:   Viscosity
 DFPH.                8.5:   pH
 DFL .               11.5:   Fluid loss
 MSS .               TANK:   Source of sample
 RMS .OHMM           .256:   Rm
 MST .F                63:   Rm Meas. temp.
 RMF .OHMM           .192:   Rmf
 MFST.F                64:   Rmf Meas. temp.
 RMC .OHMM           .320:   Rmc
 MCST.F                64:   Rmc Meas. temp.
 MFSS.               MEAS:   Source Rmf.
 RMB .OHMM           .119:   Rm. at BHT
 BHT .F               143:   BHT.
 TCS .HRS             4.5:   Time Circ. stopped
 MRT .F               143:   Maximum recorded temp.
 LUN .               6427:   Logging unit number
 LUL .          WILLISTON:   Logging unit location
 ENGI.             MCHUCH:   Recorded By
 WITN.             STRONG:   Witnessed by
 ORIG.           5" PRINT:   Origin of data
 UWI .     49025110700000:   Unique Well ID
 DICO. A2D TECHNOLOGIES, INC.:   Digitizing Company
 DAPD.                 12:   Feet Above Permanent Datum
 BSD1.               4224:   Depth drilled with bit1
 MCSS.               CALC:   Source Rmc.
 EPD .F              5136:   Elevation Permanent Datum
 LMF .                 KB:   Log Measured From
 DMF .                 KB:   Drilling Measured From
~OTHER INFORMATION
~A   DEPT     TENS         DT       SPHI       TENR       CALR        SPR         GRR       SFL        ILD        ILM   
# ...
 1395.5000  -999.2500  -999.2500  -999.2500   -89.7500    11.0030   -62.2610    91.8680     8.0440     8.7930     7.3870
 1396.0000  -999.2500  -999.2500  -999.2500   -90.0350    11.0220   -62.1590    91.5330     7.9840     8.6910     7.3040
 1396.5000  -999.2500  -999.2500  -999.2500   -90.3200    11.0450   -62.0540    90.1930     8.0460     8.5890     7.2210
 1397.0000  -999.2500  -999.2500  -999.2500   -90.6050    11.0740   -61.9550    88.8600     8.0980     8.4870     7.1510
 1397.5000  -999.2500  -999.2500  -999.2500   -90.8890    11.1030   -62.0490    89.5230     8.1320     8.3850     7.1390
 1398.0000  -999.2500  -999.2500  -999.2500   -91.1740    11.1320   -62.1520    92.4370     8.1320     8.3310     7.1270
 1398.5000  -999.2500  -999.2500  -999.2500   -91.4590    11.1390   -62.2560    95.8080     8.1320     8.2940     7.1150
 1399.0000  -999.2500  -999.2500  -999.2500   -91.7440    11.1440   -62.3590    93.5900     8.1320     8.2570     7.1030
 1399.5000  -999.2500  -999.2500  -999.2500   -92.0290    11.1490   -62.4620    89.7570     8.1320     8.2200     7.0910
 1400.0000  -999.2500  -999.2500  -999.2500   -92.3140    11.1550   -62.5650    87.0870     8.1850     8.1820     7.0790
 1400.5000  -999.2500  -999.2500  -999.2500   -92.5990    11.1610   -62.6670    87.1370     8.2840     8.1450     7.0670
 1401.0000  -999.2500  -999.2500  -999.2500   -92.8840    11.1660   -62.7290    89.1010     8.2820     8.1080     7.0540
 1401.5000  -999.2500  -999.2500  -999.2500   -93.1690    11.1720   -62.6640    92.5670     8.2830     8.0580     7.0420
 1402.0000  -999.2500  -999.2500  -999.2500   -93.4540    11.1770   -62.6030    94.7750     8.2830     8.0670     7.0300
 1402.5000  -999.2500  -999.2500  -999.2500   -93.7390    11.1830   -62.5460    96.9720     8.2830     8.0810     7.0210
 1403.0000  -999.2500  -999.2500  -999.2500   -94.0230    11.1880   -62.5240    99.1670     8.2830     8.0950     7.0450
 1403.5000  -999.2500  -999.2500  -999.2500   -94.3080    11.1940   -62.5010    97.2270     8.2830     8.1090     7.0640
 1404.0000  -999.2500  -999.2500  -999.2500   -94.5930    11.1990   -62.4770    92.2050     8.3030     8.1240     7.0840
 1404.5000  -999.2500  -999.2500  -999.2500   -94.8780    11.2050   -62.4530    89.7090     8.3240     8.1380     7.1030
 1405.0000  -999.2500  -999.2500  -999.2500   -95.1630    11.2100   -62.4290    91.4840     8.3440     8.1520     7.1230
 1405.5000  -999.2500  -999.2500  -999.2500   -95.4640    11.2130   -62.4050    93.4700     8.3650     8.1660     7.1510
 1406.0000  -999.2500  -999.2500  -999.2500   -95.4640    11.2260   -62.3820    93.1210     8.3850     8.1800     7.1220
 1406.5000  -999.2500  -999.2500  -999.2500   -95.4640    11.2410   -62.3580    91.6070     8.4060     8.1940     7.0690
 1407.0000  -999.2500  -999.2500  -999.2500   -95.4640    11.2550   -62.4300    92.0360     8.4360     8.2050     7.0160
 1407.5000  -999.2500  -999.2500  -999.2500   -95.4640    11.2690   -62.5930    93.7510     8.3740     8.1070     6.9590
 1408.0000  -999.2500  -999.2500  -999.2500   -95.4640    11.2840   -62.7550    95.4200     8.2480     8.0170     6.9710
 1408.5000  -999.2500  -999.2500  -999.2500   -95.4640    11.2980   -62.9170    96.3140     8.1400     7.9260     6.9880
 1409.0000  -999.2500  -999.2500  -999.2500   -95.4640    11.3120   -63.0820    96.3160     7.9840     7.8360     7.0040
 1409.5000  -999.2500  -999.2500  -999.2500   -95.4640    11.3180   -63.1380    96.3150     8.0200     7.7670     7.0200
 1410.0000  -999.2500  -999.2500  -999.2500   -95.4640    11.3240   -63.1390    96.7320     8.1010     7.9100     7.0360
 1410.5000  -999.2500  -999.2500  -999.2500   -95.4640    11.3300   -63.1390    97.4780     8.1980     8.0490     7.0530
 1411.0000  -999.2500  -999.2500  -999.2500   -95.4640    11.3350   -63.1390    98.3680     8.3050     8.1570     7.0690
 1411.5000  -999.2500  -999.2500  -999.2500   -95.4640    11.3410   -63.1370    98.9780     8.4360     8.2190     7.0860
 1412.0000  -999.2500  -999.2500  -999.2500   -95.4640    11.3470   -63.2150    96.7820     8.4180     8.2830     7.0750
 1412.5000  -999.2500  -999.2500  -999.2500   -95.4640    11.3530   -63.3120    91.3480     8.3940     8.2320     7.0640
 1413.0000  -999.2500  -999.2500  -999.2500   -95.4640    11.3590   -63.4100    89.5680     8.3700     8.1650     7.0530
 1413.5000  -999.2500  -999.2500  -999.2500   -95.4640    11.3650   -63.5110    89.8220     8.3260     8.0980     7.0420
 1414.0000  -999.2500  -999.2500  -999.2500   -95.4640    11.3710   -63.5140    90.6720     8.2640     8.0310     7.0310
 1414.5000  -999.2500  -999.2500  -999.2500   -95.4640    11.4040   -63.4870    91.4560     8.2070     7.9840     7.0210
 1415.0000  -999.2500  -999.2500  -999.2500   -95.4640    11.4400   -63.4590    90.5390     8.2150     7.9990     7.0020
 1415.5000  -999.2500  -999.2500  -999.2500   -95.4640    11.4760   -63.4310    88.5880     8.2230     8.0110     6.9840
 1416.0000  -999.2500  -999.2500  -999.2500   -95.4640    11.5090   -63.4040    87.6880     8.2310     8.0220     6.9570
 1416.5000  -999.2500  -999.2500  -999.2500   -95.4640    11.5020   -63.3760    88.2290     8.2380     8.0340     6.9820
 1417.0000  -999.2500  -999.2500  -999.2500   -95.4640    11.4940   -63.3470    87.5600     8.2460     8.0450     7.0380
 1417.5000  -999.2500  -999.2500  -999.2500   -95.4280    11.4850   -63.3370    86.2600     8.2540     8.0570     7.0940
 1418.0000  -999.2500  -999.2500  -999.2500   -95.2600    11.4620   -63.3370    86.5750     8.2610     8.0690     7.1510
 1418.5000  -999.2500  -999.2500  -999.2500   -95.0920    11.4390   -63.3420    87.9850     8.2690     8.0800     7.1350
 1419.0000  -999.2500  -999.2500  -999.2500   -94.9250    11.4150   -63.3670    89.2780     8.2760     8.0920     7.1180
 1419.5000  -999.2500  -999.2500  -999.2500   -94.7570    11.3920   -63.3930    90.5770     8.2870     8.1030     7.1020
 1420.0000  -999.2500  -999.2500  -999.2500   -94.5890    11.3960   -63.4190    91.8740     8.3140     8.1150     7.0850
 1420.5000  -999.2500  -999.2500  -999.2500   -94.4210    11.4020   -63.4450    92.9080     8.3410     8.1320     7.0690
 1421.0000  -999.2500  -999.2500  -999.2500   -94.2540    11.4070   -63.4700    92.8340     8.3590     8.1070     7.0520
 1421.5000  -999.2500  -999.2500  -999.2500   -94.0860    11.4120   -63.4960    92.2490     8.2980     8.0600     7.0350
 1422.0000  -999.2500  -999.2500  -999.2500   -93.9180    11.4180   -63.5210    91.1680     8.2510     8.0130     7.0210
 1422.5000  -999.2500  -999.2500  -999.2500   -93.7500    11.4230   -63.4890    89.9830     8.2070     7.9650     6.9100
 1423.0000  -999.2500  -999.2500  -999.2500   -93.5830    11.4290   -63.3940    90.1680     8.0580     7.9110     6.8070
 1423.5000  -999.2500  -999.2500  -999.2500   -93.4150    11.4340   -63.2990    90.3320     7.9400     7.9270     6.7040
 1424.0000  -999.2500  -999.2500  -999.2500   -93.2470    11.4400   -63.2040    89.7920     7.8030     7.9840     6.5840
 1424.5000  -999.2500  -999.2500  -999.2500   -93.0790    11.4450   -63.1080    88.8910     7.6660     7.9510     6.6510
 1425.0000  -999.2500  -999.2500  -999.2500   -92.9120    11.4490   -63.0130    88.0530     7.4190     7.8390     6.7580
 1425.5000  -999.2500  -999.2500  -999.2500   -92.7440    11.4150   -62.9170    89.4050     7.5190     7.8880     6.8660
 1426.0000  -999.2500  -999.2500  -999.2500   -92.5760    11.3780   -62.8230    90.7350     7.7500     7.9700     6.9740
 1426.5000  -999.2500  -999.2500  -999.2500   -92.4080    11.3420   -62.7490    90.8570     7.9970     8.0530     7.0860
 1427.0000  -999.2500  -999.2500  -999.2500   -92.2410    11.3060   -62.8090    88.9320     8.2450     8.1350     7.0990
 1427.5000  -999.2500  -999.2500  -999.2500   -92.0730    11.2700   -62.8670    87.8810     8.4300     8.2020     7.1120
 1428.0000  -999.2500  -999.2500  -999.2500   -91.9050    11.2340   -62.9240    90.0260     8.3800     8.1600     7.1250
 1428.5000  -999.2500  -999.2500  -999.2500   -91.7370    11.1990   -62.9920    92.8390     8.3300     8.1190     7.1390
