~VERSION INFORMATION
 VERS.                2.0:   CWLS LOG ASCII STANDARD - VERSION 2.0
 WRAP.                 NO:   ONE LINE PER DEPTH STEP
~WELL INFORMATION
#MNEM.UNIT      DATA TYPE    INFORMATION
#----------   ------------   ------------------------------
 STRT.F            0.0000:   START DEPTH
 STOP.F         5576.0000:   STOP DEPTH
 STEP.F            0.5000:   STEP LENGTH
 NULL.          -999.2500:   NO VALUE
 COMP.      FLUCOR DANIEL:   COMPANY
 WELL.  FLUCOR "X" #76-10:   WELL
 FLD .          N.P.R. #3:   FIELD
 LOC .      S10 T38N R78W:   LOCATION
 CNTY.            NATRONA:   COUNTY
 STAT.            WYOMING:   STATE
 CTRY. UNITED STATES OF AMERICA:   COUNTRY
 SRVC. ATLAS WIRELINE SERVICES:   SERVICE COMPANY
 DATE.        16-MAR-1995:   LOGDATE
 API .     49025226860000:   API NUMBER
~CURVE INFORMATION
#MNEM.UNIT       API CODE    CURVE DESCRIPTION
#----------   ------------   ------------------------------
 DEPT.F                  :   
 CNC .DEC    42 890 01 00:   NEUTRON POROSITY LIMESTONE
 CALD.IN     45 280 60 00:   CALIPER FROM DENSITY LOG
 ZDEN.G/C3   45 350 01 00:   BULK DENSITY
 ZCOR.G/C3   45 356 01 00:   DENSITY CORRECTION
 RILD.OHMM   07 120 46 00:   INDUCTION LOG DEEP RESISTIVITY
 RILM.OHMM   07 120 44 00:   INDUCTION LOG MEDIUM RESISTIVITY
 RS  .OHMM   11 220 10 00:   RESISTIVITY SHALLOW
 RD  .OHMM   11 220 09 00:   RESISTIVITY DEEP
 GRR .GAPI   07 310 01 00:   GAMMA RAY
 TENR.LBS    07 635 01 00:   TENSION FROM RESISTIVITY
~PARAMETER INFORMATION
#MNEM.UNIT          VALUE    DESCRIPTION
#----------   ------------   ------------------------------
 EKB .F         5191.0000:   Kelly bushing
 EGL .F         5101.0000:   Ground level
 EDF .F         5190.0000:   Drilling floor
 TD  .F         5582.0000:   Total depth
 CLNT.            A2DTECH:   Client Code
 SL  . 1896' FSL & 832' FEL:   Surface Location
 PD  .                 GL:   Permanent Datum
 EPD .F              5181:   Elevation Permanent Datum
 LMF .                 KB:   Log Measured From
 DMF .                 KB:   Drilling Measured From
 DAPD.F                10:   Feet Above Permanent Datum
 DATE.        16-MAR-1995:   Date Logged [DD-MMM-YYYY]
 DD  .F              5582:   Depth driller
 DL  .F              5578:   Depth logger
 BLI .F              5566:   Bottom log interval
 TLI .F               518:   Top log interval
 CS1 .IN            8.625:   Casing size
 CBD1.      8.625" @ 519':   Casing driller 1
 CBL1.F               518:   Casing logger 1
 BS1 .IN             8.75:   Bit size
 BSD1.F              5582:   Depth drilled with bit1
 DFT .               LSND:   Type fluid in hole
 DFD .               10.1:   Density
 DFV .                 52:   Viscosity
 DFPH.                9.5:   pH
 DFL .                7.2:   Fluid loss
 MSS .           FLOWLINE:   Source of sample
 RMS .OHMM          0.536:   Rm
 MST .F                70:   Rm Meas. temp.
 RMF .OHMM          0.415:   Rmf
 MFST.F                70:   Rmf Meas. temp.
 MFSS.               MEAS:   Source Rmf.
 RMC .OHMM          0.646:   Rmc
 MCST.F                70:   Rmc Meas. temp.
 MCSS.               MEAS:   Source Rmc.
 RMB .OHMM          0.228:   Rm. at BHT
 BHT .F               165:   BHT.
 TCS .HRS             6.5:   Time Circ. stopped
 MRT .F               165:   Maximum recorded temp.
 LUN .            HL-6530:   Logging unit number
 LUL .             CASPER:   Logging unit location
 ENGI.      PAT RASMUSSEN:   Recorded By
 WITN.        GARY STRONG:   Witnessed by
 ORIG.           5" PRINT:   Origin of data
 UWI .     49025226860000:   Unique Well ID
 DICO. A2D TECHNOLOGIES, INC.:   Digitizing Company
~OTHER INFORMATION
~A  DEPTH      CNC       CALD       ZDEN       ZCOR       RILD       RILM         RS         RD        GRR       TENR
# ...
 4489.0000     0.0852    10.3480     2.5593    -0.0063  -999.2500  -999.2500    35.0728    42.6531    56.6290   -50.0781
 4489.5000     0.0822    10.3610     2.5608     0.0028  -999.2500  -999.2500    35.7984    44.4624    55.1023   -34.2857
 4490.0000     0.0810    10.3599     2.5653     0.0132  -999.2500  -999.2500    36.0294    44.4478    53.8786   -18.4214
 4490.5000     0.0822    10.3744     2.5796     0.0085  -999.2500  -999.2500    35.2622    43.2167    53.8667    12.6428
 4491.0000     0.0834    10.3733     2.5863     0.0039  -999.2500  -999.2500    34.0345    39.7425    54.1585    28.4707
 4491.5000     0.0861    10.3725     2.5953    -0.0007  -999.2500  -999.2500    31.9522    37.0621    54.7529    29.2619
 4492.0000     0.0910    10.3714     2.6073     0.0113  -999.2500  -999.2500    29.3779    34.0850    57.1627    30.0531
 4492.5000     0.1031    10.3705     2.6163     0.0203  -999.2500  -999.2500    25.5487    29.2404    65.0299    30.8434
 4493.0000     0.1187    10.3850     2.6254     0.0232  -999.2500  -999.2500    18.5401    23.3972    72.1326    31.6540
 4493.5000     0.1415    10.3993     2.6325     0.0171  -999.2500  -999.2500    16.1236    18.9853    91.3675    25.1040
 4494.0000     0.1748    10.4436     2.6434     0.0018  -999.2500  -999.2500    13.9248    14.5713   109.2347    33.4140
 4494.5000     0.2084    10.4274     2.6448    -0.0013  -999.2500  -999.2500    12.8923    12.8530   121.3443    34.1352
 4495.0000     0.2271    10.3660     2.6478     0.0017  -999.2500  -999.2500    13.4330    13.4899   124.3631    34.9955
 4495.5000     0.2238    10.3046     2.6447     0.0106  -999.2500  -999.2500    15.4301    15.6078   124.6545    58.3455
 4496.0000     0.1948    10.2584     2.6416     0.0104  -999.2500  -999.2500    17.7241    18.4389   122.2177    51.8124
 4496.5000     0.1669    10.2424     2.6401     0.0044  -999.2500  -999.2500    20.5013    20.7482   118.5399    37.3674
 4497.0000     0.1430    10.2413     2.6400     0.0013  -999.2500  -999.2500    23.5461    23.6722   110.9795    23.3188
 4497.5000     0.1269    10.2404     2.6400    -0.0018  -999.2500  -999.2500    26.1221    26.4523    98.5437    24.1092
 4498.0000     0.1154    10.2395     2.6384    -0.0035  -999.2500  -999.2500    27.2213    30.6051    86.1079    32.4192
 4498.5000     0.1112    10.2387     2.6367    -0.0081  -999.2500  -999.2500    27.7811    31.4606    80.0357    40.7517
 4499.0000     0.1112    10.2378     2.6345    -0.0127  -999.2500  -999.2500    27.1892    31.2321    79.9995    41.7173
 4499.5000     0.1145    10.2521     2.6368    -0.0082  -999.2500  -999.2500    25.7040    30.3671    84.9910    42.5085
 4500.0000     0.1221    10.2661     2.6412    -0.0023  -999.2500  -999.2500    23.3918    28.3190    90.3011    28.0634
 4500.5000     0.1281    10.2653     2.6442    -0.0008  -999.2500  -999.2500    22.0351    26.4091    94.2289    15.6636
 4501.0000     0.1318    10.2797     2.6465     0.0021  -999.2500  -999.2500    21.7222    26.4006    98.1567     1.9838
 4501.5000     0.1336    10.2787     2.6396     0.0020  -999.2500  -999.2500    22.1717    26.3937    97.5391   -11.6959
 4502.0000     0.1284    10.2626     2.6381     0.0004  -999.2500  -999.2500    23.7574    27.5115    94.4498   -25.3757
 4502.5000     0.1243    10.2616     2.6388     0.0004  -999.2500  -999.2500    25.2825    28.9003    90.5433   -44.8224
 4503.0000     0.1196    10.2456     2.6395     0.0018  -999.2500  -999.2500    26.7190    30.3080    86.8954   -36.5806
 4503.5000     0.1160    10.2447     2.6417     0.0033  -999.2500  -999.2500    27.6636    31.5916    85.9747   -28.7174
 4504.0000     0.1118    10.2438     2.6432     0.0092  -999.2500  -999.2500    27.8362    31.8039    85.6601   -20.7715
 4504.5000     0.1103    10.2430     2.6439     0.0107  -999.2500  -999.2500    26.5003    31.7935    88.1795   -20.3448
 4505.0000     0.1121    10.2419     2.6446     0.0136  -999.2500  -999.2500    24.5385    30.2746    91.4843   -19.9177
 4505.5000     0.1184    10.2410     2.6469     0.0090  -999.2500  -999.2500    22.5623    27.2677    94.5118   -19.3842
 4506.0000     0.1305    10.2402     2.6514     0.0028  -999.2500  -999.2500    21.6316    26.3270    97.8422   -18.9571
 4506.5000     0.1429    10.2393     2.6543    -0.0048  -999.2500  -999.2500    21.3244    25.7766   100.5666   -18.5300
 4507.0000     0.1474    10.2147     2.6483    -0.0079  -999.2500  -999.2500    21.3161    25.5913   101.7759   -18.1033
 4507.5000     0.1450    10.2137     2.6452    -0.0049  -999.2500  -999.2500    21.9069    25.5846   101.4693   -10.1503
 4508.0000     0.1456    10.2278     2.6474    -0.0035  -999.2500  -999.2500    22.2052    25.2230   101.1634    -9.6239
 4508.5000     0.1493    10.2266     2.6489     0.0010  -999.2500  -999.2500    21.2892    23.8514   101.1605    -9.2481
 4509.0000     0.1605    10.2255     2.6472    -0.0036  -999.2500  -999.2500    19.3042    21.9355   104.5861    -8.7701
 4509.5000     0.1710    10.2245     2.6458    -0.0083  -999.2500  -999.2500    18.0000    20.1722   112.0631    -8.3429
 4510.0000     0.1759    10.2235     2.6495    -0.0038  -999.2500  -999.2500    17.2574    19.3425   115.0913    -7.8095
 4510.5000     0.1735    10.2225     2.6503     0.0022  -999.2500  -999.2500    18.6208    19.8832   112.6635    -7.3823
 4511.0000     0.1608    10.2366     2.6449     0.0006  -999.2500  -999.2500    20.2340    20.7386   107.8121   -14.5812
 4511.5000     0.1487    10.2361     2.6411     0.0005  -999.2500  -999.2500    21.8347    22.5223    99.9297   -21.5789
 4512.0000     0.1419    10.2357     2.6411     0.0020  -999.2500  -999.2500    22.5987    23.4777    94.7754   -21.1280
 4512.5000     0.1406    10.2354     2.6403     0.0004  -999.2500  -999.2500    21.5141    23.1458    92.6513   -28.2311
 4513.0000     0.1484    10.2351     2.6387    -0.0103  -999.2500  -999.2500    18.4540    20.9911    94.4666   -20.1784
 4513.5000     0.1620    10.2347     2.6364    -0.0179  -999.2500  -999.2500    16.7350    17.0329    97.5663   -19.7517
 4514.0000     0.1807    10.2344     2.6331    -0.0226  -999.2500  -999.2500    14.0568    14.9202   102.6420   -26.8434
 4514.5000     0.2147    10.2340     2.6129    -0.0226  -999.2500  -999.2500    12.2262    13.4035   113.2451   -33.9097
 4515.0000     0.2277    10.2337     2.6023    -0.0212  -999.2500  -999.2500    11.8049    12.1873   120.5150   -41.0271
 4515.5000     0.2153    10.2333     2.6061    -0.0167  -999.2500  -999.2500    13.2490    13.2449   120.1715   -50.6549
 4516.0000     0.1892    10.2330     2.6098    -0.0123  -999.2500  -999.2500    17.9022    16.6584   108.3873   -55.1129
 4516.5000     0.1367    10.2327     2.6144    -0.0060  -999.2500  -999.2500    21.7436    21.6918   100.2027   -54.6616
 4517.0000     0.1113    10.2323     2.6211    -0.0003  -999.2500  -999.2500    26.0442    26.3497    86.5634   -54.1435
 4517.5000     0.1053    10.2320     2.6271     0.0011  -999.2500  -999.2500    29.5040    30.9135    79.2878   -61.3424
 4518.0000     0.1047    10.2316     2.6263     0.0026  -999.2500  -999.2500    29.0851    31.8256    81.4055   -60.8085
 4518.5000     0.1065    10.2313     2.6232    -0.0005  -999.2500  -999.2500    27.1200    30.8955    82.0087   -67.9006
 4519.0000     0.1122    10.2309     2.6202    -0.0038  -999.2500  -999.2500    23.5861    26.1382    82.6126   -59.8479
 4519.5000     0.1180    10.2306     2.6171    -0.0098  -999.2500  -999.2500    20.5146    22.1134    83.2150   -44.3836
 4520.0000     0.1331    10.2303     2.6140    -0.0159  -999.2500  -999.2500    18.3466    18.9692    87.2918   -36.4377
 4520.5000     0.1615    10.2299     2.6102    -0.0175  -999.2500  -999.2500    15.3935    16.1603    96.8449   -36.0106
 4521.0000     0.1863    10.2296     2.6087    -0.0130  -999.2500  -999.2500    13.6864    14.3541   108.0542   -35.4771
 4521.5000     0.1900    10.2292     2.5973    -0.0068  -999.2500  -999.2500    13.5875    14.0405   109.2642   -42.6756
 4522.0000     0.1779    10.2284     2.5897     0.0005  -999.2500  -999.2500    15.2858    15.1668   102.8969   -42.1806
