~VERSION INFORMATION
 VERS.                2.0:   CWLS LOG ASCII STANDARD - VERSION 2.0
 WRAP.                 NO:   ONE LINE PER DEPTH STEP
~WELL INFORMATION
#MNEM.UNIT      DATA TYPE    INFORMATION
#----------   ------------   ------------------------------
 STRT.F          450.5000:   START DEPTH
 STOP.F         3173.5000:   STOP DEPTH
 STEP.F            0.5000:   STEP LENGTH
 NULL.          -999.2500:   NO VALUE
 COMP.    FENIX & SCISSON:   COMPANY
 WELL. FENIX & SCISSONNPR #72-TX-33:   WELL
 FLD .              N.P.R:   FIELD
 LOC .      S33 T39N R78W:   LOCATION
 CNTY.            NATRONA:   COUNTY
 STAT.            WYOMING:   STATE
 CTRY. UNITED STATES OF AMERICA:   COUNTRY
 SRVC.       SCHLUMBERGER:   SERVICE COMPANY
 DATE.        03-SEP-1981:   LOGDATE
 API .     49025108810000:   API NUMBER
~CURVE INFORMATION
#MNEM.UNIT       API CODE    CURVE DESCRIPTION
#----------   ------------   ------------------------------
 DEPT.F                  :   
 CALD.IN     45 280 60 00:   CALIPER FROM DENSITY LOG
 GRD .GAPI   45 310 01 00:   GAMMA RAY FROM DENSITY LOG
 DPHI.DEC    45 890 03 00:   
 RHOB.G/C3   45 350 01 00:   BULK DENSITY
 CORR.G/C3   45 356 01 00:   DENSITY CORRECTION
 SPR .MV     07 010 01 00:   SPONTANEOUS POTENTIAL
 SFL .OHMM   07 220 01 00:   SHALLOW FOCUSED LOG RESISTIVITY
 ILD .OHMM   07 120 46 00:   DEEP INDUCTION RESISTIVITY
 ILM .OHMM   07 120 44 00:   INDUCTION LOG MEDIUM RESISTIVITY
 TENR.LBS    07 635 01 00:   TENSION FROM RESISTIVITY
~PARAMETER INFORMATION
#MNEM.UNIT          VALUE    DESCRIPTION
#----------   ------------   ------------------------------
 EKB .F         5115.0000:   Kelly bushing
 EGL .F         5105.0000:   Ground level
 EDF .F            0.0000:   Drilling floor
 TD  .F         3162.0000:   Total depth
 DATE.        03-SEP-1981:   Date logged
 CLNT.            A2DTECH:   Client Code
 CTRY.                USA:   Country
 SL  . 808' FNL & 954' FEL:   Surface Location
 PD  .                 GL:   Permanent Datum
 EPD .F              5105:   Elevation Permanent Datum
 LMF .                 KB:   Log Measured From
 DMF .                 KB:   Drilling Measured From
 DAPD.F                10:   Feet Above Permanent Datum
 DD  .F              3162:   Depth driller
 DL  .F              3162:   Depth logger
 BLI .F              3158:   Bottom log interval
 TLI .F              1612:   Top log interval
 CS1 .IN            9.625:   Casing size
 CBD1.      9.625" @ 480':   Casing driller 1
 BS1 .IN            7.875:   Bit size
 BSD1.F              3162:   Depth drilled with bit1
 DFT .              WATER:   Type fluid in hole
 MSS .               TANK:   Source of sample
 RMS .OHMM            6.3:   Rm
 MST .F                73:   Rm Meas. temp.
 RMF .OHMM            6.3:   Rmf
 MFST.F                73:   Rmf Meas. temp.
 TCS .HRS            2200:   Time Circ. stopped
 TLAB.HRS            0300:   Time logger at bottom
 MRT .F               100:   Maximum recorded temp.
 LUN .               8039:   Logging unit number
 LUL .               CSPR:   Logging unit location
 ENGI.           C. PEARR:   Recorded By
 WITN.           R. SCOTT:   Witnessed by
 ORIG.         2.5" PRINT:   Origin of data
 UWI .     49025108810000:   Unique Well ID
 DICO. A2D TECHNOLOGIES, INC.:   Digitizing Company
~OTHER INFORMATION
~A   DEPT     CALD         GRD      DPHI       RHOB       CORR        SPR        SFL        ILD        ILM       TENR   
# ...
 3130.5000     8.2446   138.4184     0.1065     2.4995     0.0274   -27.3102     4.7180     3.2700     3.0961   662.4323
 3131.0000     8.2452   136.6725     0.1033     2.5034     0.0308   -27.3008     4.6347     3.2705     3.0419   663.1216
 3131.5000     8.2457   136.6920     0.1049     2.4996     0.0333   -27.2866     4.4718     3.3938     3.0430   663.8108
 3132.0000     8.2461   137.2892     0.1150     2.4879     0.0308   -27.2771     4.3929     3.6514     3.0445   664.5568
 3132.5000     8.2468   138.4838     0.1174     2.4840     0.0275   -26.8669     4.3952     3.8578     3.1587   665.3203
 3133.0000     8.2472   138.4969     0.1158     2.4860     0.0276   -26.8621     4.8143     4.2259     3.2767   680.6498
 3133.5000     8.2479   137.9191     0.1048     2.4821     0.0198   -26.8527     5.7755     4.5467     4.0025   681.4003
 3134.0000     8.1936   133.0120     0.0931     2.5213     0.0237   -26.4425     7.7257     4.8909     4.6316   682.1638
 3134.5000     8.1711   128.1050     0.0860     2.5448     0.0257   -26.4283     9.4380     5.1666     5.0744   667.9381
 3135.0000     8.1327   123.1979     0.0801     2.5546     0.0355   -26.4189    10.3382     5.6616     5.8710   668.7016
 3135.5000     8.0942   118.2908     0.0742     2.5566     0.0395   -26.4047    11.5339     6.4313     6.2448   669.3254
 3136.0000     8.1338   114.6256     0.0687     2.5645     0.0395   -26.3953    13.1035     7.4409     6.7950   670.1194
 3136.5000     8.1341   111.1350     0.0664     2.5645     0.0447   -26.3859    14.3535     8.6090     6.7973   670.7042
 3137.0000     8.1739   109.9770     0.0710     2.5607     0.0338   -26.3765    13.9902     8.9306     7.1817   671.4283
 3137.5000     8.1354   109.4092     0.0765     2.5568     0.0279   -26.3623    13.7406     9.0975     8.0142   672.0826
 3138.0000     8.1750   111.7540     0.0796     2.5568     0.0260   -26.3482    12.5554     9.1007     8.0166   687.5432
 3138.5000     8.1754   115.3051     0.0765     2.5666     0.0260   -26.3387    11.5645     9.1055     7.7337   688.2717
 3139.0000     8.1761   118.8562     0.0676     2.5706     0.0280   -26.3246    12.2182     9.1087     7.7364   689.0352
 3139.5000     8.1765   121.7497     0.0624     2.5726     0.0339   -26.3105    12.4465     8.9510     7.4643   689.6895
 3140.0000     8.1378   125.2839     0.0608     2.5766     0.0340   -26.3010    12.3511     8.6347     7.2005   690.3002
 3140.5000     8.1776   123.5350     0.0608     2.5746     0.0340   -26.2916    12.1329     8.1811     6.8222   683.9005
 3141.0000     8.1393   120.0427     0.0639     2.5688     0.0341   -26.6687    11.0843     8.1840     6.5811   676.7728
 3141.5000     8.1399   119.4696     0.0756     2.5591     0.0341   -26.6545    10.6922     7.6144     6.3496   674.8438
 3142.0000     8.1404   121.2430     0.0756     2.5571     0.0400   -26.6404     9.5921     7.4787     6.0150   663.5156
 3142.5000     8.1798   123.5959     0.0803     2.5474     0.0381   -27.0221     8.7615     6.5903     5.9087   664.2922
 3143.0000     8.1551   123.6142     0.0834     2.5376     0.0362   -27.0126     7.5780     6.4728     5.4965   664.9465
 3143.5000     8.1421   121.2852     0.0849     2.5338     0.0304   -26.9985     6.7982     6.0233     5.2077   665.7100
 3144.0000     8.1426   118.9618     0.0833     2.5358     0.0362   -26.5932     5.8808     5.6031     4.6724   681.1353
 3144.5000     8.1432   119.5591     0.0872     2.5260     0.0363   -26.5838     5.6718     5.1175     4.5072   681.7332
 3145.0000     8.1436   122.5043     0.0927     2.5084     0.0344   -26.5696     4.7784     4.5088     4.1935   697.3245
 3145.5000     8.1443  -999.2500     0.1044     2.4909     0.0266   -26.5555     4.5259     4.1949     3.6275   697.8828
 3146.0000     8.1445  -999.2500     0.1013     2.4948     0.0286   -26.5460     4.5282     3.9029     3.3750   698.5720
 3146.5000     8.1454  -999.2500     0.0966     2.5027     0.0384   -26.5319     4.5297     3.3767     3.1970   699.2877
 3147.0000     8.1458  -999.2500     0.0997     2.5027     0.0443   -26.5225     4.4498     3.0285     2.8162   700.0512
 3147.5000     8.1074  -999.2500     0.0997     2.5028     0.0483   -26.5083     4.1402     2.8176     2.5730   700.7055
 3148.0000     8.1081  -999.2500     0.0997     2.4930     0.0561   -26.4989     3.5828     2.5738     2.4820   701.3598
 3148.5000     8.1085  -999.2500     0.0997     2.4911     0.0640   -26.4848     2.8818     2.3515     2.2676   687.1341
 3149.0000     8.1317  -999.2500     0.1004     2.4852     0.0777   -26.4800     2.3612     2.1484     2.1874   685.2700
 3149.5000     8.1480  -999.2500     0.1035     2.4775     0.0875   -26.4659     2.1175     1.9625     2.0351   673.8551
 3150.0000     8.1484  -999.2500     0.1059     2.4775     0.0974   -26.4485     3.3981     2.1115     2.0355   674.6536
 3150.5000     8.1490  -999.2500     0.1045     2.4907     0.0955   -26.4471     3.7905     2.6745     2.3131   675.2339
 3151.0000     8.1484  -999.2500     0.0966     2.5145     0.0873   -26.4282     6.6590     2.8257     2.4435   675.9625
 3151.5000     8.1484  -999.2500     0.0903     2.5437     0.0813   -26.4188     6.9089     2.8790     2.8272   676.7260
 3152.0000     8.1484  -999.2500     0.0716     2.5788     0.0811   -26.4047     6.3114     2.9871     3.1544   677.3802
 3152.5000     8.1484  -999.2500     0.0763     2.5787     0.0712   -26.3905     6.2010     2.9881     3.5835   678.0349
 3153.0000     8.1484  -999.2500     0.0819     2.5375     0.0592   -26.3811     7.1744     2.9896     4.0716   678.7983
 3153.5000     8.1484  -999.2500     0.0811     2.5433     0.0533   -25.9761     7.8591     2.9911     4.3808   679.4526
 3154.0000     8.1484  -999.2500     0.0733     2.5627     0.0472   -25.1754     7.5827     2.9921     4.9776   680.1069
 3154.5000     8.1094  -999.2500     0.0695     2.5705     0.0490   -24.3845     7.3148     2.9935     5.5529   680.8704
 3155.0000     8.0703  -999.2500     0.0781     2.5528     0.0528   -24.3796     7.3186     2.9937     5.6557   696.2961
 3155.5000     7.9922  -999.2500     0.0758     2.5585     0.0585   -23.5838     7.3199     2.9957     5.9778   711.7214
 3156.0000     7.9141  -999.2500     0.0673     2.5779     0.0798   -25.1285     7.0650     2.9972     5.7654   727.2560
 3156.5000     7.8359  -999.2500     0.0603     2.5758     0.0855   -27.8597     7.0662  -999.2500  -999.2500   727.9103
 3157.0000     7.7188  -999.2500     0.0650     2.5738     0.0990   -27.8455  -999.2500  -999.2500  -999.2500   728.5649
 3157.5000     7.5234  -999.2500     0.0682     2.5620     0.1085   -26.6636  -999.2500  -999.2500  -999.2500   729.3284
 3158.0000     6.8594  -999.2500     0.0768     2.5541     0.1201   -23.5230  -999.2500  -999.2500  -999.2500   685.5607
 3158.5000     5.9609  -999.2500     0.0839     2.5441     0.1336   -23.1228  -999.2500  -999.2500  -999.2500   642.0107
 3159.0000     5.9219  -999.2500     0.0863     2.5382     0.1412   -22.7180  -999.2500  -999.2500  -999.2500   539.3768
 3159.5000     5.9219  -999.2500     0.0871     2.5342     0.1469   -22.3132  -999.2500  -999.2500  -999.2500   495.7183
 3160.0000     5.9219  -999.2500     0.0871     2.5322     0.1487   -21.6356  -999.2500  -999.2500  -999.2500   496.3726
 3160.5000  -999.2500  -999.2500  -999.2500  -999.2500  -999.2500   -21.5130  -999.2500  -999.2500  -999.2500   493.4557
 3161.0000  -999.2500  -999.2500  -999.2500  -999.2500  -999.2500   -21.5037  -999.2500  -999.2500  -999.2500   482.7175
 3161.5000  -999.2500  -999.2500  -999.2500  -999.2500  -999.2500   -21.4897  -999.2500  -999.2500  -999.2500   468.8333
 3162.0000  -999.2500  -999.2500  -999.2500  -999.2500  -999.2500   -21.4804  -999.2500  -999.2500  -999.2500   464.5075
 3162.5000  -999.2500  -999.2500  -999.2500  -999.2500  -999.2500   -21.4665  -999.2500  -999.2500  -999.2500   455.4408
 3163.0000  -999.2500  -999.2500  -999.2500  -999.2500  -999.2500   -21.4572  -999.2500  -999.2500  -999.2500   470.9753
 3163.5000  -999.2500  -999.2500  -999.2500  -999.2500  -999.2500   -21.4385  -999.2500  -999.2500  -999.2500   471.5904
