~VERSION INFORMATION
 VERS.                2.0:   CWLS LOG ASCII STANDARD - VERSION 2.0
 WRAP.                 NO:   ONE LINE PER DEPTH STEP
~WELL INFORMATION
#MNEM.UNIT      DATA TYPE    INFORMATION
#----------   ------------   ------------------------------
 STRT.F            0.0000:   START DEPTH
 STOP.F          640.0000:   STOP DEPTH
 STEP.F            0.5000:   STEP LENGTH
 NULL.          -999.2500:   NO VALUE
 COMP.       FLUOR DANIEL:   COMPANY
 WELL.  FLUOR " X" #45-27:   WELL
 FLD .                NPR:   FIELD
 LOC .      S27 T39N R78W:   LOCATION
 CNTY.            NATRONA:   COUNTY
 STAT.            WYOMING:   STATE
 CTRY. UNITED STATES OF AMERICA:   COUNTRY
 SRVC.      WESTERN ATLAS:   SERVICE COMPANY
 DATE.        11-MAY-1996:   LOGDATE
 API .     49025227900000:   API NUMBER
~CURVE INFORMATION
#MNEM.UNIT       API CODE    CURVE DESCRIPTION
#----------   ------------   ------------------------------
 DEPT.F                  :   
 GRR .GAPI   07 310 01 00:   GAMMA RAY FROM RESISTIVITY
 RILD.OHMM   07 120 46 00:   INDUCTION LOG DEEP RESISTIVITY
 RILM.OHMM   07 120 44 00:   INDUCTION LOG MEDIUM RESISTIVITY
 TENR.LBS    07 635 01 00:   TENSION
~PARAMETER INFORMATION
#MNEM.UNIT          VALUE    DESCRIPTION
#----------   ------------   ------------------------------
 EKB .F         5058.0000:   Kelly bushing
 EGL .F         5048.0000:   Ground level
 EDF .F         5057.0000:   Drilling floor
 EPD .F         5048.0000:   Permanent datum
 TD  .F          632.0000:   Total depth
 DATE.        11-MAY-1996:   Date logged
 CLNT.            A2DTECH:   Client Code
 SL  . 2250' FSL & 2122' FWL:   Surface Location
 PD  .                 GL:   Permanent Datum
 LMF .                 KB:   Log Measured From
 DMF .                 KB:   Drilling Measured From
 DAPD.F                10:   Feet Above Permanent Datum
 DD  .F               632:   Depth driller
 DL  .F               631:   Depth logger
 BLI .F               620:   Bottom log interval
 CS1 .IN            9.625:   Casing size
 CBD1.       9.625" @ 53':   Casing driller 1
 CBL1.F                53:   Casing logger 1
 BS1 .IN             8.75:   Bit size
 BSD1.F               632:   Depth drilled with bit1
 DFT .                AIR:   Type fluid in hole
 LUN .            HL 6532:   Logging unit number
 LUL .             CASPER:   Logging unit location
 ORIG.         2.5" PRINT:   Origin of data
 UWI .     49025227900000:   Unique Well ID
 DICO. A2D TECHNOLOGIES, INC.:   Digitizing Company
 TLI .                620:   Top log interval
~OTHER INFORMATION
~A    DEPT      GRR      RILD       RILM       TENR   
# ...
   73.0000    95.4050     8.0250     8.5850    -3.4010
   73.5000    98.7490     8.0810     8.7450    -2.8490
   74.0000   101.5870     8.1250     8.9960    -2.2960
   74.5000   104.2230     8.4760     9.4010    -1.7440
   75.0000   104.7020     8.9060     9.8060    -1.1910
   75.5000   104.8810     9.3370    10.2120    -0.6390
   76.0000   105.1050     9.7680    10.6170    -0.0860
   76.5000   102.2440    10.1980    11.0220     0.4660
   77.0000   100.4470    10.6290    11.4270     1.0180
   77.5000    99.3950    10.9030    11.5670     1.5710
   78.0000   100.7150    10.9030    11.6270     2.1230
   78.5000   102.8860    10.9920    11.6870     2.6760
   79.0000   104.4130    11.0680    11.7470     3.2280
   79.5000   104.1300    11.1450    11.8070     3.7800
   80.0000   102.0710    11.2220    11.8670     4.3330
   80.5000   100.8920    11.2980    11.9280     4.8850
   81.0000   100.6620    11.3750    11.9880     5.4380
   81.5000   102.0630    11.4520    12.0480     5.9900
   82.0000   104.0080    11.5220    12.1080     6.5430
   82.5000   105.9820    11.4220    12.1750     7.0950
   83.0000   106.8280    11.2770    12.1750     7.6470
   83.5000   107.5070    11.1310    12.0390     8.2000
   84.0000   105.5130    10.9860    11.8360     8.7520
   84.5000   104.1330    10.8410    11.6330     9.3050
   85.0000   103.6770    10.6960    11.4310     9.8570
   85.5000   101.9950    10.5500    11.2280    10.4090
   86.0000   101.2960    10.4050    11.0250    10.9620
   86.5000   102.0150    10.2600    10.8220    11.5140
   87.0000   100.9320    10.1150    10.6190    12.0670
   87.5000    98.7790     9.9700    10.4160    12.6190
   88.0000    96.5970     9.8240    10.1300    13.1720
   88.5000    95.7270     9.7650    10.1690    13.7240
   89.0000    96.7110     9.7650    10.2360    14.2760
   89.5000    97.8740     9.8280    10.3030    14.8290
   90.0000    99.0340     9.8930    10.3180    15.3810
   90.5000   100.1550     9.9570    10.4290    15.9340
   91.0000   101.3870    10.0220    10.6280    16.4860
   91.5000   101.9050    10.0870    10.8270    17.0380
   92.0000   100.3850    10.2480    11.0260    17.5910
   92.5000    99.7260    10.6050    11.2250    18.1430
   93.0000   100.0980    10.9620    11.4240    18.6960
   93.5000   100.3430    11.3190    11.5220    19.2480
   94.0000   100.6040    11.6760    11.8100    19.8010
   94.5000   100.9040    12.0330    12.2220    20.3530
   95.0000   101.1670    12.3900    12.6330    20.9050
   95.5000   101.0900    12.8650    13.0450    21.4580
   96.0000    99.2050    12.8000    13.3470    22.0100
   96.5000    97.1600    12.7030    13.3470    22.5630
   97.0000    96.4520    12.5760    13.2840    23.1150
   97.5000    98.1240    12.3580    13.0320    23.6670
   98.0000    99.4740    12.1390    12.7790    24.2200
   98.5000   100.8360    11.9210    12.5270    24.7720
   99.0000   102.7970    11.7030    12.2750    25.3250
   99.5000   103.9660    11.4840    12.0230    25.8770
  100.0000   104.2530    11.2660    11.7710    26.4300
  100.5000   104.2220    11.0470    11.5220    26.9820
  101.0000   103.6290    10.8290    11.3120    27.5340
  101.5000   102.9680    10.7050    11.3860    28.0870
  102.0000   103.3230    10.7360    11.4760    28.6390
  102.5000   104.0590    10.8640    11.5660    29.1920
  103.0000   105.6940    10.9920    11.6570    29.7440
  103.5000   107.6920    11.1200    11.7470    30.2960
  104.0000   109.1570    11.2480    11.8370    30.8490
  104.5000   108.7800    11.3120    11.9270    31.4010
  105.0000   108.7070    11.3120    12.1750    31.9540
  105.5000   110.7790    11.0430    12.1750    32.5060
  106.0000   114.0290    10.5310    11.4370    33.0590
  106.5000   116.0230    10.0200    10.7850    33.6110
  107.0000   118.0950     9.5080    10.1330    34.1630
  107.5000   120.1380     8.9960     9.4800    34.7160
  108.0000   122.6720     8.4850     8.8280    35.2680
  108.5000   125.7790     7.9730     8.1760    35.8210
  109.0000   129.0210     7.4620     7.5240    36.3730
  109.5000   130.6900     6.9500     6.7600    36.9250
  110.0000   131.3150     6.4390     6.5530    37.4780
  110.5000   131.6270     5.9440     6.3020    38.0300
  111.0000   130.7330     5.9500     6.0540    38.5830
  111.5000   130.3650     5.9620     6.0640    39.1350
  112.0000   130.6020     5.9740     6.0980    39.4210
  112.5000   130.8350     5.9860     6.1320    39.4210
  113.0000   126.9690     5.9970     6.1670    39.4210
  113.5000   122.2310     6.0090     6.2010    39.4210
  114.0000   114.6890     6.0210     6.2350    39.4210
  114.5000   110.5030     6.0330     6.2690    39.4210
  115.0000   108.6120     6.0450     6.3040    39.4210
  115.5000   108.9400     6.0570     6.3380    39.4210
  116.0000   109.2620     6.0690     6.3720    39.4210
  116.5000   109.6530     6.0810     6.4070    39.4210
  117.0000   110.0010     6.0930     6.4410    39.4210
  117.5000   108.8450     6.1050     6.4750    39.4210
  118.0000   107.2610     6.1170     6.5100    39.4210
  118.5000   105.6890     6.1290     6.5440    39.4210
  119.0000   104.1430     6.1410     6.5780    39.4210
  119.5000   102.5820     6.1530     6.6120    39.4210
  120.0000   101.0040     6.1660     6.6370    39.4210
  120.5000    99.6850     6.1550     6.5950    39.4210
  121.0000    99.7160     6.1420     6.5480    39.4210
  121.5000   101.0790     6.1290     6.5010    38.8080
  122.0000   102.9550     6.1160     6.4530    37.6060
  122.5000   102.9830     6.1040     6.4060    36.4030
  123.0000   100.9370     6.0910     6.3580    35.2010
  123.5000   100.9360     6.0770     6.3110    33.9990
  124.0000   102.0840     6.0550     6.2810    32.7960
  124.5000   104.9430     6.0590     6.1670    31.5940
  125.0000   105.5150     6.1240     6.2820    30.3920
  125.5000   105.9370     6.1820     6.3800    29.1890
  126.0000   106.2390     6.2410     6.4770    27.9870
  126.5000   106.6470     6.2990     6.5750    26.7850
  127.0000   107.2150     6.3570     6.6720    25.5820
  127.5000   107.9870     6.4160     6.7690    24.3800
  128.0000   108.6960     6.4740     6.8670    23.1770
  128.5000   106.6750     6.5470     6.9640    21.9750
  129.0000   103.5650     6.6540     7.0620    20.7730
  129.5000   100.7650     6.7620     7.1590    19.5700
  130.0000   102.2390     6.8700     7.2570    18.3680
  130.5000   105.6830     6.9780     7.3540    17.1660
  131.0000   108.4100     7.0860     7.4510    15.9630
  131.5000   107.7430     7.1940     7.5490    14.7610
  132.0000   105.7730     7.3010     7.6460    13.5590
  132.5000   104.5710     7.4110     7.7440    12.3560
  133.0000   105.2370     7.4600     7.8410    11.1540
  133.5000   105.8690     7.5100     7.9770     9.9520
  134.0000   104.9730     7.5490     7.9150     8.7490
  134.5000   104.3250     7.5490     7.8130     7.5470
  135.0000   103.5670     7.5490     7.7120     6.3440
  135.5000   102.8600     7.4990     7.6100     5.1420
  136.0000   102.0830     7.3870     7.5090     3.9400
  136.5000   102.0370     7.2750     7.4070     2.7370
  137.0000   101.9690     7.1630     7.3060     1.5350
  137.5000   102.1230     7.0520     7.2040     0.3330
  138.0000   102.8930     6.9400     7.1030    -0.8700
  138.5000   105.1120     6.8860     7.0140    -2.0720
  139.0000   105.2940     6.8860     7.0330    -3.2740
  139.5000   104.6810     6.8890     7.0500    -4.4770
  140.0000   102.7760     6.8940     7.0670    -5.6790
  140.5000   100.9030     6.8990     7.0840    -6.8810
  141.0000    97.1590     6.9040     7.1010    -8.0840
  141.5000    96.5300     6.9100     7.1180    -9.2860
  142.0000    96.7730     6.9150     7.1350   -10.4890
  142.5000    98.0960     6.9200     7.1520   -11.6910
  143.0000   101.7470     6.9250     7.1690   -12.8930
  143.5000   105.5280     6.9300     7.1860   -14.0960
  144.0000   105.7330     6.9360     7.2030   -15.2980
  144.5000   102.9670     6.9410     7.2200   -16.5000
  145.0000   101.1790     6.9460     7.2370   -17.7030
  145.5000   101.2200     6.9510     7.2540   -18.9050
