~VERSION INFORMATION
 VERS.                2.0:   CWLS LOG ASCII STANDARD - VERSION 2.0
 WRAP.                 NO:   ONE LINE PER DEPTH STEP
~WELL INFORMATION
#MNEM.UNIT      DATA TYPE    INFORMATION
#----------   ------------   ------------------------------
 STRT.F          502.0000:   START DEPTH
 STOP.F         3068.0000:   STOP DEPTH
 STEP.F            0.5000:   STEP LENGTH
 NULL.          -999.2500:   NO VALUE
 COMP. LAWRENCE ALLISON AND ASSOCIATES:   COMPANY
 WELL. LAWRENCE NPR TX #85-33:   WELL
 FLD .              N P R:   FIELD
 LOC .      S33 T39N R78W:   LOCATION
 CNTY.            NATRONA:   COUNTY
 STAT.            WYOMING:   STATE
 CTRY. UNITED STATES OF AMERICA:   COUNTRY
 SRVC.       SCHLUMBERGER:   SERVICE COMPANY
 DATE.        20-JUN-1982:   LOGDATE
 API .     49025107990001:   API NUMBER
~CURVE INFORMATION
#MNEM.UNIT       API CODE    CURVE DESCRIPTION
#----------   ------------   ------------------------------
 DEPT.F                  :   
 RHOB.G/C3   45 350 01 00:   BULK DENSITY
 GRD .GAPI   45 310 01 00:   GAMMA RAY FROM DENSITY LOG
 CALD.IN     45 280 60 00:   CALIPER FROM DENSITY LOG
 CORR.G/C3   45 356 01 00:   DENSITY CORRECTION
 TEND.LBS    45 635 01 00:   TENSION FROM DENSITY LOG
 NPHI.DEC    42 890 03 00:   NEUTRON POROSITY SANDSTONE
 TENR.LBS    07 635 01 00:   TENSION FROM RESISTIVITY
 SPR .MV     07 010 01 00:   SPONTANEOUS POTENTIAL
 ILD .OHMM   07 120 46 00:   DEEP INDUCTION RESISTIVITY
 ILM .OHMM   07 120 44 00:   INDUCTION LOG MEDIUM RESISTIVITY
 SFL .OHMM   07 220 01 00:   SHALLOW FOCUSED LOG RESISTIVITY
~PARAMETER INFORMATION
#MNEM.UNIT          VALUE    DESCRIPTION
#----------   ------------   ------------------------------
 EKB .F         5123.0000:   Kelly bushing
 EGL .F         5113.0000:   Ground level
 EDF .F         5122.0000:   Drilling floor
 EPD .F         5113.0000:   Permanent datum
 TD  .F         3100.0000:   Total depth
 DATE.        20-JUN-1982:   Date logged
 CLNT.            A2DTECH:   Client Code
 SL  . 2263' FSL & 293' FEL:   Surface Location
 PD  .                 GL:   Permanent Datum
 DD  .F              3100:   Depth driller
 DL  .F              3056:   Depth logger
 BLI .F              3050:   Bottom log interval
 CS1 .IN            9.625:   Casing size
 CBD1.      9.625" @ 524':   Casing driller 1
 CBL1.F               520:   Casing logger 1
 BS1 .IN            7.875:   Bit size
 DFT .           POLY/KCL:   Type fluid in hole
 DFD .                8.4:   Density
 DFV .                 40:   Viscosity
 DFPH.                7.6:   pH
 DFL .                 10:   Fluid loss
 MSS .               TANK:   Source of sample
 RMS .OHMM            .92:   Rm
 MST .F                66:   Rm Meas. temp.
 RMF .OHMM           .603:   Rmf
 MFST.F                68:   Rmf Meas. temp.
 MFSS.               MEAS:   Source Rmf.
 RMB .OHMM           .515:   Rm. at BHT
 BHT .F               118:   BHT.
 TCS .HRS             815:   Time Circ. stopped
 MRT .F               118:   Maximum recorded temp.
 LUN .               8035:   Logging unit number
 LUL .               CSPR:   Logging unit location
 ENGI.              PENNY:   Recorded By
 WITN.           JENNINGS:   Witnessed by
 ORIG.           5" PRINT:   Origin of data
 UWI .     49025107990001:   Unique Well ID
 DICO. A2D TECHNOLOGIES, INC.:   Digitizing Company
 DAPD.                 10:   Feet Above Permanent Datum
 BSD1.               3100:   Depth drilled with bit1
 TLI .                520:   Top log interval
 TLAB.               1100:   Time logger at bottom
~OTHER INFORMATION
~A   DEPT     RHOB         GRD      CALD       CORR       TEND       NPHI       TENR        SPR        ILD        ILM        SFL   
# ...
 3033.5000     2.4860  -999.2500     7.3010     0.0180  1712.1121     0.2100  2032.4500   -31.5420    11.3580    12.1580    21.1330
 3034.0000     2.4920  -999.2500     7.3090     0.0120  1716.2700     0.2190  2033.7140   -31.0190    10.4960    11.0980    14.7420
 3034.5000     2.4930  -999.2500     7.3160     0.0100  1681.4810     0.2200  2034.9780   -31.0100     9.6350    10.0390    13.4750
 3035.0000     2.5060  -999.2500     7.3240     0.0120  1659.4611     0.2200  2036.2410   -31.0460     8.7740     8.9800    13.7850
 3035.5000     2.5260  -999.2500     7.3310     0.0170  1669.9871     0.2190  2037.5050   -31.5070     8.3600     8.4360    14.1090
 3036.0000     2.5450  -999.2500     7.3390     0.0210  1680.5140     0.2140  2038.7690   -31.9200     8.0070     8.7180    14.5260
 3036.5000     2.5730  -999.2500     7.3460     0.0210  1691.0400     0.2050  2040.0320   -32.3250     7.6530     8.9140    16.4400
 3037.0000     2.6000  -999.2500     7.3540     0.0300  1701.5660     0.2000  2041.2960   -32.7290     7.1360     8.3610    18.9740
 3037.5000     2.6130  -999.2500     7.3600     0.0400  1712.0930     0.2120  2042.5601   -33.1060     6.5570     7.3150    21.3280
 3038.0000     2.5810  -999.2500     7.3590     0.0480  1722.6190     0.2260  2043.8240   -33.4390     5.9780     6.2310    18.4140
 3038.5000     2.5230  -999.2500     7.3540     0.0340  1733.1450     0.2350  2045.0870   -33.5540     5.4000     5.7540    13.6490
 3039.0000     2.4760  -999.2500     7.3490     0.0200  1743.6720     0.2330  2046.3510   -33.3600     4.9090     5.2600     8.7090
 3039.5000     2.4490  -999.2500     7.3440     0.0100  1754.1980     0.2330  2047.6150   -33.1600     4.5600     4.7660     6.9530
 3040.0000     2.4510  -999.2500     7.3380     0.0120  1764.7240     0.2390  2048.8779   -32.9640     4.3150     4.4770     6.4050
 3040.5000     2.4600  -999.2500     7.3330     0.0140  1775.7939     0.2420  2050.1421   -32.8010     4.3550     4.5700     6.9330
 3041.0000     2.4720  -999.2500     7.3280     0.0160  1768.3060     0.2380  2051.4060   -32.5810     4.4900     4.7190     7.3510
 3041.5000     2.4870  -999.2500     7.3230     0.0210  1760.4110     0.2310  2052.6689   -32.5920     4.6040     4.8690     8.5540
 3042.0000     2.5040  -999.2500     7.3170     0.0260  1752.5170     0.2290  2053.9331   -32.7150     4.7170     5.0180     9.1630
 3042.5000     2.5220  -999.2500     7.3120     0.0320  1744.6219     0.2320  2055.1970   -32.8370     4.8310     5.1670     8.7800
 3043.0000     2.5340  -999.2500     7.3070     0.0360  1736.7271     0.2360  2056.4609   -32.9580     4.9440     5.3300     8.3410
 3043.5000     2.5270  -999.2500     7.3020     0.0330  1728.8320     0.2380  2057.7241   -33.0800     5.0450     5.3300     7.9010
 3044.0000     2.5130  -999.2500     7.2960     0.0310  1720.9380     0.2400  2058.9880   -33.2010     5.0450     5.2560     7.4620
 3044.5000     2.5040  -999.2500     7.2890     0.0310  1716.2700     0.2410  2060.2520   -33.3220     5.0450     5.1530     7.0860
 3045.0000     2.5190  -999.2500     7.2810     0.0440  1717.5540     0.2400  2061.5149   -33.4440     4.9600     5.0510     7.1510
 3045.5000     2.5310  -999.2500     7.2740     0.0580  1723.4360     0.2380  2062.7791   -33.5640     4.8700     4.9480     7.3360
 3046.0000     2.5310  -999.2500     7.2660     0.0670  1729.3180     0.2360  2062.5161   -33.6840     4.7800     4.8450     7.4870
 3046.5000     2.5170  -999.2500     7.2590     0.0720  1735.2010     0.2390  2055.5439   -33.7260     4.6900     4.7420     7.1960
 3047.0000     2.5030  -999.2500     7.2510     0.0610  1741.0830     0.2460  2048.5720   -33.6490     4.6020     4.6390     6.7060
 3047.5000     2.4900  -999.2500     7.2430     0.0490  1746.9650     0.2480  2041.5990   -33.5700     4.5980     4.5600     6.2150
 3048.0000     2.4910  -999.2500     7.2770     0.0390  1752.8480     0.2450  2034.6270   -33.6660     4.5780     4.6020     5.8430
 3048.5000     2.5180  -999.2500     7.2820     0.0430  1755.9520     0.2420  2027.6550   -33.7890     4.5590     4.6930     6.3530
 3049.0000     2.5310  -999.2500     7.1360     0.0600  1755.9520     0.2410  2023.9280   -33.9140     4.5400     4.8010     7.4810
 3049.5000     2.5340  -999.2500     6.9680     0.0770  1755.9520     0.2440  2050.9700   -34.0390     4.5200     4.9090     8.5140
 3050.0000     2.5300  -999.2500     6.7980     0.0940  1755.9520     0.2460  2076.2200   -34.1460     4.4920     5.0160  -999.2500
 3050.5000     2.5260  -999.2500     6.7120     0.1110  1755.9520     0.2490  2103.6890   -33.9250  -999.2500  -999.2500  -999.2500
 3051.0000     2.5260  -999.2500     6.5720     0.1280  1755.9520     0.2490  2082.8630   -33.6730  -999.2500  -999.2500  -999.2500
 3051.5000     2.5110  -999.2500     6.1640     0.1440  1755.9520     0.2520  2042.5389  -999.2500  -999.2500  -999.2500  -999.2500
 3052.0000     2.4770  -999.2500     5.8130     0.1550  1755.9520     0.2550  2023.9280  -999.2500  -999.2500  -999.2500  -999.2500
 3052.5000     2.4180  -999.2500     5.4900     0.1490  1755.9520  -999.2500  2157.8469  -999.2500  -999.2500  -999.2500  -999.2500
 3053.0000     2.3720  -999.2500     5.1660     0.1410  1755.9520  -999.2500  2342.9709  -999.2500  -999.2500  -999.2500  -999.2500
 3053.5000     2.3490  -999.2500     4.8400     0.1350  1755.9520  -999.2500  2283.1509  -999.2500  -999.2500  -999.2500  -999.2500
 3054.0000     2.3530  -999.2500     4.6800     0.1390  1762.7500  -999.2500  2098.2881  -999.2500  -999.2500  -999.2500  -999.2500
 3054.5000     2.3590  -999.2500  -999.2500     0.1410  1779.9270  -999.2500  1909.2720  -999.2500  -999.2500  -999.2500  -999.2500
 3055.0000     2.3520  -999.2500  -999.2500     0.1360  1797.1050  -999.2500  1720.2560  -999.2500  -999.2500  -999.2500  -999.2500
 3055.5000     2.3420  -999.2500  -999.2500     0.1320  1814.2820  -999.2500  1531.2400  -999.2500  -999.2500  -999.2500  -999.2500
 3056.0000  -999.2500  -999.2500  -999.2500  -999.2500  1831.4590  -999.2500  1342.2230  -999.2500  -999.2500  -999.2500  -999.2500
 3056.5000  -999.2500  -999.2500  -999.2500  -999.2500  1748.6600  -999.2500  1153.2070  -999.2500  -999.2500  -999.2500  -999.2500
 3057.0000  -999.2500  -999.2500  -999.2500  -999.2500  1526.6750  -999.2500  1083.1060  -999.2500  -999.2500  -999.2500  -999.2500
 3057.5000  -999.2500  -999.2500  -999.2500  -999.2500  1304.6910  -999.2500  1075.0420  -999.2500  -999.2500  -999.2500  -999.2500
 3058.0000  -999.2500  -999.2500  -999.2500  -999.2500  1173.0229  -999.2500  1066.9771  -999.2500  -999.2500  -999.2500  -999.2500
 3058.5000  -999.2500  -999.2500  -999.2500  -999.2500  1052.7810  -999.2500  1058.9120  -999.2500  -999.2500  -999.2500  -999.2500
 3059.0000  -999.2500  -999.2500  -999.2500  -999.2500   972.2220  -999.2500  1050.8470  -999.2500  -999.2500  -999.2500  -999.2500
 3059.5000  -999.2500  -999.2500  -999.2500  -999.2500   922.6190  -999.2500  1042.2271  -999.2500  -999.2500  -999.2500  -999.2500
 3060.0000  -999.2500  -999.2500  -999.2500  -999.2500   921.9510  -999.2500  1033.0620  -999.2500  -999.2500  -999.2500  -999.2500
 3060.5000  -999.2500  -999.2500  -999.2500  -999.2500   920.5000  -999.2500  1023.8980  -999.2500  -999.2500  -999.2500  -999.2500
 3061.0000  -999.2500  -999.2500  -999.2500  -999.2500   919.0480  -999.2500  1014.7340  -999.2500  -999.2500  -999.2500  -999.2500
 3061.5000  -999.2500  -999.2500  -999.2500  -999.2500   917.5970  -999.2500  1005.5690  -999.2500  -999.2500  -999.2500  -999.2500
 3062.0000  -999.2500  -999.2500  -999.2500  -999.2500   916.1450  -999.2500   996.4050  -999.2500  -999.2500  -999.2500  -999.2500
 3062.5000  -999.2500  -999.2500  -999.2500  -999.2500   914.6930  -999.2500   987.0390  -999.2500  -999.2500  -999.2500  -999.2500
 3063.0000  -999.2500  -999.2500  -999.2500  -999.2500   913.2420  -999.2500   989.3860  -999.2500  -999.2500  -999.2500  -999.2500
 3063.5000  -999.2500  -999.2500  -999.2500  -999.2500   911.7900  -999.2500   991.7870  -999.2500  -999.2500  -999.2500  -999.2500
