~VERSION INFORMATION
 VERS.                2.0:   CWLS LOG ASCII STANDARD - VERSION 2.0
 WRAP.                 NO:   ONE LINE PER DEPTH STEP
~WELL INFORMATION
#MNEM.UNIT      DATA TYPE    INFORMATION
#----------   ------------   ------------------------------
 STRT.F           31.5000:   START DEPTH
 STOP.F         3370.0000:   STOP DEPTH
 STEP.F            0.5000:   STEP LENGTH
 NULL.          -999.2500:   NO VALUE
 COMP. LAWRENCE ALLISON & ASSOC - WEST:   COMPANY
 WELL. LAWRENCE "AX" #46-34:   WELL
 FLD .             NPR #3:   FIELD
 LOC .      S34 T39N R78W:   LOCATION
 CNTY.            NATRONA:   COUNTY
 STAT.            WYOMING:   STATE
 CTRY. UNITED STATES OF AMERICA:   COUNTRY
 SRVC.       SCHLUMBERGER:   SERVICE COMPANY
 DATE.        30-APR-1986:   LOGDATE
 API .     49025111380000:   API NUMBER
~CURVE INFORMATION
#MNEM.UNIT       API CODE    CURVE DESCRIPTION
#----------   ------------   ------------------------------
 DEPT.F                  :   
 TENR.LBS    07 635 01 00:   TENSION FROM RESISTIVITY
 GRR .GAPI   07 310 01 00:   GAMMA RAY FROM RESISTIVITY
 CALR.IN     07 280 01 00:   CALIPER FROM RESISTIVITY
 SPR .MV     07 010 01 00:   SPONTANEOUS POTENTIAL
 TEND.LBS    45 635 01 00:   TENSION FROM DENSITY LOG
 DEN .G/C3   45 350 01 00:   BULK DENSITY
 CORR.G/C3   45 356 01 00:   DENSITY CORRECTION
 CNC .DEC    42 890 03 00:   NEUTRON PORISITY SANDSTONE
 RFOC.OHMM   07 220 04 00:   RESISTIVITY FOCUSED LOG
 RILD.OHMM   07 120 46 00:   RESISTIVITY INDUCTION LOG DEEP
 RILM.OHMM   07 120 44 00:   RESISTIVITY INDUCTION LOG MEDIUM
~PARAMETER INFORMATION
#MNEM.UNIT          VALUE    DESCRIPTION
#----------   ------------   ------------------------------
 EKB .F         5094.0000:   Kelly bushing
 EGL .F         5082.0000:   Ground level
 EDF .F            0.0000:   Drilling floor
 TD  .F         3370.0000:   Total depth
 DATE.        30-APR-1986:   Date logged
 CLNT.            A2DTECH:   Client Code
 SL  . 2462' FWL & 1545' FSL:   Surface Location
 PD  .                 GL:   Permanent Datum
 EPD .F              5082:   Elevation Permanent Datum
 LMF .                 KB:   Log Measured From
 DMF .                 KB:   Drilling Measured From
 DAPD.F                12:   Feet Above Permanent Datum
 DD  .F              3370:   Depth driller
 DL  .F              3369:   Depth logger
 BLI .F              3367:   Bottom log interval
 CS1 .IN            8.625:   Casing size
 CBD1.      8.625" @ 642':   Casing driller 1
 CBL1.F               642:   Casing logger 1
 BS1 .IN            7.875:   Bit size
 BSD1.F              3370:   Depth drilled with bit1
 DFT .        POLYMER/KCL:   Type fluid in hole
 DFD .                8.9:   Density
 DFV .                 36:   Viscosity
 DFPH.                8.5:   pH
 DFL .               10.2:   Fluid loss
 MSS .           FLOWLINE:   Source of sample
 RMS .OHMM           .319:   Rm
 MST .F                79:   Rm Meas. temp.
 RMF .OHMM            .24:   Rmf
 MFST.F                79:   Rmf Meas. temp.
 RMC .OHMM            .40:   Rmc
 MCST.F                79:   Rmc Meas. temp.
 MFSS.               CALC:   Source Rmf.
 MCSS.               CALC:   Source Rmc.
 RMB .OHMM            .21:   Rm. at BHT
 BHT .F               117:   BHT.
 TCS .HRS               4:   Time Circ. stopped
 MRT .F               117:   Maximum recorded temp.
 LUN .            HL-6264:   Logging unit number
 LUL .           GILLETTE:   Logging unit location
 ENGI.     P. M. FAHLSING:   Recorded By
 WITN.             STRONG:   Witnessed by
 ORIG.        2" 5" PRINT:   Origin of data
 UWI .     49025111380000:   Unique Well ID
 DICO. A2D TECHNOLOGIES, INC.:   Digitizing Company
 TLI .                  0:   Top log interval
~OTHER INFORMATION
~A   DEPT     TENR        GRR       CALR        SPR       TEND        DEN       CORR        CNC       RFOC       RILD       RILM   
# ...
 3325.5000    83.0990   117.7380     8.0620   -57.0470    77.8370     2.4870     0.0170     0.2300     6.5860     4.6820     4.9560
 3326.0000    88.7770   119.0990     8.0620   -57.0390    83.9310     2.4870     0.0060     0.2370     6.3020     4.6860     4.9960
 3326.5000    94.4560   121.2850     8.0620   -57.0440    90.0240     2.4880    -0.0070     0.2410     5.9570     4.6900     5.0370
 3327.0000   100.1340   124.0170     8.0620   -57.0410    96.1180     2.4900    -0.0190     0.2410     5.7850     4.6940     5.0770
 3327.5000   106.4260   131.1390     8.0620   -57.0430    95.1080     2.4930     0.0010     0.2390     5.7320     4.6980     5.1170
 3328.0000   104.2080   133.9960     8.0620   -56.9110    91.1570     2.5030     0.0250     0.2360     6.0450     4.7020     5.1580
 3328.5000    99.7640   131.5300     8.0620   -56.6490    87.2070     2.5120     0.0580     0.2330     6.6710     4.7060     5.1410
 3329.0000    95.3200   130.2980     8.0620   -56.3860    83.2560     2.5210     0.0750     0.2300     7.2250     4.7100     5.0710
 3329.5000    90.8770   131.0310     8.0630   -56.1230    79.3050     2.5270     0.0900     0.2280     7.0140     4.7140     5.0010
 3330.0000    86.3450   131.2810     8.0620   -55.8620    79.8090  -999.2500     0.1060     0.2270     6.7330     4.7180     4.9430
 3330.5000    88.4490   129.9840     8.0820   -55.5960    84.9450  -999.2500     0.0990     0.2370     6.4530     4.6590     4.7980
 3331.0000    93.8280   129.7420     8.0960   -55.3390    90.0810  -999.2500     0.0300     0.2440     6.1720     4.5570     4.6750
 3331.5000    99.2070   130.5610     8.0650   -55.0260    95.2170  -999.2500    -0.0850     0.2500     5.8910     4.4550     4.5520
 3332.0000   104.5870   130.9410     8.0420   -54.8330   100.3520  -999.2500    -0.0540     0.2480     5.6790     4.3520     4.4290
 3332.5000   116.4660   129.7690     8.0440   -54.9490   105.4880  -999.2500     0.0570     0.2460     5.5750     4.2500     4.3060
 3333.0000   118.4040   128.9730     8.0440   -55.1440   108.7270  -999.2500     0.0880     0.2430     5.4380     4.1480     4.1840
 3333.5000   120.6260   129.2230     8.0450   -55.3300   110.7410  -999.2500  -999.2500     0.2420     5.3230     4.0450     4.0980
 3334.0000   122.8480   129.3570     8.0460   -55.5170   112.7550  -999.2500  -999.2500     0.2490     5.6270     3.9430     4.0000
 3334.5000   125.0700   128.8940     8.0470   -55.7130   114.7690  -999.2500  -999.2500     0.2550     5.4650     3.8410     3.9030
 3335.0000   127.2920   127.6470     8.0480   -55.8890   116.7830  -999.2500  -999.2500     0.2540     5.1590     3.7380     3.8060
 3335.5000   129.5140   128.8960     8.0480   -56.0940   118.7970  -999.2500  -999.2500     0.2560     4.8540     3.6360     3.7090
 3336.0000   131.7360   129.9090     8.0490   -56.2270   120.8110  -999.2500  -999.2500     0.2580     4.5480     3.5330     3.6110
 3336.5000   133.9580   129.8940     8.0500   -56.0620   122.8250  -999.2500  -999.2500     0.2580     4.9350     3.4310     3.5140
 3337.0000   136.5460   128.6580     8.0510   -55.8570   124.8400  -999.2500  -999.2500     0.2560     5.0820     3.3290     3.4170
 3337.5000   136.5460   128.8010     8.0520   -55.6860   126.8540  -999.2500  -999.2500     0.2530     4.7760     3.2260     3.3200
 3338.0000   139.5770   132.5530     8.0530   -55.4880   129.8730  -999.2500  -999.2500  -999.2500     4.4790     3.1240     3.2290
 3338.5000   142.0110   131.0290     8.0530   -55.3100   133.5420  -999.2500  -999.2500  -999.2500     4.3830     3.0220     3.1790
 3339.0000   144.4440   129.7730     8.0540   -55.1190   137.2100  -999.2500  -999.2500  -999.2500     4.3960     2.9190     3.1320
 3339.5000   146.5860   118.5970     8.0550   -54.9360   140.8790  -999.2500  -999.2500  -999.2500     4.4110     2.8900     3.0860
 3340.0000   151.1170   105.7380     8.0560   -54.7470   144.5480  -999.2500  -999.2500  -999.2500     4.4650     2.9680     3.0990
 3340.5000   157.3490   114.5760     8.0570   -54.5650   148.2160  -999.2500  -999.2500  -999.2500     4.3520     3.0760     3.2330
 3341.0000   163.5810   125.1020     8.0580   -54.3730   151.8850  -999.2500  -999.2500  -999.2500     4.1470     3.1840     3.3670
 3341.5000   169.8130   130.6340     8.0580   -54.1940   155.5530  -999.2500  -999.2500  -999.2500     3.9420     3.2920     3.5000
 3342.0000   176.0460  -999.2500     8.0590   -53.9980   157.8550  -999.2500  -999.2500  -999.2500     3.7790     3.4000     3.6340
 3342.5000   182.2780  -999.2500     8.0600   -53.8290   165.6020  -999.2500  -999.2500  -999.2500     4.6290     3.5070     3.7680
 3343.0000   188.5100  -999.2500     8.0610   -53.8170   173.5030  -999.2500  -999.2500  -999.2500     5.3320     3.6150     3.9010
 3343.5000   194.7420  -999.2500     8.0620   -53.8280   181.4040  -999.2500  -999.2500  -999.2500     5.4860     3.7230     4.0350
 3344.0000   198.6430  -999.2500     8.0620   -53.8190   189.3060  -999.2500  -999.2500  -999.2500     5.3490     3.8310     4.1690
 3344.5000   201.4060  -999.2500     8.0630   -53.8250   197.2070  -999.2500  -999.2500  -999.2500     5.2250     3.8860     4.2630
 3345.0000   204.1680  -999.2500     8.0640   -53.8220   199.9350  -999.2500  -999.2500  -999.2500     5.8030     3.8860     4.0720
 3345.5000   206.9300  -999.2500     8.0650   -53.8220   203.6040  -999.2500  -999.2500  -999.2500     6.2300     3.7490     3.9000
 3346.0000   209.6930  -999.2500     8.0660   -53.8250   207.2730  -999.2500  -999.2500  -999.2500     6.0870     3.5590     3.7270
 3346.5000   212.4550  -999.2500     8.0670   -53.8200   210.9420  -999.2500  -999.2500  -999.2500     5.5130     3.3700     3.5540
 3347.0000   215.2180  -999.2500     8.0670   -53.8260   214.6110  -999.2500  -999.2500  -999.2500     4.9390     3.1810     3.3810
 3347.5000   216.8670  -999.2500     8.0680   -53.8200   218.2800  -999.2500  -999.2500  -999.2500     4.3650     2.9910     3.2080
 3348.0000   225.2030  -999.2500     8.0690   -53.6550   221.9480  -999.2500  -999.2500  -999.2500     4.0440     2.8020     3.0360
 3348.5000   232.1130  -999.2500     8.0700   -53.3770   225.6170  -999.2500  -999.2500  -999.2500     4.0700     2.6590     2.8370
 3349.0000   239.0220  -999.2500     8.0710   -53.1020   229.2860  -999.2500  -999.2500  -999.2500     3.8520     2.8500     2.9580
 3349.5000   245.9320  -999.2500     8.0720   -52.8280   232.9550  -999.2500  -999.2500  -999.2500     3.5950     3.0040     3.1000
 3350.0000   252.8420  -999.2500     8.0720   -52.5500   236.6240  -999.2500  -999.2500  -999.2500     3.4130     3.0830     3.2290
 3350.5000   259.7520  -999.2500     8.0730   -52.2780   241.9490  -999.2500  -999.2500  -999.2500     3.7400     3.1460     3.6300
 3351.0000   267.0680  -999.2500     8.0740   -51.9990   248.8600  -999.2500  -999.2500  -999.2500     4.4430     3.3470     3.9950
 3351.5000   270.8840  -999.2500     8.0750   -51.7270   255.7720  -999.2500  -999.2500  -999.2500     5.1970     3.5470     4.3020
 3352.0000   276.0040  -999.2500     8.0760   -51.6080   262.6840  -999.2500  -999.2500  -999.2500     6.2300     3.7480     4.3400
 3352.5000   281.1240  -999.2500     8.0760   -51.6110   269.5960  -999.2500  -999.2500  -999.2500     6.3470     3.9490     4.3800
 3353.0000   286.2450  -999.2500     8.0770   -51.6070   276.5070  -999.2500  -999.2500  -999.2500     6.3470     4.1490     4.4190
 3353.5000   291.3650  -999.2500     8.0780   -51.6140   283.4190  -999.2500  -999.2500  -999.2500     5.8820     4.3420     4.4650
 3354.0000   297.1890  -999.2500     8.0790   -51.6040   290.3310  -999.2500  -999.2500  -999.2500     5.4260     4.4130     4.5630
 3354.5000   301.7680  -999.2500     8.0800   -51.6170   297.2430  -999.2500  -999.2500  -999.2500     5.1540     4.4810     4.6790
 3355.0000   308.6370  -999.2500     8.0810   -51.6010   304.1540  -999.2500  -999.2500  -999.2500     5.1300     4.5490     4.7950
 3355.5000   315.5060  -999.2500     8.0810   -51.6180   311.0660  -999.2500  -999.2500  -999.2500     5.1300     4.6170     4.8980
