~VERSION INFORMATION
 VERS.                2.0:   CWLS LOG ASCII STANDARD - VERSION 2.0
 WRAP.                 NO:   ONE LINE PER DEPTH STEP
~WELL INFORMATION
#MNEM.UNIT      DATA TYPE    INFORMATION
#----------   ------------   ------------------------------
 STRT.F          494.0000:   START DEPTH
 STOP.F         4999.5000:   STOP DEPTH
 STEP.F            0.5000:   STEP LENGTH
 NULL.          -999.2500:   NO VALUE
 COMP.    FENIX & SCISSON:   COMPANY
 WELL.  FENIX "LX" #26-23:   WELL
 FLD . MPR #3 (TEAPOT DOME):   FIELD
 LOC .      S23 T38N R78W:   LOCATION
 CNTY.            NATRONA:   COUNTY
 STAT.            WYOMING:   STATE
 CTRY. UNITED STATES OF AMERICA:   COUNTRY
 SRVC.       SCHLUMBERGER:   SERVICE COMPANY
 DATE.        11-AUG-1978:   LOGDATE
 API .     49025107340000:   API NUMBER
~CURVE INFORMATION
#MNEM.UNIT       API CODE    CURVE DESCRIPTION
#----------   ------------   ------------------------------
 DEPT.F                  :   
 NPHI.DEC    42 890 03 00:   NEUTRON POROSITY SANDSTONE
 TEND.LBS    45 635 01 00:   TENSION FORM DENSITY LOG
 GRD .GAPI   45 310 01 00:   GAMMA RAY FROM DENSITY LOG
 CALD.IN     45 280 60 00:   CALIPER FROM DENSITY LOG
 DRHO.G/C3   45 356 01 00:   DENSITY CORRECTION
 RHOB.G/C3   45 350 01 00:   BULK DENSITY
 SPR .MV     07 010 01 00:   SPONTANEOUS POTENTIAL
 TENR.LBS    07 635 01 00:   TENSION FROM RESISTIVITY LOG
 ILD .OHMM   07 120 46 00:   INDUCTION LOG DEEP RESISTIVITY
 ILM .OHMM   07 120 44 00:   INDUCTION LOG MEDIUM RESISTIVITY
 SFL .OHMM   07 220 01 00:   SPHERICALLY FOCUSED LOG RESISITIVITY
~PARAMETER INFORMATION
#MNEM.UNIT          VALUE    DESCRIPTION
#----------   ------------   ------------------------------
 EKB .F         5335.0000:   Kelly bushing
 EGL .F         5325.0000:   Ground level
 EDF .F            0.0000:   Drilling floor
 EPD .F         5325.0000:   Permanent datum
 TD  .F         5000.0000:   Total depth
 CLNT.            A2DTECH:   Client Code
 SL  . 1600' FSL & 903' FWL:   Surface Location
 PD  .                 GL:   Permanent Datum
 LMF .                 KB:   Log Measured From
 DMF .                 KB:   Drilling Measured From
 DAPD.F                10:   Feet Above Permanent Datum
 DATE.        11-AUG-1978:   Date Logged [DD-MMM-YYYY]
 DD  .F              5000:   Depth driller
 DL  .F              4998:   Depth logger
 BLI .F              4992:   Bottom log interval
 TLI .F               525:   Top log interval
 CS1 .IN            9.625:   Casing size
 CBD1.      9.625" @ 521':   Casing driller 1
 CBL1.F               521:   Casing logger 1
 BS1 .IN             8.75:   Bit size
 BSD1.F              5000:   Depth drilled with bit1
 DFD .                9.1:   Density
 MSS .            MUD PIT:   Source of sample
 RMS .OHMM          0.897:   Rm
 MST .F                64:   Rm Meas. temp.
 RMF .OHMM          0.821:   Rmf
 MFST.F                64:   Rmf Meas. temp.
 MFSS.               MEAS:   Source Rmf.
 BHT .F               135:   BHT.
 TCS .HRS              03:   00:   Time Circ. stopped
 TLAB.HRS              09:   00:   Time logger at bottom
 MRT .F               135:   Maximum recorded temp.
 LUL .               CSPR:   Logging unit location
 ENGI.              CRAIG:   Recorded By
 ORIG.           5" PRINT:   Origin of data
 UWI .     49025107340000:   Unique Well ID
 DICO. A2D TECHNOLOGIES, INC.:   Digitizing Company
 DFV .                 40:   Viscosity
 DFPH.                 12:   pH
 DFL .                  4:   Fluid loss
~OTHER INFORMATION
~A  DEPTH     NPHI       TEND        GRD       CALD       DRHO       RHOB        SPR       TENR        ILD        ILM        SFL
# ...
  829.5000     0.2772   992.4812    88.8353    12.2349     0.0341     2.4396   -33.5057   621.2966     7.7336     7.6711     7.4791
  830.0000     0.2784   992.4812    93.7859    12.2500     0.0862     2.4968   -33.2034   621.4702     7.0668     6.7701     6.4633
  830.5000     0.2996  1007.5188    95.0171    12.5813     0.1342     2.5059   -32.8967   621.6510     6.5933     5.8520     5.2457
  831.0000     0.3353   992.4812    94.9988    13.2741     0.1129     2.4911   -32.4486   622.7084     6.1448     5.2223     4.7604
  831.5000     0.3579   992.4812    94.9841    13.6355     0.0643     2.4516   -32.4457   623.8109     5.6603     4.8177     4.4722
  832.0000     0.3678   992.4812   102.7416    13.5452     0.0286     2.4493   -32.2932   624.9135     5.3548     4.6850     4.4719
  832.5000     0.3585   992.4812   106.4418    12.8072     0.0202     2.4727   -31.9910   626.0161     5.1723     4.8494     4.6961
  833.0000     0.3462   992.4812   107.3625    12.6114     0.0186     2.4780   -31.2389   627.1186     4.9272     4.7814     4.8255
  833.5000     0.3335   992.4812   106.1020    12.4157     0.0148     2.4591   -30.6373   628.2212     4.8931     4.6821     4.6286
  834.0000     0.3272   992.4812   104.8157    12.2651     0.0109     2.4372   -30.3351   629.3237     4.8931     4.4595     4.4398
  834.5000     0.3314   992.4812   102.3423    12.2500     0.0086     2.4357   -30.0328   630.4263     4.8931     4.3337     4.2883
  835.0000     0.3446   992.4812   101.0854    12.2199     0.0063     2.4485   -29.7305   631.5289     4.8931     4.3057     4.3178
  835.5000     0.3500   992.4812   103.8657    12.2349     0.0078     2.4653   -29.7271   632.6315     4.9272     4.3049     4.3476
  836.0000     0.3534   992.4812   107.2918    12.2500     0.0092     2.4673   -29.8746   633.7340     4.9272     4.3041     4.5005
  836.5000     0.3564   992.4812   108.4948    12.2500     0.0077     2.4582   -29.8711   634.8366     4.9614     4.4252     4.6913
  837.0000     0.3564   992.4812   107.2342    12.2801     0.0046     2.4522   -29.7186   635.9391     5.0307     4.5790     4.8300
  837.5000     0.3494   992.4812   106.2879    12.2952     0.0030     2.4492   -29.8647   637.0417     5.0658     4.7396     4.9581
  838.0000     0.3311   992.4812   105.9627    12.3102     0.0030     2.4507   -30.1613   638.1443     5.1365     4.8050     4.9577
  838.5000     0.3199   992.4812   105.9444    12.3102     0.0029     2.4484   -30.4586   639.2468     5.1365     4.8038     4.9231
  839.0000     0.3178   992.4812   105.3086    12.3102    -0.0001     2.4439   -31.0539   640.3494     5.1365     4.8026     4.8215
  839.5000     0.3232   992.4812   104.6728    12.2952    -0.0025     2.4393   -31.6498   641.4520     5.1010     4.7685     4.7219
  840.0000     0.3290   992.4812   104.6581    12.2651     0.0020     2.4419   -31.9464   642.5546     5.0658     4.6695     4.6566
  840.5000     0.3323   992.4812   107.4349    12.2500     0.0103     2.4566   -31.9429   643.6571     4.9614     4.5409     4.4977
  841.0000     0.3335   992.4812   106.1779    12.2500     0.0186     2.4649   -31.6406   644.7597     4.8931     4.4159     4.3745
  841.5000     0.3338   992.4812   102.1260    12.2199     0.0300     2.4701   -31.3249   645.8622     4.8257     4.3541     4.2842
  842.0000     0.3323   992.4812    97.1424    12.2048     0.0375     2.4725   -31.0354   646.9648     4.7923     4.3231     4.2248
  842.5000     0.3298   992.4812    94.6433    12.2500     0.0413     2.4867   -31.6314   648.0674     4.7923     4.3223     4.2246
  843.0000     0.3274  1007.5188    98.0411    12.4458     0.0420     2.5025   -31.9287   649.1700     4.7923     4.3818     4.3130
  843.5000     0.3244  1007.5188   101.1320    12.4759     0.0374     2.5077   -32.0749   650.2725     4.7923     4.4114     4.3444
  844.0000     0.3226  1007.5188   101.4316    12.4157     0.0275     2.4942   -32.0713   651.3751     4.7923     4.4691     4.4337
  844.5000     0.3214  1007.5188    99.1999    12.3705     0.0039     2.4693   -32.2189   652.4777     4.7923     4.5649     4.4952
  845.0000     0.3214  1007.5188    97.3601    12.3705     0.0039     2.4678   -32.2154   653.5802     4.8257     4.6923     4.5893
  845.5000     0.3226  1007.5188   100.4474    12.3554     0.0015     2.4700   -32.2125   654.6828     4.8931     4.8230     4.6855
  846.0000     0.3274  1007.5188   103.5383    12.3102     0.0076     2.4715   -31.9096   655.7853     4.9272     4.8558     4.8168
  846.5000     0.3410  1007.5188   104.4590    12.2651     0.0113     2.4660   -31.6074   656.8879     5.0307     4.7878     4.8164
  847.0000     0.3446  1007.5188   101.9562    12.2048     0.0082     2.4564   -31.3051   657.9905     5.0658     4.7538     4.6845
  847.5000     0.3409  1007.5188   100.6988    12.1596     0.0044     2.4534   -31.0029   659.0931     5.1723     4.6872     4.5878
  848.0000     0.3286  1007.5188   100.6810    12.1145     0.0021     2.4519   -30.7006   660.1956     5.2083     4.7189     4.6838
  848.5000     0.3093  1007.5188   100.0452    12.0693     0.0043     2.4594   -30.6971   661.2982     5.3178     4.8171     4.8151
  849.0000     0.3021  1007.5188    99.4094    12.0392     0.0141     2.4759   -30.3949   662.4008     5.3548     4.9859     4.9501
  849.5000     0.2976  1007.5188    98.4327    12.0241     0.0235     2.4887   -29.7933   663.5034     5.4674     5.1607     5.0889
  850.0000     0.2985  1007.5188    97.5148    12.0241     0.0307     2.4932   -29.4910   664.6059     5.5054     5.1956     5.1955
  850.5000     0.3196   992.4812    96.5743    12.0392     0.0261     2.4827   -29.7869   664.2972     5.6212     5.1246     5.1236
  851.0000     0.3217   992.4812    94.9875    12.0542     0.0170     2.4765   -30.2332   663.9886     5.6997     5.0200     5.0878
  851.5000     0.3211   992.4812    93.1382    12.0542     0.0154     2.4789   -30.6794   663.6800     5.7793     5.0933     5.0524
  852.0000     0.3123   986.7662    93.7504    12.0392     0.0184     2.4804   -31.1257   663.3713     5.6961     5.1985     5.1226
  852.5000     0.3027   977.4436    97.1577    12.0241     0.0131     2.4743   -31.5720   663.0627     5.6961     5.2717     5.2347
  853.0000     0.2975   977.4436    99.9441    12.0241     0.0063     2.4682   -31.7188   662.7541     5.6961     5.2724     5.2659
  853.5000     0.2933   977.4436    98.9679    12.0392     0.0009     2.4645   -31.4159   662.4454     5.6555     5.2005     5.2291
  854.0000     0.2922   977.4436    97.7500    12.0542    -0.0014     2.4735   -31.1137   662.1368     5.6151     5.0592     5.1882
  854.5000     0.3003   977.4436    95.2567    12.0693     0.0031     2.4758   -30.8114   661.8282     5.5751     4.9215     5.0016
  855.0000     0.3190   962.4060    95.5584    12.1295     0.0054     2.4712   -30.8079   661.5195     5.5353     4.7876     4.8607
  855.5000     0.3406   962.4060    98.0340    12.1747    -0.0015     2.4584   -30.9548   661.2109     5.4959     4.7536     4.7900
  856.0000     0.3340   962.6149   100.1991    12.1898    -0.0061     2.4509   -31.1023   660.9023     5.4567     4.7229     4.7202
  856.5000     0.3240   966.4953   100.1880    12.1871    -0.0012     2.4569   -31.2485   660.5936     5.4178     4.6585     4.6849
  857.0000     0.3201   968.7218    99.8686    12.1855     0.0075     2.4652   -30.9456   660.2850     5.3791     4.6269     4.7171
  857.5000     0.3255   969.2532    98.6175    12.1852     0.0136     2.4682   -30.9427   659.9764     5.3791     4.6288     4.7490
  858.0000     0.3415   969.6812    96.1242    12.1849     0.0181     2.4671   -30.6405   659.6677     5.3408     4.7585     4.7815
  858.5000     0.3439   970.1091    95.1814    12.1846     0.0105     2.4508   -30.4880   659.3591     5.3408     4.7923     4.9188
  859.0000     0.3460   970.5370    94.8620    12.1090     0.0044     2.4425   -30.3353   659.0505     5.3408     4.7596     4.7779
  859.5000     0.3575   970.9774    95.1637    12.0635     0.0051     2.4380   -30.3319   658.7418     5.3027     4.6942     4.6414
