~VERSION INFORMATION
 VERS.                2.0:   CWLS LOG ASCII STANDARD - VERSION 2.0
 WRAP.                 NO:   ONE LINE PER DEPTH STEP
~WELL INFORMATION
#MNEM.UNIT      DATA TYPE    INFORMATION
#----------   ------------   ------------------------------
 STRT.F           50.5000:   START DEPTH
 STOP.F         5694.0000:   STOP DEPTH
 STEP.F            0.5000:   STEP LENGTH
 NULL.          -999.2500:   NO VALUE
 COMP. LAWRENCE ALLISON AND ASSOCIATES WEST:   COMPANY
 WELL. LAWRENCE "TX" #57-28:   WELL
 FLD .        TEAPOT DOME:   FIELD
 LOC .      S28 T39N R78W:   LOCATION
 CNTY.            NATRONA:   COUNTY
 STAT.            WYOMING:   STATE
 CTRY. UNITED STATES OF AMERICA:   COUNTRY
 SRVC.       SCHLUMBERGER:   SERVICE COMPANY
 DATE.        26-FEB-1982:   LOGDATE
 API .     49025108850000:   API NUMBER
~CURVE INFORMATION
#MNEM.UNIT       API CODE    CURVE DESCRIPTION
#----------   ------------   ------------------------------
 DEPT.F                  :   
 GRR .GAPI   11 310 01 00:   GAMMA RAY FROM RES.
 CALD.IN     45 280 60 00:   CALIPER FROM DENSITY LOG
 TEND.LBS    45 635 01 00:   TENSION FORM DENSITY LOG
 CORR.G/C3   45 356 01 00:   DENSITY CORRECTION
 RHOB.G/C3   45 350 01 00:   BULK DENSITY
 NPHI.DEC    42 890 03 00:   NEUTRON POROSITY SANDSTONE
 TENR.LBS    06 635 01 00:   TENSION FROM RESISTIVITY
 SPR .MV     11 010 01 00:   SPONTANEOUS POTENTIAL FROM RES.
 LLS .OHMM   11 220 09 00:   LATEROLOG LOG SHALLOW
 LLD .OHMM   11 220 10 00:   LATEROLOG DEEP
 MSFL.OHMM   11 270 04 00:   MICRO SPHERICALLY FOCUSED
~PARAMETER INFORMATION
#MNEM.UNIT          VALUE    DESCRIPTION
#----------   ------------   ------------------------------
 EKB .F         5101.0000:   Kelly bushing
 EGL .F         5091.0000:   Ground level
 EDF .F            0.0000:   Drilling floor
 TD  .F         3248.0000:   Total depth
 CLNT.            A2DTECH:   Client Code
 SL  . 950' FSL & 2100' FEL:   Surface Location
 PD  .                 GL:   Permanent Datum
 EPD .F              5091:   Elevation Permanent Datum
 LMF .                 KB:   Log Measured From
 DMF .                 KB:   Drilling Measured From
 DAPD.F                10:   Feet Above Permanent Datum
 DATE.        26-FEB-1982:   Date Logged [DD-MMM-YYYY]
 DD  .F              3243:   Depth driller
 DL  .F              3248:   Depth logger
 BLI .F              3216:   Bottom log interval
 TLI .F                 0:   Top log interval
 CS1 .IN            9.625:   Casing size
 CBD1.      9.625" @ 401':   Casing driller 1
 CBL1.F               401:   Casing logger 1
 BS1 .IN            7.875:   Bit size
 BSD1.F              3243:   Depth drilled with bit1
 DFT .           CHEM GEL:   Type fluid in hole
 DFD .                8.9:   Density
 DFV .                 55:   Viscosity
 DFPH.                9.5:   pH
 DFL .                 10:   Fluid loss
 MSS .            MUD PIT:   Source of sample
 RMS .OHMM           1.82:   Rm
 MST .F                76:   Rm Meas. temp.
 RMF .OHMM           1.64:   Rmf
 MFST.F                75:   Rmf Meas. temp.
 MFSS.               MEAS:   Source Rmf.
 RMB .OHMM           1.15:   Rm. at BHT
 BHT .F               120:   BHT.
 TCS .HRS            1330:   Time Circ. stopped
 TLAB.HRS            1715:   Time logger at bottom
 MRT .F               120:   Maximum recorded temp.
 LUN .               8043:   Logging unit number
 LUL .               CSPR:   Logging unit location
 ENGI.             TAYLOR:   Recorded By
 WITN.       FIVAS/STRONG:   Witnessed by
 ORIG.      1" 2.5" PRINT:   Origin of data
 UWI .     49025108850000:   Unique Well ID
 DICO. A2D TECHNOLOGIES, INC.:   Digitizing Company
~OTHER INFORMATION
~A   DEPT       GRR      CALD       TEND       CORR       RHOB       NPHI       TENR        SPR        LLS        LLD       MSFL   
# ...
 5296.5000   101.8239    10.0862  1895.6161     0.0095     2.6690     0.2002  1973.0286   -49.7508    22.2900    23.4353    23.0095
 5297.0000    99.9085    10.0851  1930.5511     0.0048     2.6659     0.1976  1974.3584   -49.7645    22.3995    25.1871    24.6757
 5297.5000    98.6028    10.0843  1970.9670    -0.0027     2.6689     0.1880  1975.6884   -49.7783    24.3749    29.9356    33.0521
 5298.0000    96.4462    10.1141  1959.9456    -0.0020     2.6824     0.1763  1977.0182   -49.6636    28.5932    39.1136    40.4308
 5298.5000    95.2005    10.1132  1946.9276     0.0037     2.6930     0.1627  1978.3480   -49.6723    29.7980    41.9008    41.8976
 5299.0000    93.9548    10.1430  1933.9095     0.0083     2.6959     0.1540  1979.6780   -49.9848    30.2001    41.2917    39.3951
 5299.5000    91.4896    10.1420  1920.8776     0.0114     2.6840     0.1406  1979.1886   -49.9924    29.7664    39.0281    31.4891
 5300.0000    90.2439    10.1719  1907.8165     0.0120     2.6657     0.1328  1978.1178   -50.3061    27.7485    38.9996    32.7987
 5300.5000    88.9970    10.1709  1894.7458     0.0060     2.6656     0.1353  1977.0471   -50.6182    28.5570    41.3727    37.4321
 5301.0000    88.3597    10.2006  1901.5825     0.0029     2.6656     0.1359  1975.9763   -50.6255    29.4746    44.1375    41.6008
 5301.5000    88.3323    10.1996  1919.2025     0.0013     2.6625     0.1347  1974.9056   -50.9377    30.5427    44.1005    42.6046
 5302.0000    88.3049    10.1987  1926.6205     0.0028     2.6564     0.1335  1973.8350   -50.9450    30.6973    43.2218    39.5178
 5302.5000    88.5717    10.1978  1913.3638     0.0057     2.6504     0.1367  1972.7649   -50.6474    29.6659    39.4284    34.1470
 5303.0000    89.2134    10.1969  1900.2032     0.0045     2.6518     0.1475  1971.6935   -50.6555    25.0831    32.8468    27.9452
 5303.5000    91.2671    10.1960  1890.2439     0.0082     2.6628     0.1554  1970.6227   -50.6631    22.4254    30.6643    26.4024
 5304.0000    96.1190    10.1644  1890.2439     0.0175     2.6790     0.1651  1969.5520   -50.6707    20.3306    29.4661    26.0095
 5304.5000   100.9708    10.1635  1890.2439     0.0196     2.6833     0.1776  1968.4812   -50.6784    18.9523    28.2679    24.2335
 5305.0000   105.8227    10.1626  1890.2439     0.0211     2.6784     0.1935  1967.4105   -50.6874    17.9112    27.0468    21.8963
 5305.5000   107.6105    10.2212  1890.2439     0.0233     2.6757     0.1955  1966.3397   -50.6946    17.3846    25.9308    20.3971
 5306.0000   104.6940    10.2202  1890.2439     0.0217     2.6831     0.1917  1965.2690   -50.7019    16.8738    25.2092    20.6183
 5306.5000   104.0697    10.2192  1890.2439     0.0126     2.6944     0.1877  1964.1982   -50.7092    16.6075    24.5076    21.8432
 5307.0000   104.6909    10.2181  1890.2439     0.0020     2.6896     0.1858  1963.1276   -50.7165    16.1193    23.8255    21.8371
 5307.5000   106.5659    10.2170  1890.2439    -0.0041     2.6650     0.1883  1962.0568   -50.7521    15.7598    23.8156    20.9372
 5308.0000   108.2944    10.2160  1890.2439     0.0005     2.6484     0.1884  1960.9861   -51.0366    15.7494    24.1402    20.6257
 5308.5000   106.2420    10.2149  1890.2439     0.0054     2.6543     0.1822  1959.9154   -51.0442    16.1859    24.5732    22.7149
 5309.0000   103.4605    10.2138  1890.2439     0.0181     2.6709     0.1708  1958.8446   -51.0518    16.6345    25.4363    24.6695
 5309.5000   102.1494    10.2434  1890.2439     0.0296     2.6920     0.1584  1957.7739   -51.0595    17.2658    26.7627    25.3399
 5310.0000   103.9608    10.2422  1890.2439     0.0316     2.6979     0.1519  1956.7031   -51.0671    18.3176    27.6940    22.9364
 5310.5000   105.1657    10.2411  1890.2439     0.0241     2.6862     0.1553  1955.6324   -51.0759    16.1501    27.3005    17.9014
 5311.0000   106.3719    10.2708  1890.2439     0.0125     2.6669     0.1630  1954.5616   -51.0832    14.2390    25.8124    15.6709
 5311.5000   107.5757    10.2698  1890.2439     0.0163     2.6463     0.1859  1953.4910   -51.0905    14.0346    22.4508    14.1123
 5312.0000   108.1709    10.2994  1890.2439     0.0223     2.6455     0.1981  1952.4202   -51.0978    14.8592    20.6445    13.9585
 5312.5000   107.3933    10.2983  1890.2439     0.0282     2.6581     0.2090  1951.3495   -50.8002    16.0436    20.9735    17.0141
 5313.0000   103.3272    10.3281  1890.2439     0.0267     2.6705     0.2109  1950.2787   -50.8079    17.7096    22.2830    20.8232
 5313.5000    99.1961    10.3381  1890.2439     0.0205     2.6735     0.2063  1949.2080   -50.8155    18.7654    26.2729    22.6740
 5314.0000    96.8780    10.3564  1890.2439     0.0206     2.6719     0.1978  1948.1372   -50.8232    19.0162    28.2851    23.2978
 5314.5000    93.7315    10.3554  1890.2439     0.0287     2.6734     0.1872  1947.0665   -50.8308    19.0056    29.7750    24.6152
 5315.0000    92.6010    10.3850  1890.2439     0.0393     2.6854     0.1728  1945.9958   -50.8384    18.2157    30.6438    25.6472
 5315.5000    94.6473    10.4146  1890.2454     0.0594     2.6788     0.1686  1944.9250   -51.1523    16.2856    30.8151    25.4951
 5316.0000    94.0230    10.4441  1890.2476     0.0537     2.6546     0.1690  1943.8544   -51.1596    15.8297    28.7310    21.2800
 5316.5000    92.7890    10.4738  1890.2511     0.0328     2.6220     0.1726  1942.7836   -51.4718    15.6023    27.1649    20.7624
 5317.0000    92.7744    10.5054  1890.2561     0.0396     2.6245     0.1812  1941.7129   -51.7839    15.5938    26.7789    20.7465
 5317.5000    93.4351    10.5331  1890.2616     0.0576     2.6401     0.1824  1940.6421   -52.4009    15.3694    26.7491    20.7306
 5318.0000    94.8251    10.5401  1890.2664     0.1027     2.6648     0.1803  1939.5714   -52.4085    15.1483    26.3335    20.7147
 5318.5000    97.5555    10.5728  1890.2693     0.0951     2.6519     0.1760  1938.5006   -52.4162    15.0630    25.1290    20.1273
 5319.0000   100.1592    10.5911  1888.7106     0.0739     2.6338     0.1745  1937.4299   -52.4238    14.1444    23.0450    16.5481
 5319.5000   103.0653    10.5900  1884.3195     0.0266     2.6428     0.1784  1936.3591   -52.1252    12.0439    21.7303    14.5871
 5320.0000   103.9022    10.5888  1879.9227     0.0103     2.6699     0.1916  1935.2885   -52.4184    11.4374    20.3408    14.7813
 5320.5000    97.5435    10.5878  1875.5299     0.0059     2.6759     0.2013  1934.2177   -62.0216    11.5918    19.1197    14.7702
 5321.0000    93.8705    10.5867  1871.1483     0.0029     2.6741     0.2098  1933.1470   -77.7604    11.5856    18.8480    14.9665
 5321.5000    89.5877    10.5857  1866.7922     0.0007     2.6595     0.2159  1932.0762   -97.8896    11.7420    18.5802    14.9073
 5322.0000    88.3536    10.6154  1862.3645     0.0011     2.6561     0.2165  1931.0055  -101.5554    11.7355    18.5728    14.7361
 5322.5000    88.3945    10.6143  1857.9777     0.0050     2.6715     0.2139  1929.9348  -102.7822    11.7290    18.5654    14.7248
 5323.0000    89.1653    10.6214  1853.5908     0.0071     2.6871     0.2107  1928.8640  -101.5172    11.5602    18.5576    14.5099
 5323.5000    91.5329    10.6430  1849.5935     0.0055     2.6914     0.2075  1927.7933   -98.2248    11.5538    18.5499    13.9033
 5324.0000    92.5638    10.6560  1865.9698     0.0054     2.6835     0.2025  1926.7225   -95.1833    11.3876    18.5421    10.8112
 5324.5000    88.0007    10.6713  1881.0105     0.0023     2.6665     0.2011  1925.6519   -88.1784    11.3812    18.5344     9.9369
 5325.0000    85.8201    10.7009  1890.2439     0.0008     2.6574     0.2093  1924.5811   -80.2641    11.0613    18.3987    10.3535
 5325.5000    84.5861    10.7305  1890.2439     0.0007     2.6558     0.2081  1923.5104   -72.2988    10.9024    17.7605    12.4328
 5326.0000    85.1813    10.6987  1890.2439     0.0021     2.6543     0.2008  1922.4396   -64.7262    10.7459    17.5081    15.9238
 5326.5000    85.1668    10.6977  1890.2439     0.0028     2.6449     0.2008  1921.3689   -59.0696    10.5916    16.7857    14.7937
