~VERSION INFORMATION
 VERS.                2.0:   CWLS LOG ASCII STANDARD - VERSION 2.0
 WRAP.                 NO:   ONE LINE PER DEPTH STEP
~WELL INFORMATION
#MNEM.UNIT      DATA TYPE    INFORMATION
#----------   ------------   ------------------------------
 STRT.F            0.0000:   START DEPTH
 STOP.F         3110.5000:   STOP DEPTH
 STEP.F            0.5000:   STEP LENGTH
 NULL.          -999.2500:   NO VALUE
 COMP. LAWRENCE  ALLISON AND ASSOCIATES:   COMPANY
 WELL. LAWRENCE NPR 3 "X" #72-15:   WELL
 FLD .                NPR:   FIELD
 LOC .      S15 T38N R78W:   LOCATION
 CNTY.            NATRONA:   COUNTY
 STAT.            WYOMING:   STATE
 CTRY. UNITED STATES OF AMERICA:   COUNTRY
 SRVC.           WIRELINE:   SERVICE COMPANY
 DATE.        16-JAN-1988:   LOGDATE
 API .     49025111930000:   API NUMBER
~CURVE INFORMATION
#MNEM.UNIT       API CODE    CURVE DESCRIPTION
#----------   ------------   ------------------------------
 DEPT.F                  :   
 TENR.LBS    07 635 01 00:   TENSION FROM RESISTIVITY
 GRR .GAPI   07 310 01 00:   GAMMA RAY FROM RESISTIVITY
 SPR .MV     07 010 01 00:   SPONTANEOUS POTENTIAL
 RFOC.OHMM   07 220 04 00:   RESISTIVITY FOCUSED LOG RES.
 RILD.OHMM   07 120 46 00:   DEEP INDUCTION RESISTIVITY
 RILM.OHMM   07 120 44 00:   INDUCTION LOG MEDIUM RESISTIVITY
 TEND.LBS    45 635 01 00:   TENSION FROM DENSITY LOG
 RHOB.G/C3   45 350 01 00:   BULK DENSITY
 CORR.G/C3   45 356 01 00:   DENSITY CORRECTION
 CNC .DEC    42 890 03 00:   NEUTRON PORISITY SANDSTONE
 CALR.IN     07 280 01 00:   CALIPER FROM RESISTIVITY
~PARAMETER INFORMATION
#MNEM.UNIT          VALUE    DESCRIPTION
#----------   ------------   ------------------------------
 EKB .F         5240.0000:   Kelly bushing
 EGL .F         5229.0000:   Ground level
 EDF .F            0.0000:   Drilling floor
 TD  .F         3090.0000:   Total depth
 DATE.        16-JAN-1988:   Date logged
 CLNT.            A2DTECH:   Client Code
 SL  . 814' FNL & 1208' FEL:   Surface Location
 PD  .                 GL:   Permanent Datum
 DD  .F              3085:   Depth driller
 DL  .F              3090:   Depth logger
 BLI .F              3089:   Bottom log interval
 CS1 .IN            8.625:   Casing size
 CBD1.      8.625" @ 610':   Casing driller 1
 CBL1.F               613:   Casing logger 1
 BS1 .IN            7.875:   Bit size
 DFT .            KCL/GEL:   Type fluid in hole
 DFD .                8.8:   Density
 DFV .                 40:   Viscosity
 DFPH.                8.5:   pH
 DFL .                 10:   Fluid loss
 MSS .           FLOWLINE:   Source of sample
 RMS .OHMM           .543:   Rm
 MST .F                65:   Rm Meas. temp.
 RMF .OHMM           .349:   Rmf
 MFST.F                65:   Rmf Meas. temp.
 RMC .OHMM           .557:   Rmc
 MCST.F                65:   Rmc Meas. temp.
 MFSS.               CALC:   Source Rmf.
 RMB .OHMM           .258:   Rm. at BHT
 BHT .F               114:   BHT.
 TCS .HRS               5:   Time Circ. stopped
 MRT .F               114:   Maximum recorded temp.
 LUN .            HL-6321:   Logging unit number
 LUL .           GILLETTE:   Logging unit location
 ENGI.               CAIN:   Recorded By
 WITN.             STRONG:   Witnessed by
 ORIG.           5" PRINT:   Origin of data
 UWI .     49025111930000:   Unique Well ID
 DICO. A2D TECHNOLOGIES, INC.:   Digitizing Company
 DAPD.F                11:   Feet Above Permanent Datum
 BSD1.F              3085:   Depth drilled with bit1
 MCSS.               CALC:   Source Rmc.
 EPD .F              5229:   Elevation Permanent Datum
 LMF .                 KB:   Log Measured From
 DMF .                 KB:   Drilling Measured From
~OTHER INFORMATION
~A    DEPT    TENR         GRR       SPR       RFOC       RILD       RILM       TEND       RHOB       CORR        CNC       CALR   
# ...
  610.0000   -31.9780    67.0040    80.2450     0.2240     9.9250  -999.2500  -999.2500  -999.2500  -999.2500  -999.2500  -999.2500
  610.5000   -27.5110    69.0300    62.7800     0.2810    10.1540  -999.2500  -999.2500  -999.2500  -999.2500  -999.2500  -999.2500
  611.0000   -23.0440    74.0120    49.7890     0.3370    10.1090  -999.2500  -999.2500  -999.2500  -999.2500  -999.2500  -999.2500
  611.5000   -18.5770    79.1180    32.1900     1.1260    10.4890   505.8160  -999.2500  -999.2500  -999.2500  -999.2500    10.4360
  612.0000   -15.2270    79.7790    18.3390     6.2020     6.6670    26.6820  -999.2500  -999.2500  -999.2500  -999.2500    11.1300
  612.5000   -10.7610    78.9610     7.3180     6.1610     1.9770     3.3130  -999.2500  -999.2500  -999.2500  -999.2500    11.8240
  613.0000    -6.2940    78.0690     4.8320     6.0590     1.9950     3.2530  -999.2500  -999.2500  -999.2500  -999.2500    12.3450
  613.5000    -1.8270    78.5000     2.9070     5.9560     3.1670     4.4300  -999.2500  -999.2500  -999.2500  -999.2500    12.9620
  614.0000     2.6390    80.2230     1.7520     5.8540     6.3250     5.5100  -999.2500  -999.2500  -999.2500  -999.2500    13.0310
  614.5000     5.1300    85.8310    -0.4730     5.7430     9.4840     6.1650  -999.2500  -999.2500  -999.2500  -999.2500    13.0940
  615.0000     4.8270    89.3800    -1.8350     5.6270    13.2080     6.7380  -999.2500  -999.2500  -999.2500  -999.2500    13.1160
  615.5000     4.5240    86.6580    -3.2100     5.5110    11.0050     7.0560  -999.2500  -999.2500  -999.2500  -999.2500    13.1130
  616.0000     4.2220    78.9250    -4.5930     5.3940     7.4590     6.6780  -999.2500  -999.2500  -999.2500  -999.2500    13.1090
  616.5000     3.9190    78.9180    -5.9770     5.2370     5.6760     5.9430  -999.2500  -999.2500  -999.2500  -999.2500    13.1050
  617.0000     3.6160    83.2290    -7.3620     5.0550     4.9300     5.2080  -999.2500  -999.2500  -999.2500  -999.2500    13.1020
  617.5000     3.3140    85.6920    -8.7600     4.8800     4.1850     4.4730  -999.2500  -999.2500  -999.2500  -999.2500    13.0990
  618.0000     3.0110    83.7410    -9.4060     4.5160     3.4400     3.7380  -999.2500  -999.2500  -999.2500  -999.2500    13.1010
  618.5000     2.7080    81.4690    -9.8430     4.0720     2.7300     3.0040  -999.2500  -999.2500  -999.2500  -999.2500    13.2110
  619.0000     2.4050    81.6130    -9.6710     3.4860     2.6310     2.2690  -999.2500  -999.2500  -999.2500  -999.2500    13.3680
  619.5000     2.1030    80.0910    -9.4670     2.9010     2.5370     1.9770  -999.2500  -999.2500  -999.2500  -999.2500    13.5880
  620.0000     1.8000    76.7310    -9.2670     2.4220     2.4440     2.0440  -999.2500  -999.2500  -999.2500  -999.2500    13.4240
  620.5000     1.4970    72.1520    -9.0670     2.3990     2.4220     2.1890  -999.2500  -999.2500  -999.2500  -999.2500    13.1490
  621.0000     1.1950    69.1220    -8.8680     2.6560     2.4690     2.6790  -999.2500  -999.2500  -999.2500  -999.2500    13.7500
  621.5000     0.8920    68.4500    -8.6700     3.1970     2.6440     3.2230  -999.2500  -999.2500  -999.2500  -999.2500    12.8130
  622.0000     0.5890    69.6400    -8.4590     3.9920     2.8070     3.7670  -999.2500  -999.2500  -999.2500  -999.2500    12.8500
  622.5000     0.2860    72.4130    -7.9340     5.1750     3.8040     4.3110  -999.2500  -999.2500  -999.2500  -999.2500    12.8840
  623.0000    -0.0160    75.1860    -7.3920     5.6240     4.7320     4.8550  -999.2500  -999.2500  -999.2500  -999.2500    12.9020
  623.5000    -0.3190    77.9790    -6.8500     5.6960     5.6590     5.3510  -999.2500  -999.2500  -999.2500  -999.2500    12.9180
  624.0000    -0.6220    79.3880    -6.3120     5.7610     6.5870     5.6500  -999.2500  -999.2500  -999.2500  -999.2500    12.9350
  624.5000    -0.9240    79.8150    -5.8000     5.9700     7.1530     5.9310  -999.2500  -999.2500  -999.2500  -999.2500    12.9520
  625.0000    -1.2270    77.6930    -5.4780     6.2040     7.3490     6.2120  -999.2500  -999.2500  -999.2500  -999.2500    12.9690
  625.5000    -1.5300    76.6250    -5.1440     6.4390     7.5450     6.4930  -999.2500  -999.2500  -999.2500  -999.2500    12.9450
  626.0000    -1.8330    78.5050    -4.8200     6.5550     7.7420     6.7740  -999.2500  -999.2500  -999.2500  -999.2500    12.8780
  626.5000    -2.1350    80.2680    -3.7710     6.5260     7.9550     7.0550  -999.2500  -999.2500  -999.2500  -999.2500    12.8110
  627.0000    -2.4380    81.4720    -2.2770     6.5050     8.1460     7.3350  -999.2500  -999.2500  -999.2500  -999.2500    12.1530
  627.5000    -2.7410    84.7550    -0.7640     6.4940     8.2300     7.5270  -999.2500  -999.2500  -999.2500  -999.2500    11.1540
  628.0000    -3.0430    89.9550    -0.9510     6.8820     8.2540     7.5270  -999.2500  -999.2500  -999.2500  -999.2500    10.1670
  628.5000    -3.3460    94.8950    -1.6710     7.2280     8.2500     7.5270  -999.2500  -999.2500  -999.2500  -999.2500     9.6100
  629.0000    -3.6490    94.5280    -2.4010     7.3350     8.2220     7.5270  -999.2500  -999.2500  -999.2500  -999.2500     9.5720
  629.5000    -3.9520    92.2780    -3.1290     7.3610     8.1940     7.5580  -999.2500  -999.2500  -999.2500  -999.2500     9.5330
  630.0000    -4.2540    90.0570    -3.8540     7.3890     8.1660     7.6170  -999.2500  -999.2500  -999.2500  -999.2500     9.4960
  630.5000    -4.5570    87.8400    -4.4710     7.4200     8.1380     7.6760  -999.2500  -999.2500  -999.2500  -999.2500     9.4610
  631.0000    -5.2130    87.0490    -4.9320     7.4770     8.1100     7.7380  -999.2500  -999.2500  -999.2500  -999.2500     9.4240
  631.5000    -6.5350    86.9180    -5.3930     7.5340     7.9790     7.6030  -999.2500  -999.2500  -999.2500  -999.2500     9.4040
  632.0000    -7.8580    88.2860    -5.8520     7.5910     7.6540     7.4600  -999.2500  -999.2500  -999.2500  -999.2500     9.4040
  632.5000    -9.1800    89.6200    -6.3100     7.6480     7.3290     7.3180  -999.2500  -999.2500  -999.2500  -999.2500     9.4040
  633.0000   -10.5030    89.8250    -6.7690     7.7050     7.0560     7.1750  -999.2500  -999.2500  -999.2500  -999.2500     9.4040
  633.5000   -11.8250    88.8180    -7.2290     7.7620     6.9510     7.0560  -999.2500  -999.2500  -999.2500  -999.2500     9.4040
  634.0000   -13.1470    86.4680    -7.6640     7.8090     6.8010     7.0900  -999.2500  -999.2500  -999.2500  -999.2500     9.4040
  634.5000   -14.4700    84.7940    -7.7800     7.7660     6.9970     7.2540  -999.2500  -999.2500  -999.2500  -999.2500     9.4040
  635.0000   -15.7920    86.1100    -7.8830     7.7100     7.2500     7.3610  -999.2500  -999.2500  -999.2500  -999.2500     9.4040
  635.5000   -17.1140    88.9750    -7.9890     7.6530     7.4580     7.4290  -999.2500  -999.2500  -999.2500  -999.2500     9.3960
  636.0000   -18.4370    90.1560    -8.1450     7.5960     7.3840     7.5270  -999.2500  -999.2500  -999.2500  -999.2500     9.3760
  636.5000   -19.7590    90.5420    -8.4820     7.8820     7.3220     7.4990  -999.2500  -999.2500  -999.2500  -999.2500     9.3560
  637.0000   -21.0820    90.3310    -8.8130     7.8680     7.2610     7.4290  -999.2500  -999.2500  -999.2500  -999.2500     9.3360
  637.5000   -22.4040    90.1250    -9.1010     7.8510     7.1990     7.3590  -999.2500  -999.2500  -999.2500  -999.2500     9.3160
  638.0000   -23.7260    89.9070    -9.2320     7.8340     7.1370     7.2890  -999.2500  -999.2500  -999.2500  -999.2500     9.2960
  638.5000   -22.2760    89.8280    -9.3660     7.8160     7.0750     7.2190  -999.2500  -999.2500  -999.2500  -999.2500     9.2760
  639.0000   -10.2160    90.8300    -9.5000     7.6900     7.0130     7.1490  -999.2500  -999.2500  -999.2500  -999.2500     9.2560
  639.5000     1.8440    92.2200    -9.6350     7.4950     6.9510     6.9860  -999.2500  -999.2500  -999.2500  -999.2500     9.2430
  640.0000    13.9040    92.7500    -9.7690     7.2990     6.8760     6.6580  -999.2500  -999.2500  -999.2500  -999.2500     9.2430
