~VERSION INFORMATION
 VERS.                2.0:   CWLS LOG ASCII STANDARD - VERSION 2.0
 WRAP.                 NO:   ONE LINE PER DEPTH STEP
~WELL INFORMATION
#MNEM.UNIT      DATA TYPE    INFORMATION
#----------   ------------   ------------------------------
 STRT.F           46.0000:   START DEPTH
 STOP.F         2952.5000:   STOP DEPTH
 STEP.F            0.5000:   STEP LENGTH
 NULL.          -999.2500:   NO VALUE
 COMP.    FENIX & SCISSON:   COMPANY
 WELL. FENIX NPR 3 "SHX" #11-15:   WELL
 FLD .        TEAPOT DOME:   FIELD
 LOC .      S15 T38N R78W:   LOCATION
 CNTY.            NATRONA:   COUNTY
 STAT.            WYOMING:   STATE
 CTRY. UNITED STATES OF AMERICA:   COUNTRY
 SRVC.           BIRDWELL:   SERVICE COMPANY
 DATE.        19-JAN-1979:   LOGDATE
 API .     49025107640000:   API NUMBER
~CURVE INFORMATION
#MNEM.UNIT       API CODE    CURVE DESCRIPTION
#----------   ------------   ------------------------------
 DEPT.F                  :   
 GRD .GAPI   45 310 01 00:   GAMMA RAY FROM DENSITY LOG
 CALD.IN     45 280 60 00:   CALIPER FROM DENSITY LOG
 RHOB.G/C3   45 350 01 00:   BULK DENSITY
 CORR.G/C3   45 356 01 00:   DENSITY CORRECTION
 SPR .MV     07 010 01 00:   SPONTANEOUS POTENTIAL
 SN  .OHMM   01 040 00 00:   SHORT NORMAL
 ILD .OHMM   07 120 46 00:   INDUCTION LOG DEEP RESISTIVITY
~PARAMETER INFORMATION
#MNEM.UNIT          VALUE    DESCRIPTION
#----------   ------------   ------------------------------
 EKB .F         5258.0000:   Kelly bushing
 EGL .F         5248.0000:   Ground level
 EDF .F            0.0000:   Drilling floor
 TD  .F         1300.0000:   Total depth
 DATE.        19-JAN-1979:   Date logged
 CLNT.            A2DTECH:   Client Code
 SL  . 177' FNL & 155' FWL:   Surface Location
 PD  .                 GL:   Permanent Datum
 EPD .F              5248:   Elevation Permanent Datum
 LMF .                 KB:   Log Measured From
 DMF .                 KB:   Drilling Measured From
 DAPD.F                10:   Feet Above Permanent Datum
 DD  .F              1300:   Depth driller
 DL  .F              1283:   Depth logger
 BLI .F              1277:   Bottom log interval
 TLI .F               100:   Top log interval
 CBD1.F                40:   Casing driller 1
 CBL1.F                40:   Casing logger 1
 BS1 .IN            7.875:   Bit size
 BSD1.F              1300:   Depth drilled with bit1
 DFT .           CHEM/GEL:   Type fluid in hole
 DFD .                8.8:   Density
 DFV .                 37:   Viscosity
 DFL .               15.4:   Fluid loss
 MSS .           FLOWLINE:   Source of sample
 RMS .OHMM            .75:   Rm
 MST .F                68:   Rm Meas. temp.
 RMF .OHMM            .75:   Rmf
 MFST.F                64:   Rmf Meas. temp.
 RMC .OHMM            1.3:   Rmc
 MCST.F                68:   Rmc Meas. temp.
 MFSS.               MEAS:   Source Rmf.
 MCSS.               MEAS:   Source Rmc.
 RMB .OHMM            .73:   Rm. at BHT
 BHT .F                70:   BHT.
 TCS .HRS               2:   Time Circ. stopped
 MRT .F                70:   Maximum recorded temp.
 LUN .               3029:   Logging unit number
 LUL .               CSPR:   Logging unit location
 ENGI.            ROLLINS:   Recorded By
 WITN.           DINSMORE:   Witnessed by
 ORIG.           5" PRINT:   Origin of data
 UWI .     49025107640000:   Unique Well ID
 DICO. A2D TECHNOLOGIES, INC.:   Digitizing Company
~OTHER INFORMATION
~A   DEPT      GRD       CALD       RHOB       CORR        SPR           SN        ILD 
# ...
 1729.5000   157.8720    10.5130     2.2720     0.2070  -999.2500  -999.2500  -999.2500
 1730.0000   159.3850    10.4860     2.3060     0.2330  -999.2500  -999.2500  -999.2500
 1730.5000   159.1690    10.3800     2.3110     0.2510  -999.2500  -999.2500  -999.2500
 1731.0000   157.9950    10.3570     2.3200     0.2220  -999.2500  -999.2500  -999.2500
 1731.5000   156.0760    10.3580     2.3150     0.1820  -999.2500  -999.2500  -999.2500
 1732.0000   155.2400    10.3580     2.4200     0.1580  -999.2500  -999.2500  -999.2500
 1732.5000   155.4920    10.3580     2.4100     0.1620  -999.2500  -999.2500  -999.2500
 1733.0000   157.1240    10.3580     2.4160     0.1620  -999.2500  -999.2500  -999.2500
 1733.5000   158.3860    10.3580     2.4160     0.1640  -999.2500  -999.2500  -999.2500
 1734.0000   157.0130    10.3580     2.4190     0.1630  -999.2500  -999.2500  -999.2500
 1734.5000   156.0550    10.3580     2.4050     0.1670  -999.2500  -999.2500  -999.2500
 1735.0000   157.2980    10.3580     2.3740     0.1870  -999.2500  -999.2500  -999.2500
 1735.5000   159.2080    10.3490     2.3370     0.2090  -999.2500  -999.2500  -999.2500
 1736.0000   159.6150    10.3390     2.3440     0.2130  -999.2500  -999.2500  -999.2500
 1736.5000   159.2730    10.3300     2.3720     0.1760  -999.2500  -999.2500  -999.2500
 1737.0000   153.0550    10.3200     2.4050     0.1520  -999.2500  -999.2500  -999.2500
 1737.5000   150.3930    10.3100     2.4240     0.1540  -999.2500  -999.2500  -999.2500
 1738.0000   150.1510    10.3000     2.4330     0.1470  -999.2500  -999.2500  -999.2500
 1738.5000   150.5330    10.2900     2.4360     0.1380  -999.2500  -999.2500  -999.2500
 1739.0000   150.8620    10.2810     2.4380     0.1320  -999.2500  -999.2500  -999.2500
 1739.5000   152.6970    10.2710     2.4430     0.1280  -999.2500  -999.2500  -999.2500
 1740.0000   155.6110    10.2610     2.4310     0.1330  -999.2500  -999.2500  -999.2500
 1740.5000   158.4120    10.2510     2.4110     0.1490  -999.2500  -999.2500  -999.2500
 1741.0000   161.3340    10.2410     2.3920     0.1610  -999.2500  -999.2500  -999.2500
 1741.5000   161.2550    10.2320     2.3810     0.1570  -999.2500  -999.2500  -999.2500
 1742.0000   156.7230    10.2220     2.3960     0.1480  -999.2500  -999.2500  -999.2500
 1742.5000   152.1820    10.2120     2.4280     0.1390  -999.2500  -999.2500  -999.2500
 1743.0000   150.4990    10.2020     2.4530     0.1320  -999.2500  -999.2500  -999.2500
 1743.5000   152.5340    10.2120     2.4570     0.1380  -999.2500  -999.2500  -999.2500
 1744.0000   154.2190    10.2240     2.4570     0.1520  -999.2500  -999.2500  -999.2500
 1744.5000   154.7110    10.2380     2.4570     0.1480  -999.2500  -999.2500  -999.2500
 1745.0000   157.7810    10.2500     2.4460     0.1410  -999.2500  -999.2500  -999.2500
 1745.5000   162.3860    10.2630     2.3930     0.1560  -999.2500  -999.2500  -999.2500
 1746.0000   166.4310    10.2760     2.4010     0.1660  -999.2500  -999.2500  -999.2500
 1746.5000   167.0150    10.2880     2.4340     0.1560  -999.2500  -999.2500  -999.2500
 1747.0000   163.6110    10.3020     2.4560     0.1480  -999.2500  -999.2500  -999.2500
 1747.5000   164.8340    10.3110     2.4520     0.1440  -999.2500  -999.2500  -999.2500
 1748.0000   166.8820    10.3490     2.4310     0.1490  -999.2500  -999.2500  -999.2500
 1748.5000   167.5240    10.4060     2.4290     0.1690  -999.2500  -999.2500  -999.2500
 1749.0000   168.3860    10.4590     2.4280     0.1840  -999.2500  -999.2500  -999.2500
 1749.5000   170.6500    10.5130     2.4300     0.1720  -999.2500  -999.2500  -999.2500
 1750.0000   171.2450    10.5550     2.4130     0.1640  -999.2500  -999.2500  -999.2500
 1750.5000   170.6590    10.5780     2.3840     0.1680  -999.2500  -999.2500  -999.2500
 1751.0000   170.3580    10.6090     2.3570     0.1770  -999.2500  -999.2500  -999.2500
 1751.5000   173.5330    10.6390     2.3460     0.1760  -999.2500  -999.2500  -999.2500
 1752.0000   175.4230    10.6680     2.3460     0.1740  -999.2500  -999.2500  -999.2500
 1752.5000   173.4510    10.7000     2.3470     0.1730  -999.2500  -999.2500  -999.2500
 1753.0000   166.0060    10.7090     2.3500     0.1730  -999.2500  -999.2500  -999.2500
 1753.5000   159.4340    10.6990     2.3530     0.1730  -999.2500  -999.2500  -999.2500
 1754.0000   160.4700    10.6900     2.3700     0.1730  -999.2500  -999.2500  -999.2500
 1754.5000   163.5720    10.6820     2.3700     0.1750  -999.2500  -999.2500  -999.2500
 1755.0000   166.2080    10.6770     2.3630     0.1780  -999.2500  -999.2500  -999.2500
 1755.5000   169.3220    10.7210     2.3570     0.1800  -999.2500  -999.2500  -999.2500
 1756.0000   171.7750    10.7620     2.3560     0.1830  -999.2500  -999.2500  -999.2500
 1756.5000   180.1060    10.8100     2.3540     0.1860  -999.2500  -999.2500  -999.2500
 1757.0000   188.7700    10.8200     2.3520     0.1880  -999.2500  -999.2500  -999.2500
 1757.5000   187.1610    10.7820     2.3490     0.1940  -999.2500  -999.2500  -999.2500
 1758.0000   182.3090    10.7540     2.3240     0.2030  -999.2500  -999.2500  -999.2500
 1758.5000   177.3820    10.7170     2.2860     0.2240  -999.2500  -999.2500  -999.2500
 1759.0000   172.3460    10.7680     2.2800     0.2430  -999.2500  -999.2500  -999.2500
 1759.5000   167.9250    10.8360     2.2850     0.2460  -999.2500  -999.2500  -999.2500
 1760.0000   162.9880    10.9050     2.2970     0.2390  -999.2500  -999.2500  -999.2500
 1760.5000   159.2080    10.9090     2.2880     0.2210  -999.2500  -999.2500  -999.2500
 1761.0000   161.1840    10.9100     2.2900     0.2100  -999.2500  -999.2500  -999.2500
 1761.5000   161.6550    10.9080     2.2980     0.2070  -999.2500  -999.2500  -999.2500
 1762.0000   160.2160    10.8500     2.3480     0.2020  -999.2500  -999.2500  -999.2500
 1762.5000   159.5180    10.7640     2.3390     0.2010  -999.2500  -999.2500  -999.2500
 1763.0000   158.9590    10.6740     2.3280     0.2010  -999.2500  -999.2500  -999.2500
 1763.5000   159.3680    10.6310     2.3220     0.1950  -999.2500  -999.2500  -999.2500
 1764.0000   159.8400    10.6310     2.3310     0.1890  -999.2500  -999.2500  -999.2500
 1764.5000   160.5460    10.6170     2.3470     0.1850  -999.2500  -999.2500  -999.2500
 1765.0000   159.0200    10.6040     2.3630     0.1920  -999.2500  -999.2500  -999.2500
 1765.5000   156.2650    10.5920     2.3650     0.2030  -999.2500  -999.2500  -999.2500
 1766.0000   153.8680    10.5780     2.3510     0.2160  -999.2500  -999.2500  -999.2500
 1766.5000   151.6030    10.5660     2.3120     0.2270  -999.2500  -999.2500  -999.2500
 1767.0000   151.2150    10.5550     2.2670     0.2400  -999.2500  -999.2500  -999.2500
 1767.5000   155.3000    10.5550     2.2720     0.2390  -999.2500  -999.2500  -999.2500
 1768.0000   158.7220    10.5570     2.2510     0.2210  -999.2500  -999.2500  -999.2500
 1768.5000   157.0920    10.5370     2.2710     0.2320  -999.2500  -999.2500  -999.2500
 1769.0000   151.9900    10.4810     2.3180     0.2460  -999.2500  -999.2500  -999.2500
 1769.5000   149.7380    10.4290     2.3620     0.2440  -999.2500  -999.2500  -999.2500
 1770.0000   148.5150    10.3740     2.3950     0.2400  -999.2500  -999.2500  -999.2500
 1770.5000   148.3370    10.3660     2.4200     0.2190  -999.2500  -999.2500  -999.2500
 1771.0000   147.3230    10.3830     2.4130     0.2000  -999.2500  -999.2500  -999.2500
 1771.5000   146.5870    10.3960     2.4130     0.1970  -999.2500  -999.2500  -999.2500
 1772.0000   146.6870    10.3910     2.4170     0.1920  -999.2500  -999.2500  -999.2500
 1772.5000   146.7390    10.3040     2.4210     0.1740  -999.2500  -999.2500  -999.2500
 1773.0000   148.9780    10.2210     2.4260     0.1500  -999.2500  -999.2500  -999.2500
 1773.5000   150.9730    10.1270     2.4380     0.1280  -999.2500  -999.2500  -999.2500
 1774.0000   151.7710    10.0780     2.4560     0.1020  -999.2500  -999.2500  -999.2500
 1774.5000   152.7650    10.0850     2.4560     0.0940  -999.2500  -999.2500  -999.2500
