~VERSION INFORMATION
 VERS.                2.0:   CWLS LOG ASCII STANDARD - VERSION 2.0
 WRAP.                 NO:   ONE LINE PER DEPTH STEP
~WELL INFORMATION
#MNEM.UNIT      DATA TYPE    INFORMATION
#----------   ------------   ------------------------------
 STRT.F           22.0000:   START DEPTH
 STOP.F         4228.5000:   STOP DEPTH
 STEP.F            0.5000:   STEP LENGTH
 NULL.          -999.2500:   NO VALUE
 COMP. LAWRENCE ALLISON & ASSOCIATES:   COMPANY
 WELL. LAWRENCE NPR 3 "X" #25-2:   WELL
 FLD .                NPR:   FIELD
 LOC .       S2 T38N R78W:   LOCATION
 CNTY.            NATRONA:   COUNTY
 STAT.            WYOMING:   STATE
 CTRY. UNITED STATES OF AMERICA:   COUNTRY
 SRVC.      DRESSER ATLAS:   SERVICE COMPANY
 DATE.        22-DEC-1985:   LOGDATE
 API .     49025110700000:   API NUMBER
~CURVE INFORMATION
#MNEM.UNIT       API CODE    CURVE DESCRIPTION
#----------   ------------   ------------------------------
 DEPT.F                  :   
 TENS.LBS    60 635 01 00:   TENSION FROM SONIC
 DT  .US/F   60 520 00 00:   DELTA TIME
 SPHI.DEC    60 890 00 00:   SONIC POROSITY
 TENR.LBS    07 635 01 00:   TENSION FROM RESISTIVITY
 CALR.IN     07 280 01 00:   CALIPER FROM RESISTIVITY
 SPR .MV     07 010 01 00:   SPONTANEOUS POTENTIAL
 GRR .GAPI   07 310 01 00:   GAMMA RAY FROM RESISTIVITY
 SFL .OHMM   07 220 01 00:   SHALLOW FOCUSED LOG RESISTIVITY
 ILD .OHMM   07 120 46 00:   DEEP INDUCTION RESISTIVITY
 ILM .OHMM   07 120 44 00:   INDUCTION LOG MEDIUM RESISTIVITY
~PARAMETER INFORMATION
#MNEM.UNIT          VALUE    DESCRIPTION
#----------   ------------   ------------------------------
 EKB .F         5148.0000:   Kelly bushing
 EGL .F         5136.0000:   Ground level
 EDF .F            0.0000:   Drilling floor
 TD  .F         4228.0000:   Total depth
 DATE.        22-DEC-1985:   Date logged
 CLNT.            A2DTECH:   Client Code
 SL  . 1350' FWL & 1968' FSL:   Surface Location
 PD  .                 GL:   Permanent Datum
 DD  .F              4224:   Depth driller
 DL  .F              4228:   Depth logger
 BLI .F              4225:   Bottom log interval
 CS1 .IN            8.625:   Casing size
 CBD1.      8.625" @ 677':   Casing driller 1
 CBL1.F               677:   Casing logger 1
 BS1 .IN            7.875:   Bit size
 DFT .            KCL/GEL:   Type fluid in hole
 DFD .                9.2:   Density
 DFV .                 45:   Viscosity
 DFPH.                8.5:   pH
 DFL .               11.5:   Fluid loss
 MSS .               TANK:   Source of sample
 RMS .OHMM           .256:   Rm
 MST .F                63:   Rm Meas. temp.
 RMF .OHMM           .192:   Rmf
 MFST.F                64:   Rmf Meas. temp.
 RMC .OHMM           .320:   Rmc
 MCST.F                64:   Rmc Meas. temp.
 MFSS.               MEAS:   Source Rmf.
 RMB .OHMM           .119:   Rm. at BHT
 BHT .F               143:   BHT.
 TCS .HRS             4.5:   Time Circ. stopped
 MRT .F               143:   Maximum recorded temp.
 LUN .               6427:   Logging unit number
 LUL .          WILLISTON:   Logging unit location
 ENGI.             MCHUCH:   Recorded By
 WITN.             STRONG:   Witnessed by
 ORIG.           5" PRINT:   Origin of data
 UWI .     49025110700000:   Unique Well ID
 DICO. A2D TECHNOLOGIES, INC.:   Digitizing Company
 DAPD.                 12:   Feet Above Permanent Datum
 BSD1.               4224:   Depth drilled with bit1
 MCSS.               CALC:   Source Rmc.
 EPD .F              5136:   Elevation Permanent Datum
 LMF .                 KB:   Log Measured From
 DMF .                 KB:   Drilling Measured From
~OTHER INFORMATION
~A   DEPT     TENS         DT       SPHI       TENR       CALR        SPR         GRR       SFL        ILD        ILM   
# ...
 1630.0000  -999.2500  -999.2500  -999.2500  -104.5260    11.3500   -64.8450    94.0760     8.9640     9.2410     7.4100
 1630.5000  -999.2500  -999.2500  -999.2500  -103.8990    11.3710   -64.8070    96.9960     8.9420     9.2320     7.4220
 1631.0000  -999.2500  -999.2500  -999.2500  -103.2710    11.3920   -64.7690    97.9630     8.9190     9.2240     7.4390
 1631.5000  -999.2500  -999.2500  -999.2500  -102.6430    11.4130   -64.7350    98.8740     8.8620     9.2150     7.4560
 1632.0000  -999.2500  -999.2500  -999.2500  -102.0160    11.4340   -64.6080    99.5640     8.7960     9.2070     7.4730
 1632.5000  -999.2500  -999.2500  -999.2500  -101.3880    11.4540   -64.4700    99.8370     8.7520     9.1980     7.4900
 1633.0000  -999.2500  -999.2500  -999.2500  -100.7610    11.4700   -64.3310    98.6910     8.7930     9.1900     7.5060
 1633.5000  -999.2500  -999.2500  -999.2500  -100.1330    11.4860   -64.1920    96.7240     8.8290     9.1810     7.5230
 1634.0000  -999.2500  -999.2500  -999.2500   -99.5050    11.5020   -64.0540    93.7760     8.8650     9.1730     7.5400
 1634.5000  -999.2500  -999.2500  -999.2500   -98.8780    11.5180   -63.9280    90.6910     8.9020     9.1640     7.5560
 1635.0000  -999.2500  -999.2500  -999.2500   -98.2500    11.5310   -63.8950    88.8500     8.9290     9.1800     7.5180
 1635.5000  -999.2500  -999.2500  -999.2500   -97.6230    11.5340   -63.8630    90.6210     8.9510     9.2000     7.4830
 1636.0000  -999.2500  -999.2500  -999.2500   -96.9950    11.5380   -63.8310    92.7430     8.9740     9.2200     7.4470
 1636.5000  -999.2500  -999.2500  -999.2500   -96.3670    11.5420   -63.7980    93.7080     8.9960     9.2390     7.4190
 1637.0000  -999.2500  -999.2500  -999.2500   -95.7400    11.5450   -63.7670    93.1660     8.9120     9.4980     7.5630
 1637.5000  -999.2500  -999.2500  -999.2500   -94.7950    11.5490   -63.7290    95.3080     8.8260     9.9530     7.6840
 1638.0000  -999.2500  -999.2500  -999.2500   -93.6010    11.5590   -63.5580    98.5770     8.7620    10.2450     7.8390
 1638.5000  -999.2500  -999.2500  -999.2500   -92.4070    11.5700   -63.3840    98.0000     9.0280    10.4860     7.7580
 1639.0000  -999.2500  -999.2500  -999.2500   -91.2130    11.5820   -63.0610    96.7510     9.2480    10.2190     7.6040
 1639.5000  -999.2500  -999.2500  -999.2500   -90.0190    11.6070   -62.6980    96.4380     9.5640     9.4830     7.2540
 1640.0000  -999.2500  -999.2500  -999.2500   -88.8250    11.6700   -62.3340    94.8280     9.9530     8.1320     6.5660
 1640.5000  -999.2500  -999.2500  -999.2500   -87.6310    11.7340   -61.9690    92.3220     9.4850     8.1390     5.5960
 1641.0000  -999.2500  -999.2500  -999.2500   -86.4370    11.8840   -61.6040    91.6920     8.6430     8.1510     4.9980
 1641.5000  -999.2500  -999.2500  -999.2500   -85.2430    12.0310   -61.2430    91.8190     7.6320     8.1620     5.3460
 1642.0000  -999.2500  -999.2500  -999.2500   -84.0490    12.1810   -60.9500    92.5730     6.9600     8.1730     6.5240
 1642.5000  -999.2500  -999.2500  -999.2500   -82.8550    12.1100   -60.9600    93.5770     6.7060     8.1840     7.8880
 1643.0000  -999.2500  -999.2500  -999.2500   -81.6610    11.9980   -61.0330    95.5090     7.7670     8.1950     8.5930
 1643.5000  -999.2500  -999.2500  -999.2500   -80.4670    11.8850   -61.1080    97.4460     7.1510     8.2070     7.9030
 1644.0000  -999.2500  -999.2500  -999.2500   -79.2730    11.7870   -61.2170    99.4180     7.4060     8.3590     7.3050
 1644.5000  -999.2500  -999.2500  -999.2500   -78.0790    11.7320   -61.6310    99.8310     7.8920     8.2340     6.7680
 1645.0000  -999.2500  -999.2500  -999.2500   -76.8850    11.6710   -62.0490    99.3770     8.3780     8.0580     6.7680
 1645.5000  -999.2500  -999.2500  -999.2500   -75.6910    11.6570   -62.4370    98.6150     8.8330     8.2070     6.7680
 1646.0000  -999.2500  -999.2500  -999.2500   -74.4970    11.6450   -62.7620    96.4630     9.2480     8.1670     6.7680
 1646.5000  -999.2500  -999.2500  -999.2500   -73.3030    11.6340   -63.0860    94.3720     9.0730     8.1060     6.8690
 1647.0000  -999.2500  -999.2500  -999.2500   -72.1090    11.6000   -63.4090    93.0750     8.8650     8.0580     6.9890
 1647.5000  -999.2500  -999.2500  -999.2500   -70.9150    11.5540   -63.7320    92.8800     8.6580     8.0580     7.1510
 1648.0000  -999.2500  -999.2500  -999.2500   -69.7210    11.5090   -63.9470    92.4580     8.4500     8.0580     7.1080
 1648.5000  -999.2500  -999.2500  -999.2500   -68.5270    11.4690   -64.0200    91.6540     8.3310     8.0140     7.0650
 1649.0000  -999.2500  -999.2500  -999.2500   -67.3330    11.4730   -64.0950    90.4690     8.2820     7.9690     7.0210
 1649.5000  -999.2500  -999.2500  -999.2500   -66.1390    11.4760   -64.1700    88.7730     8.2320     7.9250     6.9780
 1650.0000  -999.2500  -999.2500  -999.2500   -66.6200    11.4780   -64.2450    90.4840     8.1830     7.8800     6.9570
 1650.5000  -999.2500  -999.2500  -999.2500   -68.7160    11.4810   -64.3200    93.7850     8.1330     7.8390     6.9570
 1651.0000  -999.2500  -999.2500  -999.2500   -70.8110    11.4840   -64.3950    95.1000     8.0840     7.8020     6.9570
 1651.5000  -999.2500  -999.2500  -999.2500   -72.9070    11.4860   -64.4690    94.2460     8.0580     7.7610     6.9570
 1652.0000  -999.2500  -999.2500  -999.2500   -75.0020    11.4890   -64.5140    93.4100     8.0580     7.6960     6.9570
 1652.5000  -999.2500  -999.2500  -999.2500   -77.0980    11.4880   -64.4480    92.6550     8.0580     7.7200     6.9570
 1653.0000  -999.2500  -999.2500  -999.2500   -79.1930    11.4840   -64.3850    92.4200     8.0580     7.7730     6.9570
 1653.5000  -999.2500  -999.2500  -999.2500   -81.2890    11.4810   -64.3220    92.7870     8.0580     7.8260     6.9570
 1654.0000  -999.2500  -999.2500  -999.2500   -83.3840    11.4770   -64.2590    93.1660     8.0580     7.8790     6.9560
 1654.5000  -999.2500  -999.2500  -999.2500   -85.4800    11.4740   -64.1950    94.1290     8.0580     7.9080     6.9570
 1655.0000  -999.2500  -999.2500  -999.2500   -87.5750    11.4710   -64.1320    94.3340     8.0580     7.8830     6.8740
 1655.5000  -999.2500  -999.2500  -999.2500   -89.6710    11.4910   -64.1300    94.3420     8.0590     7.8640     6.6590
 1656.0000  -999.2500  -999.2500  -999.2500   -91.7660    11.5130   -64.1300    94.4550     8.0620     7.8440     6.4440
 1656.5000  -999.2500  -999.2500  -999.2500   -93.8620    11.5350   -64.1300    96.3530     7.9510     7.7110     6.2300
 1657.0000  -999.2500  -999.2500  -999.2500   -95.9570    11.5560   -64.1300    97.9630     7.7570     7.5410     6.1740
 1657.5000  -999.2500  -999.2500  -999.2500   -98.0530    11.5780   -64.1300    96.8250     7.5630     7.3710     6.1740
 1658.0000  -999.2500  -999.2500  -999.2500  -100.1480    11.5890   -64.1290    95.3340     7.3510     7.2010     6.1740
 1658.5000  -999.2500  -999.2500  -999.2500  -102.2440    11.5890   -64.1580    96.3550     7.3280     7.1370     6.1740
 1659.0000  -999.2500  -999.2500  -999.2500  -104.3390    11.5890   -64.1980    97.7480     7.3030     7.1180     6.1740
 1659.5000  -999.2500  -999.2500  -999.2500  -103.3880    11.5890   -64.2380    99.1030     7.2770     7.0980     6.1740
 1660.0000  -999.2500  -999.2500  -999.2500   -99.1050    11.5890   -64.2800    99.8310     7.2520     7.0790     6.1740
 1660.5000  -999.2500  -999.2500  -999.2500   -94.8220    11.5890   -64.3240    98.6760     7.2270     7.0590     6.1740
 1661.0000  -999.2500  -999.2500  -999.2500   -90.5390    11.5890   -64.2330    97.4700     7.2010     7.0400     6.1740
 1661.5000  -999.2500  -999.2500  -999.2500   -86.2560    11.5890   -64.1170    96.9100     7.1760     7.0210     6.1740
 1662.0000  -999.2500  -999.2500  -999.2500   -88.1050    11.5960   -64.0000    97.4810     7.1510     7.0990     6.1740
 1662.5000  -999.2500  -999.2500  -999.2500   -91.2830    11.6070   -63.8820    95.8510     7.3620     7.1750     6.1740
 1663.0000  -999.2500  -999.2500  -999.2500   -94.4600    11.6190   -63.7620    93.6120     7.5710     7.2840     6.1740
