~VERSION INFORMATION
 VERS.                2.0:   CWLS LOG ASCII STANDARD - VERSION 2.0
 WRAP.                 NO:   ONE LINE PER DEPTH STEP
~WELL INFORMATION
#MNEM.UNIT      DATA TYPE    INFORMATION
#----------   ------------   ------------------------------
 STRT.F          200.0000:   START DEPTH
 STOP.F         3058.0000:   STOP DEPTH
 STEP.F            0.5000:   STEP LENGTH
 NULL.          -999.2500:   NO VALUE
 COMP.    FENIX & SCISSON:   COMPANY
 WELL. FENIX & SCISSON "A" #45-34:   WELL
 FLD .              N P R:   FIELD
 LOC .      S34 T39N R78W:   LOCATION
 CNTY.            NATRONA:   COUNTY
 STAT.            WYOMING:   STATE
 CTRY. UNITED STATES OF AMERICA:   COUNTRY
 SRVC.              WELEX:   SERVICE COMPANY
 DATE.        11-MAY-1977:   LOGDATE
 API .     49025103760000:   API NUMBER
~CURVE INFORMATION
#MNEM.UNIT       API CODE    CURVE DESCRIPTION
#----------   ------------   ------------------------------
 DEPT.F                  :   
 GRD .GAPI   45 310 01 00:   GAMMA RAY FROM DENSITY LOG
 CALD.IN     45 280 60 00:   CALIPER FROM DENSITY LOG
 RHOB.G/C3   45 350 01 00:   BULK DENSITY
 CORR.G/C3   45 356 01 00:   DENSITY CORRECTION
 SPR .MV     07 010 01 00:   SPONTANEOUS POTENTIAL
 ILD .OHMM   07 120 46 00:   DEEP INDUCTION RESISTIVITY
 ILM .OHMM   07 120 44 00:   INDUCTION LOG MEDIUM RESISTIVITY
 GURD.OHMM   07 220 05 00:   GUARD LOG RESISTIVITY
~PARAMETER INFORMATION
#MNEM.UNIT          VALUE    DESCRIPTION
#----------   ------------   ------------------------------
 EKB .F         5123.0000:   Kelly bushing
 EGL .F         5113.0000:   Ground level
 EDF .F            0.0000:   Drilling floor
 EPD .F            0.0000:   Permanent datum
 TD  .F         3060.0000:   Total depth
 DATE.        11-MAY-1977:   Date logged
 CLNT.            A2DTECH:   Client Code
 SL  . 2310' FSL & 2310' FWL:   Surface Location
 PD  .                 GL:   Permanent Datum
 DD  .F              3060:   Depth driller
 DL  .F              3060:   Depth logger
 BLI .F              3058:   Bottom log interval
 CS1 .IN            8.625:   Casing size
 CBD1.      8.625" @ 205':   Casing driller 1
 CBL1.F               214:   Casing logger 1
 BS1 .IN            7.875:   Bit size
 DFT .            KCL/MUD:   Type fluid in hole
 DFD .                8.8:   Density
 DFV .                 45:   Viscosity
 MSS .           FLOWLINE:   Source of sample
 RMS .OHMM            3.2:   Rm
 MST .F                85:   Rm Meas. temp.
 RMF .OHMM            2.7:   Rmf
 MFST.F                85:   Rmf Meas. temp.
 RMC .OHMM            3.6:   Rmc
 MCST.F                85:   Rmc Meas. temp.
 MFSS.               CALC:   Source Rmf.
 RMB .OHMM           2.44:   Rm. at BHT
 BHT .F               112:   BHT.
 TCS .HRS             2.5:   Time Circ. stopped
 MRT .F               112:   Maximum recorded temp.
 LUN .               8611:   Logging unit number
 LUL .           GILLETTE:   Logging unit location
 ENGI.            C. DOAK:   Recorded By
 WITN.      B. HARRINGTON:   Witnessed by
 ORIG.           5" PRINT:   Origin of data
 UWI .     49025103760000:   Unique Well ID
 DICO. A2D TECHNOLOGIES, INC.:   Digitizing Company
 DAPD.F                10:   Feet Above Permanent Datum
 BSD1.F              3060:   Depth drilled with bit1
 MCSS.               CALC:   Source Rmc.
 TLI .F               200:   Top log interval
~OTHER INFORMATION
~A   DEPT       GRD      CALD         RHOB      CORR       SPR        ILD        ILM       GURD   
# ...
  564.5000   111.6160    11.5290     2.3440     0.0310  -999.2500     8.8820    10.0780  -999.2500
  565.0000   111.3840    11.5380     2.3400     0.0260  -999.2500     8.8690    10.0680  -999.2500
  565.5000   111.0930    11.5480     2.3390     0.0220  -999.2500     8.8570    10.0570  -999.2500
  566.0000   111.3740    11.5590     2.3380     0.0150  -999.2500     8.8450    10.0470  -999.2500
  566.5000   112.6900    11.5740     2.3370     0.0140  -999.2500     8.8320    10.0360  -999.2500
  567.0000   113.9360    11.5900     2.3370     0.0130  -999.2500     8.8200    10.0260  -999.2500
  567.5000   115.2230    11.6060     2.3350     0.0120  -999.2500     8.8080    10.0160  -999.2500
  568.0000   116.4870    11.6210     2.3400     0.0110  -999.2500     8.7950    10.0050  -999.2500
  568.5000   117.7620    11.6370     2.3440     0.0150  -999.2500     8.7840     9.9950  -999.2500
  569.0000   119.0690    11.6520     2.3490     0.0180  -999.2500     8.7690     9.9840  -999.2500
  569.5000   119.5700    11.6680     2.3540     0.0220  -999.2500     8.7590     9.9740  -999.2500
  570.0000   118.4890    11.6770     2.3560     0.0230  -999.2500     8.7450     9.9630  -999.2500
  570.5000   117.6010    11.6840     2.3530     0.0250  -999.2500     8.8960     9.9480  -999.2500
  571.0000   116.6460    11.6910     2.3500     0.0280  -999.2500     9.0680     9.9870  -999.2500
  571.5000   115.7090    11.6980     2.3480     0.0300  -999.2500     9.2390    10.1450  -999.2500
  572.0000   114.7690    11.7040     2.3380     0.0320  -999.2500     9.4110    10.3040  -999.2500
  572.5000   113.8560    11.7110     2.3300     0.0350  -999.2500     9.5830    10.4630  -999.2500
  573.0000   112.8610    11.7180     2.3220     0.0370  -999.2500     9.7550    10.6210  -999.2500
  573.5000   111.9280    11.7250     2.3140     0.0400  -999.2500     9.9270    10.7790  -999.2500
  574.0000   108.4430    11.7320     2.2980     0.0420  -999.2500    10.1300    10.9940  -999.2500
  574.5000   104.2610    11.7390     2.2810     0.0460  -999.2500    10.4830    11.4130  -999.2500
  575.0000   100.1190    11.7460     2.2620     0.0460  -999.2500    10.9160    11.8320  -999.2500
  575.5000    98.4770    11.7510     2.2490     0.0450  -999.2500    11.3490    12.2510  -999.2500
  576.0000    96.9350    11.7510     2.2470     0.0430  -999.2500    11.7820    12.6690  -999.2500
  576.5000    97.1840    11.7510     2.2450     0.0420  -999.2500    12.2160    13.0880  -999.2500
  577.0000    97.4030    11.7510     2.2450     0.0410  -999.2500    12.5130    13.5070  -999.2500
  577.5000    97.7210    11.7510     2.2480     0.0400  -999.2500    12.7080    13.9250  -999.2500
  578.0000    97.9900    11.7510     2.2510     0.0390  -999.2500    12.9040    14.3440  -999.2500
  578.5000    98.2640    11.7510     2.2520     0.0380  -999.2500    13.0990    14.7630  -999.2500
  579.0000    98.7100    11.7510     2.2520     0.0370  -999.2500    13.3280    15.1810  -999.2500
  579.5000    99.3730    11.7510     2.2510     0.0360  -999.2500    13.2870    15.4620  -999.2500
  580.0000   100.0270    11.7510     2.2630     0.0350  -999.2500    13.2040    15.3020  -999.2500
  580.5000   100.6750    11.7520     2.2770     0.0410  -999.2500    13.1220    15.1300  -999.2500
  581.0000   101.3460    11.7490     2.2910     0.0460  -999.2500    13.0400    14.9580  -999.2500
  581.5000   101.5860    11.7690     2.3000     0.0520  -999.2500    12.9570    14.7860  -999.2500
  582.0000   101.5650    11.8030     2.3040     0.0550  -999.2500    12.8750    14.6140  -999.2500
  582.5000   101.5670    11.8350     2.3070     0.0560  -999.2500    12.7930    14.4420  -999.2500
  583.0000   101.5730    11.8660     2.3080     0.0570  -999.2500    12.7100    14.2700  -999.2500
  583.5000   101.5580    11.8980     2.3060     0.0580  -999.2500    12.6280    14.0980  -999.2500
  584.0000   101.6810    11.9290     2.2980     0.0590  -999.2500    12.5460    13.9260  -999.2500
  584.5000   101.9490    11.9620     2.2870     0.0590  -999.2500    12.4630    13.7540  -999.2500
  585.0000   102.2030    11.9910     2.2830     0.0590  -999.2500    12.3810    13.5820  -999.2500
  585.5000   102.4600    12.0230     2.2920     0.0590  -999.2500    12.2990    13.4100  -999.2500
  586.0000   102.7160    11.9840     2.3030     0.0590  -999.2500    12.2170    13.2380  -999.2500
  586.5000   102.9750    11.9350     2.3160     0.0590  -999.2500    12.1340    13.0930  -999.2500
  587.0000   103.2290    11.8840     2.3230     0.0590  -999.2500    12.0520    13.0440  -999.2500
  587.5000   103.4840    11.8350     2.3150     0.0550  -999.2500    11.9530    12.9950  -999.2500
  588.0000   103.7640    11.7860     2.3020     0.0480  -999.2500    12.1750    12.9460  -999.2500
  588.5000   103.9360    11.7340     2.3000     0.0420  -999.2500    12.0490    12.8970  -999.2500
  589.0000   103.9220    11.7100     2.3030     0.0390  -999.2500    11.9590    12.8480  -999.2500
  589.5000   103.9120    11.7040     2.3060     0.0390  -999.2500    11.8680    12.7990  -999.2500
  590.0000   103.9350    11.6910     2.3080     0.0390  -999.2500    11.7780    12.7500  -999.2500
  590.5000   103.9640    11.6800     2.3080     0.0390  -999.2500    11.6880    12.7010  -999.2500
  591.0000   104.9190    11.6680     2.3030     0.0390  -999.2500    11.5970    12.6520  -999.2500
  591.5000   105.9820    11.6560     2.2950     0.0390  -999.2500    11.5070    12.6030  -999.2500
  592.0000   107.0540    11.6450     2.2870     0.0390  -999.2500    11.4170    12.5540  -999.2500
  592.5000   108.1660    11.6350     2.2800     0.0390  -999.2500    11.3270    12.5050  -999.2500
  593.0000   108.6750    11.6180     2.2720     0.0370  -999.2500    11.2360    12.4560  -999.2500
  593.5000   108.5060    11.5870     2.2650     0.0340  -999.2500    11.1460    12.4070  -999.2500
  594.0000   108.1810    11.5580     2.2630     0.0320  -999.2500    11.0560    12.3580  -999.2500
  594.5000   107.8610    11.5280     2.2660     0.0300  -999.2500    10.9650    12.3090  -999.2500
  595.0000   107.5270    11.4990     2.2680     0.0270  -999.2500    10.8750    12.2600  -999.2500
  595.5000   107.2010    11.4700     2.2650     0.0250  -999.2500    10.7850    12.2110  -999.2500
  596.0000   106.8730    11.4400     2.2650     0.0230  -999.2500    10.6950    12.1460  -999.2500
  596.5000   106.5480    11.4110     2.2710     0.0260  -999.2500    10.6040    12.0390  -999.2500
  597.0000   106.2110    11.3810     2.2760     0.0290  -999.2500    10.5140    11.9320  -999.2500
  597.5000   105.8990    11.3530     2.2810     0.0320  -999.2500    10.4240    11.8250  -999.2500
  598.0000   105.5760    11.3230     2.2860     0.0340  -999.2500    10.3180    11.7180  -999.2500
  598.5000   105.9590    11.3140     2.2920     0.0350  -999.2500    10.2890    11.6110  -999.2500
  599.0000   106.5860    11.2730     2.2970     0.0350  -999.2500    10.2530    11.5040  -999.2500
  599.5000   107.2030    11.2310     2.3020     0.0350  -999.2500    10.2180    11.3970  -999.2500
  600.0000   107.7980    11.1880     2.3060     0.0350  -999.2500    10.1830    11.3120  -999.2500
  600.5000   108.4510    11.1450     2.3050     0.0350  -999.2500    10.1470    11.2290  -999.2500
  601.0000   108.9980    11.1020     2.3010     0.0330  -999.2500    10.1120    11.1600  -999.2500
  601.5000   110.0850    11.0590     2.2980     0.0290  -999.2500    10.0760    11.0910  -999.2500
  602.0000   110.3740    11.0160     2.2940     0.0260  -999.2500    10.0410    11.0220  -999.2500
  602.5000   110.5810    10.9740     2.2910     0.0220  -999.2500    10.0050    10.9530  -999.2500
  603.0000   110.7420    10.9310     2.2870     0.0190  -999.2500     9.9700    10.8840  -999.2500
  603.5000   110.9390    10.9080     2.2840     0.0150  -999.2500     9.9350    10.8150  -999.2500
  604.0000   111.1260    10.8920     2.2810     0.0160  -999.2500     9.8990    10.7050  -999.2500
  604.5000   111.3110    10.8750     2.2900     0.0180  -999.2500     9.8640    10.7320  -999.2500
