~VERSION INFORMATION
 VERS.                2.0:   CWLS LOG ASCII STANDARD - VERSION 2.0
 WRAP.                 NO:   ONE LINE PER DEPTH STEP
~WELL INFORMATION
#MNEM.UNIT      DATA TYPE    INFORMATION
#----------   ------------   ------------------------------
 STRT.F            0.0000:   START DEPTH
 STOP.F         5786.0000:   STOP DEPTH
 STEP.F            0.5000:   STEP LENGTH
 NULL.          -999.2500:   NO VALUE
 COMP. U.S. DEPARTMENT OF ENERGY:   COMPANY
 WELL. DEPARTMENT "X" #2-3:   WELL
 FLD .           N P R #3:   FIELD
 LOC .       S3 T38N R78W:   LOCATION
 CNTY.            NATRONA:   COUNTY
 STAT.            WYOMING:   STATE
 CTRY. UNITED STATES OF AMERICA:   COUNTRY
 SRVC.       BAKER HUHGES:   SERVICE COMPANY
 DATE.        14-JUL-2002:   LOGDATE
 API .     49025230540000:   API NUMBER
~CURVE INFORMATION
#MNEM.UNIT       API CODE    CURVE DESCRIPTION
#----------   ------------   ------------------------------
 DEPT.F                  :   
 TEND.LBS    45 635 01 00:   TENSION FROM DENSITY LOG
 CALD.IN     45 280 60 00:   CALIPER FROM DENSITY LOG
 ZCOR.G/C3   45 356 01 00:   DENSITY CORRECTION
 PE  .B/E    45 358 01 00:   PHOTOELECTRIC FACTOR
 ZDEN.G/C3   45 350 01 00:   BULK DENSITY
 CNCF.DEC    42 890 03 00:   NEUTRON POROSITY
 TENS.LBS    60 635 01 00:   TENSION FROM SONIC
 DT  .US/F   60 520 00 00:   DELTA TIME
 RD  .OHMM   11 220 10 00:   RESISTIVITY DEEP
 TENR.LBS    11 635 01 00:   TENSION FROM RES. LOG
 RS  .OHMM   11 220 09 00:   RESISTIVITY SHALLOW
 GRR .GAPI   11 310 01 00:   GAMMA RAY FROM RES.
 RMLL.OHMM   11 270 04 00:   MICRO LATEROLOG
 SPR .MV     11 010 01 00:   SPONTANEOUS POTENTIAL FROM RES.
~PARAMETER INFORMATION
#MNEM.UNIT          VALUE    DESCRIPTION
#----------   ------------   ------------------------------
 EKB .F         5164.7000:   Kelly bushing
 EGL .F         5154.7000:   Ground level
 EDF .F         5163.7000:   Drilling floor
 TD  .F         5773.0000:   Total depth
 DATE.        14-JUL-2002:   Date logged
 CLNT.            A2DTECH:   Client Code
 SL  . 838' FNL & 2128' FWL:   Surface Location
 PD  .                 GL:   Permanent Datum
 EPD .F            5154.7:   Elevation Permanent Datum
 LMF .                 KB:   Log Measured From
 DMF .                 KB:   Drilling Measured From
 DD  .F              5770:   Depth driller
 DL  .F              5773:   Depth logger
 BLI .F              5770:   Bottom log interval
 CS1 .IN            9.625:   Casing size
 CBD1.       9.625 @ 578':   Casing driller 1
 CBL1.F               578:   Casing logger 1
 BS1 .IN             8.75:   Bit size
 DFT .       GEL/CHEMICAL:   Type fluid in hole
 DFD .                  9:   Density
 DFV .                 45:   Viscosity
 DFPH.                8.5:   pH
 DFL .                9.6:   Fluid loss
 MSS .           FLOWLINE:   Source of sample
 RMS .OHMM          0.568:   Rm
 MST .F                91:   Rm Meas. temp.
 RMF .OHMM          0.490:   Rmf
 MFST.F                92:   Rmf Meas. temp.
 RMC .OHMM          1.072:   Rmc
 MCST.F                90:   Rmc Meas. temp.
 MFSS.               MEAS:   Source Rmf.
 RMB .OHMM          0.291:   Rm. at BHT
 BHT .F               184:   BHT.
 TCS .HRS               8:   Time Circ. stopped
 MRT .F               184:   Maximum recorded temp.
 LUN .            HL-6530:   Logging unit number
 LUL .             CASPER:   Logging unit location
 ENGI.           VERCIMAK:   Recorded By
 WITN.              HARDY:   Witnessed by
 ORIG.           5" PRINT:   Origin of data
 UWI .     49025230540000:   Unique Well ID
 DICO. A2D TECHNOLOGIES, INC.:   Digitizing Company
~OTHER INFORMATION
~A    DEPT    TEND       CALD       ZCOR         PE       ZDEN       CNCF       TENS         DT         RD       TENR         RS         GRR      RMLL        SPR   
# ...
 5047.0000  -111.3310    10.7350     0.0190     3.3570     2.6830     0.1960   -19.1520    65.3290    15.4970     0.7240    16.4530    99.4370    22.4350     2.0640
 5047.5000  -114.9690    10.7440     0.0170     3.3650     2.6780     0.2120   -19.7260    66.9580    12.0880     0.1010    13.7910   108.0080    16.4240     2.0180
 5048.0000  -118.6070    10.7530     0.0150     3.3770     2.6790     0.2090   -20.3010    68.0950    10.4370    -0.5220    11.6170   112.5230    13.1380     1.7130
 5048.5000  -122.2450    10.7600     0.0130     3.3950     2.6790     0.2040   -20.8750    69.0230     9.7000    -1.1450    10.5660   114.5650    10.5580     1.4080
 5049.0000  -125.8830    10.7550     0.0140     3.4140     2.6770     0.1910   -21.4490    69.0960     9.6310    -1.7680     9.9920   111.9720    10.3660     1.1020
 5049.5000  -129.5210    10.7510     0.0160     3.4300     2.6770     0.1760   -22.0230    68.3390    10.2650    -2.3910    11.2850   108.2080    12.3270     0.7950
 5050.0000  -133.1590    10.7460     0.0190     3.4350     2.6780     0.1610   -22.5980    66.3250    11.7070    -3.0140    13.0800   104.4420    14.4510     0.4950
 5050.5000  -135.0000    10.7420     0.0210     3.4400     2.6820     0.1570   -23.1720    63.8460    13.1500    -3.6370    14.8740   100.6690    16.8540     0.6020
 5051.0000  -134.6160    10.7440     0.0230     3.4440     2.6820     0.1520   -23.7460    61.9270    14.4950    -4.2610    16.5650    96.9070    19.5440     0.7590
 5051.5000  -134.2630    10.7500     0.0130     3.4480     2.6790     0.1470   -24.3210    60.8230    15.7320    -4.8840    17.9940    95.2350    20.8450     0.9170
 5052.0000  -133.9100    10.7560     0.0050     3.4720     2.6750     0.1440   -24.2650    60.8560    16.9690    -5.4890    18.8400    95.6480    19.5880     1.0750
 5052.5000  -133.5570    10.7610     0.0070     3.5050     2.6700     0.1420   -23.5670    61.2700    17.4760    -4.6050    18.9030    96.1020    17.6660     1.2350
 5053.0000  -133.2040    10.7670     0.0110     3.5320     2.6680     0.1450   -22.8700    61.6930    17.6660    -3.7450    18.9640    95.7500    19.3860     1.2090
 5053.5000  -132.8510    10.7730     0.0150     3.5380     2.6670     0.1530   -22.1730    61.8940    17.1900    -2.8850    19.0140    94.1460    21.0370     1.1450
 5054.0000  -132.4990    10.7780     0.0180     3.5440     2.6700     0.1610   -21.4750    62.1740    16.6520    -2.0260    18.5890    92.8250    19.9220     1.0780
 5054.5000  -132.1460    10.7840     0.0210     3.5480     2.6750     0.1610   -20.7780    62.5180    16.1140    -1.1660    17.8380    93.3950    17.8290     1.1720
 5055.0000  -131.7930    10.7900     0.0240     3.4880     2.6810     0.1590   -20.0810    62.8620    15.5330    -0.3060    16.8720    95.7700    17.3440     1.3670
 5055.5000  -131.4400    10.7950     0.0230     3.3540     2.6840     0.1580   -19.3830    62.9650    15.5330     0.5530    16.9700    98.3710    17.0280     1.5620
 5056.0000  -131.0870    10.8010     0.0170     3.2910     2.6830     0.1560   -18.6860    62.8960    15.6640     1.4130    17.1060    98.4010    17.9080     1.7580
 5056.5000  -130.7340    10.8070     0.0130     3.2930     2.6750     0.1550   -17.9890    62.9960    15.8020     2.2730    17.2420    98.4260    19.7260     1.7750
 5057.0000  -130.3810    10.8120     0.0070     3.3070     2.6710     0.1580   -17.2910    63.4450    15.9670     3.1320    17.3440    99.1640    18.6980     1.5910
 5057.5000  -130.0290    10.8180     0.0110     3.3220     2.6730     0.1630   -16.5940    63.8330    15.5280     3.9920    17.3440    99.4170    17.5040     1.4070
 5058.0000  -129.6760    10.8230     0.0130     3.3360     2.6750     0.1680   -15.8970    64.0730    15.0090     3.6090    15.7570    98.6370    15.3330     1.2000
 5058.5000  -129.3230    10.8290     0.0160     3.3520     2.6750     0.1730   -15.1990    64.3140    14.4900    -0.4740    14.8350    98.3610    15.7320     0.9110
 5059.0000  -128.9700    10.8350     0.0190     3.3990     2.6650     0.1780   -14.5290    64.6190    13.9710    -4.5580    17.0280   101.7470    16.8720     0.6210
 5059.5000  -128.6170    10.8400     0.0270     3.4430     2.6600     0.1850   -20.8360    65.7280    13.4510    -8.6410    16.3150   107.4800    16.0610     0.3320
 5060.0000  -128.2640    10.8460     0.0240     3.4730     2.6660     0.1940   -26.9070    67.1540    12.9320   -12.7250    15.5840   111.9720    14.6330     0.0430
 5060.5000  -127.9110    10.8520     0.0200     3.3860     2.6740     0.2080   -32.9780    68.5810    12.1350   -15.2350    14.2110   113.5170    13.2040    -0.2460
 5061.0000  -127.5590    10.8570     0.0220     3.1600     2.6820     0.2230   -24.5490    69.3220    11.0550   -13.3500    12.6060   112.8630    11.7760    -0.5380
 5061.5000  -127.2060    10.8610     0.0260     2.9640     2.6890     0.2020   -24.5490    68.2860    10.6690   -11.4660    11.4690   113.6010    10.8530    -0.8550
 5062.0000  -126.8530    10.8640     0.0290     2.9310     2.6900     0.1740   -24.5490    66.5440    10.2710    -9.5810    11.7960   112.9890    10.7540    -1.2700
 5062.5000  -126.5000    10.8660     0.0200     2.9480     2.6890     0.1480   -24.5490    64.8030    10.7080    -7.6960    12.5650   106.9640    11.5820    -1.6610
 5063.0000  -126.1470    10.8690     0.0140     2.9940     2.6900     0.1390   -24.5490    63.1960    12.0080    -5.8110    14.5650   101.0130    14.4440    -1.9860
 5063.5000  -125.7940    10.8710     0.0100     3.0480     2.6920     0.1380   -24.5490    62.3310    15.3460    -0.9760    18.2300    95.1060    17.3060    -2.0480
 5064.0000  -125.4410    10.8730     0.0100     3.0720     2.6890     0.1350   -14.5290    61.6940    18.3280     4.4690    19.6330    89.2210    19.3590    -2.1170
 5064.5000  -125.0890    10.8760     0.0110     3.0930     2.6840     0.1270   -14.5290    61.3930    19.1810     9.9140    20.6110    84.5060    20.2160    -2.1240
 5065.0000  -129.6250    10.8780     0.0090     3.1150     2.6800     0.1230   -24.5490    61.0920    20.1010    13.8570    21.5880    81.7600    21.0720    -2.0900
 5065.5000  -135.8000    10.8810     0.0080     3.1340     2.6760     0.1200   -20.8630    60.7910    21.0210    10.0880    22.2300    81.6780    21.9290    -2.0570
 5066.0000  -141.9750    10.8870     0.0070     3.1460     2.6740     0.1170   -17.1770    60.4900    21.9460     6.3180    23.0940    82.3160    22.8510    -2.0230
 5066.5000  -148.1500    10.8930     0.0150     3.1580     2.6810     0.1140   -14.7750    59.7490    22.9080     2.5490    24.0110    82.9530    23.9020    -1.9890
 5067.0000  -154.3250    10.8990     0.0230     3.1690     2.6900     0.1110   -15.6500    58.8610    23.8690    -1.2210    24.9290    81.8740    25.2220    -1.9530
 5067.5000  -107.0000    10.9080     0.0250     3.1810     2.7000     0.1120   -16.5250    58.1300    25.6630    -4.9900    25.8470    76.9170    26.5420    -1.9910
 5068.0000   -53.1090    10.9190     0.0190     3.1930     2.7040     0.1130   -17.3990    57.3850    28.3650    -8.7590    26.7160    72.1760    29.3810    -2.0580
 5068.5000   -37.8110    10.9290     0.0120     3.2050     2.7050     0.1170   -18.2740    57.7450    31.5240   -12.5290    30.6100    68.4190    37.5390    -2.1260
 5069.0000   -42.0460    10.9400     0.0080     3.2170     2.6990     0.1200   -19.1480    59.5150    29.5690   -14.9900    31.2350    73.8980    43.0890    -2.1940
 5069.5000   -46.2800    10.9500     0.0120     3.2290     2.6850     0.1300   -20.0230    62.1430    27.2120   -12.8120    28.6320    84.0570    37.4900    -2.2620
 5070.0000   -50.5140    10.9610     0.0150     3.2400     2.6720     0.1650   -20.8980    65.2000    20.6990   -10.6340    23.8380    94.2020    28.9440    -2.3270
 5070.5000   -54.7490    10.9710     0.0130     3.2520     2.6650     0.2050   -21.7720    66.1790    13.5320    -8.4560    18.6320   103.5810    20.3970    -2.4620
 5071.0000   -58.9830    10.9820     0.0170     3.2640     2.6660     0.2020   -22.6470    67.3050    13.6150    -6.2790    14.3180   106.2700    11.3640    -2.6130
