~VERSION INFORMATION
 VERS.                2.0:   CWLS LOG ASCII STANDARD - VERSION 2.0
 WRAP.                 NO:   ONE LINE PER DEPTH STEP
~WELL INFORMATION
#MNEM.UNIT      DATA TYPE    INFORMATION
#----------   ------------   ------------------------------
 STRT.F          199.0000:   START DEPTH
 STOP.F         2951.0000:   STOP DEPTH
 STEP.F            0.5000:   STEP LENGTH
 NULL.          -999.2500:   NO VALUE
 COMP.    FENIX & SCISSON:   COMPANY
 WELL. FENIX & SCISSON "A" #3-21:   WELL
 FLD .              XPR-3:   FIELD
 LOC .      S21 T39N R78W:   LOCATION
 CNTY.            NATRONA:   COUNTY
 STAT.            WYOMING:   STATE
 CTRY. UNITED STATES OF AMERICA:   COUNTRY
 SRVC.              WELEX:   SERVICE COMPANY
 DATE.        27-JUN-1977:   LOGDATE
 API .     49025103880000:   API NUMBER
~CURVE INFORMATION
#MNEM.UNIT       API CODE    CURVE DESCRIPTION
#----------   ------------   ------------------------------
 DEPT.F                  :   
 CALD.IN     45 280 60 00:   CALIPER FROM DENSITY LOG
 GRD .GAPI   45 310 01 00:   GAMMA RAY FROM DENSITY LOG
 CORR.G/C3   45 356 01 00:   DENSITY CORRECTION
 RHOB.G/C3   45 350 01 00:   BULK DENSITY
 SPR .MV     07 010 01 00:   SPONTANEOUS POTENTIAL
 ILD .OHMM   07 120 46 00:   DEEP INDUCTION RESISTIVITY
 ILM .OHMM   07 120 44 00:   INDUCTION LOG MEDIUM RESISTIVITY
 SGRD.OHMM   07 220 05 00:   SHALLOW SHORT GUARD RESISTIVITY
~PARAMETER INFORMATION
#MNEM.UNIT          VALUE    DESCRIPTION
#----------   ------------   ------------------------------
 EKB .F         4981.0000:   Kelly bushing
 EGL .F         4971.0000:   Ground level
 TD  .F         2953.0000:   Total depth
 CLNT.            A2DTECH:   Client Code
 SL  . 330' FSL & 1650' FWL:   Surface Location
 DATE.        27-JUN-1977:   Date Logged [DD-MMM-YYYY]
 DD  .F              2930:   Depth driller
 DL  .F              2953:   Depth logger
 BLI .F              2951:   Bottom log interval
 TLI .F               200:   Top log interval
 CS1 .              8.625:   Casing size
 CBD1.      8.625" @ 217':   Casing driller 1
 BS1 .IN            7.875:   Bit size
 BSD1.F              2930:   Depth drilled with bit1
 DFT .            KCL MUD:   Type fluid in hole
 DFD .                9.4:   Density
 DFV .                 37:   Viscosity
 DFPH.                9.0:   pH
 DFL .               16.0:   Fluid loss
 MSS .           FLOWLINE:   Source of sample
 RMS .OHMM           1.10:   Rm
 MST .F                92:   Rm Meas. temp.
 RMF .OHMM           0.85:   Rmf
 MFST.F                92:   Rmf Meas. temp.
 MFSS.           FANN KIT:   Source Rmf.
 RMC .OHMM           1.44:   Rmc
 MCST.F                92:   Rmc Meas. temp.
 MCSS.           FANN KIT:   Source Rmc.
 RMB .OHMM           0.93:   Rm. at BHT
 BHT .F               109:   BHT.
 TCS .HRS            0230:   Time Circ. stopped
 MRT .F               109:   Maximum recorded temp.
 LUN .               8611:   Logging unit number
 LUL .             CASPER:   Logging unit location
 ENGI.         G. BENTSEN:   Recorded By
 WITN.  MR. W. PETTINGILL:   Witnessed by
 ORIG.      2.5" 5" PRINT:   Origin of data
 UWI .     49025103880000:   Unique Well ID
 DICO. A2D TECHNOLOGIES, INC.:   Digitizing Company
 PD  .                 GL:   Permanent Datum
 EPD .               4971:   Elevation Permanent Datum
 LMF .                 KB:   Log Measured From
 DMF .                 KB:   Drilling Measured From
 DAPD.                 10:   Feet Above Permanent Datum
~OTHER INFORMATION
~A   DEPT       CALD       GRD       CORR        RHOB      SPR        ILD        ILM       SGRD   
# ...
 2021.5000     8.6183    94.1176     0.0033     2.5094   -36.1350     4.5350     4.9861     7.2672
 2022.0000     8.6490    95.9752     0.0002     2.5174   -35.9812     4.5353     4.9188     7.4216
 2022.5000     8.6727    96.5944     0.0002     2.5150   -35.9752     4.5357     4.8521     7.7111
 2023.0000     8.6722    96.5944     0.0041     2.5054   -35.9693     4.5360     4.8528     7.2247
 2023.5000     8.6717    97.8328     0.0072     2.4968   -35.9633     4.5052     4.9208     7.0305
 2024.0000     8.6712   102.7864     0.0104     2.4954   -35.9586     4.4438     4.9215     7.2248
 2024.5000     8.6708   106.5015     0.0197     2.5018   -35.9526     4.3834     4.8084     6.6531
 2025.0000     8.6702   109.5975     0.0228     2.5031   -35.9468     4.3237     4.6587     7.2794
 2025.5000     8.6698   112.6935     0.0249     2.5031   -35.9409     4.2944     4.6274     6.8430
 2026.0000     8.6694   115.7895     0.0249     2.5031   -35.9349     4.2069     4.6280     6.1296
 2026.5000     8.6689   117.6471     0.0248     2.4997   -35.9290     4.2072     4.6954     6.7066
 2027.0000     8.6683   119.5046     0.0236     2.4962   -35.9230     4.2075     4.7602     7.0404
 2027.5000     8.6679   121.3622     0.0204     2.4904   -35.9172     4.2078     4.7249     7.6502
 2028.0000     8.6674   122.6006     0.0172     2.4831   -35.9112     4.0937     4.5047     6.4846
 2028.5000     8.6669   124.4582     0.0109     2.4729   -35.9054     4.0380     4.4132     6.3531
 2029.0000     8.6665   126.3158     0.0077     2.4651   -36.3432     3.9831     4.4138     6.6234
 2029.5000     8.6660   128.7926     0.0060     2.4608   -36.0389     3.9834     4.4144     6.1411
 2030.0000     8.6656   129.4118     0.0042     2.4581   -35.8876     3.9836     4.3847     6.6737
 2030.5000     8.6341   130.0310     0.0090     2.4585   -35.8816     3.9839     4.3854     6.9091
 2031.0000     8.6337   128.1734     0.0136     2.4596   -35.8757     3.9842     4.4163     6.2316
 2031.5000     8.6022   126.3158     0.0136     2.4616   -35.8697     3.9845     4.5403     5.5351
 2032.0000     8.6018   123.8390     0.0104     2.4632   -35.8638     4.0679     4.6357     6.4722
 2032.5000     8.5394   121.9814     0.0058     2.4658   -35.8579     4.1856     4.6684     6.8692
 2033.0000     8.5389   122.6006     0.0057     2.4663   -35.8519     4.3357     4.7666     6.4575
 2033.5000     8.5385   123.8399     0.0088     2.4688   -35.8460     4.4837     4.9343     7.0654
 2034.0000     8.5380   124.4582     0.0137     2.4704   -35.8400     4.5742     5.1788     8.2257
 2034.5000     8.5066   124.4582     0.0181     2.4719   -35.8341     4.7074     5.4354     8.1073
 2035.0000     8.5061   124.4582     0.0181     2.4725   -35.8282     4.9370     5.6267     9.0649
 2035.5000     8.5057   124.4449     0.0211     2.4749   -35.8222     5.1078     5.8247     9.7823
 2036.0000     8.5052   123.8390     0.0211     2.4771   -35.8163     5.2147     5.9471     9.4533
 2036.5000     8.5047   122.5809     0.0211     2.4786   -35.8103     5.2884     6.1141     8.7046
 2037.0000     8.5353   121.2940     0.0211     2.4795   -35.8044     5.3616     6.1572     9.0750
 2037.5000     8.5348   118.2148     0.0179     2.4780   -35.7984     5.3985     6.2433     9.7259
 2038.0000     8.5653   115.7319     0.0179     2.4824   -35.7925     5.3618     6.0747    10.1397
 2038.5000     8.5959   114.5511     0.0210     2.4902   -35.7866     5.2526     5.9512     9.4664
 2039.0000     8.6572   117.7526     0.0272     2.4963   -35.7806     5.1811     5.7505     8.2486
 2039.5000     8.6877   121.4768     0.0302     2.5018   -35.7747     5.1106     5.6335     8.4818
 2040.0000     8.7182   124.5406     0.0333     2.5080   -35.7687     5.1110     5.5956     7.9185
 2040.5000     8.7487   127.0235     0.0395     2.5134   -35.7628     5.1113     5.6353     6.9476
 2041.0000     8.7482   128.8402     0.0457     2.5143   -35.9048     5.1470     5.7537     8.0886
 2041.5000     8.7168   130.0310     0.0457     2.4995   -35.8988     5.2187     5.8342     9.6140
 2042.0000     8.6854   130.0847     0.0457     2.4879   -36.3382     5.2551     5.9629     8.0931
 2042.5000     8.6540   130.7069     0.0394     2.4833   -36.3307     5.3283     6.1290     9.1028
 2043.0000     8.5916   131.9482     0.0331     2.4871   -36.3248     5.4026     6.2961    10.1680
 2043.5000     8.5602   131.7625     0.0300     2.4910   -36.1709     5.4029     6.3455     9.8940
 2044.0000     8.5287   129.3457     0.0237     2.4932   -36.1650     5.4782     6.4738     9.4301
 2044.5000     8.4973   128.7235     0.0206     2.4932   -36.3085     5.5545     6.4747     9.6300
 2045.0000     8.4969   127.5542     0.0174     2.4923   -36.1531     5.6319     6.3431     9.9022
 2045.5000     8.4654   126.9350     0.0112     2.4852   -35.8513     5.7104     6.3004     7.9428
 2046.0000     8.4650   126.9350     0.0080     2.4765   -35.6974     5.7502     6.4774     9.6381
 2046.5000     8.4645   126.9350     0.0080     2.4672   -35.6915     5.8304     6.7053    10.1177
 2047.0000     8.4640   126.3158     0.0049     2.4560   -35.6855     5.9116     6.8936    10.1200
 2047.5000     8.4636   126.3158     0.0017     2.4468   -35.3838     5.9940     7.0385    10.8051
 2048.0000     8.4631   126.2248     0.0017     2.4406   -35.2299     6.0357     7.0395    11.6237
 2048.5000     8.4627   125.6966    -0.0015     2.4452   -35.2239     5.9536     6.8962    11.6197
 2049.0000     8.4932   125.6966    -0.0015     2.4467   -35.3674     5.7526     6.8974    11.0773
 2049.5000     8.4927   125.6966    -0.0015     2.4436   -35.3600     5.6743     6.7109    10.4875
 2050.0000     8.4922   125.6966    -0.0016     2.4359   -35.5035     5.5333     6.3827    10.0671
 2050.5000     8.5227   126.3158    -0.0016     2.4420   -35.3643     5.4728     5.7679     9.6593
 2051.0000     8.5223   126.3158    -0.0047     2.4497   -35.2359     5.3004     5.4586     8.8880
 2051.5000     8.5218   126.2031    -0.0079     2.4466   -35.1889     5.2294     5.3839     7.4280
 2052.0000     8.5213   123.6085    -0.0081     2.4435   -35.4788     5.1593     5.6889     8.8473
 2052.5000     8.5209   121.1247    -0.0113     2.4404   -35.7702     5.1607     5.7679     9.3443
 2053.0000     8.5204   119.3827    -0.0142     2.4435   -35.7629     5.1621     5.9290     9.8132
 2053.5000     8.5509   118.1415    -0.0077     2.4521   -35.7569     5.1636     6.0528    10.2217
 2054.0000     8.5504   116.8999    -0.0018     2.4606   -35.9004     5.1650     6.0113     9.3914
 2054.5000     8.5809   115.7895     0.0017     2.4692   -35.8930     5.0958     5.8077     8.9024
 2055.0000     8.6114   116.8118     0.0048     2.4778   -35.8871     4.9930     5.8883     9.0400
 2055.5000     8.6419   119.9158     0.0079     2.4864   -35.8812     4.8923     5.4211     9.2244
 2056.0000     8.6415   122.8817     0.0110     2.4949   -35.8753     4.5997     5.1659     7.3683
 2056.5000     8.6410   124.4582     0.0167     2.5035   -35.7215     4.5066     4.7560     6.2921
 2057.0000     8.6715   123.5467     0.0167     2.5129   -35.5676     4.3796     4.7234     5.8138
 2057.5000     8.6710   121.2125     0.0167     2.5005   -35.5617     4.2675     4.8554     6.4144
 2058.0000     8.7015   119.9710     0.0128     2.4866   -35.5558     4.2394     4.9567     7.8511
 2058.5000     8.7011   118.8855     0.0059     2.4742   -35.6993     4.1539     4.8889     7.4066
 2059.0000     8.7006   118.8855    -0.0028     2.4634   -35.6919     4.1550     4.8220     6.9618
 2059.5000     8.7001   119.9904    -0.0061     2.4557   -35.6860     4.1562     4.7560     7.3975
 2060.0000     8.6997   122.9314    -0.0124     2.4510   -35.6801     4.1573     4.6268     6.7754
 2060.5000     8.6992   124.7942    -0.0147     2.4464   -35.6742     4.1585     4.5950     5.9851
 2061.0000     8.6678   127.2779    -0.0147     2.4402   -35.6683     4.1596     4.6268     6.1538
 2061.5000     8.6673   130.0310    -0.0137     2.4401   -35.6623     4.1608     4.7560     6.0290
