~VERSION INFORMATION
 VERS.                2.0:   CWLS LOG ASCII STANDARD - VERSION 2.0
 WRAP.                 NO:   ONE LINE PER DEPTH STEP
~WELL INFORMATION
#MNEM.UNIT      DATA TYPE    INFORMATION
#----------   ------------   ------------------------------
 STRT.F         3288.0000:   START DEPTH
 STOP.F         4421.0000:   STOP DEPTH
 STEP.F            0.5000:   STEP LENGTH
 NULL.          -999.2500:   NO VALUE
 COMP.       FLUOR DANIEL:   COMPANY
 WELL. FLUOR 22 "X" #2-10:   WELL
 FLD . TEA POT DOME NAVAL PETROLEUM DO:   FIELD
 LOC .      S10 T38N R78W:   LOCATION
 CNTY.            NATRONA:   COUNTY
 STAT.            WYOMING:   STATE
 CTRY. UNITED STATES OF AMERICA:   COUNTRY
 SRVC.        HALLIBURTON:   SERVICE COMPANY
 DATE.        13-DEC-1996:   LOGDATE
 API .     49025228330000:   API NUMBER
~CURVE INFORMATION
#MNEM.UNIT       API CODE    CURVE DESCRIPTION
#----------   ------------   ------------------------------
 DEPT.F                  :   
 NPHI.DEC    42 890 03 00:   NEUTRON POROSITY SANDSTONE
 GRD .GAPI   45 310 01 00:   GAMMA RAY FROM DENSITY LOG
 CALD.IN     45 280 60 00:   CALIPER FROM DENSITY LOG
 PE  .B/E    45 358 01 00:   PHOTOELECTRIC FACTOR
 CORR.G/C3   45 356 01 00:   DENSITY CORRECTION
 TEND.LBS    45 635 01 00:   TENSION FORM DENSITY LOG
 RHOB.G/C3   45 350 01 00:   BULK DENSITY
 TENR.LBS    07 635 01 00:   TENSION FROM RESISTIVITY
 ILD .OHMM   07 120 46 00:   DEEP INDUCTION RESISTIVITY
 ILM .OHMM   07 120 44 00:   INDUCTION LOG MEDIUM RESISTIVITY
 SFL .OHMM   07 220 01 00:   SHALLOW FOCUSED LOG RESISTIVITY
~PARAMETER INFORMATION
#MNEM.UNIT          VALUE    DESCRIPTION
#----------   ------------   ------------------------------
 EKB .F         5268.0000:   Kelly bushing
 EGL .F         5258.0000:   Ground level
 EDF .F         5267.0000:   Drilling floor
 TD  .F         4435.0000:   Total depth
 CLNT.            A2DTECH:   Client Code
 SL  . 569' FNL & 1440' FWL:   Surface Location
 PD  .                 GL:   Permanent Datum
 EPD .F              5258:   Elevation Permanent Datum
 LMF .                 KB:   Log Measured From
 DMF .                 KB:   Drilling Measured From
 DAPD.F                10:   Feet Above Permanent Datum
 DATE.        13-DEC-1996:   Date Logged [DD-MMM-YYYY]
 DD  .F              4435:   Depth driller
 DL  .F              4412:   Depth logger
 BLI .F              4403:   Bottom log interval
 TLI .F              3308:   Top log interval
 CS1 .IN            9.625:   Casing size
 CBD1.     9.625" @ 3307':   Casing driller 1
 CBL1.F              3308:   Casing logger 1
 BS1 .IN              8.5:   Bit size
 BSD1.F              4435:   Depth drilled with bit1
 DFT .           POLY-KCL:   Type fluid in hole
 DFD .                  9:   Density
 DFV .                 50:   Viscosity
 DFPH.                  9:   pH
 DFL .                  7:   Fluid loss
 MSS .           MUD TANK:   Source of sample
 RMS .OHMM           0.47:   Rm
 MST .F                56:   Rm Meas. temp.
 RMF .OHMM           0.36:   Rmf
 MFST.F                61:   Rmf Meas. temp.
 MFSS.               MEAS:   Source Rmf.
 RMC .OHMM           0.48:   Rmc
 MCST.F                68:   Rmc Meas. temp.
 MCSS.               MEAS:   Source Rmc.
 RMB .OHMM           0.20:   Rm. at BHT
 BHT .F               138:   BHT.
 TCS .HRS              20:   Time Circ. stopped
 TLAB.HRS            0108:   Time logger at bottom
 MRT .F               138:   Maximum recorded temp.
 LUN .              52546:   Logging unit number
 LUL .              VERNI:   Logging unit location
 ENGI.        JOHN SAVAGE:   Recorded By
 WITN.          STEBBINGS:   Witnessed by
 ORIG.         2.5" PRINT:   Origin of data
 UWI .     49025228330000:   Unique Well ID
 DICO. A2D TECHNOLOGIES, INC.:   Digitizing Company
~OTHER INFORMATION
~A  DEPT        NPHI       GRD      CALD         PE       CORR       TEND       RHOB       TENR        ILD        ILM        SFL   
# ...
 3318.5000     0.2512   132.2151     9.2659     2.7000     0.0578  2768.2781     2.4807  2857.4504     3.2857     4.0499     4.5709
 3319.0000     0.2415   130.1811     9.2659     2.7003     0.0477  2767.9758     2.4701  2917.6208     3.2908     3.6901     4.2075
 3319.5000     0.2391   122.3786     9.2659     2.7006     0.0382  2767.6738     2.4702  2975.6538     3.3954     3.4016     4.2236
 3320.0000     0.2349   112.2653     9.2659     2.7311     0.0397  2706.8904     2.4797  2903.1245     3.4967     3.2653     4.4642
 3320.5000     0.2210   107.4285     9.2961     2.7616     0.0412  2706.5989     2.4921  2861.2988     4.0691     3.6364     5.8409
 3321.0000     0.2034   104.4045     9.2961     2.7619     0.0412  2766.7305     2.4982  2848.0554     4.7297     4.6508     6.1273
 3321.5000     0.1943   101.3804     9.2961     2.7622     0.0397  2826.8621     2.5040  2805.5647     5.0535     5.1036     5.8909
 3322.0000     0.1909    98.9606     9.2961     2.7625     0.0397  2826.5706     2.5066  2806.5271     5.2611     5.3194     5.7313
 3322.5000     0.1800    97.1450     9.3263     2.7628     0.0397  2705.4331     2.5097  2836.5591     5.3313     5.3966     5.8856
 3323.0000     0.1747    95.9336     9.3263     2.7631     0.0400  2707.5798     2.5120  2866.5903     5.4758     5.5494     6.3912
 3323.5000     0.1722    97.2760     9.3263     2.7458     0.0417  2916.3308     2.5158  2896.6570     5.9475     5.7064     7.1480
 3324.0000     0.1708    99.0613     9.2957     2.7335     0.0428  2704.5588     2.5158  2903.1101     6.3609     5.9253     7.4951
 3324.5000     0.1728    99.5502     9.2356     2.7339     0.0450  2915.7478     2.5159  2889.9229     6.4544     5.8732     7.6326
 3325.0000     0.1778    99.3456     9.2306     2.7342     0.0466  2804.6326     2.5174  2858.5371     6.5492     6.0528     7.7972
 3325.5000     0.1821    98.6937     9.2054     2.7042     0.0497  2703.6846     2.5174  2813.5173     6.5682     6.0562     7.4834
 3326.0000     0.1847    98.3323     9.2054     2.7045     0.0519  2853.1575     2.5175  2814.7051     6.2972     5.6532     7.0867
 3326.5000     0.1847    99.2678     9.2356     2.7048     0.0519  2743.4763     2.5160  2815.6667     6.2555     5.6603     7.0836
 3327.0000     0.1854   101.3469     9.2802     2.7051     0.0489  2823.5105     2.5143  2874.7686     6.2538     5.7256     6.9854
 3327.5000     0.1902   103.7609     9.2961     2.7130     0.0489  2913.8975     2.5112  2875.7307     5.9235     5.6463     6.7885
 3328.0000     0.1950   106.1749     9.3263     2.7360     0.0488  2762.5049     2.5070  2876.7441     5.4610     5.4632     6.0178
 3328.5000     0.1951   106.7762     9.3263     2.7665     0.0490  2792.4248     2.5117  2842.2651     5.0302     5.2017     5.6204
 3329.0000     0.1890   105.5648     9.3263     2.8272     0.0523  2882.7795     2.5197  2781.7896     5.1805     4.9010     5.7958
 3329.5000     0.1707   104.9577     9.3263     2.8753     0.0553  2761.6306     2.5268  2763.5173     5.4529     5.2688     6.7529
 3330.0000     0.1521   103.7059     9.3565     2.9185     0.0565  2793.5591     2.5343  2748.0481     7.3546     6.1933    10.1661
 3330.5000     0.1455   102.5347     9.3565     2.9188     0.0540  2881.8936     2.5389  2765.7053     8.3380     7.0861    10.5817
 3331.0000     0.1548   102.6608     9.3565     2.8888     0.0477  2808.2439     2.5299  2795.7373     7.7292     7.3767     9.6229
 3331.5000     0.1714   104.8606     9.3565     2.8287     0.0437  2700.0000     2.5163  2854.8391     5.6085     5.9665     6.6711
 3332.0000     0.1874   108.0127     9.3565     2.7686     0.0414  2822.9314     2.5012  2884.8835     5.2898     5.2561     5.9821
 3332.5000     0.1927   110.6394     9.3565     2.7387     0.0399  2837.3657     2.4967  2914.9712     5.2315     4.7818     5.9096
 3333.0000     0.1963   111.8892     9.3565     2.7692     0.0399  2805.0325     2.4982  2945.0583     5.1597     4.7158     5.7989
 3333.5000     0.1975   111.2296     9.3867     2.7770     0.0399  2867.3701     2.4982  2906.1946     5.0209     4.6508     5.7094
 3334.0000     0.2012   109.7638     9.4169     2.8101     0.0399  2849.4963     2.4983  2888.9534     4.9522     4.5866     5.4414
 3334.5000     0.2121   107.9482     9.4773     2.8305     0.0399  2818.9934     2.5003  2890.1626     4.6906     4.4623     5.2941
 3335.0000     0.2181   107.3411     9.5076     2.8761     0.0414  2818.7019     2.5034  2891.1248     4.2664     4.2837     5.0816
 3335.5000     0.2169   107.9424     9.5076     2.8916     0.0430  2848.6218     2.5088  2892.0869     4.2081     4.1569     5.0793
 3336.0000     0.2114   107.9395     9.5378     2.9221     0.0433  2848.3306     2.5143  2922.1184     4.2874     4.1996     5.1506
 3336.5000     0.2097   108.5524     9.5378     2.9224     0.0460  2817.8247     2.5120  2952.1802     4.4573     4.3597     5.2976
 3337.0000     0.2111   109.8030     9.5378     2.8924     0.0460  2820.3357     2.5075  2948.0625     4.4986     4.3369     5.3541
 3337.5000     0.2145   110.3477     9.5403     2.8625     0.0454  2882.6890     2.5030  2916.6765     4.3479     3.8891     5.1100
 3338.0000     0.2187   108.0965     9.5680     2.8326     0.0430  2937.7993     2.4985  2896.8975     4.1458     3.7840     4.6993
 3338.5000     0.2214   104.5250     9.5751     2.8002     0.0391  2878.8760     2.4940  2853.8752     4.0343     3.8340     4.5459
 3339.0000     0.2224   103.0876     9.5982     2.7376     0.0339  2755.8914     2.4895  2840.9885     4.0332     3.8325     4.5439
 3339.5000     0.2218   103.3626     9.6284     2.7127     0.0324  2843.7773     2.4849  2871.1951     3.9781     3.8310     4.6038
 3340.0000     0.2212   104.3304     9.5982     2.7130     0.0339  2936.5559     2.4833  2901.2268     3.9237     3.7274     4.6016
 3340.5000     0.2206   106.7034     9.5818     2.7133     0.0339  2875.7734     2.4820  2902.1890     3.9227     3.6760     4.5377
 3341.0000     0.2218   107.9089     9.5680     2.7438     0.0385  2815.0591     2.4855  2871.3350     3.9216     3.6745     4.5356
 3341.5000     0.2230   106.6975     9.5680     2.7743     0.0416  2875.1907     2.4887  2845.9741     3.9205     3.6730     4.5334
 3342.0000     0.2237   106.0904     9.5680     2.7747     0.0447  2905.1108     2.4919  2847.0933     3.9195     3.6715     4.4988
 3342.5000     0.2231   106.0875     9.5680     2.8354     0.0479  2844.3962     2.4950  2848.1106     3.9184     3.6974     4.5291
 3343.0000     0.2243   107.2930     9.5680     2.8357     0.0507  2813.8933     2.4988  2865.3145     3.9172     3.7184     4.5267
 3343.5000     0.2261   108.4986     9.5982     2.8360     0.0507  2813.5952     2.4958  2908.4426     3.9162     3.8185     4.5247
 3344.0000     0.2273   109.1724     9.5680     2.8363     0.0500  2813.2930     2.4928  2909.4048     3.9152     3.7658     4.5227
 3344.5000     0.2272   110.4221     9.5680     2.7761     0.0492  2812.9910     2.4898  2910.3672     3.9141     3.7138     4.4600
 3345.0000     0.2267   111.6716     9.5609     2.7462     0.0468  2812.6887     2.4899  2853.1899     3.9131     3.7107     4.5902
 3345.5000     0.2273   111.5080     9.5378     2.7541     0.0461  2812.3867     2.4929  2850.3752     4.0192     3.6612     4.7033
 3346.0000     0.2211   112.9629     9.5378     2.7770     0.0462  2824.5732     2.4945  2826.0439     4.0073     3.7095     4.6129
 3346.5000     0.2195   115.1110     9.5820     2.7773     0.0462  2856.6873     2.4992  2827.1802     3.8943     3.7079     4.4808
 3347.0000     0.2189   116.3323     9.6145     2.7928     0.0477  2871.9033     2.5045  2857.2673     3.8565     3.7568     4.2724
 3347.5000     0.2165   116.9335     9.6586     2.8082     0.0507  2871.5476     2.5155  2916.6208     4.0153     3.8063     4.3874
 3348.0000     0.2080   115.7216     9.6888     2.8387     0.0522  2871.2561     2.5265  2946.6528     4.5939     4.0702     4.8203
 3348.5000     0.1880   110.8849     9.6888     2.8390     0.0522  2840.7534     2.5353  2918.5452     5.2568     4.6570     6.3980
