~VERSION INFORMATION
 VERS.                2.0:   CWLS LOG ASCII STANDARD - VERSION 2.0
 WRAP.                 NO:   ONE LINE PER DEPTH STEP
~WELL INFORMATION
#MNEM.UNIT      DATA TYPE    INFORMATION
#----------   ------------   ------------------------------
 STRT.F          712.0000:   START DEPTH
 STOP.F         3352.0000:   STOP DEPTH
 STEP.F            0.5000:   STEP LENGTH
 NULL.          -999.2500:   NO VALUE
 COMP.    FENIX & SCISSON:   COMPANY
 WELL. FENIX & SCISSON "AX" #24-14:   WELL
 FLD .              NPR 3:   FIELD
 LOC .      S14 T38N R78W:   LOCATION
 CNTY.            NATRONA:   COUNTY
 STAT.            WYOMING:   STATE
 CTRY. UNITED STATES OF AMERICA:   COUNTRY
 SRVC.       SCHLUMBERGER:   SERVICE COMPANY
 DATE.        19-JUN-1981:   LOGDATE
 API .     49025108750000:   API NUMBER
~CURVE INFORMATION
#MNEM.UNIT       API CODE    CURVE DESCRIPTION
#----------   ------------   ------------------------------
 DEPT.F                  :   
 TENR.LBS    07 635 01 00:   TENSION
 ILD .OHMM   07 120 46 00:   DEEP INDUCTION RESISTIVITY
 SFL .OHMM   07 220 01 00:   SHALLOW FOCUSED LOG RESISTIVITY
 ILM .OHMM   07 120 44 00:   INDUCTION LOG MEDIUM RESISTIVITY
 SPR .MV     07 010 01 00:   SPONTANEOUS POTENTIAL
 TEND.LBS    45 635 01 00:   TENSION FROM DENSITY LOG
 DRHO.G/C3   45 356 01 00:   DENSITY CORRECTION
 CALD.IN     45 280 60 00:   CALIPER FROM DENSITY LOG
 GRD .GAPI   45 310 01 00:   GAMMA RAY FROM DENSITY LOG
 RHOB.G/C3   45 350 01 00:   BULK DENSITY
~PARAMETER INFORMATION
#MNEM.UNIT          VALUE    DESCRIPTION
#----------   ------------   ------------------------------
 EKB .F         5216.0000:   Kelly bushing
 EGL .F         5206.0000:   Ground level
 EDF .F         5215.0000:   Drilling floor
 EPD .F            0.0000:   Permanent datum
 TD  .F         3360.0000:   Total depth
 DATE.        19-JUN-1981:   Date logged
 CLNT.            A2DTECH:   Client Code
 SL  . 2413' FNL & 827' FWL:   Surface Location
 PD  .                 GL:   Permanent Datum
 DAPD.F                10:   Feet Above Permanent Datum
 DD  .F              3360:   Depth driller
 DL  .F              3348:   Depth logger
 BLI .F              3342:   Bottom log interval
 TLI .F               728:   Top log interval
 CS1 .IN            8.625:   Casing size
 CBD1.      8.625" @ 728':   Casing driller 1
 CBL1.F               728:   Casing logger 1
 BS1 .IN            7.875:   Bit size
 BSD1.F              3360:   Depth drilled with bit1
 DFT .                FGM:   Type fluid in hole
 DFD .                  9:   Density
 DFV .                 45:   Viscosity
 DFPH.                9.5:   pH
 DFL .                 10:   Fluid loss
 MSS .               TANK:   Source of sample
 RMS .OHMM           5.71:   Rm
 MST .F                68:   Rm Meas. temp.
 RMF .OHMM           1.27:   Rmf
 MFST.F                68:   Rmf Meas. temp.
 MFSS.               MEAS:   Source Rmf.
 RMB .OHMM           3.29:   Rm. at BHT
 BHT .F               118:   BHT.
 TCS .HRS            0800:   Time Circ. stopped
 TLAB.HRS            1130:   Time logger at bottom
 MRT .F               118:   Maximum recorded temp.
 LUN .               8039:   Logging unit number
 LUL .               CSPR:   Logging unit location
 ENGI.           G. PFARR:   Recorded By
 WITN.           R. SCOTT:   Witnessed by
 ORIG.           5" PRINT:   Origin of data
 UWI .     49025108750000:   Unique Well ID
 DICO. A2D TECHNOLOGIES, INC.:   Digitizing Company
~OTHER INFORMATION
~A   DEPT     TENR        ILD        SFL        ILM        SPR       TEND       DRHO       CALD         GRD      RHOB   
# ...
 2956.5000  1434.1851     9.2670    12.1870     8.4280   -33.9660  1494.4980     0.0170     8.5080   114.6480     2.5660
 2957.0000  1434.1851     9.1250    12.1070     8.2380   -33.8960  1494.8409     0.0160     8.5090   115.8220     2.5660
 2957.5000  1434.1851     8.9840    12.0500     8.0480   -33.9170  1495.1840     0.0170     8.5100   119.6690     2.5670
 2958.0000  1434.1851     8.8590    10.5820     7.8470   -33.9320  1495.5270     0.0230     8.5110   125.2900     2.5730
 2958.5000  1434.1851     8.7900     8.8590     7.9390   -33.7480  1495.8690     0.0290     8.5120   129.1890     2.5780
 2959.0000  1434.1851     8.7280     8.9890     8.1250   -33.2570  1496.2120     0.0160     8.5130   126.2300     2.5650
 2959.5000  1434.1851     8.6670    10.3760     8.2410   -32.7730  1496.5551     0.0030     8.5140   122.2820     2.5490
 2960.0000  1434.1851     8.6050    12.4940     8.2410   -32.5960  1496.8979    -0.0050     8.5150   118.2930     2.5350
 2960.5000  1434.1851     8.5440    12.4940     8.2410   -32.4190  1497.2410    -0.0050     8.5160   116.7170     2.5400
 2961.0000  1434.1851     8.7200    11.9470     8.2410   -32.3600  1497.5840     0.0060     8.5170   117.3550     2.5570
 2961.5000  1434.1851     8.8920    11.4100     8.2410   -32.3660  1497.9260     0.0160     8.5180   118.2640     2.5740
 2962.0000  1434.1851     9.0640    10.8100     8.2410   -32.3630  1498.2690     0.0250     8.5200   116.6500     2.5810
 2962.5000  1434.1851     9.2350    10.8600     8.2410   -32.3560  1498.6121     0.0200     8.5210   113.5840     2.5770
 2963.0000  1434.1851     9.3630    10.9160     8.2820   -32.3930  1498.9550     0.0150     8.5220   111.9300     2.5660
 2963.5000  1434.1851     9.3920    10.9720     8.4130   -32.0470  1499.2980     0.0100     8.5230   113.0880     2.5550
 2964.0000  1434.1851     9.4210    11.2280     8.5450   -32.0670  1499.6400     0.0060     8.5240   114.3780     2.5540
 2964.5000  1434.1851     9.4500    11.8530     8.6760   -32.3560  1499.9830     0.0040     8.5250   114.1330     2.5590
 2965.0000  1434.1851     9.4790    12.4770     8.8080   -32.6660  1500.3260     0.0050     8.5250   112.8800     2.5640
 2965.5000  1434.1851     9.5240    12.7220     8.9220   -32.7540  1500.6689     0.0060     8.5250   111.2350     2.5670
 2966.0000  1434.1851     9.4750    12.7220     9.0210   -32.7680  1501.0120     0.0050     8.5250   109.5860     2.5630
 2966.5000  1434.1851     9.3620    12.7220     8.7510   -32.7250  1501.3550     0.0040     8.5250   108.8780     2.5520
 2967.0000  1434.1851     9.2490    12.2040     8.4920   -32.7970  1501.6970     0.0070     8.5250   110.2110     2.5500
 2967.5000  1434.1851     9.1360    11.6020     8.2320   -32.4430  1502.0400     0.0100     8.5250   114.3040     2.5540
 2968.0000  1434.1851     9.0230    11.0010     7.9730   -32.5130  1502.3831     0.0160     8.5250   118.4070     2.5580
 2968.5000  1434.1851     8.9100    10.4000     7.7130   -32.6680  1502.7260     0.0200     8.5250   119.3570     2.5560
 2969.0000  1434.1851     8.7960     9.7990     7.4300   -32.8480  1503.0690     0.0180     8.5250   116.3260     2.5550
 2969.5000  1434.1851     8.6820     9.1860     7.4990   -33.0080  1503.4110     0.0160     8.5250   113.1500     2.5600
 2970.0000  1434.1851     8.5440     9.6370     7.6380   -33.1410  1503.7540     0.0160     8.5250   109.8310     2.5730
 2970.5000  1434.1851     8.6420    10.0970     7.7770   -33.1220  1504.0970     0.0180     8.5250   109.0420     2.5800
 2971.0000  1434.1851     8.7630    10.8100     7.9160   -33.1810  1504.4399     0.0200     8.5250   110.6070     2.5860
 2971.5000  1434.1851     8.8850    10.7660     8.0550   -32.8250  1504.7830     0.0220     8.5250   112.9440     2.5910
 2972.0000  1434.1851     9.0060    10.6160     8.1940   -32.7520  1505.1260     0.0180     8.5250   114.6610     2.5930
 2972.5000  1434.1851     9.1270    10.8160     8.3330   -32.7450  1505.4680     0.0150     8.5250   115.5390     2.5880
 2973.0000  1434.1851     9.2490    11.2220     8.4720   -32.7520  1505.8110     0.0120     8.5250   116.3510     2.5850
 2973.5000  1434.1851     9.3530    11.6280     8.6100   -32.7580  1506.1541     0.0120     8.5250   116.5890     2.5860
 2974.0000  1434.1851     9.5050    12.0500     8.7370   -32.7510  1506.4969     0.0130     8.5250   115.4450     2.5910
 2974.5000  1434.1851     9.6380    12.0500     8.8400   -32.6810  1506.8400     0.0140     8.5250   112.7480     2.5940
 2975.0000  1434.1851     9.7710    12.2130     8.9430   -32.3140  1507.1820     0.0150     8.5250   109.2980     2.5910
 2975.5000  1434.2800     9.8750    12.6290     9.0460   -32.4820  1507.5250     0.0170     8.5250   105.7810     2.5820
 2976.0000  1434.7220     9.8750    13.1910     9.1860   -32.6600  1507.8680     0.0200     8.5250   103.7310     2.5820
 2976.5000  1435.1639     9.9050    12.7910     9.0350   -32.8470  1508.2111     0.0240     8.5250   105.3310     2.5850
 2977.0000  1435.6050     9.9520    12.1720     8.8010   -33.0330  1508.5540     0.0250     8.5250   107.6950     2.5800
 2977.5000  1436.0470     9.9980    11.5540     8.5440   -33.2160  1508.8970     0.0230     8.5250   110.1630     2.5700
 2978.0000  1436.4890    10.0440    11.0080     8.7950   -33.4180  1509.2390     0.0220     8.5250   111.0370     2.5700
 2978.5000  1436.9310    10.0910    11.8880     9.0720   -33.5400  1509.5820     0.0200     8.5250   108.9960     2.5740
 2979.0000  1437.3730    10.1370    13.3110     9.3500   -33.5230  1509.9250     0.0180     8.5250   106.1030     2.5750
 2979.5000  1437.8140    10.1840    14.7340     9.5870   -33.5320  1510.2679     0.0160     8.5250    98.9630     2.5700
 2980.0000  1438.2560    10.2390    16.1570     9.7570   -33.5290  1510.6110     0.0150     8.5250    95.4400     2.5640
 2980.5000  1438.6980    10.3160    16.9940    10.0110   -33.5160  1510.9540     0.0130     8.5250    93.6090     2.5590
 2981.0000  1439.1400    10.4260    16.3570     9.9650   -33.5680  1511.2960     0.0120     8.5250    94.2540     2.5600
 2981.5000  1439.5811    10.2020    15.3400     9.5790   -33.1240  1511.6390     0.0110     8.5250    97.7000     2.5630
 2982.0000  1440.0229     9.9350    14.3240     9.1930   -32.4980  1511.9821     0.0090     8.5250   102.0910     2.5680
 2982.5000  1440.4650     9.6690    13.3070     8.8070   -32.1370  1512.3250     0.0080     8.5250   106.3400     2.5730
 2983.0000  1440.9070     9.4020    12.2910     8.3910   -31.7530  1512.6680     0.0070     8.5250   108.2990     2.5670
 2983.5000  1441.3490     9.1360    10.6160     8.2910   -31.5730  1513.0100     0.0060     8.5250   108.0160     2.5570
 2984.0000  1441.7900     8.8590    11.1430     8.1820   -31.5910  1513.3530     0.0050     8.5250   104.6750     2.5480
 2984.5000  1442.2321     8.6700    12.6330     8.0930   -31.5900  1513.6960     0.0080     8.5250   100.8580     2.5500
 2985.0000  1442.6740     8.4730    13.1910     7.8100   -31.5930  1514.0389     0.0170     8.5250   100.1870     2.5640
 2985.5000  1443.1160     8.2410    12.4570     7.5280   -31.7000  1514.3820     0.0250     8.5250   101.9500     2.5760
 2986.0000  1443.5580     8.0120    11.2490     7.4710   -31.8070  1514.7250     0.0210     8.5250   104.4720     2.5670
 2986.5000  1443.9990     7.8050     9.6980     7.3930   -31.9190  1515.0670     0.0140     8.5250   104.0240     2.5440
 2987.0000  1444.4410     7.3310     9.8280     6.9310   -32.0270  1515.4100     0.0080     8.5250   103.7090     2.5380
 2987.5000  1444.8831     6.7820    10.1040     6.3970   -32.1410  1515.7531     0.0170     8.5250   106.1470     2.5560
 2988.0000  1445.3250     6.2330    10.2390     5.8620   -32.2460  1516.0959     0.0290     8.5420   115.1280     2.5770
 2988.5000  1445.7670     5.6830     8.5680     5.3270   -32.3550  1516.4390     0.0490     8.5590   140.2540     2.5930
 2989.0000  1446.2080     5.1340     7.0720     4.8760   -32.3030  1516.7810     0.0620     8.5510   154.0150     2.5800
 2989.5000  1446.6500     4.5850     5.5770     4.1910   -32.2430  1517.1240     0.0480     8.5290   162.3740     2.5490
