~VERSION INFORMATION
 VERS.                2.0:   CWLS LOG ASCII STANDARD - VERSION 2.0
 WRAP.                 NO:   ONE LINE PER DEPTH STEP
~WELL INFORMATION
#MNEM.UNIT      DATA TYPE    INFORMATION
#----------   ------------   ------------------------------
 STRT.F            0.0000:   START DEPTH
 STOP.F         5670.0000:   STOP DEPTH
 STEP.F            0.5000:   STEP LENGTH
 NULL.          -999.2500:   NO VALUE
 COMP.          INTEX OIL:   COMPANY
 WELL.    INTEX TP #71-15:   WELL
 FLD .             TEAPOT:   FIELD
 LOC .      S15 T38N R78W:   LOCATION
 CNTY.            NATRONA:   COUNTY
 STAT.            WYOMING:   STATE
 CTRY. UNITED STATES OF AMERICA:   COUNTRY
 SRVC.       SCHLUMBERGER:   SERVICE COMPANY
 DATE.        05-AUG-1966:   LOGDATE
 API .     49025097110000:   API NUMBER
~CURVE INFORMATION
#MNEM.UNIT       API CODE    CURVE DESCRIPTION
#----------   ------------   ------------------------------
 DEPT.F                  :   
 GRD .GAPI   45 310 01 00:   GAMMA RAY FROM DENSITY LOG
 CALD.IN     45 280 60 00:   CALIPER FROM DENSITY LOG
 CORR.G/C3   45 356 01 00:   DENSITY CORRECTION
 RHOB.G/C3   45 350 01 00:   BULK DENSITY
 SPR .MV     05 010 01 00:   SPONTANEOUS POTENTIAL FROM RES.
 ASN .OHMM   05 041 16 00:   AMPLIFIED SHORT NORMAL 16"
 ILD .OHMM   05 120 46 00:   INDUCTION LOG DEEP RESISTIVITY
~PARAMETER INFORMATION
#MNEM.UNIT          VALUE    DESCRIPTION
#----------   ------------   ------------------------------
 EKB .F         5247.5500:   Kelly bushing
 EGL .F         5236.1000:   Ground level
 EDF .F            0.0000:   Drilling floor
 EPD .F         5236.1000:   Permanent datum
 TD  .F         5670.0000:   Total depth
 CLNT.            A2DTECH:   Client Code
 SL  . 610' FNL & 710' FEL:   Surface Location
 PD  .                 GL:   Permanent Datum
 LMF .                 KB:   Log Measured From
 DMF .                 KB:   Drilling Measured From
 DAPD.F             11.45:   Feet Above Permanent Datum
 DATE.        05-AUG-1966:   Date Logged [DD-MMM-YYYY]
 DD  .F              5665:   Depth driller
 DL  .F              5670:   Depth logger
 BLI .F              5669:   Bottom log interval
 TLI .F              5551:   Top log interval
 CS1 .IN            10.75:   Casing size
 CBD1.    10.75" @ 567.9':   Casing driller 1
 CBL1.F               569:   Casing logger 1
 BS1 .IN           8.9375:   Bit size
 BSD1.F              5665:   Depth drilled with bit1
 DFT .            DEXTRID:   Type fluid in hole
 DFD .                9.4:   Density
 DFV .                 59:   Viscosity
 DFPH.                7.5:   pH
 DFL .                8.2:   Fluid loss
 MSS .           FLOWLINE:   Source of sample
 RMS .OHMM           1.80:   Rm
 MST .F                72:   Rm Meas. temp.
 RMF .OHMM           1.00:   Rmf
 MFST.F                82:   Rmf Meas. temp.
 MFSS.               MEAS:   Source Rmf.
 BHT .F               163:   BHT.
 TCS .HRS               3:   Time Circ. stopped
 MRT .F               163:   Maximum recorded temp.
 LUN .               4507:   Logging unit number
 LUL .               CSPR:   Logging unit location
 ENGI.            MANGOLD:   Recorded By
 ORIG.      2.5" 5" PRINT:   Origin of data
 UWI .     49025097110000:   Unique Well ID
 DICO. A2D TECHNOLOGIES, INC.:   Digitizing Company
~OTHER INFORMATION
~A    DEPT      GRD      CALD       CORR       RHOB        SPR        ASN        ILD   
# ...
 3549.0000    67.8056    12.4325     0.1267     2.4377   -36.3378     8.3741     5.9615
 3549.5000    68.2591    12.3730     0.1357     2.4575   -36.3291     8.6133     6.1151
 3550.0000    69.1617    12.2537     0.1402     2.4589   -36.4732     8.7630     6.1940
 3550.5000    69.6153    11.9498     0.1284     2.4376   -36.6138     8.8848     6.2731
 3551.0000    70.9356    11.6730     0.1018     2.4242   -36.7561     8.9300     6.2783
 3551.5000    80.1420    11.3849     0.0885     2.4187   -36.8984     9.0063     6.2633
 3552.0000    81.8384    11.0027     0.0871     2.4212   -36.8823     9.0521     6.2812
 3552.5000    82.2076    10.7341     0.0996     2.4315   -36.7327     8.8154     6.4440
 3553.0000    80.2372    10.4218     0.1345     2.4732   -36.5761     8.7867     6.5995
 3553.5000    76.8271    10.1658     0.1717     2.5112   -36.4195     9.1164     6.7538
 3554.0000    78.6202    10.0758     0.1847     2.5198   -36.4123     9.4011     6.9827
 3554.5000    84.1400    10.2503     0.1869     2.5175   -36.4051    10.0732     6.8385
 3555.0000    86.9016    10.2413     0.1622     2.5097   -36.2467    10.5217     6.4704
 3555.5000    88.0734    10.1505     0.1509     2.4758   -36.2395    10.6722     5.6545
 3556.0000    87.1254    10.0597     0.1500     2.4475   -36.2323    10.7482     4.8191
 3556.5000    85.3886     9.9870     0.1615     2.4311   -36.0757     9.9985     4.1733
 3557.0000    84.9431     9.9872     0.1816     2.4072   -35.9190     8.1582     4.1037
 3557.5000    89.8884    10.0470     0.2134     2.3519   -35.9082     6.2372     4.1834
 3558.0000    97.0784    10.2263     0.2337     2.2847   -35.7452     5.9704     4.1881
 3558.5000   119.0888    10.6443     0.2513     2.2833   -35.5968     6.1805     4.1934
 3559.0000   126.7279    11.4206     0.2469     2.2878   -35.4401     6.3012     4.2009
 3559.5000   116.8521    11.5269     0.2054     2.2983   -35.4335     6.9584     4.4286
 3560.0000    98.4433    11.0627     0.1714     2.3148   -35.2763     8.8377     4.8814
 3560.5000    93.9566    10.5852     0.1833     2.3547   -35.2691    10.2948     5.6327
 3561.0000    94.9410    10.5862     0.1923     2.4021   -35.4114     9.9129     6.3094
 3561.5000    98.5876    10.6452     0.1731     2.4270   -35.5531     9.4669     6.5383
 3562.0000   100.8152    10.5749     0.1598     2.3979   -35.6960     9.1103     6.5434
 3562.5000   102.0584    10.3072     0.1480     2.3781   -35.6876     8.8860     6.4708
 3563.0000   102.5120    10.2576     0.1406     2.3704   -35.8294     8.7402     6.4042
 3563.5000   102.6332    10.3330     0.1414     2.3799   -35.6726     8.7710     6.3346
 3564.0000   103.5569    10.4072     0.1621     2.4103   -35.6638     8.9510     6.2650
 3564.5000   104.4807    10.4372     0.1720     2.4249   -35.6566     9.1011     6.1967
 3565.0000   105.8533    10.3836     0.1144     2.4242   -35.4999     9.1469     6.1271
 3565.5000   107.2260    10.2749     0.1010     2.3677   -35.4933     9.1181     5.9829
 3566.0000   108.8205    10.1841     0.1276     2.3796   -35.4856     9.0745     5.9133
 3566.5000   110.9057    10.1691     0.1528     2.4229   -35.4783     8.8970     5.7690
 3567.0000   113.4040    10.1693     0.1770     2.4295   -35.4709     8.4063     5.6995
 3567.5000   115.1281    10.2291     0.1784     2.4022   -35.4623     8.1242     5.7057
 3568.0000   116.4797    10.2890     0.1752     2.3708   -35.3056     8.0952     5.5603
 3568.5000   117.3823    10.3190     0.1838     2.3350   -35.2990     8.3201     5.4172
 3569.0000   115.5903    10.3788     0.1815     2.3231   -35.2913     8.6342     5.2707
 3569.5000   110.2055    10.3790     0.1828     2.3515   -35.2840     8.7698     5.1289
 3570.0000   103.4734    10.4090     0.1966     2.3650   -35.1097     8.6064     5.4337
 3570.5000   105.7232    10.4390     0.2204     2.3681   -34.9690     7.9968     5.6626
 3571.0000   112.0151    10.5287     0.2309     2.3352   -34.8124     7.9231     5.5930
 3571.5000   114.7141    10.7699     0.2369     2.3099   -34.8052     8.2523     5.3729
 3572.0000   110.9319    11.4638     0.2325     2.3084   -34.7980     8.4472     5.2299
 3572.5000    98.9601    11.7231     0.1717     2.3299   -34.7907     9.4169     5.4714
 3573.0000    90.3441    10.4337     0.1436     2.3577   -35.0809     9.7608     5.9875
 3573.5000    91.3630    10.0800     0.1615     2.3874   -35.0747     9.3352     6.1696
 3574.0000    96.6096    10.0050     0.2112     2.3923   -35.2178     8.9138     6.4454
 3574.5000   104.1604    10.0820     0.2196     2.3238   -35.2088     8.9595     6.7489
 3575.0000   111.4513    10.1717     0.1596     2.3023   -35.2016     9.3928     7.2017
 3575.5000   114.4714    10.5002     0.0992     2.3196   -35.1943    10.2435     7.5052
 3576.0000   113.2219    10.4705     0.0474     2.3775   -35.1855    10.8407     7.7443
 3576.5000   105.8982    10.2020     0.0386     2.4273   -35.1794    11.7359     8.0390
 3577.0000    96.7275    10.1125     0.0611     2.4710   -35.1719    12.6312     8.2679
 3577.5000    93.2111    10.1724     0.0523     2.4793   -35.1640    12.5578     8.5714
 3578.0000    95.4619    10.2024     0.0672     2.4696   -35.1568    12.0222     8.8003
 3578.5000   100.4064    10.2324     0.0677     2.4414   -35.1495    11.4425     9.0293
 3579.0000   106.2491    10.2313     0.0629     2.4196   -35.1420    11.2200     9.1836
 3579.5000   109.8464    10.2028     0.0689     2.4317   -35.1345    11.2956     9.1139
 3580.0000   110.3891    10.2030     0.1091     2.4322   -35.1263    11.5947     8.5232
 3580.5000   103.1186    10.2031     0.1240     2.4108   -35.1192    12.3410     6.3641
 3581.0000    96.8356    10.2033     0.1003     2.3840   -35.1121    12.5731     5.1751
 3581.5000    92.7980    10.1953     0.0440     2.3436   -35.1046    11.2728     4.4339
 3582.0000    91.4551    10.1737     0.0322     2.2839   -35.0972     9.9464     3.4687
 3582.5000    94.8402    10.1739     0.0451     2.2219   -35.0887     6.4456     3.0881
 3583.0000   106.4096    10.1740     0.0638     2.1474   -35.0815     5.8214     2.5845
 3583.5000   118.5314    10.2452     0.0973     1.9537   -35.0747     4.8244     2.3644
 3584.0000   126.2257    10.9878     0.1287     2.0127   -35.0672     3.0076     2.2949
 3584.5000   131.3937    12.3365     0.1511     2.1003   -35.0598     2.9491     2.3758
 3585.0000   135.1954    11.8164     0.1724     2.2573   -35.0510     4.1133     2.4554
 3585.5000   139.3466    11.3091     0.1991     2.2636   -35.0439     4.6811     2.6097
 3586.0000   142.2387    12.5033     0.2151     2.2409   -35.0367     5.0840     2.7740
 3586.5000   137.6223    12.6826     0.1920     2.2335   -35.0299     5.9958     3.2181
 3587.0000   128.7804    12.2051     0.1428     2.2709   -35.0223     8.5308     3.8201
 3587.5000   107.8967    11.1306     0.1089     2.3367   -35.0335    10.8273     5.0192
 3588.0000    91.1801    10.7725     0.0748     2.3831   -35.1575    12.4681     7.0391
 3588.5000    90.4327    10.5339     0.0510     2.3647   -35.1839    13.2892     9.0591
 3589.0000    91.5188    10.5042     0.0763     2.3578   -35.3386    13.4396     9.8104
 3589.5000    92.4213    10.5043     0.1090     2.3901   -35.4349    13.2179     9.5928
 3590.0000    93.3239    10.5343     0.1016     2.3982   -35.4260    12.7722     9.2993
 3590.5000    99.1666    10.5345     0.0750     2.3573   -35.2691    12.3546     8.9312
 3591.0000   105.4585    10.5645     0.1092     2.3355   -35.2603    12.0955     8.5631
 3591.5000   109.0557    10.6007     0.1582     2.3460   -35.2532    12.0290     8.1204
 3592.0000   102.3235    10.6543     0.1791     2.3162   -35.0965    11.9677     7.7523
 3592.5000    96.0405    10.6933     0.1643     2.3257   -35.0893    11.7548     7.4589
 3593.0000    96.9682    10.7545     0.1525     2.3240   -34.9327    11.4674     7.0920
 3593.5000   100.1722    10.7859     0.1546     2.3179   -34.7542    11.2572     6.7985
 3594.0000   103.3355    10.8472     0.1712     2.3119   -34.4681    11.1907     6.5051
