~VERSION INFORMATION
 VERS.                2.0:   CWLS LOG ASCII STANDARD - VERSION 2.0
 WRAP.                 NO:   ONE LINE PER DEPTH STEP
~WELL INFORMATION
#MNEM.UNIT      DATA TYPE    INFORMATION
#----------   ------------   ------------------------------
 STRT.F            0.0000:   START DEPTH
 STOP.F         5786.0000:   STOP DEPTH
 STEP.F            0.5000:   STEP LENGTH
 NULL.          -999.2500:   NO VALUE
 COMP. U.S. DEPARTMENT OF ENERGY:   COMPANY
 WELL. DEPARTMENT "X" #2-3:   WELL
 FLD .           N P R #3:   FIELD
 LOC .       S3 T38N R78W:   LOCATION
 CNTY.            NATRONA:   COUNTY
 STAT.            WYOMING:   STATE
 CTRY. UNITED STATES OF AMERICA:   COUNTRY
 SRVC.       BAKER HUHGES:   SERVICE COMPANY
 DATE.        14-JUL-2002:   LOGDATE
 API .     49025230540000:   API NUMBER
~CURVE INFORMATION
#MNEM.UNIT       API CODE    CURVE DESCRIPTION
#----------   ------------   ------------------------------
 DEPT.F                  :   
 TEND.LBS    45 635 01 00:   TENSION FROM DENSITY LOG
 CALD.IN     45 280 60 00:   CALIPER FROM DENSITY LOG
 ZCOR.G/C3   45 356 01 00:   DENSITY CORRECTION
 PE  .B/E    45 358 01 00:   PHOTOELECTRIC FACTOR
 ZDEN.G/C3   45 350 01 00:   BULK DENSITY
 CNCF.DEC    42 890 03 00:   NEUTRON POROSITY
 TENS.LBS    60 635 01 00:   TENSION FROM SONIC
 DT  .US/F   60 520 00 00:   DELTA TIME
 RD  .OHMM   11 220 10 00:   RESISTIVITY DEEP
 TENR.LBS    11 635 01 00:   TENSION FROM RES. LOG
 RS  .OHMM   11 220 09 00:   RESISTIVITY SHALLOW
 GRR .GAPI   11 310 01 00:   GAMMA RAY FROM RES.
 RMLL.OHMM   11 270 04 00:   MICRO LATEROLOG
 SPR .MV     11 010 01 00:   SPONTANEOUS POTENTIAL FROM RES.
~PARAMETER INFORMATION
#MNEM.UNIT          VALUE    DESCRIPTION
#----------   ------------   ------------------------------
 EKB .F         5164.7000:   Kelly bushing
 EGL .F         5154.7000:   Ground level
 EDF .F         5163.7000:   Drilling floor
 TD  .F         5773.0000:   Total depth
 DATE.        14-JUL-2002:   Date logged
 CLNT.            A2DTECH:   Client Code
 SL  . 838' FNL & 2128' FWL:   Surface Location
 PD  .                 GL:   Permanent Datum
 EPD .F            5154.7:   Elevation Permanent Datum
 LMF .                 KB:   Log Measured From
 DMF .                 KB:   Drilling Measured From
 DD  .F              5770:   Depth driller
 DL  .F              5773:   Depth logger
 BLI .F              5770:   Bottom log interval
 CS1 .IN            9.625:   Casing size
 CBD1.       9.625 @ 578':   Casing driller 1
 CBL1.F               578:   Casing logger 1
 BS1 .IN             8.75:   Bit size
 DFT .       GEL/CHEMICAL:   Type fluid in hole
 DFD .                  9:   Density
 DFV .                 45:   Viscosity
 DFPH.                8.5:   pH
 DFL .                9.6:   Fluid loss
 MSS .           FLOWLINE:   Source of sample
 RMS .OHMM          0.568:   Rm
 MST .F                91:   Rm Meas. temp.
 RMF .OHMM          0.490:   Rmf
 MFST.F                92:   Rmf Meas. temp.
 RMC .OHMM          1.072:   Rmc
 MCST.F                90:   Rmc Meas. temp.
 MFSS.               MEAS:   Source Rmf.
 RMB .OHMM          0.291:   Rm. at BHT
 BHT .F               184:   BHT.
 TCS .HRS               8:   Time Circ. stopped
 MRT .F               184:   Maximum recorded temp.
 LUN .            HL-6530:   Logging unit number
 LUL .             CASPER:   Logging unit location
 ENGI.           VERCIMAK:   Recorded By
 WITN.              HARDY:   Witnessed by
 ORIG.           5" PRINT:   Origin of data
 UWI .     49025230540000:   Unique Well ID
 DICO. A2D TECHNOLOGIES, INC.:   Digitizing Company
~OTHER INFORMATION
~A    DEPT    TEND       CALD       ZCOR         PE       ZDEN       CNCF       TENS         DT         RD       TENR         RS         GRR      RMLL        SPR   
# ...
 2278.5000   -36.5230    10.1840     0.0460     3.9710     2.4670     0.3240   -54.1040    90.5510     7.2780    -9.5940     9.9920   125.3600  -999.2500    -2.3450
 2279.0000   -38.6260    10.1900     0.0450     3.9610     2.4690     0.3330   -52.6990    91.8750     7.3770   -10.6880     9.7950   126.5760  -999.2500    -2.3440
 2279.5000   -40.7280    10.1970     0.0490     3.9520     2.4660     0.3220   -51.2930    93.8340     7.0690   -11.7810     9.3990   127.6080  -999.2500    -2.3290
 2280.0000   -42.8300    10.2030     0.0540     3.9580     2.4620     0.3130   -49.8870    94.4350     6.7180   -12.8740     9.0020   126.7360  -999.2500    -2.2610
 2280.5000   -45.0000    10.2100     0.0630     3.9680     2.4640     0.3070   -48.4820    93.7340     6.6680   -13.9680     8.7050   124.5090  -999.2500    -2.1860
 2281.0000   -33.9690    10.2160     0.0560     3.9780     2.4750     0.3030   -47.0760    92.0390     6.7680   -15.0610     8.9260   123.6360  -999.2500    -1.9800
 2281.5000   -22.5690    10.2230     0.0530     3.9880     2.4890     0.3030   -45.6710    90.0660     6.9250   -15.4690     9.1460   124.5280  -999.2500    -1.9160
 2282.0000   -15.0000    10.2290     0.0450     3.9670     2.5000     0.3120   -44.1430    88.5470     7.1600   -15.4690     9.3650   124.7100  -999.2500    -1.8960
 2282.5000   -17.4620    10.2360     0.0450     3.9370     2.5030     0.3210   -42.2070    88.4510     7.0940   -15.4690     9.5430   124.4780  -999.2500    -1.8740
 2283.0000   -25.0620    10.2420     0.0450     3.9100     2.5020     0.3310   -40.2710    88.3470     6.8850   -15.4690     9.1950   124.8890  -999.2500    -1.8510
 2283.5000   -32.6620    10.2490     0.0450     3.9360     2.4990     0.3420   -38.3350    87.4450     6.6680   -15.4690     8.8440   124.8170  -999.2500    -1.8280
 2284.0000   -35.0000    10.2550     0.0470     3.9700     2.4810     0.3520   -36.3990    87.8640     6.5190   -15.4690     8.5460   122.6740  -999.2500    -1.8050
 2284.5000   -43.0400    10.2610     0.0890     3.9700     2.4590     0.3560   -34.4630    91.2530     6.3360   -15.4690     8.3400   118.6290  -999.2500    -1.7820
 2285.0000   -50.4500    10.2670     0.1290     3.9700     2.4460     0.3280   -32.5270    91.5950     6.1380   -15.4690     8.1910   117.7950  -999.2500    -1.7590
 2285.5000   -57.8600    10.2730     0.1070     3.9700     2.4520     0.3080   -30.5910    92.0220     6.2740   -15.4690     8.0880   121.9860  -999.2500    -1.7230
 2286.0000   -65.0000    10.2790     0.0740     3.9720     2.4750     0.3000   -28.6550    91.9660     6.4630   -15.4690     8.1480   124.1230  -999.2500    -1.6480
 2286.5000   -59.3270    10.2850     0.0510     3.8160     2.5070     0.2990   -26.7190    90.2220     6.6530     0.1500     8.3500   124.6940  -999.2500    -1.5740
 2287.0000   -50.3450    10.2910     0.0490     3.5770     2.5220     0.2930   -24.7840    88.9480     6.8540     3.6930     8.5530   123.4440  -999.2500    -1.5010
 2287.5000   -45.0000    10.2970     0.0660     3.4050     2.5240     0.2820   -26.1800    89.5490     6.5530     0.7110     8.7050   119.4310  -999.2500    -1.4280
 2288.0000   -46.3860    10.3010     0.0840     3.2640     2.5170     0.2890   -28.5660    89.6490     6.2050    -2.2710     8.0060   115.7930  -999.2500    -1.3550
 2288.5000   -49.9140    10.3010     0.0920     3.3400     2.5100     0.3020   -30.9530    90.0240     5.8560    -5.2530     7.4160   118.0800  -999.2500    -1.2640
 2289.0000   -53.4430    10.3010     0.0930     3.5040     2.5140     0.3090   -33.3390    90.5370     5.4970    -8.2350     7.2560   122.2810  -999.2500    -1.1460
 2289.5000   -53.8000    10.3010     0.0700     3.6520     2.5230     0.3140   -35.7250    90.5200     5.5320   -11.2170     7.0610   121.7740  -999.2500    -1.1120
 2290.0000   -51.6520    10.3010     0.0460     3.7680     2.5280     0.3090   -38.1110    89.9220     5.6170   -14.1990     7.1110   116.4800  -999.2500    -1.0760
 2290.5000   -49.5040    10.3010     0.0380     3.8830     2.5220     0.2970   -40.4970    89.3490     5.7030   -18.4420     7.2400   111.0670  -999.2500    -1.0400
 2291.0000   -47.3570    10.3010     0.0320     3.9500     2.5200     0.2950   -42.8830    89.1810     5.7890   -23.6210     7.4070   105.7700  -999.2500    -1.0030
 2291.5000   -45.0000    10.3010     0.0270     3.8650     2.5270     0.2970   -45.1020    88.8020     5.8630   -28.8000     7.5840   105.3480  -999.2500    -0.9660
 2292.0000   -45.0000    10.3000     0.0410     3.7740     2.4970     0.3060   -46.9030    88.2890     5.5580   -33.9790     7.1860   108.2990  -999.2500    -0.9180
 2292.5000   -45.0000    10.3470     0.0890     3.7630     2.4410     0.3210   -48.7030    91.4540     4.9580   -31.9590     6.4390   110.3380  -999.2500    -0.8350
 2293.0000   -41.4740    10.4070     0.1660     3.8170     2.3750     0.3320   -50.5030    96.0320     4.3570   -25.2500     5.6910   110.5990  -999.2500    -0.7550
 2293.5000   -28.4740    10.4630     0.1980     3.9080     2.3430     0.3180   -52.3030    99.8700     3.7560   -18.5400     4.9430   110.7880  -999.2500    -0.6750
 2294.0000   -15.4740    10.3350     0.1370     3.8690     2.3990     0.3050   -54.1030    99.1000     3.4090   -11.8310     4.5320   110.4790  -999.2500    -0.5950
 2294.5000    -2.4740    10.1580     0.0700     3.7890     2.4600     0.3010   -55.9030    94.9540     3.9120    -5.4890     4.4500   107.6100  -999.2500    -0.5150
 2295.0000     5.0000     9.9820     0.0440     3.7160     2.4910     0.3070   -57.7030    90.2340     4.5320   -11.7760     5.8050   104.3590  -999.2500    -0.4350
 2295.5000     5.0000     9.8600     0.0430     3.6450     2.5120     0.3140   -59.5030    87.2440     5.3390   -19.1570     6.8540   101.1880  -999.2500    -0.3530
 2296.0000     5.0000     9.8560     0.0440     3.5970     2.5210     0.3190   -61.3030    89.0070     5.9710   -26.5370     7.5840   100.8580  -999.2500    -0.3640
 2296.5000     5.0000     9.8500     0.0440     3.6010     2.5300     0.3170   -63.1030    90.3350     5.9170   -33.9170     7.2430   102.5590  -999.2500    -0.3920
 2297.0000     5.0000     9.8450     0.0440     3.6820     2.5390     0.3090   -64.4050    90.2170     5.2920   -35.4290     6.8890   104.2880  -999.2500    -0.4200
 2297.5000     5.0000     9.8400     0.0450     3.7680     2.5380     0.2990   -62.9350    90.0990     5.0610   -35.4290     6.5460   104.3470  -999.2500    -0.4490
 2298.0000     5.0000     9.8340     0.0450     3.8650     2.5260     0.2880   -61.4640    89.7130     5.1080   -35.4290     6.4860   100.7840  -999.2500    -0.4770
 2298.5000     5.0000     9.8290     0.0470     3.9650     2.5140     0.2740   -59.9940    88.8580     5.6860   -24.2300     7.2410    97.5600  -999.2500    -0.5050
 2299.0000     5.0000     9.8230     0.0500     4.0190     2.5050     0.2700   -58.5230    88.0030     6.4560   -20.7160     7.8920    94.8560  -999.2500    -0.5330
 2299.5000     5.0000     9.8180     0.0450     4.0600     2.5020     0.2700   -57.0530    87.5450     6.8540   -17.2010     8.6250    93.2390  -999.2500    -0.5610
 2300.0000     5.0000     9.8130     0.0420     4.1010     2.5040     0.2690   -55.5820    87.8190     6.9810   -17.6040     8.4150    93.5550  -999.2500    -0.5900
 2300.5000     5.0000     9.8070     0.0590     4.1410     2.5160     0.2680   -54.1120    88.2200     6.6860   -24.6190     8.0010    94.0770  -999.2500    -0.6180
 2301.0000     5.0000     9.8030     0.0720     4.1190     2.5290     0.2730   -52.6410    88.6210     6.2610   -31.6350     7.5870    96.3300  -999.2500    -0.6460
 2301.5000     5.0000     9.8100     0.0600     4.0740     2.5350     0.2820   -51.1710    88.9480     5.5990   -38.6500     7.1730    98.3690  -999.2500    -0.6740
 2302.0000     5.0000     9.8170     0.0420     4.0340     2.5130     0.2880   -49.7000    88.9480     5.7030   -45.4090     7.1110    97.6770  -999.2500    -0.7020
 2302.5000     5.0000     9.8240     0.0380     4.1210     2.4890     0.2930   -48.2300    88.4940     6.4000   -32.6850     7.5970    96.6200  -999.2500    -0.7290
