~VERSION INFORMATION
 VERS.                2.0:   CWLS LOG ASCII STANDARD - VERSION 2.0
 WRAP.                 NO:   ONE LINE PER DEPTH STEP
~WELL INFORMATION
#MNEM.UNIT      DATA TYPE    INFORMATION
#----------   ------------   ------------------------------
 STRT.F          200.0000:   START DEPTH
 STOP.F         3209.0000:   STOP DEPTH
 STEP.F            0.5000:   STEP LENGTH
 NULL.          -999.2500:   NO VALUE
 COMP.    FENIX & SCISSON:   COMPANY
 WELL. FENIX & SCISSON "AX" #88-3:   WELL
 FLD .             NPR #3:   FIELD
 LOC .       S3 T38N R78W:   LOCATION
 CNTY.            NATRONA:   COUNTY
 STAT.            WYOMING:   STATE
 CTRY. UNITED STATES OF AMERICA:   COUNTRY
 SRVC.              WELEX:   SERVICE COMPANY
 DATE.        27-JUL-1977:   LOGDATE
 API .     49025104060000:   API NUMBER
~CURVE INFORMATION
#MNEM.UNIT       API CODE    CURVE DESCRIPTION
#----------   ------------   ------------------------------
 DEPT.F                  :   
 CALD.IN     45 280 60 00:   CALIPER FROM DENSITY LOG
 GRD .GAPI   45 310 01 00:   GAMMA RAY FROM DENSITY LOG
 RHOB.G/C3   45 350 01 00:   BULK DENSITY
 CORR.G/C3   45 356 01 00:   DENSITY CORRECTION
 NPHI.DEC    42 890 03 00:   NEUTRON POROSITY SANDSTONE
 SPR .MV     07 010 01 00:   SPONTANEOUS POTENTIAL
 SGRD.OHMM   07 220 05 00:   GUARD LOG RESISTIVITY
 FORX.OHMM   07 000 00 00:   
~PARAMETER INFORMATION
#MNEM.UNIT          VALUE    DESCRIPTION
#----------   ------------   ------------------------------
 EKB .F         5134.0000:   Kelly bushing
 EGL .F         5124.0000:   Ground level
 EDF .F            0.0000:   Drilling floor
 TD  .F         3211.0000:   Total depth
 CLNT.            A2DTECH:   Client Code
 SL  . 230' FSL & 380' FEL:   Surface Location
 PD  .                 GL:   Permanent Datum
 EPD .F              5124:   Elevation Permanent Datum
 LMF .                 KB:   Log Measured From
 DMF .                 KB:   Drilling Measured From
 DAPD.F                10:   Feet Above Permanent Datum
 DATE.        27-JUL-1977:   Date Logged [DD-MMM-YYYY]
 DD  .F              3200:   Depth driller
 DL  .F              3211:   Depth logger
 BLI .F              3210:   Bottom log interval
 TLI .F               200:   Top log interval
 CS1 .IN            8.625:   Casing size
 CBD1.      8.625" @ 218':   Casing driller 1
 CBL1.F               218:   Casing logger 1
 BS1 .IN            7.875:   Bit size
 BSD1.F              3200:   Depth drilled with bit1
 DFT .            KCL MUD:   Type fluid in hole
 DFD .                9.2:   Density
 DFV .                 36:   Viscosity
 DFPH.                9.5:   pH
 DFL .                9.6:   Fluid loss
 MSS .           FLOWLINE:   Source of sample
 RMS .OHMM           0.61:   Rm
 MST .F                85:   Rm Meas. temp.
 RMF .OHMM           0.53:   Rmf
 MFST.F                85:   Rmf Meas. temp.
 MFSS.               FANN:   Source Rmf.
 RMC .OHMM           0.48:   Rmc
 MCST.F                85:   Rmc Meas. temp.
 MCSS.                KIT:   Source Rmc.
 RMB .OHMM           0.42:   Rm. at BHT
 BHT .F               122:   BHT.
 TCS .HRS             2.5:   Time Circ. stopped
 MRT .F               122:   Maximum recorded temp.
 LUN .               8611:   Logging unit number
 LUL .             CASPER:   Logging unit location
 ENGI.            C. DOAK:   Recorded By
 WITN.      E. HARRINGTON:   Witnessed by
 ORIG.      2.5" 5" PRINT:   Origin of data
 UWI .     49025104060000:   Unique Well ID
 DICO. A2D TECHNOLOGIES, INC.:   Digitizing Company
~OTHER INFORMATION
~A   DEPT       CALD       GRD        RHOB      CORR        NPHI       SPR      SGRD         FORX 
# ...
 2751.5000     8.9611    96.5693     2.5355     0.0594     0.2846   -69.6078    18.9704     9.8461
 2752.0000     8.9499    95.7169     2.5338     0.0582     0.2837   -69.6082    20.7110    11.3113
 2752.5000     8.9517    93.3187     2.5334     0.0556     0.2765   -69.6061    21.8127    11.2676
 2753.0000     8.9536    91.3030     2.5216     0.0505     0.2656   -69.6254    24.1160    11.2703
 2753.5000     8.9557    90.1998     2.5122     0.0456     0.2592   -69.6603    19.2744    11.0608
 2754.0000     8.9576    92.6241     2.5091     0.0433     0.2585   -69.6929    18.2198    10.6387
 2754.5000     8.9594    95.8894     2.5211     0.0445     0.2585   -69.7252    18.8674     8.9974
 2755.0000     8.9463    98.0459     2.5318     0.0478     0.2603   -69.7582    17.8670     7.8049
 2755.5000     8.9484    99.2731     2.5408     0.0539     0.2679   -69.7908    13.9045     7.1797
 2756.0000     8.9504    99.6687     2.5469     0.0601     0.2833   -69.8235    12.4279     7.0858
 2756.5000     8.9523   100.0857     2.5522     0.0651     0.2892   -69.8562    15.6108     7.5210
 2757.0000     8.9542   100.2849     2.5575     0.0710     0.2880   -69.8889    16.4959     9.7115
 2757.5000     8.9562   100.3264     2.5631     0.0741     0.2844   -69.9216    16.6429     9.0711
 2758.0000     8.9584   100.3682     2.5682     0.0789     0.2803   -69.9542    13.2626     7.3891
 2758.5000     8.9676   100.9503     2.5638     0.0816     0.2767   -69.9869    12.3904     6.8080
 2759.0000     8.9768   101.9118     2.5505     0.0852     0.2743   -70.0196    13.6416     6.6253
 2759.5000     8.9788   104.3534     2.5401     0.0889     0.2737   -70.0523    15.6487     6.6269
 2760.0000     8.9807   108.2493     2.5335     0.0916     0.2744   -70.0850    12.5764     6.7195
 2760.5000     8.9975   112.5129     2.5456     0.0918     0.2772   -70.1176    11.5894     6.7209
 2761.0000     8.9994   116.9652     2.5585     0.0920     0.2904   -70.1503    12.2467     6.5407
 2761.5000     9.0014   121.9783     2.5503     0.0923     0.2980   -70.1832     8.8216     5.6278
 2762.0000     9.0033   132.4582     2.5242     0.0910     0.2973   -70.2163     9.3236     4.4605
 2762.5000     8.9996   142.5875     2.5064     0.0882     0.2971   -70.2480     9.1735     4.0538
 2763.0000     8.9923   158.6515     2.4900     0.0865     0.2976   -70.2827     7.6659     3.7865
 2763.5000     8.9943   181.2437     2.4610     0.0841     0.3020   -70.3143     4.1280     3.5824
 2764.0000     8.9961   187.5155     2.4273     0.0810     0.3074   -70.3436     2.1811     3.2988
 2764.5000     8.9834   189.6330     2.3982     0.0781     0.3133   -70.3921     1.7063     3.0751
 2765.0000     8.9851   191.4779     2.3656     0.0758     0.3216   -70.2693     1.4281     2.7785
 2765.5000     8.9873   194.7277     2.3523     0.0756     0.3284   -70.0201     1.1757     2.3938
 2766.0000     8.9891   198.0725     2.3486     0.0762     0.3349   -69.7913     1.1522     2.1771
 2766.5000     8.9910   199.8932     2.3473     0.0769     0.3400   -69.5647     1.1844     2.0205
 2767.0000     8.9929   200.5169     2.3436     0.0811     0.3467   -69.3228     1.3627     2.9314
 2767.5000     8.9948   194.9294     2.3392     0.0843     0.3526   -69.1096     1.6715     8.0237
 2768.0000     8.9971   184.8806     2.3323     0.0890     0.3573   -68.8477     2.0468     2.6411
 2768.5000     8.9987   168.0070     2.3185     0.0922     0.3647   -69.0638     1.5671     1.8974
 2769.0000     9.0006   163.2878     2.2970     0.0880     0.3764   -69.3595     0.6530     0.6081
 2769.5000     9.0029   158.6783     2.2754     0.0717     0.3948   -69.6717     2.5244     2.9244
 2770.0000     8.9896   150.9273     2.2448     0.0600     0.4043   -69.9695     5.3127     9.9688
 2770.5000     8.9916   139.6916     2.2980     0.0288     0.4048   -70.2586     5.1410     7.5117
 2771.0000     8.9935   116.5865     2.3860     0.0274     0.4036   -70.6619     5.0728     7.0327
 2771.5000     8.9805   107.7247     2.4936     0.0392     0.3924   -71.1544     5.1452     8.9665
 2772.0000     8.9675   103.6107     2.5173     0.0474     0.3794   -71.1724     5.2901     9.4212
 2772.5000     8.9550   100.6837     2.5093     0.0493     0.3598   -71.1849     5.9045     8.9811
 2773.0000     8.9522    98.0494     2.4977     0.0537     0.3597   -71.1733     6.2393     9.6427
 2773.5000     8.9139    95.6435     2.4929     0.0533     0.3687   -71.1641     6.4150    11.0591
 2774.0000     8.9084    92.8028     2.5159     0.0512     0.3716   -70.9132     6.7787    10.7627
 2774.5000     8.9030    89.5790     2.5261     0.0499     0.3694   -70.6568     8.3268    12.6862
 2775.0000     8.8898    85.8314     2.5303     0.0501     0.3407   -70.3923    25.5871    23.4897
 2775.5000     8.8814    80.9050     2.5382     0.0488     0.3082   -70.1277    29.0521    27.3929
 2776.0000     8.8643    75.1598     2.5417     0.0490     0.2989   -69.8723    23.5890    35.9172
 2776.5000     8.8596    68.6719     2.5444     0.0486     0.2610   -69.6195    23.6352    52.6999
 2777.0000     8.8532    64.5579     2.5445     0.0464     0.2281   -69.6256    30.6430    59.6196
 2777.5000     8.8549    61.2314     2.5421     0.0451     0.2082   -69.6504    31.0532    74.2290
 2778.0000     8.8422    59.8908     2.5372     0.0438     0.1968   -69.6836    29.1643    58.8330
 2778.5000     8.8442    66.4693     2.5316     0.0434     0.1887   -69.7106    22.7908    24.5088
 2779.0000     8.8461    72.3444     2.5273     0.0428     0.1857   -69.7398    18.5422    24.8516
 2779.5000     8.8480    78.8428     2.5232     0.0431     0.1893   -69.7690    16.7729    25.2113
 2780.0000     8.8648    83.8009     2.5182     0.0444     0.2144   -69.7977    14.1102    24.7524
 2780.5000     8.8669    87.6400     2.5154     0.0449     0.2224   -69.8267    13.0906    21.1006
 2781.0000     8.8686    92.1660     2.5088     0.0454     0.2196   -69.8555    12.7362    22.0690
 2781.5000     8.8768    96.5100     2.5073     0.0470     0.2139   -69.8843    12.3294    20.5518
 2782.0000     8.8877   101.4796     2.5115     0.0530     0.2105   -69.9131     8.9250    11.8831
 2782.5000     8.8921   104.1905     2.5188     0.0576     0.2134   -69.9419     6.9096    14.4732
 2783.0000     8.9061   105.8495     2.5249     0.0639     0.2235   -69.9707     7.4092    17.2021
 2783.5000     8.9154   106.3483     2.5286     0.0671     0.2300   -69.9995     7.2635    13.1123
 2784.0000     8.9248   102.8277     2.5325     0.0703     0.2418   -70.0284     6.9204    12.3376
 2784.5000     8.9416    99.5698     2.5364     0.0705     0.2442   -70.0572     7.0832    12.2252
 2785.0000     8.9587    97.8684     2.5380     0.0707     0.2441   -70.0860     7.8438    12.7692
 2785.5000     8.9606    97.6074     2.5403     0.0709     0.2423   -70.1148     8.6359    14.4363
 2786.0000     8.9775    98.8447     2.5412     0.0711     0.2387   -70.1436     8.5214    13.2213
 2786.5000     8.9939   100.5866     2.5307     0.0713     0.2357   -70.1724     8.4095    12.6654
 2787.0000     9.0109   103.4160     2.5179     0.0700     0.2338   -70.2012     8.2981    13.1170
 2787.5000     9.0126   106.6808     2.5069     0.0703     0.2321   -70.2300     7.6474    16.2060
 2788.0000     9.0294   108.5015     2.4982     0.0705     0.2316   -70.2588     5.0744     8.4353
 2788.5000     9.0352   109.4320     2.4931     0.0707     0.2353   -70.2876     4.0781     5.8486
 2789.0000     9.0514   106.5049     2.5074     0.0705     0.2438   -70.3164     4.0740     6.8001
 2789.5000     9.0655   101.7075     2.5322     0.0696     0.2568   -70.3452     4.8099    10.6842
 2790.0000     9.0817    97.1001     2.5443     0.0698     0.2707   -70.3740     5.8280    10.8336
 2790.5000     9.0837    95.3599     2.5571     0.0685     0.2715   -70.4028     6.7778    13.1241
 2791.0000     9.0862    96.8839     2.5475     0.0682     0.2689   -70.4316     6.7736    14.6456
 2791.5000     9.1053   101.4557     2.5317     0.0674     0.2629   -70.4604     6.4094    10.5475
