~VERSION INFORMATION
 VERS.                2.0:   CWLS LOG ASCII STANDARD - VERSION 2.0
 WRAP.                 NO:   ONE LINE PER DEPTH STEP
~WELL INFORMATION
#MNEM.UNIT      DATA TYPE    INFORMATION
#----------   ------------   ------------------------------
 STRT.F          200.0000:   START DEPTH
 STOP.F         3150.0000:   STOP DEPTH
 STEP.F            0.5000:   STEP LENGTH
 NULL.          -999.2500:   NO VALUE
 COMP.  FENIX AND SCISSON:   COMPANY
 WELL.  FENIX "AX" #88-10:   WELL
 FLD .              NPR 3:   FIELD
 LOC .      S10 T38N R78W:   LOCATION
 CNTY.            NATRONA:   COUNTY
 STAT.            WYOMING:   STATE
 CTRY. UNITED STATES OF AMERICA:   COUNTRY
 SRVC.              WELEX:   SERVICE COMPANY
 DATE.        13-JUN-1977:   LOGDATE
 API .     49025103780000:   API NUMBER
~CURVE INFORMATION
#MNEM.UNIT       API CODE    CURVE DESCRIPTION
#----------   ------------   ------------------------------
 DEPT.F                  :   
 CALD.IN     45 280 60 00:   CALIPER FROM DENSITY LOG
 GRD .GAPI   45 310 01 00:   GAMMA RAY FROM DENSITY LOG
 RHOB.G/C3   45 350 01 00:   BULK DENSITY
 CORR.G/C3   45 356 01 00:   DENSITY CORRECTION
 SPR .MV     07 010 01 00:   SPONTANEOUS POTENTIAL
 GURD.OHMM   07 220 05 00:   GUARD LOG RESISTIVITY
 ILD .OHMM   07 120 46 00:   INDUCTION LOG DEEP RESISTIVITY
 ILM .OHMM   07 120 44 00:   INDUCTION LOG MEDIUM RESISTIVITY
~PARAMETER INFORMATION
#MNEM.UNIT          VALUE    DESCRIPTION
#----------   ------------   ------------------------------
 EKB .F         5264.0000:   Kelly bushing
 EGL .F         5254.0000:   Ground level
 EDF .F            0.0000:   Drilling floor
 TD  .F         3160.0000:   Total depth
 DATE.        13-JUN-1977:   Date logged
 CLNT.            A2DTECH:   Client Code
 SL  . 430' FSL & 330' FEL:   Surface Location
 PD  .                 GL:   Permanent Datum
 EPD .F              5254:   Elevation Permanent Datum
 LMF .                 KB:   Log Measured From
 DMF .                 KB:   Drilling Measured From
 DAPD.F                10:   Feet Above Permanent Datum
 DD  .F              3160:   Depth driller
 DL  .F              3151:   Depth logger
 BLI .F              3149:   Bottom log interval
 CS1 .IN            8.625:   Casing size
 CBD1.      8.625" @ 208':   Casing driller 1
 BS1 .IN            7.875:   Bit size
 BSD1.F              3160:   Depth drilled with bit1
 DFT .            KCL MUD:   Type fluid in hole
 DFD .                9.1:   Density
 DFV .                 31:   Viscosity
 DFPH.                7.5:   pH
 DFL .                 20:   Fluid loss
 MSS .           FLOWLINE:   Source of sample
 RMS .OHMM            .90:   Rm
 MST .F                60:   Rm Meas. temp.
 RMF .OHMM            .53:   Rmf
 MFST.F                60:   Rmf Meas. temp.
 RMC .OHMM           1.47:   Rmc
 MCST.F                60:   Rmc Meas. temp.
 MFSS.               MEAS:   Source Rmf.
 MCSS.               MEAS:   Source Rmc.
 RMB .OHMM            .46:   Rm. at BHT
 BHT .F               116:   BHT.
 TCS .HRS               8:   Time Circ. stopped
 MRT .F               116:   Maximum recorded temp.
 LUN .               8611:   Logging unit number
 LUL .             CASPER:   Logging unit location
 ENGI.            C. DOAK:   Recorded By
 WITN.         D. RHOADES:   Witnessed by
 ORIG.           5" PRINT:   Origin of data
 UWI .     49025103780000:   Unique Well ID
 DICO. A2D TECHNOLOGIES, INC.:   Digitizing Company
~OTHER INFORMATION
~A   DEPT       CALD       GRD      RHOB       CORR        SPR       GURD        ILD        ILM   
# ...
  969.5000    10.3264    91.2799     2.4643     0.0242   -51.9990    10.9179     7.9224     8.2943
  970.0000    10.2674    91.2898     2.4623     0.0163   -51.8058    10.6174     7.7763     8.2164
  970.5000    10.2085    93.2800     2.4564     0.0104   -52.0079    10.5200     7.4936     7.9911
  971.0000    10.1694    92.8939     2.4634     0.0105   -52.2101    10.3258     7.4232     8.1797
  971.5000    10.1501    92.9038     2.4664     0.0105   -52.4122    10.4183     7.3536     8.1042
  972.0000    10.2100    93.3098     2.4684     0.0106   -52.6143    10.5112     7.3521     7.8388
  972.5000    10.2105    94.1118     2.4735     0.0226   -52.6188    10.3176     7.3503     7.8380
  973.0000    10.2110    94.9139     2.4805     0.0187   -52.6233    10.3151     7.2792     7.8361
  973.5000    10.2113    97.3002     2.4795     0.0187   -52.6287    10.4086     7.2782     7.8341
  974.0000    10.1921    97.7062     2.4745     0.0188   -52.8309    10.6957     7.2764     7.8326
  974.5000    10.1729    97.7161     2.4746     0.0189   -53.0331    10.6925     7.2750     7.9025
  975.0000    10.1536    97.7260     2.4716     0.0249   -52.6421    10.4956     7.2735     7.9010
  975.5000    10.1148    97.7359     2.4597     0.0309   -52.4489    10.2083     7.2710     7.8983
  976.0000    10.0952    97.7458     2.4557     0.0390   -52.4534    10.1132     7.2693     7.8963
  976.5000    10.0561    98.1518     2.4518     0.0470   -52.6556    10.2038     7.2675     7.8948
  977.0000    10.0368    98.1617     2.4428     0.0451   -53.0556    10.4842     7.2657     7.8207
  977.5000    10.0373    98.1717     2.4269     0.0372   -52.6646    10.1983     7.2639     7.6063
  978.0000    10.0378    98.1816     2.4101     0.0173   -52.0758    10.1958     7.2621     7.6044
  978.5000    10.0382    98.1915     2.4091     0.0094   -52.0803    10.1002     7.2604     8.0033
  979.0000    10.0385    98.2014     2.4300    -0.0025   -52.0848    10.2846     7.2586     8.0013
  979.5000    10.0590    97.8152     2.4490    -0.0064   -51.8915    10.2821     7.2568     7.9994
  980.0000    10.0595    97.0330     2.4520    -0.0064   -52.0937    10.4698     7.2550     7.9975
  980.5000    10.0402    97.0429     2.4570    -0.0063   -52.0973    10.2770     7.2533     7.9956
  981.0000    10.0209    94.2803     2.4570    -0.0063   -51.9040    10.2745     7.2515     7.9936
  981.5000    10.0214    93.1020     2.4581    -0.0022   -52.5036    10.1782     7.2497     7.9917
  982.0000    10.0219    93.1119     2.4601    -0.0022   -52.3094    10.2694     7.2479     7.9898
  982.5000    10.0422    92.3297     2.4661    -0.0021   -52.5117    10.2664     7.2462     7.9879
  983.0000    10.0031    92.3396     2.4671    -0.0020   -52.3183    10.2638     7.2444     7.9860
  983.5000    10.0633    92.7456     2.4651    -0.0020   -52.3237    10.3558     7.2426     8.2357
  984.0000    10.0645    93.1516     2.4652    -0.0019   -52.5260    10.5449     7.2405     8.2353
  984.5000    10.0658    93.9536     2.4622    -0.0019   -52.3327    10.7368     7.2387     8.3092
  985.0000    10.0670    95.1537     2.4573    -0.0058   -52.3372    10.7347     7.2369     8.4608
  985.5000    10.0682    95.9538     2.4513    -0.0137   -52.5395    10.2512     7.2352     8.4587
  986.0000    10.0695    96.7559     2.4543    -0.0057   -52.5440    10.2487     7.2334     8.5346
  986.5000    10.0707    97.1619     2.4564    -0.0056   -52.1528    10.3405     7.2316     8.3772
  987.0000    10.0720    96.7757     2.4574    -0.0055   -52.1572    10.8229     7.2299     8.1480
  987.5000    10.0732    95.2013     2.4584    -0.0055   -52.5574    10.3354     7.2281     8.0711
  988.0000    10.0744    94.8152     2.4515    -0.0054   -52.1662     9.8699     7.2263     8.2937
  988.5000    10.0757    93.6369     2.4515    -0.0034   -52.1707     9.0860     7.2248     8.6826
  989.0000    10.0769    92.8546     2.4535    -0.0033   -52.3730    10.2335     7.4936     9.0878
  989.5000    10.0782    93.6567     2.4595    -0.0032   -52.1814    11.7393     7.7000     9.3398
  990.0000    10.0794    95.2509     2.4685    -0.0012   -51.7874    11.8444     7.9860     9.5110
  990.5000    10.0807    93.2804     2.4755     0.0009   -51.9925    11.4151     8.2059     9.3347
  991.0000    10.0819    92.8943     2.4845     0.0029   -51.7972    11.8386     8.2039     9.6821
  991.5000    10.0831    93.3003     2.4905     0.0050   -51.9996    12.6201     8.2774     9.7695
  992.0000    10.0844    93.3102     2.4955     0.0050   -52.2020    12.7332     8.4289     9.9476
  992.5000    10.0856    93.7162     2.4956     0.0051   -52.0086    12.6139     8.5828    10.0364
  993.0000    10.0869    93.3300     2.4876     0.0051   -52.2118    12.8441     8.8195    10.0334
  993.5000    10.0881    92.5478     2.4757     0.0052   -52.4142    13.1990     8.8173    10.0319
  994.0000    10.0894    92.1616     2.4678     0.0053   -52.6167    13.1957     8.8152    10.1210
  994.5000    10.0906    90.9833     2.4529     0.0053   -52.2253    12.4864     8.8130    10.1190
  995.0000    10.0918    90.2011     2.4519     0.0054   -51.4380    12.4833     8.8108    10.1170
  995.5000    10.0931    90.2110     2.4599     0.0015   -51.4424    12.5951     8.8087    10.1140
  996.0000    10.0943    88.6366     2.4689     0.0035   -51.0501    12.5920     8.8065    10.1115
  996.5000    10.0959    90.2308     2.4908     0.0095   -51.4513    12.7048     8.8044    10.1085
  997.0000    10.0763    91.0329     2.4909     0.0136   -51.6538    12.7017     8.8022    10.1070
  997.5000    10.1703    91.4388     2.4859     0.0136   -51.6582    12.6986     8.8000    10.1035
  998.0000    10.1760    92.2409     2.4809     0.0097   -51.8607    12.8123     8.7979    10.1010
  998.5000    10.2224    91.8547     2.4680     0.0078   -51.6672    12.4611     8.7957    10.0062
  999.0000    10.2687    92.2607     2.4551     0.0059   -51.6716    12.3443     8.7935     9.9128
  999.5000    10.3151    92.6667     2.4422     0.0039   -51.6761    12.3413     8.7914     9.9108
 1000.0000    10.3566    92.6766     2.4452     0.0040   -51.8776    12.3382     8.7892     9.6565
 1000.5000    10.3301    93.7211     2.4491     0.0025   -51.8427    12.3350     8.3173     9.6538
 1001.0000    10.2994    95.4632     2.4530     0.0021   -52.0908    12.4439     8.2402     9.2250
 1001.5000    10.2686    97.8465     2.4562     0.0021   -52.2961    12.2139     8.3094     9.1383
 1002.0000    10.2378    98.6455     2.4622     0.0041   -52.6994    11.6630     8.2320     9.0546
 1002.5000    10.2071    97.8604     2.4642     0.0062   -52.7067    11.5529     8.1548     8.9712
 1003.0000    10.1805    97.8673     2.4652     0.0082   -52.5161    11.3394     7.9301     8.8552
 1003.5000    10.1806    97.4782     2.4683     0.0162   -52.3254    11.1299     7.9280     8.8535
 1004.0000    10.2148    97.4852     2.4825     0.0262   -52.1348    10.7237     7.8537     8.8512
 1004.5000    10.2491    97.4922     2.4982     0.0342   -52.1422    10.7223     7.7081     8.8489
 1005.0000    10.2833    97.4991     2.5042     0.0362   -52.1495    10.7189     7.6358     8.8461
 1005.5000    10.3175    97.9021     2.5082     0.0423   -52.5527    11.1156     7.4258     8.8421
 1006.0000    10.3410    97.9090     2.5032     0.0503   -52.7579    11.4219     7.4234     8.8393
 1006.5000    10.3018   100.6880     2.4972     0.0503   -52.9646    10.8072     7.5588     8.7563
 1007.0000    10.3419   101.0910     2.4843     0.0463   -52.7755    10.8038     7.5559     8.9151
 1007.5000    10.3421   101.0965     2.4754     0.0424   -52.9792    10.8984     7.5535     9.1612
 1008.0000    10.2632   101.1048     2.4754     0.0424   -53.1844    11.0979     7.6207     8.9916
 1008.5000    10.1843   100.3198     2.4754     0.0325   -52.9938    11.1965     7.6889     8.9066
 1009.0000    10.1452    98.7427     2.4744     0.0266   -53.3969    10.9896     7.8286     8.9043
 1009.5000    10.1059    98.3537     2.4685     0.0226   -53.6021    10.7858     7.8982     8.9009
