~VERSION INFORMATION
 VERS.                2.0:   CWLS LOG ASCII STANDARD - VERSION 2.0
 WRAP.                 NO:   ONE LINE PER DEPTH STEP
~WELL INFORMATION
#MNEM.UNIT      DATA TYPE    INFORMATION
#----------   ------------   ------------------------------
 STRT.F          520.0000:   START DEPTH
 STOP.F         3092.0000:   STOP DEPTH
 STEP.F            0.5000:   STEP LENGTH
 NULL.          -999.2500:   NO VALUE
 COMP.    FENIX & SCISSON:   COMPANY
 WELL. FENIX 87 "AX" #3-3:   WELL
 FLD .              N P R:   FIELD
 LOC .       S3 T38N R78W:   LOCATION
 CNTY.            NATRONA:   COUNTY
 STAT.            WYOMING:   STATE
 CTRY. UNITED STATES OF AMERICA:   COUNTRY
 SRVC.              WELEX:   SERVICE COMPANY
 DATE.        30-OCT-1980:   LOGDATE
 API .     49025108510000:   API NUMBER
~CURVE INFORMATION
#MNEM.UNIT       API CODE    CURVE DESCRIPTION
#----------   ------------   ------------------------------
 DEPT.F                  :   
 CALD.IN     45 280 60 00:   CALIPER FROM DENSITY LOG
 GRD .GAPI   45 310 01 00:   GAMMA RAY FROM DENSITY LOG
 RHOB.G/C3   45 350 01 00:   BULK DENSITY
 CORR.G/C3   45 356 01 00:   DENSITY CORRECTION
 SPR .MV     07 010 01 00:   SPONTANEOUS POTENTIAL
 ILD .OHMM   07 120 46 00:   DEEP INDUCTION RESISTIVITY
 ILM .OHMM   07 120 44 00:   INDUCTION LOG MEDIUM RESISTIVITY
 SGRD.OHMM   07 220 05 00:   SHALLOW SHORT GUARD RESISTIVITY
~PARAMETER INFORMATION
#MNEM.UNIT          VALUE    DESCRIPTION
#----------   ------------   ------------------------------
 EKB .F         5131.0000:   Kelly bushing
 EGL .F         5121.0000:   Ground level
 TD  .F         3095.0000:   Total depth
 DATE.        30-OCT-1980:   Date logged
 CLNT.            A2DTECH:   Client Code
 SL  . 910' FWL & 95' FEL:   Surface Location
 PD  .                 GL:   Permanent Datum
 EPD .F              5121:   Elevation Permanent Datum
 LMF .                 KB:   Log Measured From
 DMF .                 KB:   Drilling Measured From
 DD  .F              3095:   Depth driller
 DL  .F              3094:   Depth logger
 BLI .F              3092:   Bottom log interval
 TLI .F               525:   Top log interval
 CS1 .IN            9.625:   Casing size
 CBD1.      9.625" @ 525':   Casing driller 1
 CBL1.F               525:   Casing logger 1
 BS1 .IN            7.875:   Bit size
 DFT .          DISPERSED:   Type fluid in hole
 DFD .                  9:   Density
 DFV .                 40:   Viscosity
 DFPH.                 10:   pH
 DFL .                  8:   Fluid loss
 MSS .             MUDPIT:   Source of sample
 RMS .OHMM           2.40:   Rm
 MST .F                68:   Rm Meas. temp.
 MFST.F                68:   Rmf Meas. temp.
 RMC .OHMM            2.8:   Rmc
 MCST.F                68:   Rmc Meas. temp.
 MFSS.F              MEAS:   Source Rmf.
 RMB .OHMM           1.36:   Rm. at BHT
 BHT .F               120:   BHT.
 TCS .HRS             5.5:   Time Circ. stopped
 MRT .F               120:   Maximum recorded temp.
 LUN .               1891:   Logging unit number
 LUL .             CASPER:   Logging unit location
 ENGI.          PFERIMMER:   Recorded By
 WITN.              FIVAS:   Witnessed by
 ORIG.           5" PRINT:   Origin of data
 UWI .     49025108510000:   Unique Well ID
 DICO. A2D TECHNOLOGIES, INC.:   Digitizing Company
 DAPD.F                10:   Feet Above Permanent Datum
 BSD1.F              3095:   Depth drilled with bit1
 RMF .OHMM           1.92:   Rmf
 MCSS.               MEAS:   Source Rmc.
~OTHER INFORMATION
~A   DEPT     CALD        GRD       RHOB       CORR        SPR          ILD        ILM      SGRD  
# ...
 2059.0000     8.3430   100.9490     2.5160     0.0130   -26.5650    10.6150    11.6770    13.5000
 2059.5000     8.3400    99.9240     2.5090     0.0160   -26.5520    10.6160    11.5010    14.4710
 2060.0000     8.3370    98.3430     2.4980     0.0180   -26.5390    10.6170    11.3250    16.2430
 2060.5000     8.3340    96.7690     2.4900     0.0210   -26.5270    10.6210    11.1490    15.6370
 2061.0000     8.3310    95.1960     2.4920     0.0240   -26.5140    10.3280    10.9730    14.6720
 2061.5000     8.3280    93.6180     2.4960     0.0260   -26.5010    10.0330    10.7970    15.8290
 2062.0000     8.3250    91.9970     2.4940     0.0290   -26.4880     9.7380    10.6200    16.8550
 2062.5000     8.3230    91.0100     2.4880     0.0310   -26.4760     9.4430    10.4440    14.3910
 2063.0000     8.3240    91.7120     2.5010     0.0340   -26.4630     9.0710    10.2300    12.5570
 2063.5000     8.2750    94.0350     2.5070     0.0330   -26.4500     9.1050    10.2910    10.9140
 2064.0000     8.1940    96.3400     2.5030     0.0300   -26.4370     9.1670    10.3560    13.3440
 2064.5000     8.1120    98.6450     2.4990     0.0280   -26.4250     9.2290    10.4220    15.7990
 2065.0000     8.1040   100.9510     2.4950     0.0250   -26.4120     9.2910    10.4870    14.9930
 2065.5000     8.1250   103.2570     2.4910     0.0230   -26.3990     9.3530    10.5530    14.2710
 2066.0000     8.1460   105.6170     2.4820     0.0200   -26.3860     9.4150    10.6180    15.3710
 2066.5000     8.1680   105.2760     2.4690     0.0200   -26.3740     9.4770    10.6840    16.3810
 2067.0000     8.1890   104.0440     2.4560     0.0280   -26.3610     9.5390    10.7490    17.0120
 2067.5000     8.2100   102.7920     2.4430     0.0350   -26.3480     9.6010    10.8130    15.6260
 2068.0000     8.2260   101.5580     2.4300     0.0430   -26.3350     9.6630    10.8130    14.4530
 2068.5000     8.2250   100.7210     2.4300     0.0500   -26.3220     9.7250    10.7880    13.3760
 2069.0000     8.2200   100.8740     2.4580     0.0580   -26.3100     9.7680    10.7330    13.5630
 2069.5000     8.2150   101.7000     2.4800     0.0650   -26.2970     9.6200    10.6780    13.8330
 2070.0000     8.2100   102.5180     2.4780     0.0700   -26.2840     9.5070    10.6230    14.1030
 2070.5000     8.2060   103.3350     2.4740     0.0640   -26.2710     9.3950    10.5690    14.3740
 2071.0000     8.1930   104.1510     2.4680     0.0570   -26.2590     9.2820    10.5140    14.6440
 2071.5000     8.1670   104.9670     2.4610     0.0510   -26.2460     9.1690    10.4590    14.9140
 2072.0000     8.1370   105.7860     2.4550     0.0440   -26.2330     9.0560    10.3700    15.0850
 2072.5000     8.1280   106.6070     2.4580     0.0380   -26.2200     8.9430    10.1990    13.9440
 2073.0000     8.1440   107.1700     2.4620     0.0310   -26.2530     8.8310    10.0280    12.9110
 2073.5000     8.1830   106.0060     2.4660     0.0280   -26.3050     8.7180     9.8580    12.0820
 2074.0000     8.2200   104.8560     2.4700     0.0360   -26.3580     8.6050     9.9600    13.6260
 2074.5000     8.2490   103.7130     2.4740     0.0380   -26.4120     8.4920    10.0600    11.2320
 2075.0000     8.2730   102.5740     2.4810     0.0310   -26.4650     8.3790    10.1610     9.8580
 2075.5000     8.2970   101.4160     2.4820     0.0240   -26.5180     8.3470    10.3250    12.2760
 2076.0000     8.3210   101.4030     2.4800     0.0210   -26.5710     8.6350    10.4350    14.1500
 2076.5000     8.3240   101.9540     2.4790     0.0260   -26.6080     8.8230    10.5240    16.0240
 2077.0000     8.3220   102.5200     2.4780     0.0300   -26.4840     9.0100    10.6130    17.0120
 2077.5000     8.3190   103.0840     2.4780     0.0340   -26.3470     9.1980    10.7020    17.0120
 2078.0000     8.3160   103.6400     2.4740     0.0380   -26.2090     9.3850    10.7140    15.3930
 2078.5000     8.3130   103.6250     2.4480     0.0420   -26.0700     9.5720    10.7140    14.1000
 2079.0000     8.3100   102.6970     2.4170     0.0460   -26.0170     9.7680    10.7010    13.2530
 2079.5000     8.3070   100.3270     2.4260     0.0510   -26.0050     9.8580    10.6870    14.5370
 2080.0000     8.3040    97.9890     2.4410     0.0480   -25.9950     9.9500    10.6720    13.7820
 2080.5000     8.3040    95.6790     2.4580     0.0400   -25.9840     9.8410    10.6580    12.7190
 2081.0000     8.3040    94.0920     2.4740     0.0310   -25.9730     9.6690    10.6440    11.5370
 2081.5000     8.3230    93.6840     2.4900     0.0250   -25.9620     9.4970    10.6300    12.5010
 2082.0000     8.3550    93.2930     2.5030     0.0270   -25.9520     9.3240    10.6160    13.7800
 2082.5000     8.2230    92.7830     2.5180     0.0280   -25.9410     9.1520    10.6150    15.2250
 2083.0000     8.2480    92.7860     2.5190     0.0300   -25.9300     8.9800    10.6150    14.8600
 2083.5000     8.2800    92.8670     2.5080     0.0320   -25.9190     8.8080    10.5180    14.2440
 2084.0000     8.3120    93.3350     2.4980     0.0330   -25.9090     8.6360    10.5180    13.6280
 2084.5000     8.3080    93.7990     2.4880     0.0330   -25.8980     8.5120    10.5180    13.0120
 2085.0000     8.2850    94.2630     2.4790     0.0330   -25.8870     8.4240    10.4320    12.3960
 2085.5000     8.2610    94.7440     2.4810     0.0340   -25.8760     8.1940    10.3120    11.7800
 2086.0000     8.2370    94.8500     2.4870     0.0340   -25.8650     8.1180    10.1920    11.6440
 2086.5000     8.2130    94.7330     2.4900     0.0340   -25.8550     8.0400    10.0720    11.6440
 2087.0000     8.1890    94.6000     2.4970     0.0340   -25.8440     7.9440     9.9520    11.9210
 2087.5000     8.1660    94.6210     2.5100     0.0310   -25.8330     7.8470     9.8320    12.1890
 2088.0000     8.1930    95.5610     2.5220     0.0230   -25.8220     7.7510     9.7130    12.4220
 2088.5000     8.2250    96.6450     2.5350     0.0220   -25.8120     7.6550     9.5890    12.0020
 2089.0000     8.2560    97.2100     2.5460     0.0250   -25.8010     7.5580     9.5890    11.4560
 2089.5000     8.2880    96.9290     2.5430     0.0280   -25.7900     7.4700     9.6230    10.9110
 2090.0000     8.3190    96.1620     2.5360     0.0310   -25.7790     7.4010     9.6670    10.6150
 2090.5000     8.3420    95.4010     2.5280     0.0340   -25.7680     7.4620     9.7110    11.0470
 2091.0000     8.3330    94.7440     2.5210     0.0370   -25.7580     7.5330     9.7540    11.5460
 2091.5000     8.3240    94.2620     2.5170     0.0390   -25.7470     7.6030     9.7980    12.0450
 2092.0000     8.3160    93.9930     2.5220     0.0420   -25.7360     7.6740     9.8410    12.5450
 2092.5000     8.3070    94.9090     2.5180     0.0410   -25.7250     7.7440     9.8850    13.1310
 2093.0000     8.2990    95.8970     2.5180     0.0390   -25.7150     7.8150     9.9280    12.8870
 2093.5000     8.2900    96.8830     2.5210     0.0360   -25.7040     7.8850     9.9720    12.5010
 2094.0000     8.2820    97.9630     2.5190     0.0250   -25.6930     7.9560    10.0150    12.1950
 2094.5000     8.2730    98.6750     2.5170     0.0130   -25.6820     8.0260    10.0590    12.1950
 2095.0000     8.2650    98.6960     2.5180     0.0150   -25.6710     8.0970    10.1020    12.8890
 2095.5000     8.2570    96.8280     2.5220     0.0180   -25.6610     8.1670    10.1460    13.5000
 2096.0000     8.2480    94.9660     2.5350     0.0280   -25.6500     8.3470    10.1890    13.6260
 2096.5000     8.2450    93.0900     2.5450     0.0390   -25.6400     8.4240    10.2290    13.3300
 2097.0000     8.2450    92.2090     2.5380     0.0440   -25.6660     8.3520    10.2300    13.0460
 2097.5000     8.2450    91.7710     2.5310     0.0350   -25.7330     8.2960    10.2300    12.7620
 2098.0000     8.2450    91.3380     2.5280     0.0260   -25.8000     8.2390    10.2300    12.4780
 2098.5000     8.2570    90.9060     2.5240     0.0170   -25.8670     8.1940    10.2300    12.1950
 2099.0000     8.2770    90.4700     2.5200     0.0240   -25.9350     8.6770    10.2280    12.1950
