~VERSION INFORMATION
 VERS.                2.0:   CWLS LOG ASCII STANDARD - VERSION 2.0
 WRAP.                 NO:   ONE LINE PER DEPTH STEP
~WELL INFORMATION
#MNEM.UNIT      DATA TYPE    INFORMATION
#----------   ------------   ------------------------------
 STRT.F          545.0000:   START DEPTH
 STOP.F         3193.0000:   STOP DEPTH
 STEP.F            0.5000:   STEP LENGTH
 NULL.          -999.2500:   NO VALUE
 COMP. FENIX & SCISSON-U.S. NAVY:   COMPANY
 WELL.   FENIX "A" #47-34:   WELL
 FLD .          N.P.R. #3:   FIELD
 LOC .      S34 T39N R78W:   LOCATION
 CNTY.            NATRONA:   COUNTY
 STAT.            WYOMING:   STATE
 CTRY. UNITED STATES OF AMERICA:   COUNTRY
 SRVC.       SCHLUMBERGER:   SERVICE COMPANY
 DATE.        26-MAR-1977:   LOGDATE
 API .     49025103260000:   API NUMBER
~CURVE INFORMATION
#MNEM.UNIT       API CODE    CURVE DESCRIPTION
#----------   ------------   ------------------------------
 DEPT.F                  :   
 SPR .MV     07 010 01 00:   SPONTANEOUS POTENTIAL FROM RES.
 ILM .OHMM   07 120 44 00:   INDUCTION LOG MEDIUM RESISTIVITY
 ILD .OHMM   07 120 46 00:   DEEP INDUCTION RESISTIVITY
 LL8 .OHMM   07 220 08 00:   LATEROLOG-8 RES.
 CALD.IN     45 280 60 00:   CALIPER FROM DENSITY LOG
 GRD .GAPI   45 310 01 00:   GAMMA RAY FROM DENSITY LOG
 RHOB.G/C3   45 350 01 00:   BULK DENSITY
 CORR.G/C3   45 356 01 00:   DENSITY CORRECTION
~PARAMETER INFORMATION
#MNEM.UNIT          VALUE    DESCRIPTION
#----------   ------------   ------------------------------
 EKB .F         5144.0000:   Kelly bushing
 EGL .F         5132.0000:   Ground level
 TD  .F         3194.0000:   Total depth
 CLNT.            A2DTECH:   Client Code
 SL  . 2310' FWL & 990' FSL:   Surface Location
 PD  .                 GL:   Permanent Datum
 EPD .F              5132:   Elevation Permanent Datum
 LMF .                 KB:   Log Measured From
 DMF .                 KB:   Drilling Measured From
 DAPD.F                12:   Feet Above Permanent Datum
 DATE.        26-MAR-1977:   Date Logged [DD-MMM-YYYY]
 DD  .F              3188:   Depth driller
 DL  .F              3194:   Depth logger
 BLI .F              3188:   Bottom log interval
 TLI .F               564:   Top log interval
 CS1 .IN            8.625:   Casing size
 CBD1.      8.625" @ 570':   Casing driller 1
 CBL1.F               564:   Casing logger 1
 BS1 .IN            7.875:   Bit size
 BSD1.F              3188:   Depth drilled with bit1
 DFT .                KCL:   Type fluid in hole
 DFD .                9.2:   Density
 DFV .                 30:   Viscosity
 DFL .                9.2:   Fluid loss
 MSS .                PIT:   Source of sample
 RMS .OHMM          0.354:   Rm
 MST .F                70:   Rm Meas. temp.
 RMF .OHMM          0.326:   Rmf
 MFST.F                70:   Rmf Meas. temp.
 MFSS.               MEAS:   Source Rmf.
 RMC .OHMM          0.531:   Rmc
 MCST.F                70:   Rmc Meas. temp.
 MCSS.               CALC:   Source Rmc.
 RMB .OHMM          0.205:   Rm. at BHT
 BHT .F               121:   BHT.
 TLAB.HRS            1900:   Time logger at bottom
 MRT .F               121:   Maximum recorded temp.
 LUN .               5642:   Logging unit number
 LUL .               CSPR:   Logging unit location
 ENGI.             MARTIN:   Recorded By
 WITN.         PETTINGILL:   Witnessed by
 ORIG.           5" PRINT:   Origin of data
 UWI .     49025103260000:   Unique Well ID
 DICO. A2D TECHNOLOGIES, INC.:   Digitizing Company
~OTHER INFORMATION
~A   DEPT      SPR        ILM        ILD        LL8       CALD         GRD      RHOB       CORR   
# ...
 2772.5000   -46.4057    19.3605    14.5535    56.8130     8.0636   108.9761     2.5048     0.0177
 2773.0000   -46.2362    20.4825    14.6659    71.9083     8.0681   108.6937     2.5274     0.0253
 2773.5000   -46.2172    21.6803    14.8066   187.8781     8.0727   110.6535     2.5349     0.0331
 2774.0000   -46.1983    21.2489    14.8935   246.0633     8.0772   111.4178     2.5193     0.0410
 2774.5000   -46.0286    20.2623    14.9054    71.5645     8.0818   114.2655     2.5127     0.0387
 2775.0000   -45.7078    19.7272    14.8147    56.2413     8.0863   117.7083     2.5180     0.0473
 2775.5000   -45.2332    19.2062    14.5228    49.7036     8.0909   119.8465     2.5281     0.0505
 2776.0000   -44.7624    18.5691    14.2367    51.4857     8.0954   120.7301     2.5392     0.0490
 2776.5000   -44.2917    17.8722    14.1501    42.1731     8.1000   118.5182     2.5535     0.0661
 2777.0000   -43.8209    16.9863    14.1642    45.2275     8.1046   111.6932     2.5446     0.0662
 2777.5000   -43.3502    16.6690    14.2737    44.6387     8.1091   107.9933     2.5132     0.0655
 2778.0000   -42.7289    16.9213    14.5838    40.5544     8.1137   104.5909     2.4751     0.0338
 2778.5000   -42.0884    17.4129    14.5984    38.2746     8.1182   101.9326     2.4632     0.0268
 2779.0000   -41.4814    18.5500    14.9156    64.9452     8.1228   100.7624     2.5202     0.0269
 2779.5000   -41.1613    19.8988    15.0309   142.5039     8.1245   100.9405     2.5270     0.0414
 2780.0000   -41.1424    21.3456    15.2519    97.0841     8.1245   105.1101     2.4968     0.0542
 2780.5000   -40.9728    22.2957    15.4761    57.8850     8.1217   108.5663     2.4763     0.0388
 2781.0000   -40.9539    23.2441    15.9219    51.5107     8.1073   106.9497     2.4674     0.0303
 2781.5000   -40.9350    23.4275    16.4939    50.1340     8.0931   106.5184     2.4937     0.0265
 2782.0000   -41.2172    22.4951    16.3761    50.8759     8.0789   110.2640     2.5110     0.0413
 2782.5000   -41.3489    21.4507    15.5288    51.9772     8.0648   113.8557     2.4999     0.0383
 2783.0000   -41.4806    20.5969    15.1182    52.7370     8.0506   115.8105     2.4820     0.0273
 2783.5000   -41.7629    19.9146    14.8203    51.6783     8.0365   115.9795     2.4828     0.0152
 2784.0000   -41.8945    19.2447    14.7272    48.0678     8.0224   116.3036     2.4995     0.0237
 2784.5000   -42.4733    18.6214    14.6376    41.5108     8.0082   117.1085     2.5094     0.0323
 2785.0000   -42.9062    18.0045    14.5513    41.5401     7.9941   117.6823     2.5116     0.0332
 2785.5000   -43.1884    17.6467    14.4630    41.2833     7.9861   115.4704     2.5064     0.0232
 2786.0000   -43.3201    17.7901    14.4775    39.0924     7.9862   108.9430     2.4900     0.0194
 2786.5000   -43.4518    17.9305    14.3865    43.9918     7.9858   105.0942     2.4833     0.0194
 2787.0000   -43.1269    18.3240    14.3019    54.1543     7.9851   102.8824     2.5067     0.0148
 2787.5000   -42.9574    18.6189    14.4124    60.5222     8.0009   100.9681     2.5038     0.0211
 2788.0000   -42.6372    19.5435    14.9302    65.5102     8.0436    99.7979     2.4858     0.0134
 2788.5000   -42.6183    20.6762    15.6814    64.0605     8.0457    97.8391     2.4867     0.0220
 2789.0000   -42.5994    22.4888    16.6092    54.3165     8.0467    93.7468     2.5138     0.0260
 2789.5000   -42.4292    26.7646    18.1588    49.3468     8.0496    86.9173     2.5431     0.0191
 2790.0000   -42.4062    38.4024    19.3375   138.1468     7.9875    85.2956     2.5651     0.0168
 2790.5000   -42.3872    40.0844    19.0877  1932.4105     7.9596    87.5531     2.5703     0.0433
 2791.0000   -42.3683    35.5094    18.9717  2001.6932     7.9075    89.3590     2.5186     0.0309
 2791.5000   -42.1988    27.6260    18.8557   201.0029     7.9072    91.7602     2.4902     0.0341
 2792.0000   -41.7280    23.7443    18.8713    61.7681     7.9069    93.7150     2.4956     0.0481
 2792.5000   -41.2573    22.4804    19.1493    45.3041     7.9068    95.3722     2.4874     0.0435
 2793.0000   -40.7861    22.0440    19.3006    36.6007     7.9113    96.6072     2.4688     0.0358
 2793.5000   -40.9135    21.3137    18.1532    38.9416     7.9830    98.3940     2.4651     0.0288
 2794.0000   -41.1958    20.0446    15.8261    46.6794     8.0491    99.9023     2.4727     0.0236
 2794.5000   -41.6334    19.0910    14.6812    57.0673     8.1191   100.3690     2.5079     0.0423
 2795.0000   -42.0662    18.3576    14.5915    64.6645     8.1215   101.1333     2.5231     0.0532
 2795.5000   -42.4991    18.5024    14.5032    62.9474     8.1147   103.0881     2.5090     0.0502
 2796.0000   -42.9273    19.0399    14.4150    60.0197     8.1079   103.6985     2.4993     0.0355
 2796.5000   -43.2095    19.7292    14.6299    57.2282     8.1011   100.1524     2.4971     0.0270
 2797.0000   -43.3412    20.5855    14.9477    55.7080     8.0944    98.9821     2.5122     0.0340
 2797.5000   -43.4729    21.4789    15.0632    63.1248     8.0877    99.6132     2.5213     0.0504
 2798.0000   -44.0516    22.1321    15.2847    60.6059     8.0810   100.6647     2.5267     0.0265
 2798.5000   -44.7857    23.7155    15.5095    95.6749     8.0743   102.0242     2.5245     0.0157
 2799.0000   -45.6704    25.2643    15.7377   836.8220     8.0676   103.5326     2.5553     0.0367
 2799.5000   -46.7057    25.4636    15.9721  1311.4897     8.0609   105.1898     2.5314     0.0352
 2800.0000   -47.2892    24.9634    16.0955   376.1996     8.0541   106.5493     2.5180     0.0306
 2800.5000   -47.6422    22.5215    15.6699   166.6866     8.0471   107.7600     2.5203     0.0245
 2801.0000   -47.8525    20.8892    15.1507   149.3587     8.0454   107.8120     2.5242     0.0253
 2801.5000   -48.2789    20.0451    14.7472    50.9121     8.0493   106.7580     2.5250     0.0262
 2802.0000   -48.4096    19.1310    14.3598    44.9860     8.0547   106.6287     2.5230     0.0278
 2802.5000   -48.3885    18.6258    13.8781    47.5825     8.0601   107.2493     2.5163     0.0309
 2803.0000   -48.3633    18.7728    13.5198    51.3732     8.0655   106.6743     2.5187     0.0154
 2803.5000   -48.3429    18.9165    13.3425    82.2130     8.0709   105.7967     2.5195     0.0015
 2804.0000   -48.3225    18.6782    13.2614    93.8550     8.0763   108.5006     2.5114     0.0187
 2804.5000   -48.3021    18.4385    13.5522    80.3793     8.0818   110.7545     2.5024     0.0072
 2805.0000   -48.2818    18.1899    13.6570    65.6120     8.0872   108.4670     2.4926     0.0181
 2805.5000   -48.2614    17.7254    13.8578    60.4375     8.0926   104.5487     2.4960     0.0073
 2806.0000   -48.0904    17.9894    13.6788    57.2301     8.0980   105.7594     2.5074     0.0259
 2806.5000   -48.0693    18.1314    13.4120    59.2820     8.1034   108.0118     2.5225     0.0345
 2807.0000   -48.2003    17.7752    13.2388    66.2528     8.1088   108.1758     2.5391     0.0493
 2807.5000   -48.3305    17.3058    12.9779    69.5702     8.1142   107.4571     2.5384     0.0587
 2808.0000   -48.7569    16.9658    12.7222    56.9109     8.1196   108.3703     2.5303     0.0301
 2808.5000   -48.8871    16.4119    12.6085    51.2269     8.1251   112.8548     2.5349     0.0363
 2809.0000   -49.1679    16.0934    12.3957    43.9922     8.1305   116.0001     2.5331     0.0302
 2809.5000   -49.2982    15.7856    12.3105    37.5629     8.1359   115.7098     2.5172     0.0225
 2810.0000   -49.2771    15.6903    11.9946    43.7597     8.1413   115.0041     2.5135     0.0319
 2810.5000   -48.8005    15.3858    11.6797    62.7291     8.1467   114.4291     2.5316     0.0381
 2811.0000   -48.4789    15.1957    11.9693    49.0440     8.1521   112.9613     2.5347     0.0397
 2811.5000   -48.0068    15.7659    11.9806    39.8318     8.1575   107.4756     2.5123     0.0328
 2812.0000   -47.6852    16.3508    12.0766    37.4545     8.1630    98.8649     2.4960     0.0222
 2812.5000   -47.2130    16.9152    12.2686    61.6358     8.1641    96.6531     2.4766     0.0151
