~VERSION INFORMATION
 VERS.                2.0:   CWLS LOG ASCII STANDARD - VERSION 2.0
 WRAP.                 NO:   ONE LINE PER DEPTH STEP
~WELL INFORMATION
#MNEM.UNIT      DATA TYPE    INFORMATION
#----------   ------------   ------------------------------
 STRT.F          208.0000:   START DEPTH
 STOP.F         2980.0000:   STOP DEPTH
 STEP.F            0.5000:   STEP LENGTH
 NULL.          -999.2500:   NO VALUE
 COMP. FENIX & SCISSON INC:   COMPANY
 WELL. FENIX  32AX #28-28:   WELL
 FLD .        TEAPOT DOME:   FIELD
 LOC .      S28 T39N R78W:   LOCATION
 CNTY.            NATRONA:   COUNTY
 STAT.            WYOMING:   STATE
 CTRY. UNITED STATES OF AMERICA:   COUNTRY
 SRVC.           BIRDWELL:   SERVICE COMPANY
 DATE.        09-OCT-1977:   LOGDATE
 API .     49025104430000:   API NUMBER
~CURVE INFORMATION
#MNEM.UNIT       API CODE    CURVE DESCRIPTION
#----------   ------------   ------------------------------
 DEPT.F                  :   
 SPR .MV     05 010 01 00:   SPONTANEOUS POTENTIAL
 ILD .OHMM   05 120 46 00:   DEEP INDUCTION RESISTIVITY
 SN  .OHMM   05 040 16 00:   SHORT NORMAL
 GRD .GAPI   45 310 01 00:   GAMMA RAY FROM DENSITY LOG
 CALD.IN     45 280 60 00:   CALIPER FROM DENSITY LOG
 CORR.G/C3   45 356 01 00:   DENSITY CORRECTION
 DEN .G/C3   45 350 01 00:   BULK DENSITY
~PARAMETER INFORMATION
#MNEM.UNIT          VALUE    DESCRIPTION
#----------   ------------   ------------------------------
 EKB .F         5005.0000:   Kelly bushing
 EGL .F         4995.0000:   Ground level
 EDF .F            0.0000:   Drilling floor
 EPD .F         4995.0000:   Permanent datum
 TD  .F         2980.0000:   Total depth
 DATE.        09-OCT-1977:   Date logged
 CLNT.            A2DTECH:   Client Code
 SL  . 990' FNL & 1650' FWL:   Surface Location
 PD  .                 GL:   Permanent Datum
 DAPD.F                10:   Feet Above Permanent Datum
 DD  .F              2980:   Depth driller
 DL  .F              2979:   Depth logger
 BLI .F              2974:   Bottom log interval
 TLI .F               221:   Top log interval
 CS1 .IN            8.625:   Casing size
 CBD1.      8.625" @ 211':   Casing driller 1
 CBL1.F               221:   Casing logger 1
 BS1 .IN            7.875:   Bit size
 BSD1.F              2980:   Depth drilled with bit1
 DFT .            KCL GEL:   Type fluid in hole
 DFD .                8.8:   Density
 DFV .                 33:   Viscosity
 DFPH.                 11:   pH
 DFL .                6.4:   Fluid loss
 MSS .           FLOWLINE:   Source of sample
 RMS .OHMM            .52:   Rm
 MST .F                59:   Rm Meas. temp.
 RMF .OHMM            .67:   Rmf
 MFST.F                54:   Rmf Meas. temp.
 RMC .OHMM            .45:   Rmc
 MCST.F                56:   Rmc Meas. temp.
 MFSS.               MEAS:   Source Rmf.
 MCSS.               MEAS:   Source Rmc.
 RMB .OHMM            .35:   Rm. at BHT
 BHT .F                91:   BHT.
 TCS .HRS               3:   Time Circ. stopped
 MRT .F                91:   Maximum recorded temp.
 LUN .               2958:   Logging unit number
 LUL .             CASPER:   Logging unit location
 ENGI.                LAW:   Recorded By
 WITN.       W. PENINGELL:   Witnessed by
 ORIG.           5" PRINT:   Origin of data
 UWI .     49025104430000:   Unique Well ID
 DICO. A2D TECHNOLOGIES, INC.:   Digitizing Company
~OTHER INFORMATION
~A   DEPT      SPR        ILD         SN         GRD      CALD       CORR        DEN   
# ...
  572.0000   -43.0800     7.4870     8.0580   123.6890     8.0490     0.0200     2.5020
  572.5000   -40.4980     7.3680     7.8670   121.4620     8.0520     0.0130     2.4910
  573.0000   -40.2210     7.2450     7.5480   122.9950     8.0550     0.0120     2.4900
  573.5000   -40.2300     7.1210     7.2840   124.7310     8.0580     0.0110     2.4920
  574.0000   -40.2410     7.0210     7.3510   125.4610     8.0610     0.0090     2.4870
  574.5000   -40.2940     6.9350     7.0210   124.7060     8.0640     0.0110     2.4850
  575.0000   -40.3470     6.8470     6.9790   124.0790     8.0650     0.0140     2.4900
  575.5000   -40.3990     6.7620     6.8720   124.4590     8.0650     0.0170     2.4950
  576.0000   -39.9700     6.6500     6.7440   126.4660     8.0650     0.0180     2.4990
  576.5000   -39.6640     6.5370     6.6020   123.8050     8.0650     0.0090     2.4640
  577.0000   -40.2530     6.4250     6.4640   125.9240     8.0650     0.0070     2.4610
  577.5000   -40.8680     6.4050     6.4440   128.8930     8.0650     0.0050     2.4600
  578.0000   -41.2240     6.3640     6.4190   132.5210     8.0650     0.0060     2.4670
  578.5000   -41.1580     6.2410     6.4050   132.9590     8.0650     0.0120     2.4740
  579.0000   -41.0500     6.0620     6.3440   131.5740     8.0650     0.0200     2.4820
  579.5000   -41.0560     5.9080     6.2880   129.0740     8.0650     0.0160     2.4660
  580.0000   -41.9540     5.7920     6.1500   135.4120     8.0650     0.0130     2.4720
  580.5000   -42.0870     5.6750     6.0560   132.8350     8.0650     0.0180     2.4800
  581.0000   -42.3030     5.5590     6.0000   130.2760     8.0650     0.0170     2.4850
  581.5000   -42.6090     5.4330     5.9770   133.7050     8.0650     0.0150     2.4870
  582.0000   -43.0000     5.4570     5.9510   131.2840     8.0650     0.0160     2.4900
  582.5000   -43.3350     5.4890     6.0060   131.0970     8.0650     0.0170     2.4920
  583.0000   -42.9760     5.5200     6.2340   138.5810     8.0650     0.0200     2.4950
  583.5000   -42.6160     5.6110     6.4640   137.2700     8.0650     0.0220     2.5030
  584.0000   -43.3750     5.7730     6.3460   139.2550     8.0650     0.0240     2.5060
  584.5000   -42.7360     5.9350     6.5110   137.8970     8.0650     0.0220     2.5050
  585.0000   -42.0460     6.1740     6.6640   137.6930     8.0650     0.0180     2.5030
  585.5000   -41.7880     6.1650     6.7090   139.8800     8.0650     0.0180     2.5010
  586.0000   -41.8110     6.1480     6.7150   142.0990     8.0650     0.0180     2.4990
  586.5000   -41.6060     6.1310     6.7200   141.6110     8.0670     0.0180     2.4960
  587.0000   -41.4250     6.1140     6.7260   139.7110     8.0690     0.0160     2.4930
  587.5000   -41.4130     6.0980     6.7320   137.8350     8.0720     0.0150     2.4890
  588.0000   -41.8510     6.0810     6.7380   137.2270     8.0740     0.0070     2.4680
  588.5000   -42.1920     6.0640     6.7430   138.4700     8.0760     0.0020     2.4610
  589.0000   -42.1240     6.0470     6.7490   135.4960     8.0790     0.0030     2.4650
  589.5000   -42.3410     6.0300     6.7550   134.9230     8.0810     0.0050     2.4700
  590.0000   -41.9870     6.0060     6.7610   136.2450     8.0830     0.0070     2.4760
  590.5000   -41.6400     6.0550     6.7660   139.6480     8.0840     0.0110     2.4820
  591.0000   -42.1690     6.1830     6.7730   137.1740     8.0790     0.0150     2.4910
  591.5000   -42.4710     6.3110     6.7790   134.8880     8.0750     0.0240     2.5000
  592.0000   -42.8160     6.4390     6.7860   133.3260     8.0700     0.0230     2.5070
  592.5000   -43.1270     6.4690     6.7920   136.7950     8.0660     0.0230     2.5060
  593.0000   -42.9760     6.4810     6.7990   137.8040     8.0610     0.0240     2.5010
  593.5000   -42.7880     6.4930     6.8060   137.5300     8.0560     0.0210     2.4960
  594.0000   -42.4200     6.5050     6.8120   131.8710     8.0520     0.0160     2.4910
  594.5000   -42.2970     6.5170     6.8190   131.4870     8.0470     0.0170     2.4930
  595.0000   -42.6370     6.5240     6.8250   133.1010     8.0490     0.0180     2.4960
  595.5000   -43.0010     6.4640     6.8320   136.3430     8.0550     0.0190     2.4980
  596.0000   -42.2430     6.4230     6.8410   137.3460     8.0610     0.0200     2.5010
  596.5000   -41.8250     6.3840     6.8490   136.9830     8.0670     0.0180     2.4980
  597.0000   -41.8200     6.3450     6.8570   138.3310     8.0730     0.0140     2.4940
  597.5000   -41.8200     6.3060     6.8660   140.1620     8.0790     0.0140     2.4970
  598.0000   -42.4220     6.2670     6.8740   136.7040     8.0850     0.0150     2.5020
  598.5000   -42.7080     6.2310     6.8820   138.7500     8.0810     0.0150     2.4980
  599.0000   -42.8160     6.2880     6.8910   136.8310     8.0780     0.0150     2.4930
  599.5000   -42.7200     6.3800     6.8930   134.4410     8.0740     0.0140     2.4870
  600.0000   -42.5630     6.4650     6.8770   136.0370     8.0700     0.0140     2.4820
  600.5000   -41.1830     6.5240     6.8550   133.3360     8.0660     0.0160     2.4890
  601.0000   -41.3560     6.4330     6.8300   133.5730     8.0620     0.0180     2.5000
  601.5000   -42.1980     6.4000     6.8300   129.3750     8.0580     0.0200     2.5000
  602.0000   -42.0790     6.3660     6.8300   130.3450     8.0540     0.0190     2.4980
  602.5000   -41.9500     6.3330     6.8300   133.3150     8.0510     0.0180     2.4970
  603.0000   -41.8330     6.2990     6.8450   136.5430     8.0470     0.0170     2.4960
  603.5000   -42.2020     6.2660     6.8600   135.9120     8.0450     0.0170     2.4960
  604.0000   -42.5910     6.2310     6.8760   132.3470     8.0450     0.0160     2.5000
  604.5000   -42.4490     6.2310     6.8910   129.0050     8.0450     0.0160     2.5020
  605.0000   -43.1290     6.2310     6.9070   126.6900     8.0450     0.0140     2.4950
  605.5000   -43.4700     6.2310     6.9230   129.2510     8.0450     0.0120     2.4860
  606.0000   -43.5770     6.2310     6.9380   132.4960     8.0450     0.0120     2.4910
  606.5000   -43.6820     6.2330     6.9570   132.5350     8.0450     0.0190     2.5010
  607.0000   -43.8070     6.2250     6.9410   133.9020     8.0450     0.0210     2.5100
  607.5000   -43.2690     6.2940     6.9210   132.8270     8.0450     0.0220     2.5190
  608.0000   -41.8710     6.2870     6.9010   132.5240     8.0420     0.0250     2.5280
  608.5000   -40.4870     6.2880     6.8810   133.7140     8.0380     0.0270     2.5200
  609.0000   -40.4320     6.2880     6.8610   134.0130     8.0340     0.0210     2.5100
  609.5000   -40.0650     6.2880     6.8300   135.4350     8.0300     0.0160     2.5000
  610.0000   -40.1930     6.2880     6.8500   142.3210     8.0260     0.0120     2.4900
  610.5000   -40.3760     6.2880     6.8920   144.2120     8.0310     0.0130     2.4910
  611.0000   -39.9100     6.3380     6.9350   143.8170     8.0370     0.0150     2.4950
  611.5000   -41.1310     6.3850     6.9770   141.4190     8.0430     0.0130     2.5000
  612.0000   -42.0270     6.4310     7.0200   143.5020     8.0490     0.0090     2.4940
  612.5000   -41.8290     6.4640     7.0620   141.7870     8.0550     0.0090     2.4850
  613.0000   -42.4450     6.4760     7.1050   139.7370     8.0610     0.0110     2.4860
  613.5000   -42.3720     6.5000     7.1510   139.5790     8.0650     0.0130     2.4900
  614.0000   -42.0490     6.5240     7.1510   139.0130     8.0650     0.0120     2.4910
  614.5000   -41.8200     6.5480     7.1510   142.5860     8.0650     0.0110     2.4880
  615.0000   -41.7380     6.5720     7.1510   139.1820     8.0650     0.0090     2.4850
  615.5000   -41.6270     6.5960     7.1510   137.7020     8.0650     0.0080     2.4910
  616.0000   -41.6210     6.6200     7.1510   136.3780     8.0650     0.0180     2.5080
  616.5000   -41.6230     6.6440     7.1510   134.7930     8.0650     0.0270     2.5150
  617.0000   -41.6260     6.6680     7.1510   133.4050     8.0650     0.0210     2.4990
