~VERSION INFORMATION
 VERS.                2.0:   CWLS LOG ASCII STANDARD - VERSION 2.0
 WRAP.                 NO:   ONE LINE PER DEPTH STEP
~WELL INFORMATION
#MNEM.UNIT      DATA TYPE    INFORMATION
#----------   ------------   ------------------------------
 STRT.F          205.0000:   START DEPTH
 STOP.F         3171.5000:   STOP DEPTH
 STEP.F            0.5000:   STEP LENGTH
 NULL.          -999.2500:   NO VALUE
 COMP.    FENIX & SCISSON:   COMPANY
 WELL. FENIX & SCISSON  "AX" #27-28:   WELL
 FLD .              NPR 3:   FIELD
 LOC .      S28 T39N R78W:   LOCATION
 CNTY.            NATRONA:   COUNTY
 STAT.            WYOMING:   STATE
 CTRY. UNITED STATES OF AMERICA:   COUNTRY
 SRVC.       SCHLUMBERGER:   SERVICE COMPANY
 DATE.        30-MAY-1977:   LOGDATE
 API .     49025103870000:   API NUMBER
~CURVE INFORMATION
#MNEM.UNIT       API CODE    CURVE DESCRIPTION
#----------   ------------   ------------------------------
 DEPT.F                  :   
 NPHI.DEC    42 890 03 00:   NEUTRON POROSITY SANDSTONE
 CALD.IN     45 280 60 00:   CALIPER FROM DENSITY LOG
 GRD .GAPI   45 310 01 00:   GAMMA RAY FROM DENSITY LOG
 RHOB.G/C3   45 350 01 00:   BULK DENSITY
 CORR.G/C3   45 356 01 00:   DENSITY CORRECTION
 SPR .MV     11 010 01 00:   SPONTANEOUS POTENTIAL
 MSFL.OHMM   11 270 04 00:   MICRO SPHERICALLY FOCUSED RES.
 LLD .OHMM   11 220 10 00:   LATEROLOG LOG DEEP
 LLS .OHMM   11 220 09 00:   LATEROLOG LOG SHALLOW
~PARAMETER INFORMATION
#MNEM.UNIT          VALUE    DESCRIPTION
#----------   ------------   ------------------------------
 EKB .F         5094.0000:   Kelly bushing
 EGL .F         5084.0000:   Ground level
 EDF .F            0.0000:   Drilling floor
 EPD .F            0.0000:   Permanent datum
 TD  .F         3169.0000:   Total depth
 DATE.        30-MAY-1977:   Date logged
 CLNT.            A2DTECH:   Client Code
 SL  . 1266' FSL & 871' FWL:   Surface Location
 PD  .                 GL:   Permanent Datum
 DD  .F              3163:   Depth driller
 DL  .F              3169:   Depth logger
 BLI .F              3168:   Bottom log interval
 CS1 .IN            8.625:   Casing size
 CBD1.      8.625" @ 210':   Casing driller 1
 CBL1.F               219:   Casing logger 1
 BS1 .IN            7.875:   Bit size
 DFT .           SALT/MUD:   Type fluid in hole
 DFD .                8.9:   Density
 DFV .                 32:   Viscosity
 DFPH.                8.5:   pH
 DFL .                5.8:   Fluid loss
 MSS .                PIT:   Source of sample
 RMS .OHMM           .194:   Rm
 MST .F                65:   Rm Meas. temp.
 RMF .OHMM           .165:   Rmf
 MFST.F                65:   Rmf Meas. temp.
 MFSS.               MEAS:   Source Rmf.
 RMB .OHMM           .107:   Rm. at BHT
 BHT .F               118:   BHT.
 MRT .F               118:   Maximum recorded temp.
 LUN .               5642:   Logging unit number
 LUL .               CSPR:   Logging unit location
 ENGI.             MARTIN:   Recorded By
 WITN.         PETTINGILL:   Witnessed by
 ORIG.           5" PRINT:   Origin of data
 UWI .     49025103870000:   Unique Well ID
 DICO. A2D TECHNOLOGIES, INC.:   Digitizing Company
 DAPD.F                10:   Feet Above Permanent Datum
 BSD1.F              3163:   Depth drilled with bit1
 TLI .F               219:   Top log interval
 TLAB.HRS            0930:   Time logger at bottom
~OTHER INFORMATION
~A   DEPT     NPHI         CALD      GRD         RHOB      CORR       SPR       MSFL        LLD        LLS   
# ...
  789.0000     0.3075     8.5610   140.8614     2.5304     0.0748  -104.6979    11.9402     9.5344    10.3560
  789.5000     0.3051     8.5614   142.0646     2.5255     0.0524  -104.8975    12.0509     9.4479    10.1682
  790.0000     0.3135     8.5618   144.0648     2.5125     0.0424  -104.8998    12.1626     9.3624     9.8037
  790.5000     0.3187     8.5622   144.4680     2.5345     0.0564  -105.0994    12.0526     9.1926     9.7155
  791.0000     0.3203     8.5626   145.6729     2.5295     0.0773  -105.2990    12.1644     9.1933     9.7164
  791.5000     0.3219     8.5447   145.6809     2.5076     0.0714  -105.4985    12.0543     9.1099     9.5421
  792.0000     0.3235     8.5450   146.0629     2.4977     0.0671  -105.3028    12.0552     9.1106     9.5425
  792.5000     0.3227     8.5453   145.2705     2.4967     0.0634  -105.3047    12.0560     9.1112     9.5432
  793.0000     0.3307     8.5486   144.4800     2.4997     0.0465  -105.3066    12.0569     9.1119     9.5108
  793.5000     0.3363     8.5520   142.5316     2.5187     0.0585  -105.3085    12.0577     9.1126     9.5977
  794.0000     0.3359     8.5553   140.5832     2.5237     0.0456  -104.9151    11.8397     9.1973     9.6860
  794.5000     0.3331     8.5586   138.5394     2.5297     0.0705  -105.1147    11.9495     9.1980     9.7752
  795.0000     0.3259     8.5620   136.9558     2.5177     0.0616  -105.1166    12.0603     9.1985     9.7758
  795.5000     0.3151     8.5653   136.5670     2.5108     0.0367  -104.7232    11.9512     9.1152     9.6882
  796.0000     0.3127     8.5687   134.9950     2.5168     0.0546  -104.7252    12.0622     9.1158     9.6889
  796.5000     0.3143     8.5720   135.0014     2.5236     0.0457  -104.9247    12.0628     9.2003     9.7777
  797.0000     0.3143     8.5754   135.8062     2.5049     0.0308  -104.9266    12.0637     9.2010     9.7784
  797.5000     0.3088     8.5787   137.8079     2.4919     0.0447  -104.9285    12.0645     9.2018     9.7793
  798.0000     0.3080     8.5821   139.4081     2.5088     0.0507  -104.9304    11.9556     8.9844     9.5508
  798.5000     0.3092     8.5854   141.0114     2.5009     0.0367  -105.3276    11.7397     8.9849     9.5513
  799.0000     0.3188     8.5887   143.4063     2.4947     0.0418  -105.5271    11.3685     8.9854     9.5519
  799.5000     0.3208     8.5921   145.8066     2.5329     0.0707  -105.7267    11.4742     8.8726     9.4658
  800.0000     0.3176     8.5954   147.0117     2.5439     0.0827  -105.7286    11.5809     8.8733     9.7290
  800.5000     0.3149     8.5988   147.0218     2.5259     0.0785  -105.7308    11.6738     8.8740     9.7298
  801.0000     0.3200     8.6021   146.2310     2.5189     0.0757  -105.9284    11.9001     8.9078     9.7259
  801.5000     0.3251     8.6054   145.4421     2.5130     0.0678  -105.7318    11.8979     8.9419     9.6896
  802.0000     0.3292     8.6087   145.4502     2.4970     0.0389  -105.7329    11.7870     8.9489     9.6882
  802.5000     0.3259     8.6115   146.6519     2.5170     0.0538  -105.9315    11.7848     9.0298     9.6864
  803.0000     0.3080     8.6119   148.6521     2.5289     0.0728  -106.1302    12.0011     9.1115     9.7734
  803.5000     0.3076     8.6123   150.2538     2.5210     0.0827  -106.1313    12.1095     9.1938     9.6822
  804.0000     0.3136     8.6127   149.8634     2.5479     0.0598  -105.7370    12.2190     9.1921     9.6812
  804.5000     0.3187     8.6131   147.8793     2.5190     0.0419  -105.9357    12.2168     9.1905     9.7684
  805.0000     0.3199     8.5937   147.4889     2.5379     0.0489  -105.7391    12.1029     9.1888     9.8006
  805.5000     0.3203     8.5941   147.8954     2.5469     0.0688  -105.7402    11.8805     9.1028     9.7988
  806.0000     0.3227     8.5945   148.7003     2.5379     0.0599  -105.5459    11.7698     8.9362     9.6206
  806.5000     0.3219     8.5949   150.3020     2.5280     0.0678  -105.5469    11.7676     8.8042     9.3591
  807.0000     0.3183     8.5754   151.1069     2.5270     0.0589  -105.5482    11.7655     8.6741     9.3574
  807.5000     0.3159     8.5757   151.1150     2.5280     0.0788  -105.5469    11.7633     8.5460     9.1869
  808.0000     0.3187     8.5760   149.5293     2.5250     0.0818  -105.5479    11.7612     8.4504     9.1852
  808.5000     0.3207     8.5765   148.3420     2.4941     0.0330  -105.7466    11.7590     8.4488     9.1836
  809.0000     0.3219     8.5968   147.5532     2.4782     0.0171  -105.9453    11.6494     8.5252     9.0162
  809.5000     0.3195     8.5973   147.5612     2.5041     0.0440  -105.9464    11.3839     8.3964     8.9326
  810.0000     0.3199     8.5977   146.3739     2.5130     0.0400  -105.9472    11.0209     8.3185     8.8507
  810.5000     0.3247     8.5981   144.3898     2.5170     0.0510  -106.5414    10.8184     8.1650     8.6891
  811.0000     0.3323     8.5985   140.8120     2.5270     0.0689  -106.5425    10.8164     8.1635     8.6875
  811.5000     0.3522     8.5989   142.0153     2.5190     0.0609  -106.7412    11.1165     8.2375     8.7654
  812.0000     0.3530     8.5992   143.6186     2.5131     0.0504  -106.9399    11.5303     8.2360     8.7638
  812.5000     0.3502     8.5996   146.0172     2.5001     0.0351  -106.7433    11.8501     8.4651     9.0048
  813.0000     0.3482     8.6000   149.2127     2.5111     0.0321  -106.7444    11.9573     8.8623     9.4224
  813.5000     0.3467     8.6004   151.2113     2.5300     0.0371  -106.9431    11.7919     8.8606     9.4207
  814.0000     0.3411     8.6008   152.0179     2.5280     0.0281  -106.9441    11.6822     8.8590     9.4190
  814.5000     0.3347     8.6012   150.8274     2.5191     0.0301  -106.7475    11.6801     8.6161     9.1636
  815.0000     0.3267     8.6016   149.6401     2.5599     0.0730  -106.7486    11.5715     8.3798     8.9151
  815.5000     0.3219     8.6020   149.6482     2.5251     0.0690  -106.7496    11.5694     8.3783     8.9135
  816.0000     0.3227     8.6024   150.0546     2.5350     0.0461  -106.9484    11.4619     8.3767     8.9119
  816.5000     0.3267     8.6028   150.4611     2.5271     0.0580  -106.7517    11.4598     8.2984     8.8295
  817.0000     0.3295     8.6032   151.6644     2.5181     0.0481  -106.3574    11.4573     8.2969     8.8279
  817.5000     0.3315     8.6234   150.4772     2.5400     0.0690  -106.1608    11.4552     8.2954     8.8263
  818.0000     0.3355     8.6239   150.4788     2.5460     0.0591  -105.9641    11.4531     8.2939     8.8247
  818.5000     0.3394     8.6243   148.9043     2.5201     0.0541  -106.1629    11.5563     8.2924     8.8231
  819.0000     0.3454     8.6247   148.9075     2.5371     0.0760  -106.3616    11.6605     8.2636     8.7929
  819.5000     0.3542     8.6052   150.9077     2.5311     0.0491  -106.3626    11.7657     8.3383     8.8715
  820.0000     0.3674     8.6056   151.7126     2.5191     0.0740  -106.3637    11.4958     8.4913     9.0324
  820.5000     0.3670     8.6060   149.7285     2.5391     0.0641  -106.3647    11.2849     8.6471     9.1962
  821.0000     0.3526     8.6064   146.6867     2.5221     0.0571  -106.7612    11.0775     8.4106     9.3042
  821.5000     0.3474     8.6068   144.1665     2.5072     0.0452  -106.9600    10.9743     8.4088     9.1332
  822.0000     0.3446     8.6072   144.5730     2.5510     0.0661  -106.7633    10.7726     8.1788     8.8834
  822.5000     0.3438     8.6245   147.7685     2.5451     0.0751  -106.9623    10.6722     7.9548     8.6405
  823.0000     0.3390     8.6236   149.7687     2.5251     0.0691  -106.9633    10.6703     7.8087     8.3141
  823.5000     0.3364     8.6227   150.1751     2.5242     0.0502  -106.9644    11.4301     7.9770     8.4913
  824.0000     0.3310     8.6218   148.5894     2.5261     0.0392  -106.7677    12.0735     8.2757     8.8056
  824.5000     0.3283     8.6209   146.2069     2.5002     0.0293  -106.5711    12.1824     9.1222     9.6956
  825.0000     0.3219     8.6199   145.4180     2.5212     0.0313  -106.3744    12.4053     9.6381    10.2376
