~VERSION INFORMATION
 VERS.                2.0:   CWLS LOG ASCII STANDARD - VERSION 2.0
 WRAP.                 NO:   ONE LINE PER DEPTH STEP
~WELL INFORMATION
#MNEM.UNIT      DATA TYPE    INFORMATION
#----------   ------------   ------------------------------
 STRT.F           46.0000:   START DEPTH
 STOP.F         2736.5000:   STOP DEPTH
 STEP.F            0.5000:   STEP LENGTH
 NULL.          -999.2500:   NO VALUE
 COMP.          INTEX OIL:   COMPANY
 WELL. INTEX NPR 3 "AX" #72-20:   WELL
 FLD .             TEAPOT:   FIELD
 LOC .      S20 T39N R78W:   LOCATION
 CNTY.            NATRONA:   COUNTY
 STAT.            WYOMING:   STATE
 CTRY. UNITED STATES OF AMERICA:   COUNTRY
 SRVC.       SCHLUMBERGER:   SERVICE COMPANY
 DATE.        11-MAY-1966:   LOGDATE
 API .     49025095110000:   API NUMBER
~CURVE INFORMATION
#MNEM.UNIT       API CODE    CURVE DESCRIPTION
#----------   ------------   ------------------------------
 DEPT.F                  :   
 SPR .MV     05 010 01 00:   SPONTANEOUS POTENTIAL FROM RES.
 ILD .OHMM   05 120 46 00:   INDUCTION LOG DEEP
 ASN .OHMM   05 041 16 00:   AMPLIFIED SHORT NORMAL 16"
 CALD.IN     45 280 60 00:   CALIPER FROM DENSITY LOG
 CORR.G/C3   45 356 01 00:   DENSITY CORRECTION
 RHOB.G/C3   45 350 01 00:   BULK DENSITY
 GRD .GAPI   45 310 01 00:   GAMMA RAY FROM DENSITY LOG
~PARAMETER INFORMATION
#MNEM.UNIT          VALUE    DESCRIPTION
#----------   ------------   ------------------------------
 EKB .F         5042.3000:   Kelly bushing
 EGL .F         5032.0000:   Ground level
 EDF .F            0.0000:   Drilling floor
 EPD .F         5032.0000:   Permanent datum
 TD  .F         2740.0000:   Total depth
 DATE.        11-MAY-1966:   Date logged
 CLNT.            A2DTECH:   Client Code
 DAPD.F              10.3:   Feet Above Permanent Datum
 DD  .F              2740:   Depth driller
 DL  .F              2737:   Depth logger
 BLI .F              2736:   Bottom log interval
 TLI .F                88:   Top log interval
 CS1 .IN            10.75:   Casing size
 CBD1.       10.75" @ 24':   Casing driller 1
 BS1 .IN            7.875:   Bit size
 BSD1.F              2740:   Depth drilled with bit1
 DFT .           OIL EMUL:   Type fluid in hole
 DFD .                9.8:   Density
 DFV .                 58:   Viscosity
 MSS .         CIRCULATED:   Source of sample
 RMS .OHMM           3.04:   Rm
 MST .F                54:   Rm Meas. temp.
 RMF .OHMM           1.95:   Rmf
 MFST.F                55:   Rmf Meas. temp.
 MFSS.                 FR:   Source Rmf.
 RMB .OHMM           1.64:   Rm. at BHT
 BHT .F               100:   BHT.
 TCS .HRS               4:   Time Circ. stopped
 MRT .F               100:   Maximum recorded temp.
 LUN .               4507:   Logging unit number
 LUL .               CSPR:   Logging unit location
 ENGI.               HAUG:   Recorded By
 WITN.             TUTTLE:   Witnessed by
 ORIG.        2" 5" PRINT:   Origin of data
 UWI .     49025095110000:   Unique Well ID
 DICO. A2D TECHNOLOGIES, INC.:   Digitizing Company
~OTHER INFORMATION
~A   DEPT      SPR        ILD        ASN       CALD       CORR       RHOB         GRD  
# ...
  273.5000   -65.6170     8.5350    10.3090     8.6180     0.0320     2.4350   124.5390
  274.0000   -65.5970     8.5540    10.3230     8.6180     0.0290     2.4300   124.9950
  274.5000   -65.6680     8.5870    10.3640     8.6180     0.0350     2.4360   123.1530
  275.0000   -65.7330     8.6200    10.4030     8.6180     0.0410     2.4460   123.7550
  275.5000   -65.7970     8.6520    10.4410     8.6180     0.0410     2.4430   124.7740
  276.0000   -65.8640     8.6850    10.4800     8.6180     0.0260     2.4380   125.8390
  276.5000   -65.9280     8.7170    10.5190     8.6180     0.0380     2.4490   126.1480
  277.0000   -65.9930     8.7490    10.5570     8.6180     0.0470     2.4650   125.4320
  277.5000   -66.0580     8.7810    10.5970     8.6180     0.0610     2.4800   124.1000
  278.0000   -66.1230     8.8140    10.6320     8.6180     0.0560     2.4740   122.8390
  278.5000   -66.1890     8.8470    10.6800     8.6180     0.0520     2.4710   121.6070
  279.0000   -66.2510     8.8760    10.6250     8.6180     0.0510     2.4720   120.3760
  279.5000   -66.3220     8.9160    10.5160     8.6180     0.0390     2.4710   118.8260
  280.0000   -66.2990     8.8720    10.4210     8.6180     0.0480     2.4610   118.0510
  280.5000   -66.2250     8.7860    10.3280     8.6180     0.0430     2.4460   118.9990
  281.0000   -66.1620     8.7110    10.2470     8.6180     0.0320     2.4330   119.5720
  281.5000   -66.0970     8.6260    10.1700     8.6180     0.0330     2.4280   120.2600
  282.0000   -66.0310     8.5670    10.0990     8.6180     0.0280     2.4190   120.9410
  282.5000   -65.9660     8.3770    10.0260     8.6180     0.0220     2.4050   124.1020
  283.0000   -65.9010     8.1040     9.9520     8.6180     0.0150     2.3920   125.6670
  283.5000   -65.8360     7.8590     9.8840     8.6180     0.0090     2.3880   124.7480
  284.0000   -65.7710     7.6090     9.8000     8.6180     0.0070     2.3890   123.3650
  284.5000   -65.7050     7.3540     9.8020     8.6180     0.0190     2.3890   123.6460
  285.0000   -65.6410     7.1170     9.5930     8.6180     0.0310     2.3910   128.1100
  285.5000   -65.5740     6.8410     9.2290     8.6180     0.0440     2.3960   130.2380
  286.0000   -65.5500     6.8980     8.9130     8.6180     0.0450     2.3990   131.0800
  286.5000   -65.5520     7.1680     8.5640     8.6180     0.0270     2.4070   132.1500
  287.0000   -65.5510     7.4010     8.5040     8.6180     0.0260     2.4190   132.3950
  287.5000   -65.5510     7.6410     8.6010     8.6180     0.0270     2.4280   131.7070
  288.0000   -65.5510     7.8820     8.8480     8.6180     0.0350     2.4500   128.1040
  288.5000   -65.5510     8.1200     9.2230     8.6180     0.0390     2.4550   125.2590
  289.0000   -65.5510     8.3600     9.5700     8.6180     0.0330     2.4360   122.1980
  289.5000   -65.5510     8.6000     9.7860     8.6180     0.0280     2.4240   123.9020
  290.0000   -65.5510     8.8390     9.9200     8.6180     0.0220     2.4190   124.8030
  290.5000   -65.5510     9.0790    10.0300     8.6180     0.0250     2.4190   125.7230
  291.0000   -65.5490     9.3200    10.2840     8.6180     0.0270     2.4250   125.7150
  291.5000   -65.5550     9.5560    10.6460     8.6180     0.0350     2.4300   122.7940
  292.0000   -65.5100     9.8050    10.9780     8.6180     0.0440     2.4490   118.4890
  292.5000   -65.4250     9.9090    11.3300     8.6180     0.0530     2.4720   118.3220
  293.0000   -65.3490     9.8980    11.5070     8.6180     0.0510     2.4650   118.0730
  293.5000   -65.2710     9.9010    11.5430     8.6180     0.0430     2.4480   117.8710
  294.0000   -65.1920     9.9010    11.5950     8.6180     0.0350     2.4470   118.2750
  294.5000   -65.1150     9.9010    11.6460     8.6180     0.0280     2.4440   119.7470
  295.0000   -65.0360     9.9020    11.6650     8.6180     0.0210     2.4220   122.6710
  295.5000   -64.9570     9.9020    11.6900     8.6180     0.0160     2.4150   123.9000
  296.0000   -64.8840     9.9020    11.7420     8.6180     0.0130     2.4110   122.4500
  296.5000   -64.7890     9.9020    11.7910     8.6180     0.0140     2.4160   120.4280
  297.0000   -64.8560     9.9020    11.8390     8.6180     0.0160     2.4280   117.5280
  297.5000   -65.0700     9.9010    11.8880     8.6180     0.0240     2.4390   113.7060
  298.0000   -65.2550     9.9020    11.9370     8.6180     0.0330     2.4480   112.5910
  298.5000   -65.4660     9.9020    11.9830     8.6180     0.0400     2.4560   114.1990
  299.0000   -65.5260     9.9000    12.0390     8.6180     0.0490     2.4500   115.7840
  299.5000   -65.4390     9.9060    12.0230     8.6180     0.0370     2.4360   117.2210
  300.0000   -65.3740     9.8520    11.9350     8.6180     0.0300     2.4280   118.3760
  300.5000   -65.3020     9.7380    11.8570     8.6180     0.0220     2.4200   119.4400
  301.0000   -65.2310     9.6330    11.7760     8.6180     0.0230     2.4240   120.3570
  301.5000   -65.1620     9.5260    11.6950     8.6180     0.0280     2.4280   121.2180
  302.0000   -65.0910     9.4190    11.6150     8.6180     0.0310     2.4230   119.5780
  302.5000   -65.0210     9.3110    11.5340     8.6180     0.0270     2.4240   117.9070
  303.0000   -64.9500     9.2040    11.4550     8.6180     0.0310     2.4290   116.8660
  303.5000   -64.8800     9.1000    11.3740     8.6180     0.0420     2.4350   117.4610
  304.0000   -64.8090     8.9810    11.2930     8.6180     0.0360     2.4180   119.5520
  304.5000   -64.7390     8.9400    11.2150     8.6180     0.0210     2.4230   122.4770
  305.0000   -64.6680     9.0140    11.1250     8.6180     0.0370     2.4300   122.0220
  305.5000   -64.5970     9.0740    11.0850     8.6180     0.0330     2.4310   120.1340
  306.0000   -64.5270     9.1390    11.1240     8.6180     0.0350     2.4250   119.3390
  306.5000   -64.4560     9.2040    11.1540     8.6180     0.0410     2.4300   118.0070
  307.0000   -64.3860     9.2680    11.1870     8.6180     0.0430     2.4360   117.3800
  307.5000   -64.3160     9.3320    11.2190     8.6180     0.0370     2.4370   117.0200
  308.0000   -64.2440     9.3960    11.2500     8.6180     0.0350     2.4390   116.8080
  308.5000   -64.1760     9.4600    11.2830     8.6180     0.0390     2.4390   118.5200
  309.0000   -64.1030     9.5250    11.3150     8.6180     0.0430     2.4540   120.5810
  309.5000   -64.0330     9.5890    11.3470     8.6180     0.0460     2.4330   119.7200
  310.0000   -63.9920     9.6540    11.3790     8.6180     0.0400     2.4220   118.7540
  310.5000   -64.1360     9.7180    11.4110     8.6180     0.0410     2.4290   117.9620
  311.0000   -64.2590     9.7820    11.4440     8.6180     0.0480     2.4340   120.3410
  311.5000   -64.3910     9.8470    11.4760     8.6180     0.0460     2.4390   122.1520
  312.0000   -64.5200     9.8990    11.5080     8.6180     0.0360     2.4320   123.9260
  312.5000   -64.6490     9.9020    11.5400     8.6180     0.0270     2.4240   120.5560
  313.0000   -64.7500     9.9020    11.5730     8.6180     0.0300     2.4290   119.6710
  313.5000   -64.6640     9.9030    11.6040     8.6190     0.0350     2.4310   120.0360
  314.0000   -64.5830     9.9120    11.6380     8.6110     0.0290     2.4170   120.0770
  314.5000   -64.4930    10.0260    11.6750     8.5950     0.0180     2.4050   119.3890
  315.0000   -64.4100    10.1350    11.8060     8.5810     0.0220     2.4190   120.6930
  315.5000   -64.3230    10.2510    11.9320     8.5950     0.0330     2.4440   125.7490
  316.0000   -64.2380    10.3620    12.0630     8.6090     0.0430     2.4590   125.7700
  316.5000   -64.1500    10.4750    12.1900     8.6260     0.0470     2.4510   123.3120
  317.0000   -64.0660    10.5870    12.3190     8.6400     0.0350     2.4350   121.8590
  317.5000   -63.9830    10.6990    12.4480     8.6560     0.0240     2.4190   120.5670
  318.0000   -63.9770    10.8130    12.5770     8.6450     0.0120     2.4080   119.9360
  318.5000   -63.9760    10.9240    12.7050     8.6310     0.0070     2.4080   119.2550
