~VERSION INFORMATION
 VERS.                2.0:   CWLS LOG ASCII STANDARD - VERSION 2.0
 WRAP.                 NO:   ONE LINE PER DEPTH STEP
~WELL INFORMATION
#MNEM.UNIT      DATA TYPE    INFORMATION
#----------   ------------   ------------------------------
 STRT.F          466.5000:   START DEPTH
 STOP.F         3184.0000:   STOP DEPTH
 STEP.F            0.5000:   STEP LENGTH
 NULL.          -999.2500:   NO VALUE
 COMP. LAWRENCE ALLISON AND ASSOCIATES:   COMPANY
 WELL. LAWRENCE 66 "X" #3-28:   WELL
 FLD .              N P R:   FIELD
 LOC .      S28 T39N R78W:   LOCATION
 CNTY.            NATRONA:   COUNTY
 STAT.            WYOMING:   STATE
 CTRY. UNITED STATES OF AMERICA:   COUNTRY
 SRVC.      DRESSER ATLAS:   SERVICE COMPANY
 DATE.        16-APR-1986:   LOGDATE
 API .     49025111340000:   API NUMBER
~CURVE INFORMATION
#MNEM.UNIT       API CODE    CURVE DESCRIPTION
#----------   ------------   ------------------------------
 DEPT.F                  :   
 RHOB.G/C3   45 350 01 00:   BULK DENSITY
 CORR.G/C3   45 356 01 00:   DENSITY CORRECTION
 TEND.LBS    45 635 01 00:   TENSION FROM DENSITY LOG
 NPHI.DEC    42 890 03 00:   NEUTRON POROSITY SANDSTONE
 DT  .US/F   60 520 00 00:   DELTA TIME
 TENS.LBS    51 635 01 00:   TENSION
 CALR.IN     07 280 01 00:   CALIPER FROM RESISTIVITY
 SPR .MV     07 010 01 00:   SPONTANEOUS POTENTIAL
 TENR.LBS    07 635 01 00:   TENSION FROM RESISTIVITY
 RFOC.OHMM   07 220 04 00:   RESISTIVITY FOCUSED LOG RES.
 GRR .GAPI   07 310 01 00:   GAMMA RAY FROM RESISTIVITY
 RILD.OHMM   07 120 46 00:   DEEP INDUCTION RESISTIVITY
 RILM.OHMM   07 120 44 00:   INDUCTION LOG MEDIUM RESISTIVITY
~PARAMETER INFORMATION
#MNEM.UNIT          VALUE    DESCRIPTION
#----------   ------------   ------------------------------
 EKB .F         5071.0000:   Kelly bushing
 EGL .F         5059.0000:   Ground level
 TD  .F         3176.0000:   Total depth
 DATE.        16-APR-1986:   Date logged
 CLNT.            A2DTECH:   Client Code
 SL  . 1685' FEL & 1915'FSL:   Surface Location
 PD  .                 GL:   Permanent Datum
 EPD .F              5059:   Elevation Permanent Datum
 LMF .                 KB:   Log Measured From
 DD  .F              3176:   Depth driller
 DL  .F              3176:   Depth logger
 BLI .F              3174:   Bottom log interval
 TLI .F               480:   Top log interval
 CS1 .IN            8.625:   Casing size
 BS1 .IN            7.875:   Bit size
 DFT .        POLYMER KCL:   Type fluid in hole
 DFD .                  9:   Density
 DFV .                 40:   Viscosity
 DFPH.                8.5:   pH
 DFL .               10.2:   Fluid loss
 MSS .           FLOWLINE:   Source of sample
 RMS .OHMM           .226:   Rm
 MST .F                65:   Rm Meas. temp.
 RMF .OHMM           .169:   Rmf
 MFST.F                65:   Rmf Meas. temp.
 RMC .OHMM           .283:   Rmc
 MCST.F                65:   Rmc Meas. temp.
 MFSS.               CALC:   Source Rmf.
 MCSS.               CALC:   Source Rmc.
 RMB .OHMM           .118:   Rm. at BHT
 BHT .F               125:   BHT.
 TCS .HRS               5:   Time Circ. stopped
 MRT .F               125:   Maximum recorded temp.
 LUN .               6264:   Logging unit number
 LUL .           GILLETTE:   Logging unit location
 ENGI.             MILLER:   Recorded By
 WITN.             STRONG:   Witnessed by
 ORIG.           5" PRINT:   Origin of data
 UWI .     49025111340000:   Unique Well ID
 DICO. A2D TECHNOLOGIES, INC.:   Digitizing Company
 DMF .                 KB:   Drilling Measured From
 DAPD.F                12:   Feet Above Permanent Datum
 CBD1.      8.625" @ 475':   Casing driller 1
 CBL1.F               480:   Casing logger 1
 BSD1.F              3176:   Depth drilled with bit1
~OTHER INFORMATION
~A   DEPT     RHOB       CORR       TEND       NPHI         DT       TENS       CALR        SPR       TENR       RFOC         GRR      RILD       RILM   
# ...
 1376.5000  -999.2500  -999.2500  -999.2500  -999.2500  -999.2500  -999.2500    10.7800   -78.1580   -65.0000     6.7570    91.8080     7.0500     6.9210
 1377.0000  -999.2500  -999.2500  -999.2500  -999.2500  -999.2500  -999.2500    10.8050   -78.6990   -65.0000     6.7770    94.3140     7.0310     6.9030
 1377.5000  -999.2500  -999.2500  -999.2500  -999.2500  -999.2500  -999.2500    10.8290   -78.8710   -65.0000     6.5630    96.9100     6.9670     6.8400
 1378.0000  -999.2500  -999.2500  -999.2500  -999.2500  -999.2500  -999.2500    10.8440   -79.0310   -59.3500     6.3540    95.0130     6.9000     6.7740
 1378.5000  -999.2500  -999.2500  -999.2500  -999.2500  -999.2500  -999.2500    10.7970   -78.9370   -46.3250     6.4150    92.3480     6.8400     6.7150
 1379.0000  -999.2500  -999.2500  -999.2500  -999.2500  -999.2500  -999.2500    10.7500   -78.6510   -29.4000     6.4730    93.7620     6.8400     6.7150
 1379.5000  -999.2500  -999.2500  -999.2500  -999.2500  -999.2500  -999.2500    10.7230   -78.3640   -35.6090     6.5320    94.4660     6.9110     6.7500
 1380.0000  -999.2500  -999.2500  -999.2500  -999.2500  -999.2500  -999.2500    10.6970   -78.0800   -49.8180     6.5520    91.7900     7.0060     6.7970
 1380.5000  -999.2500  -999.2500  -999.2500  -999.2500  -999.2500  -999.2500    10.6710   -77.6470   -51.6900     6.5770    89.1440     7.0960     6.8450
 1381.0000  -999.2500  -999.2500  -999.2500  -999.2500  -999.2500  -999.2500    10.6470   -77.2280   -46.4800     6.6020    91.6350     7.0960     6.8920
 1381.5000  -999.2500  -999.2500  -999.2500  -999.2500  -999.2500  -999.2500    10.6320   -76.8130   -66.3140     6.6280    93.3800     7.0960     6.9390
 1382.0000  -999.2500  -999.2500  -999.2500  -999.2500  -999.2500  -999.2500    10.6170   -76.3960   -88.8800     6.6530    94.0420     7.1360     6.9870
 1382.5000  -999.2500  -999.2500  -999.2500  -999.2500  -999.2500  -999.2500    10.6010   -75.9370   -99.3000     6.7150    93.1640     7.4310     7.0340
 1383.0000  -999.2500  -999.2500  -999.2500  -999.2500  -999.2500  -999.2500    10.5860   -75.2570  -107.6220     6.7660    92.3270     7.4020     7.0960
 1383.5000  -999.2500  -999.2500  -999.2500  -999.2500  -999.2500  -999.2500    10.5710   -74.4430  -113.4110     6.8400    91.4960     7.3560     7.0780
 1384.0000  -999.2500  -999.2500  -999.2500  -999.2500  -999.2500  -999.2500    10.5820   -73.8950  -115.0000     6.8300    90.5590     7.2930     7.0510
 1384.5000  -999.2500  -999.2500  -999.2500  -999.2500  -999.2500  -999.2500    10.5940   -73.6210  -115.0000     6.8120    91.1470     7.2300     7.0240
 1385.0000  -999.2500  -999.2500  -999.2500  -999.2500  -999.2500  -999.2500    10.6060   -74.3020  -115.0000     6.7940    92.5990     7.1660     6.9970
 1385.5000  -999.2500  -999.2500  -999.2500  -999.2500  -999.2500  -999.2500    10.6180   -74.4520  -109.3100     6.7770    94.0920     7.1030     6.9700
 1386.0000  -999.2500  -999.2500  -999.2500  -999.2500  -999.2500  -999.2500    10.6300   -74.7430  -102.5870     6.4740    95.6780     6.9880     6.8610
 1386.5000  -999.2500  -999.2500  -999.2500  -999.2500  -999.2500  -999.2500    10.6420   -74.8160   -95.8650     6.2380    93.7850     6.8670     6.7420
 1387.0000  -999.2500  -999.2500  -999.2500  -999.2500  -999.2500  -999.2500    10.6540   -74.9050   -89.1420     6.3800    91.6790     6.8400     6.7150
 1387.5000  -999.2500  -999.2500  -999.2500  -999.2500  -999.2500  -999.2500    10.6670   -75.0940   -82.4190     6.5040    89.6240     6.8400     6.7150
 1388.0000  -999.2500  -999.2500  -999.2500  -999.2500  -999.2500  -999.2500    10.6720   -75.3170   -75.6970     6.5920    88.3990     6.8400     6.7150
 1388.5000  -999.2500  -999.2500  -999.2500  -999.2500  -999.2500  -999.2500    10.6740   -76.5380   -89.0100     6.1240    89.1490     6.9050     6.7790
 1389.0000  -999.2500  -999.2500  -999.2500  -999.2500  -999.2500  -999.2500    10.6760   -77.9280  -105.0000     6.2580    89.2800     6.9670     6.8400
 1389.5000  -999.2500  -999.2500  -999.2500  -999.2500  -999.2500  -999.2500    10.6790   -79.0640   -98.6380     6.4020    85.7390     6.9890     6.8620
 1390.0000  -999.2500  -999.2500  -999.2500  -999.2500  -999.2500  -999.2500    10.6810   -79.1790   -92.1250     6.5450    85.8210     7.0130     6.8850
 1390.5000  -999.2500  -999.2500  -999.2500  -999.2500  -999.2500  -999.2500    10.6830   -78.5030   -85.0000     6.5920    87.4200     7.0360     6.9080
 1391.0000  -999.2500  -999.2500  -999.2500  -999.2500  -999.2500  -999.2500    10.6860   -77.8320   -95.4890     6.5500    88.5570     7.0590     6.9300
 1391.5000  -999.2500  -999.2500  -999.2500  -999.2500  -999.2500  -999.2500    10.6880   -77.1370  -101.9000     6.2470    88.1180     7.0830     6.9530
 1392.0000  -999.2500  -999.2500  -999.2500  -999.2500  -999.2500  -999.2500    10.6900   -76.3340   -84.5330     6.0680    88.1550     7.0960     6.9670
 1392.5000  -999.2500  -999.2500  -999.2500  -999.2500  -999.2500  -999.2500    10.7010   -75.5130   -67.1670     6.3380    89.8790     6.9660     6.8390
 1393.0000  -999.2500  -999.2500  -999.2500  -999.2500  -999.2500  -999.2500    10.7110   -74.6440   -65.0000     6.4720    91.5350     6.8730     6.7480
 1393.5000  -999.2500  -999.2500  -999.2500  -999.2500  -999.2500  -999.2500    10.7210   -73.7410   -65.0000     6.2930    92.9870     6.7770     6.6530
 1394.0000  -999.2500  -999.2500  -999.2500  -999.2500  -999.2500  -999.2500    10.7310   -72.8340   -67.7090     6.0680    94.0200     6.7770     6.5030
 1394.5000  -999.2500  -999.2500  -999.2500  -999.2500  -999.2500  -999.2500    10.7410   -72.9720   -72.4450     6.0890    95.0530     6.7770     6.3830
 1395.0000  -999.2500  -999.2500  -999.2500  -999.2500  -999.2500  -999.2500    10.7510   -73.3050   -87.0000     6.1240    94.6720     6.6510     6.3140
 1395.5000  -999.2500  -999.2500  -999.2500  -999.2500  -999.2500  -999.2500    10.7640   -73.6410  -100.0460     6.1580    93.5440     6.5290     6.2440
 1396.0000  -999.2500  -999.2500  -999.2500  -999.2500  -999.2500  -999.2500    10.7760   -73.9730   -84.0150     6.1810    94.5790     6.4080     6.1750
 1396.5000  -999.2500  -999.2500  -999.2500  -999.2500  -999.2500  -999.2500    10.7890   -74.2680   -67.9850     5.9280    95.3520     6.2860     6.1050
 1397.0000  -999.2500  -999.2500  -999.2500  -999.2500  -999.2500  -999.2500    10.8010   -75.1660   -67.1200     5.8530    93.0910     6.1650     6.0360
 1397.5000  -999.2500  -999.2500  -999.2500  -999.2500  -999.2500  -999.2500    10.8080   -76.0640   -69.7250     5.7780    91.9190     6.1240     6.0120
 1398.0000  -999.2500  -999.2500  -999.2500  -999.2500  -999.2500  -999.2500    10.7990   -76.8150   -72.3300     5.7330    91.3600     6.0990     5.9880
 1398.5000  -999.2500  -999.2500  -999.2500  -999.2500  -999.2500  -999.2500    10.7900   -77.2780   -75.0000     5.7160    87.8300     6.0770     5.9660
 1399.0000  -999.2500  -999.2500  -999.2500  -999.2500  -999.2500  -999.2500    10.7810   -77.1880   -92.9440     5.6990    84.0690     6.0680     5.9570
 1399.5000  -999.2500  -999.2500  -999.2500  -999.2500  -999.2500  -999.2500    10.7730   -77.0880  -111.3480     5.6890    82.5100     6.1230     5.9960
 1400.0000  -999.2500  -999.2500  -999.2500  -999.2500  -999.2500  -999.2500    10.7600   -77.9880  -129.7520     6.0330    86.1780     6.2490     6.0840
 1400.5000  -999.2500  -999.2500  -999.2500  -999.2500  -999.2500  -999.2500    10.7450   -78.4740  -118.7820     6.2380    89.6620     6.3740     6.1730
 1401.0000  -999.2500  -999.2500  -999.2500  -999.2500  -999.2500  -999.2500    10.7300   -77.7340   -75.7450     6.1410    89.5800     6.5000     6.2610
 1401.5000  -999.2500  -999.2500  -999.2500  -999.2500  -999.2500  -999.2500    10.7140   -77.0130   -35.0000     6.0560    88.1440     6.6260     6.3500
 1402.0000  -999.2500  -999.2500  -999.2500  -999.2500  -999.2500  -999.2500    10.7260   -76.2870   -29.2330     6.0120    87.9050     6.7170     6.4130
