~VERSION INFORMATION
 VERS.                2.0:   CWLS LOG ASCII STANDARD - VERSION 2.0
 WRAP.                 NO:   ONE LINE PER DEPTH STEP
~WELL INFORMATION
#MNEM.UNIT      DATA TYPE    INFORMATION
#----------   ------------   ------------------------------
 STRT.F          176.0000:   START DEPTH
 STOP.F         3400.0000:   STOP DEPTH
 STEP.F            0.5000:   STEP LENGTH
 NULL.          -999.2500:   NO VALUE
 COMP.    PENIX & SCISSON:   COMPANY
 WELL. FENIX NPR 3 "AX" #64-4:   WELL
 FLD .                NPR:   FIELD
 LOC .       S4 T38N R78W:   LOCATION
 CNTY.            NATRONA:   COUNTY
 STAT.            WYOMING:   STATE
 CTRY. UNITED STATES OF AMERICA:   COUNTRY
 SRVC.       SCHLUMBERGER:   SERVICE COMPANY
 DATE.        25-JAN-1981:   LOGDATE
 API .     49025108640000:   API NUMBER
~CURVE INFORMATION
#MNEM.UNIT       API CODE    CURVE DESCRIPTION
#----------   ------------   ------------------------------
 DEPT.F                  :   
 SPR .MV     07 010 01 00:   SPONTANEOUS POTENTIAL
 RFOC.OHMM   07 220 01 00:   RESISTIVITY FOCUSED LOG RES.
 ILD .OHMM   07 120 46 00:   DEEP INDUCTION RESISTIVITY
 TENR.LBS    07 635 01 00:   TENSION
 ILM .OHMM   07 120 44 00:   INDUCTION LOG MEDIUM RESISTIVITY
 GRD .GAPI   45 310 01 00:   GAMMA RAY FROM DENSITY LOG
 CALD.IN     45 280 60 00:   CALIPER FROM DENSITY LOG
 RHOB.G/C3   45 350 01 00:   BULK DENSITY
 TEND.LBS    45 635 01 00:   TENSION FROM DENSITY LOG
 CORR.G/C3   45 356 01 00:   DENSITY CORRECTION
~PARAMETER INFORMATION
#MNEM.UNIT          VALUE    DESCRIPTION
#----------   ------------   ------------------------------
 EKB .F         5257.0000:   Kelly bushing
 EGL .F         5247.0000:   Ground level
 EDF .F            0.0000:   Drilling floor
 TD  .F         3388.0000:   Total depth
 DATE.        25-JAN-1981:   Date logged
 CLNT.            A2DTECH:   Client Code
 SL  . 2289' FNL & 1495' FEL:   Surface Location
 PD  .                 GL:   Permanent Datum
 EPD .F              5247:   Elevation Permanent Datum
 LMF .                 KB:   Log Measured From
 DMF .                 KB:   Drilling Measured From
 DAPD.F                10:   Feet Above Permanent Datum
 DD  .F              3388:   Depth driller
 DL  .F              3386:   Depth logger
 BLI .F              3380:   Bottom log interval
 TLI .F               192:   Top log interval
 CS1 .IN            8.625:   Casing size
 CBD1.      8.625" @ 191':   Casing driller 1
 CBL1.F               192:   Casing logger 1
 BS1 .IN            7.875:   Bit size
 BSD1.F              3388:   Depth drilled with bit1
 DFT .                FGM:   Type fluid in hole
 DFD .                8.7:   Density
 DFV .                 32:   Viscosity
 DFPH.                9.5:   pH
 DFL .                 18:   Fluid loss
 MSS .           FLOWLINE:   Source of sample
 RMS .OHMM           1.60:   Rm
 MST .F                60:   Rm Meas. temp.
 RMF .OHMM           1.33:   Rmf
 MFST.F                60:   Rmf Meas. temp.
 MFSS.               MEAS:   Source Rmf.
 RMB .OHMM            .83:   Rm. at BHT
 BHT .F               115:   BHT.
 TCS .HRS            1700:   Time Circ. stopped
 TLAB.HRS            2200:   Time logger at bottom
 MRT .F               115:   Maximum recorded temp.
 LUN .               8039:   Logging unit number
 LUL .               CSPR:   Logging unit location
 ENGI.           C. PFARR:   Recorded By
 WITN.           L. FIVAS:   Witnessed by
 ORIG.           5" PRINT:   Origin of data
 UWI .     49025108640000:   Unique Well ID
 DICO. A2D TECHNOLOGIES, INC.:   Digitizing Company
~OTHER INFORMATION
~A   DEPT      SPR       RFOC        ILD       TENR        ILM         GRD      CALD         RHOB      TEND      CORR   
# ...
 2521.0000   -14.7640    10.7440     6.8930   950.2970     7.1540    85.7430     8.9960     2.5680  1131.3710     0.0450
 2521.5000   -14.7640     9.4430     6.4990   950.7300     6.5620    87.5380     8.9960     2.5770  1131.5330     0.0560
 2522.0000   -14.7640     8.1410     6.1050   951.1620     6.2270    94.3200     8.9960     2.5720  1131.6940     0.0650
 2522.5000   -14.7640     6.8400     5.7110   951.5950     5.8220   100.2460     8.9960     2.5330  1131.8560     0.0610
 2523.0000   -14.7640     5.5590     5.1650   952.0270     5.2610   103.7030     8.9960     2.5010  1132.0179     0.0570
 2523.5000   -14.7630     5.6150     6.0960   952.4600     5.3110   102.6230     8.9960     2.4860  1132.1801     0.0530
 2524.0000   -14.7640     6.5620     5.8790   952.8920     5.3930    99.8780     8.9960     2.4890  1132.3420     0.0490
 2524.5000   -14.7650     8.5010     5.5590   953.3250     5.4580    98.7600     8.9960     2.4940  1132.5031     0.0440
 2525.0000   -14.7970     9.6610     5.5590   953.7570     5.5160    99.9710     8.9960     2.5020  1132.6650     0.0400
 2525.5000   -14.8390     9.1080     5.7080   954.1900     5.6620   100.9520     8.9960     2.5090  1132.8270     0.0360
 2526.0000   -14.8810     8.1840     5.8560   954.6220     5.8080   100.9270     8.9960     2.5130  1132.9890     0.0320
 2526.5000   -14.9220     7.2600     6.0050   955.0550     5.9540    99.0730     8.9960     2.5070  1133.1510     0.0280
 2527.0000   -14.9640     7.0640     6.0960   955.4870     5.9850    96.2120     8.9960     2.5000  1133.3120     0.0240
 2527.5000   -15.0060     7.0640     6.0960   955.9200     5.9850    98.3540     8.9960     2.5040  1133.4740     0.0190
 2528.0000   -15.0480     7.0640     6.0960   956.3520     5.9850   103.6920     8.9960     2.5110  1133.6360     0.0190
 2528.5000   -15.0890     7.0640     6.0960   956.7850     6.3100   109.1480     8.9960     2.5170  1133.7980     0.0220
 2529.0000   -15.1310     7.0640     6.7740   957.2170     6.8780   110.3990     8.9960     2.5180  1133.9600     0.0250
 2529.5000   -15.1730     9.4420     7.3520   957.6500     7.4460   108.6630     8.9960     2.5190  1134.1210     0.0290
 2530.0000   -15.2140    13.4600     8.1850   958.0820     8.0360   106.5350     8.9960     2.5160  1134.2830     0.0270
 2530.5000   -15.2560    13.0820     8.1200   958.5150     7.9250   104.5050     8.9960     2.5030  1134.4449     0.0220
 2531.0000   -15.2970    12.4070     8.0020   958.9480     7.8100   102.2690     8.9960     2.4940  1134.6071     0.0170
 2531.5000   -15.3400    11.8310     7.8850   959.3800     7.6950   100.9710     8.9960     2.4890  1134.7690     0.0130
 2532.0000   -15.3820    10.2800     7.7670   959.8130     7.5790   100.2810     8.9960     2.4980  1134.9301     0.0080
 2532.5000   -15.4200     9.1980     7.6500   960.2450     7.4640    99.4930     8.9960     2.5190  1135.0920     0.0110
 2533.0000   -15.4720     8.8750     7.5330   960.6780     7.3490    95.8370     8.9960     2.5300  1135.2540     0.0150
 2533.5000   -15.4950     8.6500     7.4150   961.1100     7.2340    92.8240     8.9960     2.5340  1135.4160     0.0190
 2534.0000   -15.5290     8.7160     7.2980   961.5430     7.1180    91.0990     8.9960     2.5340  1136.4010     0.0230
 2534.5000   -14.9450     9.1450     7.1950   961.9750     7.0640    90.9350     8.9960     2.5230  1137.6780     0.0250
 2535.0000   -14.8390     9.7790     7.2430   962.4080     7.1700    89.5400     8.9960     2.5100  1138.9561     0.0160
 2535.5000   -14.9600    10.4130     7.3930   962.8400     7.3170    86.5080     8.9960     2.5000  1140.2330     0.0070
 2536.0000   -15.0820    10.3510     7.5430   963.2730     7.4640    83.4570     8.9960     2.5040  1141.5110    -0.0020
 2536.5000   -15.1900    10.2100     7.6920   963.7050     7.6110    82.4740     8.9960     2.5220  1142.7880     0.0030
 2537.0000   -15.3120     9.9000     7.8420   964.1380     7.7580    85.1120     8.9960     2.5330  1144.0660     0.0080
 2537.5000   -15.4200     9.6210     7.9920   964.5700     7.9050    91.3620     8.9960     2.5300  1145.3430     0.0130
 2538.0000   -15.5360     9.3120     8.1410   965.0030     8.0520    95.2160     8.9960     2.5160  1146.6210     0.0120
 2538.5000   -15.4040    10.0240     8.3370   965.4350     8.1850    95.3790     8.9960     2.5020  1147.8979     0.0100
 2539.0000   -15.2450    11.1270     8.2520   965.8680     7.9960    94.2660     8.9960     2.5060  1149.1760     0.0070
 2539.5000   -15.0750    12.2140     7.9590   966.3000     7.7220    94.3430     8.9960     2.5140  1150.4530     0.0080
 2540.0000   -14.9160    11.9580     7.6650   966.7330     7.4480    95.7790     8.9960     2.5220  1151.7300     0.0110
 2540.5000   -14.7700    10.8300     7.3710   967.1660     7.1750    99.0060     8.9960     2.5140  1153.0081     0.0100
 2541.0000   -14.7650     9.7020     7.0770   967.5980     6.9010   101.4500     8.9960     2.5010  1154.2850     0.0060
 2541.5000   -14.7620     8.5740     6.7840   968.0310     6.6270   107.3040     8.9960     2.4850  1155.5630     0.0020
 2542.0000   -14.7650     7.6050     6.4900   968.4630     6.3530   112.7040     8.9960     2.4640  1156.8400     0.0050
 2542.5000   -14.7640     7.0770     6.0960   968.8960     6.0960   114.8670     8.9960     2.4680  1158.1180     0.0090
 2543.0000   -14.7640     6.6840     6.1140   969.3280     6.1050   117.0840     8.9960     2.4790  1159.3950     0.0120
 2543.5000   -14.7640     7.0470     6.1410   969.7610     6.1190   116.5310     8.9960     2.4860  1160.6730     0.0160
 2544.0000   -14.7640     8.1120     6.1680   970.1930     6.1330   114.2660     8.9960     2.4900  1161.9500     0.0200
 2544.5000   -14.7640    10.0240     6.1950   970.6260     6.1470   111.7480     8.9960     2.5140  1163.2280     0.0230
 2545.0000   -14.7640     9.3880     6.2220   971.0580     6.1620   111.7360     8.9960     2.5270  1164.5050     0.0270
 2545.5000   -14.7640     8.3980     6.2490   971.4910     6.1760   113.8940     8.9960     2.5340  1165.7820     0.0310
 2546.0000   -14.7640     7.8650     6.2760   971.9230     6.1900   115.3560     8.9960     2.5320  1167.0601     0.0340
 2546.5000   -14.7640     7.6040     6.3040   972.3560     6.2040   112.9280     8.9960     2.5270  1168.3370     0.0370
 2547.0000   -14.7640     7.6040     6.3580   972.7880     6.3020   110.8020     8.9960     2.5140  1169.6150     0.0330
 2547.5000   -14.7640     7.6040     6.5090   973.2210     6.4490   108.4550     8.9960     2.5020  1170.8920     0.0280
 2548.0000   -14.7640     7.6040     6.6590   973.6530     6.5970   106.2310     8.9960     2.4920  1172.1700     0.0230
 2548.5000   -14.7640     8.7890     6.8080   974.0860     6.9050   105.4010     8.9960     2.5000  1173.4470     0.0180
 2549.0000   -14.7640    10.2430     7.4650   974.5180     7.3290   105.0180     8.9960     2.5040  1174.7250     0.0130
 2549.5000   -14.7640    12.2750     7.4650   974.9510     7.3290   105.4310     8.9960     2.4990  1176.0020     0.0080
 2550.0000   -14.7640    11.4430     7.4650   975.3840     7.2450   106.3930     8.9960     2.4960  1177.2791     0.0020
 2550.5000   -14.7640    10.0600     7.1850   975.8160     7.1070   107.1750     8.9960     2.4920  1178.5570     0.0070
 2551.0000   -14.7640     8.6780     6.9520   976.2490     6.9680   105.7830     8.9960     2.5160  1179.8340     0.0270
 2551.5000   -14.7630     7.1950     6.7190   976.6810     6.8300   102.8240     8.9960     2.5400  1181.1121     0.0420
 2552.0000   -14.7640     7.2790     6.4860   977.1140     6.6910   100.6260     8.9960     2.5610  1182.3890     0.0490
 2552.5000   -14.7670     7.6460     6.2530   977.5460     6.5520   100.9050     8.9960     2.5690  1183.6670     0.0530
 2553.0000   -14.7170     8.0130     5.9850   978.0440     6.4140   103.5320     8.9960     2.5760  1184.9440     0.0540
 2553.5000   -14.5210     8.5630     5.9280   990.2480     6.2750   109.8730     8.9950     2.5830  1186.2220     0.0590
 2554.0000   -14.3260     8.5010     5.8610  1004.6190     6.1370   121.3760     8.9980     2.5880  1187.4990     0.0670
