~VERSION INFORMATION
 VERS.                2.0:   CWLS LOG ASCII STANDARD - VERSION 2.0
 WRAP.                 NO:   ONE LINE PER DEPTH STEP
~WELL INFORMATION
#MNEM.UNIT      DATA TYPE    INFORMATION
#----------   ------------   ------------------------------
 STRT.F           95.0000:   START DEPTH
 STOP.F          866.5000:   STOP DEPTH
 STEP.F            0.5000:   STEP LENGTH
 NULL.          -999.2500:   NO VALUE
 COMP.          U.S. NAVY:   COMPANY
 WELL. U.S NAVY RES 3 TEAPOT DOM "SX" #41-2:   WELL
 FLD .        TEAPOT DOME:   FIELD
 LOC .       S2 T38N R78W:   LOCATION
 CNTY.            NATRONA:   COUNTY
 STAT.            WYOMING:   STATE
 CTRY. UNITED STATES OF AMERICA:   COUNTRY
 SRVC.       SCHLUMBERGER:   SERVICE COMPANY
 DATE.        20-JUL-1953:   LOGDATE
 API .     49025064770000:   API NUMBER
~CURVE INFORMATION
#MNEM.UNIT       API CODE    CURVE DESCRIPTION
#----------   ------------   ------------------------------
 DEPT.F                  :   
 SPR .MV     05 010 01 00:   SPONTANEOUS POTENTIAL FROM RES.
 ASN .OHMM   05 041 16 00:   AMPLIFIED SHORT NORMAL 16"
 ILD .OHMM   05 120 46 00:   INDUCTION LOG DEEP
 GR  .GAPI   30 310 01 00:   GAMMA RAY
~PARAMETER INFORMATION
#MNEM.UNIT          VALUE    DESCRIPTION
#----------   ------------   ------------------------------
 EKB .F         5140.0000:   Kelly bushing
 EGL .F         5135.0000:   Ground level
 TD  .F          862.0000:   Total depth
 DATE.        20-JUL-1953:   Date logged
 CLNT.            A2DTECH:   Client Code
 DD  .F               862:   Depth driller
 DL  .F               855:   Depth logger
 BLI .F               654:   Bottom log interval
 TLI .F                50:   Top log interval
 CS1 .IN            8.625:   Casing size
 CBD1.       8.625" @ 10':   Casing driller 1
 BS1 .IN             6.75:   Bit size
 BSD1.F               862:   Depth drilled with bit1
 DFT .            GEL-OIL:   Type fluid in hole
 DFD .                9.4:   Density
 DFV .                 50:   Viscosity
 DFPH.                8.0:   pH
 DFL .                3.1:   Fluid loss
 RMS .OHMM           1.83:   Rm
 MST .F                96:   Rm Meas. temp.
 RMF .OHMM           1.56:   Rmf
 MFST.F                96:   Rmf Meas. temp.
 TCS .HRS               1:   Time Circ. stopped
 LUN .               4507:   Logging unit number
 LUL .               CSPR:   Logging unit location
 ENGI.            WINKLER:   Recorded By
 WITN.          JORGENSON:   Witnessed by
 ORIG.           5" PRINT:   Origin of data
 UWI .     49025064770000:   Unique Well ID
 DICO. A2D TECHNOLOGIES, INC.:   Digitizing Company
 MSS .           FLOWLINE:   Source of sample
~OTHER INFORMATION
~A  DEPTH      SPR        ASN        ILD         GR
# ...
  606.0000   -64.3036    10.0563     8.7313    77.1218
  606.5000   -64.3053     9.8614     8.5821    76.9767
  607.0000   -64.3068     9.5167     8.3582    77.5806
  607.5000   -64.0106     9.2020     8.1343    80.7161
  608.0000   -63.7142     8.9024     7.9187    88.3225
  608.5000   -62.9718     8.6925     7.6866    85.9439
  609.0000   -62.6754     8.6323     7.6119    85.5017
  609.5000   -62.3792     8.5721     7.5373    86.8488
  610.0000   -62.2319     8.5269     7.4627    83.4289
  610.5000   -62.2338     8.4968     7.5373    82.3915
  611.0000   -62.2352     8.7359     7.6866    83.4406
  611.5000   -62.3854     8.9302     7.8358    85.0858
  612.0000   -62.2381     9.0347     7.9851    85.3897
  612.5000   -62.0908     9.1541     8.0084    85.5446
  613.0000   -61.9432     9.3036     8.0597    85.6994
  613.5000   -61.7960     9.3782     8.1343    88.6859
  614.0000   -61.9465     9.3329     8.2090    86.7544
  614.5000   -62.0968     9.1679     8.2836    85.1218
  615.0000   -62.5449     9.1077     8.2836    84.8277
  615.5000   -62.8440     9.1374     8.2836    86.0277
  616.0000   -62.9942     9.2868     8.3780    86.9278
  616.5000   -62.8466     9.5111     8.5821    86.6356
  617.0000   -62.5507     9.7952     8.6567    84.8530
  617.5000   -62.2545     9.9595     8.8060    84.5598
  618.0000   -61.9581    10.0342     8.8806    88.2925
  618.5000   -61.8107     9.9440     8.8806    90.3847
  619.0000   -61.6636     9.7491     8.8806    88.7522
  619.5000   -61.5162     9.6890     8.8060    89.3542
  620.0000   -61.3689     9.7336     8.6567    90.8494
  620.5000   -61.3708     9.6434     8.4328    83.1066
  621.0000   -61.5211     9.4934     8.3582    84.4537
  621.5000   -61.6713     9.3434     8.2836    83.4163
  622.0000   -61.8216     9.2083     8.1343    81.3358
  622.5000   -61.8230     9.1931     8.1343    83.5771
  623.0000   -61.8247     9.2227     8.0597    85.5213
  623.5000   -61.6769     9.3422     8.0597    88.2097
  624.0000   -61.5295     9.4916     8.0597    93.2826
  624.5000   -61.5314     9.6111     8.0597    90.0098
  625.0000   -61.6817     9.6408     8.0597    88.3763
  625.5000   -61.8319     9.5805     8.0597    86.8918
  626.0000   -61.8336     9.5054     8.0597    85.5554
  626.5000   -61.6862     9.4602     8.0597    86.0093
  627.0000   -61.5384     9.4449     8.0597    86.7603
  627.5000   -61.3913     9.5045     8.1343    81.9982
  628.0000   -61.2439     9.5790     8.1343    79.3214
  628.5000   -61.2456     9.5338     8.1343    78.7292
  629.0000   -61.0980     9.2641     8.2090    84.2502
  629.5000   -60.9509     9.1140     8.2090    82.3196
  630.0000   -60.8035     9.1137     8.1343    81.7293
  630.5000   -60.5076     9.1134     8.1343    81.1391
  631.0000   -60.5090     9.0982     8.1343    80.1017
  631.5000   -60.5107     9.0829     7.9851    82.4921
  632.0000   -60.5121     9.0227     7.9851    83.3911
  632.5000   -60.5136     8.9176     7.9104    78.0338
  633.0000   -60.5150     8.7826     7.6119    81.6164
  633.5000   -60.5165     8.6027     7.2388    78.3435
  634.0000   -60.5179     8.4676     6.8657    77.3052
  634.5000   -60.6684     8.3625     6.4925    79.5465
  635.0000   -60.8187     8.2874     6.1940    77.4659
  635.5000   -60.8201     8.0176     5.9701    79.7073
  636.0000   -60.8216     7.4784     5.8955    80.9063
  636.5000   -60.9718     7.1488     5.8955    78.0816
  637.0000   -60.9735     6.8790     5.9701    79.1306
  637.5000   -60.9749     6.7589     6.0448    81.9681
  638.0000   -60.8271     6.9682     6.2687    84.2084
  638.5000   -60.6802     7.5368     6.4179    80.6385
  639.0000   -60.6817     7.8958     6.6418    80.4943
  639.5000   -60.5341     8.1050     6.8657    81.9915
  640.0000   -60.5360     8.1796     7.0896    85.4250
  640.5000   -60.5374     8.1973     7.2427    86.0280
  641.0000   -60.5389     8.2539     7.4627    87.5241
  641.5000   -60.3913     8.2915     7.4627    89.9145
  642.0000   -60.3929     8.3022     7.4627    87.8339
  642.5000   -60.3946     8.3129     7.4627    85.1572
  643.0000   -60.3961     8.3125     7.3881    79.9469
  643.5000   -60.3975     8.3122     7.3881    79.9528
  644.0000   -60.3990     8.3269     7.3134    76.9780
  644.5000   -60.4004     8.3116     7.2388    69.6813
  645.0000   -60.2528     8.2814     7.1642    71.1785
  645.5000   -60.1054     8.0865     7.0896    72.9727
  646.0000   -59.9581     7.8167     6.9403    74.9159
  646.5000   -59.9600     7.6967     6.6418    76.5611
  647.0000   -59.8126     7.5766     6.1940    78.8025
  647.5000   -59.6650     7.4565     5.5970    80.7457
  648.0000   -59.3689     7.2766     5.0746    81.7938
  648.5000   -59.0727     6.9619     4.7761    78.5219
  649.0000   -58.9256     6.5724     4.7015    76.8875
  649.5000   -58.7782     6.0032     4.6269    78.9817
  650.0000   -58.9293     5.7785     4.6407    79.5837
  650.5000   -58.6353     5.9132     4.7067    86.7379
  651.0000   -58.3429     5.9581     4.7857    86.4413
  651.5000   -58.4961     5.7784     5.0886    83.1640
  652.0000   -58.7981     6.2275     5.5408    81.6749
  652.5000   -58.9513     6.9012     6.0676    86.2968
  653.0000   -59.2533     7.5449     6.5403    87.9376
  653.5000   -59.4062     7.7994     6.8974    85.2564
  654.0000   -59.4109     7.9192     7.2003    88.3878
  654.5000   -59.5648     7.9641     7.4286    85.1105
  655.0000   -59.5685     8.0838     7.6569    84.0683
  655.5000   -59.5736     8.2934     7.7799    87.6469
  656.0000   -59.5670     8.4132     7.9650    90.0329
  656.5000   -59.4329     8.5479     8.1187    88.0971
  657.0000   -59.4380     8.8024     8.2724    84.9689
  657.5000   -59.4420     8.9970     8.3507    85.5665
  658.0000   -59.2980     8.9671     8.5051    87.3561
  658.5000   -59.3021     8.9970     8.5096    85.2713
  659.0000   -59.2429     9.1766     8.5886    83.4846
  659.5000   -59.1616     9.3263     8.6672    83.4860
  660.0000   -59.0172     9.3862     8.7463    84.0836
  660.5000   -59.0231     9.4910     8.8258    85.5753
  661.0000   -59.0268     9.5509     8.8302    87.6635
  661.5000   -59.0318     9.5060     8.8346    88.4101
  662.0000   -59.0357     9.4461     8.8390    87.8154
  662.5000   -59.0406     9.5808     8.8435    86.1775
  663.0000   -59.0450     9.7156     8.6994    85.1354
  663.5000   -59.0071     9.7754     8.6284    90.2044
  664.0000   -58.9048     9.7605     8.5575    91.5467
  664.5000   -58.8222     9.6257     8.4873    90.0583
  665.0000   -58.6154     9.3563     8.4932    90.8049
  665.5000   -58.4718     9.1766     8.4970    92.4459
  666.0000   -58.3266     9.0569     8.5021    91.7019
  666.5000   -58.1822     8.9371     8.4311    89.4681
  667.0000   -58.0385     8.8473     8.4363    88.4261
  667.5000   -58.0432     8.7425     8.2907    89.6200
  668.0000   -57.8985     8.6078     8.1085    91.2611
  668.5000   -57.9033     8.4281     7.9264    95.2861
  669.0000   -57.9084     8.1737     7.6331    91.5620
  669.5000   -57.7629     7.9641     7.4136    88.4338
  670.0000   -57.7687     7.5898     7.0457    82.9213
  670.5000   -57.6243     7.1407     6.5277    84.7106
  671.0000   -57.3304     6.5569     5.9351    81.8810
  671.5000   -56.8883     6.0778     5.1933    85.1611
  672.0000   -56.7432     5.4341     4.3022    86.9509
  672.5000   -57.1955     4.9850     3.5603    83.6739
  673.0000   -57.3487     4.3114     3.1170    83.2277
  673.5000   -57.3531     3.8473     2.8116    83.8258
  674.0000   -57.2079     3.6976     2.6027    83.6780
  674.5000   -56.9154     3.6078     2.5328    82.4876
  675.0000   -56.7710     3.4880     2.3877    73.3981
  675.5000   -56.3297     3.3234     2.4675    66.9912
  676.0000   -56.1838     3.2186     2.5465    66.3963
  676.5000   -56.0394     3.2934     2.6256    67.5902
  677.0000   -56.1935     3.5479     3.0031    78.1731
  677.5000   -56.1979     4.0569     3.5307    86.6694
  678.0000   -56.3517     4.5509     4.2068    87.1177
  678.5000   -56.3248     4.9850     4.8082    89.2058
