~VERSION INFORMATION
 VERS.                2.0:   CWLS LOG ASCII STANDARD - VERSION 2.0
 WRAP.                 NO:   ONE LINE PER DEPTH STEP
~WELL INFORMATION
#MNEM.UNIT      DATA TYPE    INFORMATION
#----------   ------------   ------------------------------
 STRT.F          176.5000:   START DEPTH
 STOP.F         3010.0000:   STOP DEPTH
 STEP.F            0.5000:   STEP LENGTH
 NULL.          -999.2500:   NO VALUE
 COMP.    FENIX & SCISSON:   COMPANY
 WELL.   FENIX "A" #36-28:   WELL
 FLD .              NPR 3:   FIELD
 LOC .      S28 T39N R78W:   LOCATION
 CNTY.            NATRONA:   COUNTY
 STAT.            WYOMING:   STATE
 CTRY. UNITED STATES OF AMERICA:   COUNTRY
 SRVC.       SCHLUMBERGER:   SERVICE COMPANY
 DATE.        19-AUG-1977:   LOGDATE
 API .     49025104150000:   API NUMBER
~CURVE INFORMATION
#MNEM.UNIT       API CODE    CURVE DESCRIPTION
#----------   ------------   ------------------------------
 DEPT.F                  :   
 SPR .MV     07 010 01 00:   SPONTANEOUS POTENTIAL
 ILM .OHMM   07 120 44 00:   INDUCTION LOG MEDIUM RESISTIVITY
 ILD .OHMM   07 120 46 00:   INDUCTION LOG DEEP RESISTIVITY
 LL8 .OHMM   07 220 08 00:   LATEROLOG-8 RESISTIVITY
 GRD .GAPI   45 310 01 00:   GAMMA RAY FROM DENSITY LOG
 CALD.IN     45 280 60 00:   CALIPER FROM DENSITY LOG
 RHOB.G/C3   45 350 01 00:   BULK DENSITY
 DCOR.G/C3   45 356 01 00:   DENSITY CORRECTION
~PARAMETER INFORMATION
#MNEM.UNIT          VALUE    DESCRIPTION
#----------   ------------   ------------------------------
 EKB .F         5107.0000:   Kelly bushing
 EGL .F         5097.0000:   Ground level
 EDF .F            0.0000:   Drilling floor
 TD  .F         3012.0000:   Total depth
 DATE.        19-AUG-1977:   Date logged
 CLNT.            A2DTECH:   Client Code
 SL  . 1650' FSL & 1650' FWL:   Surface Location
 PD  .                 GL:   Permanent Datum
 EPD .F              5097:   Elevation Permanent Datum
 LMF .                 KB:   Log Measured From
 DMF .                 KB:   Drilling Measured From
 DAPD.F                10:   Feet Above Permanent Datum
 DD  .F              3010:   Depth driller
 DL  .F              3011:   Depth logger
 BLI .F              3005:   Bottom log interval
 TLI .F               215:   Top log interval
 CS1 .IN            8.625:   Casing size
 CBD1.      8.625" @ 205':   Casing driller 1
 CBL1.F               215:   Casing logger 1
 BS1 .IN            7.875:   Bit size
 BSD1.F              3010:   Depth drilled with bit1
 DFT .                FGM:   Type fluid in hole
 DFD .                8.8:   Density
 DFV .                 33:   Viscosity
 DFPH.               10.5:   pH
 DFL .               10.6:   Fluid loss
 MSS .            MUD PIT:   Source of sample
 RMS .OHMM            .19:   Rm
 MST .F                76:   Rm Meas. temp.
 RMF .OHMM            .17:   Rmf
 MFST.F                78:   Rmf Meas. temp.
 MFSS.               MEAS:   Source Rmf.
 RMB .OHMM            .13:   Rm. at BHT
 BHT .F               112:   BHT.
 TCS .HRS            0700:   Time Circ. stopped
 TLAB.HRS            1400:   Time logger at bottom
 MRT .F               112:   Maximum recorded temp.
 LUN .               5642:   Logging unit number
 ENGI.          CHALUPSKY:   Recorded By
 WITN.     WES PETTINGILL:   Witnessed by
 ORIG.           5" PRINT:   Origin of data
 UWI .     49025104150000:   Unique Well ID
 DICO. A2D TECHNOLOGIES, INC.:   Digitizing Company
 LUL .               CSPR:   Logging unit location
~OTHER INFORMATION
~A   DEPT      SPR        ILM        ILD        LL8        GRD       CALD       RHOB       DCOR   
# ...
  784.0000   -28.4900     8.1680     9.3180    10.1520   117.4230     8.7010     2.4230     0.0660
  784.5000   -27.9290     8.1400     9.2380    10.3110   118.1630     8.7100     2.4190     0.0450
  785.0000   -28.0740     8.1120     9.2830    10.2210   116.9690     8.7210     2.4140     0.0500
  785.5000   -28.7810     8.0830     9.3730    10.1200   114.6010     8.7420     2.4150     0.0530
  786.0000   -29.8250     8.0520     9.4630    10.0200   112.6760     8.7530     2.4330     0.0440
  786.5000   -30.9730     8.0840     9.5530     9.9200   112.0900     8.7450     2.4290     0.0650
  787.0000   -32.8980     8.1200     9.6430     9.8490   113.7120     8.7370     2.4260     0.0570
  787.5000   -34.4880     8.1560     9.7600    10.0750   117.9100     8.7290     2.4320     0.0580
  788.0000   -35.6120     8.1920     9.6960    10.2490   119.7490     8.7210     2.4030     0.0450
  788.5000   -35.6110     8.2270     9.6050    10.4060   121.4660     8.7130     2.3900     0.0340
  789.0000   -35.4160     8.2630     9.5140    10.2990   122.8240     8.7060     2.4030     0.0450
  789.5000   -35.6680     8.2990     9.4230    10.2170   118.7420     8.6980     2.4090     0.0500
  790.0000   -35.9960     8.3520     9.3230    10.2170   116.5260     8.7010     2.4040     0.0520
  790.5000   -36.1230     8.3260     9.3960    10.1850   117.6150     8.7070     2.4070     0.0410
  791.0000   -36.0060     8.2720     9.4770    10.1380   118.4020     8.7130     2.4230     0.0560
  791.5000   -35.8890     8.2190     9.5820    10.0920   115.9040     8.7100     2.4390     0.0660
  792.0000   -35.7950     8.1660     9.4960    10.0460   115.3730     8.7010     2.4090     0.0570
  792.5000   -36.0730     8.1120     9.3730    10.0000   116.2620     8.6920     2.4410     0.0510
  793.0000   -36.3540     8.0590     9.2380     9.9540   117.2450     8.6840     2.4130     0.0660
  793.5000   -36.6310     8.0050     9.1680     9.8280   116.8800     8.6760     2.4220     0.0490
  794.0000   -37.1960     7.9490     9.0900     9.6690   115.5710     8.6820     2.4480     0.0640
  794.5000   -38.0870     7.8900     9.0120     9.5090   114.2780     8.6880     2.4300     0.0740
  795.0000   -38.5930     7.8310     8.9350     9.3490   113.5240     8.6940     2.4060     0.0630
  795.5000   -38.6770     7.7720     8.8570     9.2380   114.9140     8.7000     2.4390     0.0680
  796.0000   -38.7630     7.7130     8.7790     9.6710   116.6150     8.7060     2.4120     0.0390
  796.5000   -38.8460     7.6540     8.7020     9.6290   115.7000     8.7120     2.4190     0.0470
  797.0000   -38.9260     7.5950     8.5850     9.5690   113.9930     8.7190     2.4310     0.0400
  797.5000   -39.1180     7.5360     8.6050     9.5100   113.3570     8.7250     2.4220     0.0570
  798.0000   -39.3960     7.4830     8.6440     9.4500   116.3280     8.7310     2.3950     0.0390
  798.5000   -40.3020     7.5770     8.6840     9.4090   119.0500     8.7390     2.3990     0.0510
  799.0000   -40.1020     7.6630     8.7230     9.5730   121.2770     8.7530     2.4120     0.0470
  799.5000   -39.9180     7.7480     8.7630     9.7000   121.8660     8.7670     2.4390     0.0520
  800.0000   -39.7350     7.8340     8.8020     9.8260   119.2760     8.7820     2.4150     0.0610
  800.5000   -39.5490     7.9190     8.8420     9.9330   119.3330     8.7920     2.3640     0.0460
  801.0000   -39.3550     7.9790     8.8810     9.8630   120.1400     8.7760     2.4060     0.0570
  801.5000   -39.1240     7.9200     8.9210     9.7920   119.2900     8.7580     2.4430     0.0730
  802.0000   -38.9770     7.8750     8.9600     9.7220   117.9070     8.7410     2.4530     0.0830
  802.5000   -39.0740     7.8300     8.9870     9.6520   117.5540     8.7250     2.4290     0.0710
  803.0000   -39.1130     7.7860     8.9260     9.5820   118.8170     8.7070     2.4150     0.0800
  803.5000   -38.8220     7.7410     8.8800     9.5110   120.6990     8.6790     2.4320     0.0570
  804.0000   -38.8000     7.6960     8.8340     9.4090   122.5060     8.7210     2.4570     0.0810
  804.5000   -38.8550     7.6510     8.7870     9.4530   122.7050     8.7730     2.4800     0.0960
  805.0000   -38.9120     7.6220     8.7410     9.5360   121.1200     8.7620     2.4610     0.0750
  805.5000   -38.9700     7.7370     8.6940     9.6200   120.0610     8.7510     2.4390     0.0790
  806.0000   -39.0270     7.8240     8.6640     9.7030   121.8290     8.7400     2.4160     0.0570
  806.5000   -39.0850     7.9100     8.7360     9.7870   123.5310     8.7290     2.3950     0.0390
  807.0000   -39.1420     7.9970     8.7900     9.8700   124.2220     8.7180     2.4020     0.0510
  807.5000   -39.1990     8.0420     8.8180     9.9400   123.1720     8.7260     2.4110     0.0400
  808.0000   -39.2570     7.9260     8.7500     9.8780   119.6680     8.7400     2.4180     0.0590
  808.5000   -39.3140     7.8330     8.6960     9.8250   116.0490     8.7540     2.4070     0.0510
  809.0000   -39.3710     7.7400     8.6410     9.7720   113.6060     8.7680     2.4140     0.0590
  809.5000   -39.4280     7.6470     8.5850     9.3800   116.3350     8.7360     2.4220     0.0650
  810.0000   -39.4860     7.5520     8.7570     8.6430   119.3580     8.7270     2.4310     0.0660
  810.5000   -39.5430     7.7480     8.9340     8.9560   121.5820     8.7210     2.4400     0.0830
  811.0000   -39.6010     7.9480     9.1100     9.9250   123.2850     8.7130     2.4150     0.0720
  811.5000   -39.6570     8.1480     9.2860    10.8940   124.6480     8.7060     2.3920     0.0870
  812.0000   -39.7120     8.3470     9.5570    11.5090   122.1320     8.6990     2.3960     0.0650
  812.5000   -39.5530     8.5470     9.8530    10.9870   118.8750     8.6910     2.4010     0.0440
  813.0000   -39.1610     8.7470    10.1490    10.5510   117.2310     8.6840     2.3990     0.0180
  813.5000   -39.2400     8.9390    10.4450    10.0310   117.7570     8.6770     2.3950     0.0260
  814.0000   -39.3270     9.1000    10.7060    11.3840   118.6810     8.6800     2.3980     0.0540
  814.5000   -39.4130     9.2610    10.9590    11.1180   117.2420     8.6830     2.4260     0.0520
  815.0000   -39.4990     9.4730    11.2120    10.9400   114.4370     8.6870     2.4500     0.0620
  815.5000   -39.5840     9.7600    11.4640    10.7180   111.5300     8.6900     2.4380     0.0720
  816.0000   -39.6700     9.1080    11.5090    11.9380   111.0000     8.6930     2.4250     0.0480
  816.5000   -39.7440     9.5600    11.4680    11.8480   112.8150     8.6970     2.4280     0.0570
  817.0000   -39.6940     9.7330    11.3730    11.7380   114.2350     8.7000     2.4180     0.0490
  817.5000   -39.6450     9.8320    11.2780    11.6290   116.3300     8.7040     2.4080     0.0410
  818.0000   -39.5960     9.9310    11.1830    11.5200   115.1750     8.7070     2.4150     0.0530
  818.5000   -39.5470    10.0300    11.0880    11.4100   115.0350     8.7100     2.4310     0.0640
  819.0000   -39.4990    10.1240    10.9930    11.3010   117.5210     8.7140     2.4070     0.0530
  819.5000   -39.4500     9.9510    10.8980    11.1920   119.4940     8.7170     2.3850     0.0420
  820.0000   -39.4010     9.7870    10.8030    11.0830   120.2720     8.7200     2.4110     0.0550
  820.5000   -39.3510     9.6220    10.7080    10.9730   117.4830     8.7240     2.4350     0.0660
  821.0000   -39.2720     9.4580    10.5470    10.8450   118.2940     8.7270     2.4090     0.0550
  821.5000   -39.1890     9.2940    10.3750    10.6650   119.4550     8.7300     2.3880     0.0350
  822.0000   -39.1050     9.1290    10.2030    10.4850   117.4570     8.7340     2.4030     0.0450
  822.5000   -39.0220     8.9650    10.0310    10.3050   114.8200     8.7410     2.4210     0.0620
  823.0000   -38.9400     8.8010     9.8590    10.1250   113.2790     8.7540     2.4140     0.0470
  823.5000   -38.8560     8.6360     9.6870     9.9450   115.0830     8.7670     2.3980     0.0360
  824.0000   -38.7670     8.5850     9.5150     9.7650   116.8850     8.7800     2.4070     0.0460
