~VERSION INFORMATION
 VERS.                2.0:   CWLS LOG ASCII STANDARD - VERSION 2.0
 WRAP.                 NO:   ONE LINE PER DEPTH STEP
~WELL INFORMATION
#MNEM.UNIT      DATA TYPE    INFORMATION
#----------   ------------   ------------------------------
 STRT.F          705.5000:   START DEPTH
 STOP.F         3212.0000:   STOP DEPTH
 STEP.F            0.5000:   STEP LENGTH
 NULL.          -999.2500:   NO VALUE
 COMP.    FENIX & SCISSON:   COMPANY
 WELL. FENIX 41 "AX" #1-15:   WELL
 FLD .             NPR #3:   FIELD
 LOC .      S15 T38N R78W:   LOCATION
 CNTY.            NATRONA:   COUNTY
 STAT.            WYOMING:   STATE
 CTRY. UNITED STATES OF AMERICA:   COUNTRY
 SRVC.              WELEX:   SERVICE COMPANY
 DATE.        18-NOV-1980:   LOGDATE
 API .     49025108530000:   API NUMBER
~CURVE INFORMATION
#MNEM.UNIT       API CODE    CURVE DESCRIPTION
#----------   ------------   ------------------------------
 DEPT.F                  :   
 SPR .MV     07 010 01 00:   SPONTANEOUS POTENTIAL
 ILD .OHMM   07 120 46 00:   INDUCTION LOG DEEP RESISTIVITY
 ILM .OHMM   07 120 44 00:   INDUCTION LOG MEDIUM RESISTIVITY
 SGRD.OHMM   07 220 05 00:   SHORT GUARD RESISTIVITY
 GRD .GAPI   45 310 01 00:   GAMMA RAY FROM DENSITY LOG
 CALD.IN     45 280 60 00:   CALIPER FROM DENSITY LOG
 RHOB.G/C3   45 350 01 00:   BULK DENSITY
 NPHI.DEC    42 890 03 00:   NEUTRON POROSITY SANDSTONE
~PARAMETER INFORMATION
#MNEM.UNIT          VALUE    DESCRIPTION
#----------   ------------   ------------------------------
 EKB .F         5252.0000:   Kelly bushing
 EGL .F         5242.0000:   Ground level
 EDF .F            0.0000:   Drilling floor
 TD  .F         3214.0000:   Total depth
 CLNT.            A2DTECH:   Client Code
 SL  . 2150' FWL & 550' FNL:   Surface Location
 PD  .                 GL:   Permanent Datum
 EPD .F              5242:   Elevation Permanent Datum
 LMF .                 KB:   Log Measured From
 DMF .                 KB:   Drilling Measured From
 DATE.        18-NOV-1980:   Date Logged [DD-MMM-YYYY]
 DD  .F              3210:   Depth driller
 DL  .F              3214:   Depth logger
 BLI .F              3212:   Bottom log interval
 TLI .F               734:   Top log interval
 CS1 .IN            8.625:   Casing size
 CBD1.      8.625" @ 709':   Casing driller 1
 CBL1.F               734:   Casing logger 1
 BS1 .IN            7.875:   Bit size
 BSD1.F              3210:   Depth drilled with bit1
 DFT .          FRESH MUD:   Type fluid in hole
 DFD .                8.8:   Density
 DFV .                 45:   Viscosity
 DFPH.               10.5:   pH
 DFL .                 12:   Fluid loss
 MSS .           FLOWLINE:   Source of sample
 RMS .OHMM           1.25:   Rm
 MST .F                70:   Rm Meas. temp.
 RMF .OHMM           1.25:   Rmf
 MFST.F                70:   Rmf Meas. temp.
 MFSS.               MEAS:   Source Rmf.
 RMB .OHMM           0.78:   Rm. at BHT
 BHT .F               112:   BHT.
 TCS .HRS               7:   Time Circ. stopped
 MRT .F               112:   Maximum recorded temp.
 LUN .               1892:   Logging unit number
 LUL .             CASPER:   Logging unit location
 ENGI.               REIN:   Recorded By
 WITN.              SCOTT:   Witnessed by
 ORIG.      2.5" 5" PRINT:   Origin of data
 UWI .     49025108530000:   Unique Well ID
 DICO. A2D TECHNOLOGIES, INC.:   Digitizing Company
 DAPD.                 10:   Feet Above Permanent Datum
~OTHER INFORMATION
~A   DEPT      SPR        ILD        ILM       SGRD         GRD      CALD       RHOB       NPHI   
# ...
 2204.0000   -35.3176     8.6859     9.8265    14.0893    95.0779     8.8372     2.2056     0.2840
 2204.5000   -35.3206     8.6848     9.8243    14.2477    94.1706     8.8799     2.1995     0.2850
 2205.0000   -35.3241     8.6836     9.8222    14.1860    93.2632     8.8781     2.1971     0.2879
 2205.5000   -35.3270     8.6824     9.8202    13.7179    92.3559     8.8914     2.1810     0.2889
 2206.0000   -35.0357     8.6582     9.8182    13.2914    91.6630     8.9047     2.1741     0.2855
 2206.5000   -35.0386     8.5613     9.8162    13.8467    91.1969     8.9180     2.2120     0.2827
 2207.0000   -35.0414     8.5601     9.9498    14.9711    90.5101     8.8715     2.2415     0.2796
 2207.5000   -35.0219     8.5589     9.9478    15.3247    90.2611     8.7677     2.2596     0.2768
 2208.0000   -35.0471     8.5578     9.9459    14.6235    94.8658     8.7370     2.2788     0.2737
 2208.5000   -35.3441     8.5566     9.9439    13.6480    93.2967     8.7062     2.2943     0.2731
 2209.0000   -35.3471     8.5552     9.9419    12.5634    92.1688     8.6755     2.3010     0.2729
 2209.5000   -35.3500     8.5541     9.9399    10.9454    91.0409     8.6591     2.2994     0.2745
 2210.0000   -35.3529     8.5529     9.9379    12.5584    89.9068     8.6727     2.2750     0.2764
 2210.5000   -35.3559     8.6703     9.9358    15.2249    88.7789     8.7007     2.2909     0.2761
 2211.0000   -35.3588     8.6692     9.9338    16.3066    87.4304     8.7577     2.3105     0.2737
 2211.5000   -35.3618     8.7882     9.9317    16.5293    86.0819     8.6385     2.3633     0.2715
 2212.0000   -35.3647     8.7870     9.9297    16.4836    85.6095     8.6518     2.4423     0.2687
 2212.5000   -35.3676     8.7858     9.8711    15.7462    87.3493     8.7091     2.4491     0.2678
 2213.0000   -35.3712     8.7846     9.7898    14.7328    89.9714     8.7812     2.4528     0.2670
 2213.5000   -35.3740     8.7511     9.6836    14.1951    91.9318     8.8259     2.4764     0.2657
 2214.0000   -35.0824     8.6621     9.5197    15.4404    93.9887     8.9102     2.5117     0.2633
 2214.5000   -35.0856     8.4944     9.5178    14.2880    92.9786     8.8501     2.5405     0.2595
 2215.0000   -35.0884     8.3688     9.3858    13.2995    91.1889     8.7606     2.5882     0.2627
 2215.5000   -35.0913     8.1635     9.2556    13.0410    90.0610     8.7445     2.6404     0.2662
 2216.0000   -35.3883     7.9707     9.1272    14.7774    88.8793     8.7428     2.6077     0.2638
 2216.5000   -35.3912     7.7532     9.0006    16.0466    87.7990     8.7414     2.5758     0.2597
 2217.0000   -35.3941     7.6462     8.9988    16.0434    86.2299     8.7400     2.5494     0.2579
 2217.5000   -35.3971     7.5407     8.8739    15.6046    84.2197     8.7386     2.5285     0.2611
 2218.0000   -35.4000     7.4926     8.8721    15.1777    82.8706     8.7369     2.5201     0.2595
 2218.5000   -35.4029     7.3855     8.8703    14.7585    83.9429     8.7208     2.5162     0.2564
 2219.0000   -35.4059     7.3301     8.8684    14.1481    85.2415     8.7048     2.5176     0.2578
 2219.5000   -35.4088     7.2316     8.8666    13.6990    86.3195     8.7034     2.5228     0.2678
 2220.0000   -35.4118     7.2306     8.7759    13.1429    87.6323     8.6870     2.5281     0.2735
 2220.5000   -35.4147     7.1308     8.7257    12.8536    88.4755     8.6856     2.5348     0.2768
 2221.0000   -35.4182     7.1298     8.6621    13.2098    88.8917     8.6989     2.5430     0.2818
 2221.5000   -35.4211     7.1288     8.6187    13.2066    87.0958     8.6975     2.5521     0.2881
 2222.0000   -35.4239     7.1278     8.6167    13.0414    87.0706     8.6958     2.5611     0.2869
 2222.5000   -35.4268     7.1269     8.5616    12.5774    88.1426     8.6946     2.5687     0.2863
 2223.0000   -35.4296     7.1257     8.4955    12.5916    89.2206     8.6930     2.5723     0.2889
 2223.5000   -35.4325     7.2235     8.4938    12.8373    88.9750     8.6986     2.5578     0.2851
 2224.0000   -35.4353     7.2226     8.4622    11.8167    88.5061     8.7048     2.5410     0.2801
 2224.5000   -35.4382     7.3217     8.4004    13.1899    86.9336     8.7179     2.5363     0.2783
 2225.0000   -35.4412     7.3673     8.3725    12.4807    86.0263     8.7165     2.5514     0.2746
 2225.5000   -35.4441     7.4212     8.3982    11.8096    85.1190     8.7151     2.5672     0.2721
 2226.0000   -35.4471     7.4747     8.4850    11.6395    84.4323     8.7137     2.5600     0.2684
 2226.5000   -35.4500     7.5290     8.4833    13.1879    83.9599     8.6973     2.5253     0.2669
 2227.0000   -35.4529     7.6254     8.4815    13.9227    83.9350     8.6959     2.5025     0.2773
 2227.5000   -35.4559     7.6388     8.5000    13.9197    85.8953     8.6798     2.4796     0.2786
 2228.0000   -35.4588     7.7290     8.5952    13.9169    87.8556     8.6784     2.4567     0.2786
 2228.5000   -35.4618     7.8043     8.5935    13.6205    89.1480     8.6620     2.4445     0.2818
 2229.0000   -35.4647     7.9149     8.7109    13.1045    89.5642     8.6463     2.4505     0.2812
 2229.5000   -35.4682     7.9413     8.7816    12.8055    91.0834     8.6596     2.4701     0.2778
 2230.0000   -35.4710     7.9401     8.8282    13.2287    92.3819     8.6579     2.4473     0.2750
 2230.5000   -35.4735     8.0491     8.8263    14.1987    94.1154     8.6712     2.4532     0.2764
 2231.0000   -35.4767     8.0480     8.9469    14.2877    95.4140     8.6694     2.4668     0.2783
 2231.5000   -35.4796     8.1585     9.0691    14.2842    95.8365     8.6681     2.4807     0.2792
 2232.0000   -35.4824     8.1574     9.0856    13.8935    92.7171     8.6667     2.4400     0.2752
 2232.5000   -35.4853     8.1563     9.3186    13.8907    90.4194     8.6649     2.4119     0.2720
 2233.0000   -35.4882     8.1552     9.3165    13.8879    88.2492     8.6786     2.4027     0.2712
 2233.5000   -35.4912     8.1541     9.3145    13.6953    83.8124     8.6769     2.4071     0.2731
 2234.0000   -35.4941     8.0857     9.3677    13.6926    81.8022     8.6755     2.4207     0.2691
 2234.5000   -35.4971     8.0404     9.4398    13.6967    80.2324     8.6888     2.4411     0.2679
 2235.0000   -35.5000     8.0392     9.4378    14.1287    79.3196     8.6870     2.4671     0.2679
 2235.5000   -35.5029     8.0381     9.3065    15.5958    79.0803     8.6857     2.5130     0.2673
 2236.0000   -35.5059     7.9828     9.3047    15.9187    79.4903     8.6843     2.4795     0.2665
 2236.5000   -35.5088     7.9261     9.0501    15.2711    79.9269     8.6825     2.4658     0.2662
 2237.0000   -35.5118     7.9248     8.9246    15.4801    80.9782     8.6812     2.4642     0.2700
 2237.5000   -35.2206     7.9237     8.8008    16.0004    83.1592     8.6946     2.4716     0.2744
 2238.0000   -34.9294     7.8143     8.6788    16.3492    83.5816     8.7078     2.4746     0.2691
 2238.5000   -34.9327     7.7065     8.5517    16.1046    81.7702     8.7210     2.4760     0.2701
 2239.0000   -34.9356     7.6001     8.4249    15.2547    80.6516     8.7343     2.4736     0.2749
 2239.5000   -34.9384     7.5991     8.3002    14.2371    80.4061     8.7327     2.4690     0.2806
 2240.0000   -34.9413     7.4941     8.1771    13.4716    81.0429     8.7312     2.4659     0.2822
 2240.5000   -34.9441     7.3907     8.0931    12.9239    81.9092     8.7298     2.4650     0.2760
 2241.0000   -34.9471     7.2886     8.0914    12.0618    81.2073     8.7281     2.4694     0.2700
 2241.5000   -34.9500     7.2876     8.0898    11.4133    79.4176     8.7267     2.4898     0.2669
 2242.0000   -34.9529     7.2514     8.0881    11.7295    78.0692     8.7253     2.5535     0.2673
 2242.5000   -34.8848     7.1860     8.0861    12.7640    77.1618     8.7093     2.6164     0.2717
 2243.0000   -34.6643     7.0867     8.1320    13.2715    76.6957     8.7075     2.5935     0.2737
 2243.5000   -34.6676     7.0858     8.1949    13.0871    80.8557     8.7062     2.5600     0.2762
 2244.0000   -34.5307     7.0846     8.3069    13.1280    83.0367     8.7048     2.6087     0.2662
