~VERSION INFORMATION
 VERS.                2.0:   CWLS LOG ASCII STANDARD - VERSION 2.0
 WRAP.                 NO:   ONE LINE PER DEPTH STEP
~WELL INFORMATION
#MNEM.UNIT      DATA TYPE    INFORMATION
#----------   ------------   ------------------------------
 STRT.F            5.5000:   START DEPTH
 STOP.F         3006.0000:   STOP DEPTH
 STEP.F            0.5000:   STEP LENGTH
 NULL.          -999.2500:   NO VALUE
 COMP.    FENIX & SCISSON:   COMPANY
 WELL.  FENIX "AX" #28-28:   WELL
 FLD .  TEAPOT DOME NPR-3:   FIELD
 LOC .      S28 T39N R78W:   LOCATION
 CNTY.            NATRONA:   COUNTY
 STAT.            WYOMING:   STATE
 CTRY. UNITED STATES OF AMERICA:   COUNTRY
 SRVC.           BIRDWELL:   SERVICE COMPANY
 DATE.        23-JAN-1980:   LOGDATE
 API .     49025107960000:   API NUMBER
~CURVE INFORMATION
#MNEM.UNIT       API CODE    CURVE DESCRIPTION
#----------   ------------   ------------------------------
 DEPT.F                  :   
 GRD .GAPI   45 310 01 00:   GAMMA RAY FROM DENSITY LOG
 CALD.IN     45 280 60 00:   CALIPER FROM DENSITY LOG
 DPHI.DEC    45 890 12 00:   DENSITY POROSITY SANDSTONE
 NPHI.DEC    42 890 03 00:   NEUTRON POROSITY SANDSTONE
 CORR.G/C3   45 356 01 00:   DENSITY CORRECTION
 SPR .MV     05 010 01 00:   SPONTANEOUS POTENTIAL FROM RES.
 ILD .OHMM   05 120 40 00:   INDUCTION LOG DEEP RESISTIVITY
 SN  .OHMM   05 040 16 00:   SHORT NORMAL 16"
~PARAMETER INFORMATION
#MNEM.UNIT          VALUE    DESCRIPTION
#----------   ------------   ------------------------------
 EKB .F         5120.0000:   Kelly bushing
 EGL .F         5110.0000:   Ground level
 EDF .F         5119.0000:   Drilling floor
 EPD .F         5110.0000:   Permanent datum
 TD  .F         3006.0000:   Total depth
 CLNT.            A2DTECH:   Client Code
 SL  . 600' FSL & 1300' FWL:   Surface Location
 PD  .                 GL:   Permanent Datum
 DAPD.F                 9:   Feet Above Permanent Datum
 DATE.        23-JAN-1980:   Date Logged [DD-MMM-YYYY]
 DD  .F              3006:   Depth driller
 DL  .F              3006:   Depth logger
 BLI .F              3006:   Bottom log interval
 TLI .F                10:   Top log interval
 CS1 .IN            8.625:   Casing size
 CBD1.      8.625" @ 440':   Casing driller 1
 CBL1.F               460:   Casing logger 1
 BS1 .IN            7.875:   Bit size
 BSD1.F              3006:   Depth drilled with bit1
 DFT .       GEL MUD FULL:   Type fluid in hole
 DFD .                  9:   Density
 DFV .                 46:   Viscosity
 DFPH.                 11:   pH
 DFL .               17.2:   Fluid loss
 MSS .           MUD TANK:   Source of sample
 RMS .OHMM            1.9:   Rm
 MST .F                60:   Rm Meas. temp.
 RMF .OHMM            .73:   Rmf
 MFST.F                62:   Rmf Meas. temp.
 MFSS.               MEAS:   Source Rmf.
 RMC .OHMM            .95:   Rmc
 MCST.F                62:   Rmc Meas. temp.
 TCS .HRS               5:   Time Circ. stopped
 MRT .F               110:   Maximum recorded temp.
 LUN .               3029:   Logging unit number
 LUL .             CASPER:   Logging unit location
 ENGI.           T. WOLFF:   Recorded By
 WITN.           DINSMORE:   Witnessed by
 ORIG.           5" PRINT:   Origin of data
 UWI .     49025107960000:   Unique Well ID
 DICO. A2D TECHNOLOGIES, INC.:   Digitizing Company
~OTHER INFORMATION
~A    DEPT      GRD      CALD       DPHI         NPHI     CORR        SPR        ILD         SN   
# ...
 2111.5000   103.2906     8.5406     0.2399     0.1070    -0.0024   -34.1115     7.1884     9.2945
 2112.0000   100.7545     8.5427     0.2411     0.1004     0.0008   -34.2692     7.1930     9.3004
 2112.5000   101.0727     8.5447     0.2423     0.0899     0.0086   -33.9143     7.1463     8.9801
 2113.0000    96.9519     8.5468     0.2446     0.0822     0.0133   -34.0560     7.0427     8.7330
 2113.5000    92.5293     8.5637     0.2434     0.0758     0.0106   -34.4705     6.9047     8.3724
 2114.0000    83.9586     8.5503     0.2347     0.0694     0.0033   -34.3007     6.7638     8.2003
 2114.5000    81.3083     8.5529     0.2332     0.0792    -0.0071   -34.4924     6.6722     8.1458
 2115.0000    84.5950     8.5549     0.2331     0.0921    -0.0098   -34.0747     6.5808     8.2106
 2115.5000    90.2465     8.5570     0.2301     0.0896    -0.0066   -33.5102     6.5381     8.2158
 2116.0000    95.3054     8.5590     0.2253     0.0842    -0.0033   -33.8356     6.5433     8.2210
 2116.5000    96.6606     8.5462     0.2216     0.0857    -0.0092   -33.7155     6.5475     8.2262
 2117.0000    97.1269     8.5484     0.2237     0.0871    -0.0086   -34.2673     6.5985     8.2314
 2117.5000    98.1858     8.5355     0.2282     0.0871    -0.0101   -34.0766     6.7455     8.2366
 2118.0000   100.7262     8.5381     0.2371     0.0847    -0.0053   -33.9742     6.7498     8.1832
 2118.5000   108.7687     8.5549     0.2496     0.0816     0.0069   -34.0583     6.7061     8.1302
 2119.0000   118.6175     8.5567     0.2574     0.0876    -0.0004   -33.4729     6.6151     8.0775
 2119.5000   130.0000     8.5588     0.2610     0.0887    -0.0017   -33.5310     6.5257     7.9628
 2120.0000   130.0000     8.5609     0.2453     0.0905     0.0016   -33.8888     6.4372     7.8826
 2120.5000   130.0000     8.5629     0.2501     0.0964    -0.0012   -34.4487     6.3956     7.8024
 2121.0000   123.3815     8.5650     0.2602     0.1072    -0.0009   -34.8333     6.2621     7.7221
 2121.5000   115.5515     8.5670     0.2596     0.0997     0.0114   -34.6771     6.1309     7.4930
 2122.0000   114.5363     8.5525     0.2517     0.0951     0.0267   -34.2709     6.0025     7.2856
 2122.5000   114.1138     8.5266     0.2490     0.0993     0.0209   -34.2967     6.0571     7.1870
 2123.0000   114.5801     8.5143     0.2492     0.1023     0.0211   -33.8991     6.0609     7.2960
 2123.5000   118.4538     8.5164     0.2457     0.1229     0.0003   -33.8312     6.0647     7.3529
 2124.0000   124.6979     8.5184     0.2401     0.1234     0.0126   -33.9019     6.0686     7.0986
 2124.5000   127.0901     8.5051     0.2461     0.1177     0.0189   -33.6856     6.2038     7.5214
 2125.0000   129.7805     8.5077     0.2550     0.1192     0.0101   -33.6977     6.4331     7.9682
 2125.5000   130.0000     8.5097     0.2580     0.1224     0.0012   -33.6145     6.6710     8.4416
 2126.0000   128.0465     8.5266     0.2594     0.1198     0.0075   -33.1198     7.0170     8.7537
 2126.5000   123.6239     8.5435     0.2519     0.1098     0.0168   -33.6670     7.2247     9.0773
 2127.0000   124.6828     8.5604     0.2473     0.1094     0.0171   -34.1052     7.4918     9.4803
 2127.5000   121.1491     8.5624     0.2467     0.1121     0.0007   -34.8815     7.8245     9.7609
 2128.0000   116.5784     8.5645     0.2577     0.1171    -0.0021   -34.8717     8.0561     9.9833
 2128.5000   118.6744     8.5516     0.2715     0.1180    -0.0001   -34.8416     8.2945    10.0659
 2129.0000   115.1372     8.5537     0.2733     0.1180     0.0059   -34.7315     8.2407    10.0625
 2129.5000   115.0144     8.5558     0.2654     0.1161     0.0062   -34.5565     8.2460    10.0704
 2130.0000   125.9715     8.5579     0.2709     0.1107     0.0065   -34.3956     8.1343     9.9340
 2130.5000   126.7619     8.5302     0.2829     0.1098     0.0067   -34.9786     8.0747     9.8681
 2131.0000   124.1226     8.5327     0.2847     0.1118     0.0069   -35.0223     7.8955     9.6667
 2131.5000   120.5889     8.5348     0.2838     0.1087     0.0177   -34.8674     7.6977     9.4007
 2132.0000   118.3885     8.5368     0.2921     0.1075     0.0194   -34.8300     7.4870     9.1420
 2132.5000   118.5586     8.5537     0.2945     0.1201     0.0016   -34.1985     7.2798     8.8904
 2133.0000   114.7286     8.5404     0.2890     0.1278    -0.0102   -34.5311     7.1313     8.7077
 2133.5000   112.2265     8.5429     0.2674     0.1299    -0.0085   -34.0938     7.0840     8.5287
 2134.0000   119.9575     8.5450     0.2626     0.1278    -0.0007   -33.8719     7.0896     8.5952
 2134.5000   121.8999     8.5470     0.2652     0.1238     0.0086   -34.2884     7.0941     8.7866
 2135.0000   118.3716     8.5491     0.2685     0.1247     0.0088   -34.1651     7.1494     9.0470
 2135.5000   117.2074     8.5511     0.2705     0.1282    -0.0090   -34.6353     7.2052     9.2484
 2136.0000   116.9333     8.5532     0.2687     0.1360    -0.0118   -34.5642     7.3133     9.1883
 2136.5000   117.8447     8.5552     0.2605     0.1372    -0.0085   -33.8282     7.5298     9.3277
 2137.0000   122.3199     8.5573     0.2549     0.1320    -0.0022   -33.5992     7.7527     9.3336
 2137.5000   121.0247     8.5593     0.2593     0.1236     0.0040   -33.6751     7.9822     9.5416
 2138.0000   118.3338     8.5465     0.2640     0.1245     0.0043   -34.0356     8.1020     9.6848
 2138.5000   119.1228     8.5639     0.2657     0.1262     0.0105   -34.2907     8.1652     9.9006
 2139.0000   124.1817     8.5506     0.2675     0.1247     0.0138   -34.2992     8.1123     9.9777
 2139.5000   126.8703     8.5378     0.2719     0.1165     0.0231   -33.9245     8.1176    10.0555
 2140.0000   122.1514     8.5255     0.2806     0.1069     0.0354   -33.8911     8.1238     9.9178
 2140.5000   118.6178     8.5122     0.2823     0.1243     0.0197   -34.1146     8.1872     9.7834
 2141.0000   117.7453     8.5148     0.2709     0.1320    -0.0066   -35.3217     8.2510     9.7200
 2141.5000   117.0319     8.5168     0.2660     0.1362    -0.0091   -35.8864     8.3153     9.8675
 2142.0000   114.8260     8.5189     0.2661     0.1376    -0.0088   -35.6964     8.5006    10.0873
 2142.5000   118.8534     8.5209     0.2623     0.1370    -0.0056   -35.2026     8.6282    10.3121
 2143.0000   126.7271     8.5230     0.2641     0.1280     0.0067   -34.8141     8.8836    10.5470
 2143.5000   126.4527     8.5250     0.2662     0.1168     0.0130   -35.0040     9.1466    10.7872
 2144.0000   124.4005     8.5419     0.2670     0.1144     0.0132   -34.8725     9.4848    11.0185
 2144.5000   123.5201     8.5588     0.2615     0.1126     0.0134   -34.5124     9.7655    11.1027
 2145.0000   125.3333     8.5757     0.2576     0.1143     0.0137   -34.2713     9.9121    10.8761
 2145.5000   124.7055     8.5777     0.2584     0.1149     0.0184   -33.9230     9.6393    10.7288
 2146.0000   120.8383     8.5649     0.2596     0.1130     0.0262   -33.7599     9.2413    10.4336
 2146.5000   117.2561     8.5526     0.2608     0.1184     0.0298   -33.6730     8.7341    10.0743
 2147.0000   116.6854     8.5393     0.2505     0.0998     0.0674   -33.1248     8.1379     9.4538
 2147.5000   113.4480     8.5419     0.2565     0.0950     0.0797   -33.2845     7.6313     8.8084
 2148.0000   111.3958     8.5439     0.2690     0.1363     0.0212   -33.4209     7.3103     8.5646
 2148.5000   112.0103     8.5460     0.2714     0.1218    -0.0103   -34.0424     7.1198     8.6314
 2149.0000   114.2544     8.5628     0.2688     0.1211    -0.0055   -34.5036     7.0245     8.3952
 2149.5000   113.6837     8.5797     0.2707     0.1212    -0.0052   -34.4879     7.0793     8.3407
 2150.0000   112.6630     8.5818     0.2790     0.1184     0.0010   -34.1299     7.1567     8.7110
 2150.5000   115.2071     8.5834     0.2859     0.0998     0.0057   -33.6385     7.4506     9.5688
 2151.0000   119.2273     8.5855     0.2905     0.1013    -0.0045   -33.9393     7.7254     9.7755
 2151.5000   118.9513     8.5720     0.2989     0.1069    -0.0043   -34.7058     7.9535     9.6435
