~VERSION INFORMATION
 VERS.                2.0:   CWLS LOG ASCII STANDARD - VERSION 2.0
 WRAP.                 NO:   ONE LINE PER DEPTH STEP
~WELL INFORMATION
#MNEM.UNIT      DATA TYPE    INFORMATION
#----------   ------------   ------------------------------
 STRT.F          190.0000:   START DEPTH
 STOP.F         3050.0000:   STOP DEPTH
 STEP.F            0.5000:   STEP LENGTH
 NULL.          -999.2500:   NO VALUE
 COMP.    FENIX & SCISSON:   COMPANY
 WELL. FENIX NPR 3 "AX" #86-29:   WELL
 FLD .      NPR - WILDCAT:   FIELD
 LOC .      S29 T39N R78W:   LOCATION
 CNTY.            NATRONA:   COUNTY
 STAT.            WYOMING:   STATE
 CTRY. UNITED STATES OF AMERICA:   COUNTRY
 SRVC.              WELEX:   SERVICE COMPANY
 DATE.        24-JUN-1977:   LOGDATE
 API .     49025103830000:   API NUMBER
~CURVE INFORMATION
#MNEM.UNIT       API CODE    CURVE DESCRIPTION
#----------   ------------   ------------------------------
 DEPT.F                  :   
 SPR .MV     07 010 01 00:   SPONTANEOUS POTENTIAL
 ILD .OHMM   07 120 46 00:   DEEP INDUCTION RESISTIVITY
 ILM .OHMM   07 120 44 00:   INDUCTION LOG MEDIUM RESISTIVITY
 SGRD.OHMM   07 220 05 00:   SHALLOW SHORT GUARD RESISTIVITY
 GRD .GAPI   45 310 01 00:   GAMMA RAY FROM DENSITY LOG
 CALD.IN     45 280 60 00:   CALIPER FROM DENSITY LOG
 RHOB.G/C3   45 350 01 00:   BULK DENSITY
 CORR.G/C3   45 356 01 00:   DENSITY CORRECTION
~PARAMETER INFORMATION
#MNEM.UNIT          VALUE    DESCRIPTION
#----------   ------------   ------------------------------
 EKB .F         5056.0000:   Kelly bushing
 EGL .F         5046.0000:   Ground level
 EDF .F            0.0000:   Drilling floor
 TD  .F         3051.0000:   Total depth
 DATE.        24-JUN-1977:   Date logged
 CLNT.            A2DTECH:   Client Code
 SL  . 1746' FSL & 534' FEL:   Surface Location
 PD  .                 GL:   Permanent Datum
 EPD .F              5046:   Elevation Permanent Datum
 LMF .                 KB:   Log Measured From
 DMF .                 KB:   Drilling Measured From
 DAPD.F                10:   Feet Above Permanent Datum
 DD  .F              3038:   Depth driller
 DL  .F              3051:   Depth logger
 BLI .F              3049:   Bottom log interval
 TLI .F               200:   Top log interval
 CS1 .IN            8.625:   Casing size
 CBD1.      8.625" @ 217':   Casing driller 1
 CBL1.F               213:   Casing logger 1
 BS1 .IN            7.875:   Bit size
 BSD1.F              3038:   Depth drilled with bit1
 DFT .            KCL/MUD:   Type fluid in hole
 DFD .                8.7:   Density
 DFV .                134:   Viscosity
 DFPH.                7.5:   pH
 DFL .                7.2:   Fluid loss
 MSS .           FLOWLINE:   Source of sample
 RMS .OHMM            .62:   Rm
 MST .F                82:   Rm Meas. temp.
 RMF .OHMM            .28:   Rmf
 MFST.F                82:   Rmf Meas. temp.
 RMC .OHMM            .78:   Rmc
 MCST.F                82:   Rmc Meas. temp.
 MFSS.               MEAS:   Source Rmf.
 MCSS.               MEAS:   Source Rmc.
 RMB .OHMM            .45:   Rm. at BHT
 BHT .F               111:   BHT.
 TCS .HRS               2:   Time Circ. stopped
 MRT .F               111:   Maximum recorded temp.
 LUN .               8766:   Logging unit number
 LUL .             CASPER:   Logging unit location
 ENGI.          D. LAWSON:   Recorded By
 WITN.      B. HARRINGTON:   Witnessed by
 ORIG.           5" PRINT:   Origin of data
 UWI .     49025103830000:   Unique Well ID
 DICO. A2D TECHNOLOGIES, INC.:   Digitizing Company
~OTHER INFORMATION
~A   DEPT      SPR        ILD        ILM       SGRD        GRD       CALD         RHOB      CORR  
# ...
 1688.5000   -64.7110     7.2680     7.8710    10.9910    88.5800     8.3150     2.4990     0.0250
 1689.0000   -64.7060     7.3220     7.8840    10.8250    88.0830     8.3140     2.4970     0.0250
 1689.5000   -64.7010     7.3780     7.8960    10.6590    87.5050     8.3130     2.4960     0.0240
 1690.0000   -64.6960     7.4350     7.9090    10.5300    86.9290     8.3110     2.4960     0.0240
 1690.5000   -64.6910     7.5020     7.9260    10.7900    86.3480     8.3100     2.4950     0.0230
 1691.0000   -64.6860     7.3840     7.8310    11.0030    85.7410     8.3080     2.4950     0.0230
 1691.5000   -64.6810     7.1970     7.6090    11.1250    86.2620     8.3070     2.4940     0.0220
 1692.0000   -64.6760     6.9620     7.3860    11.1250    87.0770     8.3060     2.4920     0.0210
 1692.5000   -64.6710     6.7180     7.1640    11.1250    87.6350     8.3040     2.4900     0.0190
 1693.0000   -64.6660     6.4740     6.9410    10.9000    86.5930     8.3030     2.4890     0.0180
 1693.5000   -64.6610     6.2300     6.7190    10.2440    85.3280     8.3020     2.4870     0.0170
 1694.0000   -64.6560     5.9860     6.4970     7.7120    84.0500     8.3000     2.4820     0.0150
 1694.5000   -64.6510     5.8040     6.3610     5.9110    82.7720     8.2990     2.4750     0.0130
 1695.0000   -64.6450     5.8040     6.5290     7.7820    81.5040     8.2970     2.4700     0.0100
 1695.5000   -64.6400     5.8400     6.7250     7.3760    80.4760     8.2960     2.4700     0.0090
 1696.0000   -64.6350     5.8940     6.9080     6.9080    80.5450     8.2950     2.4710     0.0070
 1696.5000   -64.6300     5.9480     7.2980    10.9070    81.5340     8.2930     2.4760     0.0100
 1697.0000   -64.6250     6.1710     7.6640    11.4710    82.5340     8.2940     2.4860     0.0120
 1697.5000   -64.6200     6.4770     8.0300    11.7320    83.5170     8.2950     2.4950     0.0150
 1698.0000   -64.6150     6.7820     8.1650    11.9500    84.0290     8.2960     2.4970     0.0160
 1698.5000   -64.6100     7.0880     8.2220    12.1870    84.5790     8.2970     2.4990     0.0160
 1699.0000   -64.6050     7.3650     8.1550    12.1570    85.1300     8.2980     2.5000     0.0160
 1699.5000   -64.6000     7.5160     8.0200    12.1180    85.6340     8.2990     2.5010     0.0180
 1700.0000   -64.5950     7.6400     7.8840    12.0820    85.1710     8.2990     2.5020     0.0210
 1700.5000   -64.5900     7.5710     7.7430    11.8570    84.5140     8.3000     2.5020     0.0240
 1701.0000   -64.5850     7.4330     7.6020    11.6080    83.8540     8.3010     2.5020     0.0270
 1701.5000   -64.5800     7.3010     7.4620    11.2390    83.1970     8.3020     2.5020     0.0290
 1702.0000   -64.5750     7.1550     7.3210     9.8440    82.5360     8.3030     2.5040     0.0320
 1702.5000   -64.5700     7.0080     7.1810     8.3740    81.8390     8.3040     2.5070     0.0340
 1703.0000   -64.5650     6.9080     6.9710     8.6830    82.5110     8.3050     2.5160     0.0370
 1703.5000   -64.5600     6.9080     7.0310     9.1770    83.6180     8.3060     2.5240     0.0390
 1704.0000   -64.5550     6.9080     7.1480    11.0450    84.7390     8.3070     2.5290     0.0420
 1704.5000   -64.5490     6.9740     7.2650    10.5250    85.8590     8.3070     2.5350     0.0440
 1705.0000   -64.5440     7.0450     7.4230    11.6090    86.9800     8.3080     2.5360     0.0460
 1705.5000   -64.5390     7.1170     7.5970    12.5330    88.1230     8.3090     2.5370     0.0430
 1706.0000   -64.5340     7.1890     7.7710    12.4060    88.4540     8.3100     2.5360     0.0400
 1706.5000   -64.5290     7.3790     7.9450    12.2300    88.5600     8.3110     2.5300     0.0370
 1707.0000   -64.5190     7.5690     8.1180    11.9710    88.6580     8.3120     2.5230     0.0340
 1707.5000   -64.4930     7.7580     8.3740    12.0290    88.7550     8.3130     2.5130     0.0290
 1708.0000   -64.4670     7.9990     8.3600    12.1370    88.8630     8.3140     2.5050     0.0240
 1708.5000   -64.4420     7.9710     8.3350    12.2450    88.9730     8.3160     2.4990     0.0200
 1709.0000   -64.4170     7.9330     8.3090    12.3530    89.0830     8.3180     2.4920     0.0150
 1709.5000   -64.3910     7.8950     8.2840    12.4610    89.1920     8.3200     2.4900     0.0100
 1710.0000   -64.3660     7.8570     8.2590    12.5330    89.3030     8.3210     2.4890     0.0080
 1710.5000   -64.3410     7.8190     8.2330    12.3200    89.4200     8.3230     2.4870     0.0060
 1711.0000   -64.3150     7.7810     8.1990    12.1620    89.5240     8.3250     2.4850     0.0050
 1711.5000   -64.2900     7.7430     8.1560    12.0040    90.1980     8.3260     2.4830     0.0040
 1712.0000   -64.2650     7.7090     8.1140    11.8450    90.6830     8.3280     2.4810     0.0030
 1712.5000   -64.2390     7.6970     8.0720    11.6870    91.1910     8.3300     2.4790     0.0020
 1713.0000   -64.2140     7.6850     8.0290    11.5280    91.7090     8.3320     2.4770     0.0020
 1713.5000   -64.1890     7.6730     7.9870    11.3310    92.2290     8.3290     2.4750     0.0020
 1714.0000   -64.1630     7.6600     7.9260    11.4150    92.3400     8.3130     2.4740     0.0020
 1714.5000   -64.1380     7.6480     8.0320    11.5660    92.4370     8.2960     2.4730     0.0020
 1715.0000   -64.1130     7.6420     8.2220    11.7540    92.5320     8.2800     2.4720     0.0030
 1715.5000   -64.0870     7.6660     8.4130    11.7210    92.6300     8.2640     2.4730     0.0030
 1716.0000   -64.0620     7.6840     8.6040    11.6610    92.6930     8.2530     2.4760     0.0040
 1716.5000   -64.0370     7.7030     8.7440    11.6020    92.0450     8.2510     2.4800     0.0040
 1717.0000   -64.0110     7.7610     8.8460    11.5400    91.3810     8.2500     2.4840     0.0090
 1717.5000   -63.9860     7.8490     8.9480    11.9130    90.7230     8.2480     2.4880     0.0140
 1718.0000   -63.9600     7.9370     9.0940    12.2980    90.0650     8.2460     2.4920     0.0180
 1718.5000   -63.9340     8.0260     9.0750    12.6830    89.3830     8.2440     2.4960     0.0230
 1719.0000   -63.9770     8.1140     9.0430    13.0010    89.1530     8.2420     2.5000     0.0270
 1719.5000   -64.0270     8.2020     9.0110    13.0010    88.4450     8.2410     2.5040     0.0320
 1720.0000   -64.0760     8.2360     8.8350    12.5270    87.7450     8.2390     2.5050     0.0330
 1720.5000   -64.1250     8.2540     8.6550    12.0420    87.0220     8.2370     2.5050     0.0330
 1721.0000   -64.1750     8.2720     8.4760    11.6060    87.1260     8.2350     2.4960     0.0340
 1721.5000   -64.2240     8.2970     8.2960    11.3830    87.7730     8.2390     2.4880     0.0330
 1722.0000   -64.2740     8.2060     8.0740    11.1600    88.4270     8.2490     2.4810     0.0320
 1722.5000   -64.3250     8.0510     7.8210    10.9900    88.4600     8.2600     2.4740     0.0310
 1723.0000   -64.2590     7.8500     7.5690    10.9040    87.8020     8.2700     2.4700     0.0300
 1723.5000   -64.1810     7.4570     7.2620    10.8170    87.1440     8.2800     2.4660     0.0290
 1724.0000   -64.1030     7.0310     6.7300    10.7310    86.4950     8.2900     2.4630     0.0290
 1724.5000   -64.0260     6.5820     6.1980    10.6440    86.7690     8.2930     2.4590     0.0310
 1725.0000   -63.9480     6.1330     5.6650    10.4080    87.1690     8.2930     2.4520     0.0310
 1725.5000   -63.8710     5.6840     5.1330     9.8490    87.5770     8.2930     2.4400     0.0280
 1726.0000   -63.7930     5.2340     4.5830     8.5290    87.3450     8.2930     2.4290     0.0250
 1726.5000   -63.7160     4.7850     4.0200     5.5810    87.0610     8.2900     2.4200     0.0210
 1727.0000   -63.6380     4.3360     3.5710     4.3360    86.8850     8.2840     2.4340     0.0220
 1727.5000   -63.5570     4.0670     4.0340     3.5060    87.4790     8.2780     2.4570     0.0240
 1728.0000   -63.5920     4.0980     4.9220     4.6910    88.1090     8.2720     2.4810     0.0260
 1728.5000   -63.6670     4.1770     5.6950     8.1960    88.7940     8.2660     2.5110     0.0280
