~VERSION INFORMATION
 VERS.                2.0:   CWLS LOG ASCII STANDARD - VERSION 2.0
 WRAP.                 NO:   ONE LINE PER DEPTH STEP
~WELL INFORMATION
#MNEM.UNIT      DATA TYPE    INFORMATION
#----------   ------------   ------------------------------
 STRT.F          205.0000:   START DEPTH
 STOP.F         3171.5000:   STOP DEPTH
 STEP.F            0.5000:   STEP LENGTH
 NULL.          -999.2500:   NO VALUE
 COMP.    FENIX & SCISSON:   COMPANY
 WELL. FENIX & SCISSON  "AX" #27-28:   WELL
 FLD .              NPR 3:   FIELD
 LOC .      S28 T39N R78W:   LOCATION
 CNTY.            NATRONA:   COUNTY
 STAT.            WYOMING:   STATE
 CTRY. UNITED STATES OF AMERICA:   COUNTRY
 SRVC.       SCHLUMBERGER:   SERVICE COMPANY
 DATE.        30-MAY-1977:   LOGDATE
 API .     49025103870000:   API NUMBER
~CURVE INFORMATION
#MNEM.UNIT       API CODE    CURVE DESCRIPTION
#----------   ------------   ------------------------------
 DEPT.F                  :   
 NPHI.DEC    42 890 03 00:   NEUTRON POROSITY SANDSTONE
 CALD.IN     45 280 60 00:   CALIPER FROM DENSITY LOG
 GRD .GAPI   45 310 01 00:   GAMMA RAY FROM DENSITY LOG
 RHOB.G/C3   45 350 01 00:   BULK DENSITY
 CORR.G/C3   45 356 01 00:   DENSITY CORRECTION
 SPR .MV     11 010 01 00:   SPONTANEOUS POTENTIAL
 MSFL.OHMM   11 270 04 00:   MICRO SPHERICALLY FOCUSED RES.
 LLD .OHMM   11 220 10 00:   LATEROLOG LOG DEEP
 LLS .OHMM   11 220 09 00:   LATEROLOG LOG SHALLOW
~PARAMETER INFORMATION
#MNEM.UNIT          VALUE    DESCRIPTION
#----------   ------------   ------------------------------
 EKB .F         5094.0000:   Kelly bushing
 EGL .F         5084.0000:   Ground level
 EDF .F            0.0000:   Drilling floor
 EPD .F            0.0000:   Permanent datum
 TD  .F         3169.0000:   Total depth
 DATE.        30-MAY-1977:   Date logged
 CLNT.            A2DTECH:   Client Code
 SL  . 1266' FSL & 871' FWL:   Surface Location
 PD  .                 GL:   Permanent Datum
 DD  .F              3163:   Depth driller
 DL  .F              3169:   Depth logger
 BLI .F              3168:   Bottom log interval
 CS1 .IN            8.625:   Casing size
 CBD1.      8.625" @ 210':   Casing driller 1
 CBL1.F               219:   Casing logger 1
 BS1 .IN            7.875:   Bit size
 DFT .           SALT/MUD:   Type fluid in hole
 DFD .                8.9:   Density
 DFV .                 32:   Viscosity
 DFPH.                8.5:   pH
 DFL .                5.8:   Fluid loss
 MSS .                PIT:   Source of sample
 RMS .OHMM           .194:   Rm
 MST .F                65:   Rm Meas. temp.
 RMF .OHMM           .165:   Rmf
 MFST.F                65:   Rmf Meas. temp.
 MFSS.               MEAS:   Source Rmf.
 RMB .OHMM           .107:   Rm. at BHT
 BHT .F               118:   BHT.
 MRT .F               118:   Maximum recorded temp.
 LUN .               5642:   Logging unit number
 LUL .               CSPR:   Logging unit location
 ENGI.             MARTIN:   Recorded By
 WITN.         PETTINGILL:   Witnessed by
 ORIG.           5" PRINT:   Origin of data
 UWI .     49025103870000:   Unique Well ID
 DICO. A2D TECHNOLOGIES, INC.:   Digitizing Company
 DAPD.F                10:   Feet Above Permanent Datum
 BSD1.F              3163:   Depth drilled with bit1
 TLI .F               219:   Top log interval
 TLAB.HRS            0930:   Time logger at bottom
~OTHER INFORMATION
~A   DEPT     NPHI         CALD      GRD         RHOB      CORR       SPR       MSFL        LLD        LLS   
# ...
 1555.5000     0.3228     8.4868   158.0840     2.5323     0.0495   -78.2723    11.7060     7.8505     8.6850
 1556.0000     0.3121     8.4871   158.4917     2.5273     0.0305   -78.4661    12.1441     8.0971     8.7663
 1556.5000     0.3029     8.4874   158.1027     2.5303     0.0435   -78.6591    12.1458     8.4800     9.1795
 1557.0000     0.2989     8.5079   157.3153     2.5413     0.0316   -78.6558    11.8182     8.6384     9.6122
 1557.5000     0.2939     8.5080   155.7311     2.5642     0.0495   -78.6542    11.6053     8.6104     9.5256
 1558.0000     0.2959     8.4883   155.3421     2.5702     0.0535   -78.3422    11.0877     8.2251     9.1833
 1558.5000     0.3021     8.4823   155.7482     2.5473     0.0446   -78.0497    11.0892     8.0027     9.0996
 1559.0000     0.3105     8.4763   156.1560     2.5473     0.0276   -78.2414    11.2955     7.9562     8.8543
 1559.5000     0.3165     8.4703   159.7511     2.5663     0.0626   -78.8309    11.0920     7.9573     8.7746
 1560.0000     0.3233     8.4643   162.1511     2.5713     0.0356   -78.8268    11.0935     7.9584     8.6951
 1560.5000     0.3241     8.4584   161.8249     2.5781     0.0553   -78.2290    10.9939     7.9593     8.6970
 1561.0000     0.3241     8.4526   160.5675     2.5963     0.0617   -77.8292    10.9960     7.9601     8.6980
 1561.5000     0.3213     8.4469   158.5819     2.5944     0.0717   -77.4293    10.8973     7.8168     8.6989
 1562.0000     0.3130     8.4412   156.1963     2.5755     0.0518   -77.6231    10.8976     7.8828     8.7006
 1562.5000     0.3114     8.4354   153.8092     2.5496     0.0489   -77.6190    11.0000     7.8900     8.7016
 1563.0000     0.3114     8.4517   153.0173     2.5846     0.0459   -77.8127    10.9012     7.9641     8.7028
 1563.5000     0.3142     8.4520   153.8191     2.5746     0.0599   -77.6116    10.6072     7.9652     8.7040
 1564.0000     0.3182     8.4522   153.0272     2.5926     0.0769   -77.6075    10.8057     8.0407     8.7858
 1564.5000     0.3230     8.4525   150.6432     2.5668     0.0451   -77.9991    10.8060     8.0418     8.7067
 1565.0000     0.3326     8.4527   148.6555     2.5558     0.0561   -78.1928    10.8075     8.0429     8.7079
 1565.5000     0.3330     8.4530   148.6594     2.5489     0.0362   -77.7931    10.9040     8.1187     8.7086
 1566.0000     0.3294     8.4532   150.2580     2.5420     0.0452   -77.7890    10.7128     8.1194     8.7100
 1566.5000     0.3154     8.4535   153.4519     2.5639     0.0722   -77.7865    10.7137     8.1209     8.6428
 1567.0000     0.3139     8.4538   156.6442     2.5401     0.0632   -78.1763    10.8137     8.1221     8.6440
 1567.5000     0.3167     8.4739   161.4315     2.5381     0.0364   -78.5677    10.9147     8.1232     8.6452
 1568.0000     0.3310     8.4742   161.8319     2.5332     0.0175   -77.9703    10.9159     7.9030     8.4134
 1568.5000     0.3311     8.4744   162.2353     2.5432     0.0275   -77.9662    11.0182     7.9041     8.4145
 1569.0000     0.3287     8.4747   163.0371     2.5502     0.0435   -77.9621    11.1211     7.8081     8.3135
 1569.5000     0.3271     8.4550   163.0420     2.5543     0.0426   -77.9580    11.2250     7.4813     7.9694
 1570.0000     0.3271     8.4752   161.8517     2.5444     0.0326   -77.9539    11.6451     7.1458     7.6160
 1570.5000     0.3399     8.4754   159.0687     2.5574     0.0516   -77.9498    11.9712     7.1915     7.6639
 1571.0000     0.3399     8.4557   156.2847     2.5604     0.0617   -78.1434    12.4199     7.2584     7.7581
 1571.5000     0.3375     8.4560   153.8992     2.5395     0.0468   -77.9416    12.7676     7.5761     8.0467
 1572.0000     0.3215     8.4762   150.7168     2.5296     0.0229   -77.7398    12.8869     7.9078     8.2709
 1572.5000     0.3095     8.4565   148.3312     2.5336     0.0379   -77.3403    12.8887     8.2582     8.6565
 1573.0000     0.2939     8.4766   147.5393     2.5427     0.0529   -77.5339    12.7729     8.4898     8.8977
 1573.5000     0.2952     8.4570   147.1458     2.5676     0.0799   -77.7275    12.8922     8.6483     9.1458
 1574.0000     0.2976     8.4572   150.7381     2.5866     0.1018   -77.1327    12.8940     8.7293     9.1468
 1574.5000     0.2988     8.4574   151.5399     2.5677     0.0561   -77.5248    12.4319     8.7305     9.2310
 1575.0000     0.3008     8.4577   153.5369     2.5748     0.0710   -77.9128    11.9864     8.6519     9.3172
 1575.5000     0.3112     8.4779   157.1280     2.5748     0.0611   -78.3040    11.5568     8.4956     9.2340
 1576.0000     0.3160     8.4781   157.1310     2.5609     0.0323   -78.6952    11.4530     8.1904     8.8150
 1576.5000     0.3192     8.4585   157.1359     2.5550     0.0443   -79.0863    11.5600     7.8488     8.6553
 1577.0000     0.3224     8.4587   157.1409     2.5481     0.0304   -78.8845    11.8836     7.8497     8.3573
 1577.5000     0.3228     8.4590   158.3411     2.5441     0.0394   -78.8804    11.8853     7.8511     8.3588
 1578.0000     0.3224     8.4592   161.1349     2.5821     0.0324   -78.4794    11.9963     7.8512     8.3589
 1578.5000     0.3212     8.4594   163.9288     2.5632     0.0485   -78.8721    12.3318     7.9254     8.4370
 1579.0000     0.3204     8.4597   163.9338     2.5443     0.0555   -78.8680    12.5615     7.9262     8.4379
 1579.5000     0.3197     8.4599   158.9483     2.5333     0.0396   -78.8638    13.1520     8.1240     8.6734
 1580.0000     0.3181     8.4602   153.9628     2.5553     0.0476   -78.0702    14.2839     8.2751     8.7539
 1580.5000     0.3097     8.4605   150.0040     2.5424     0.0566   -78.0661    13.6465     8.7450     8.9158
 1581.0000     0.3017     8.4607   150.8067     2.5604     0.0517   -78.0620    13.2785     8.9906    10.0380
 1581.5000     0.2974     8.4610   154.7949     2.5575     0.0427   -78.6505    12.4556     8.9096     9.8567
 1582.0000     0.2958     8.4612   161.5729     2.5675     0.0508   -78.6464    11.6837     8.4331     9.4156
 1582.5000     0.3073     8.4615   157.9941     2.5735     0.0728   -78.8398    11.2650     7.7652     8.9121
 1583.0000     0.3161     8.4418   157.5986     2.5636     0.0559   -78.8357    10.9612     7.4178     8.4355
 1583.5000     0.3241     8.4420   160.3925     2.5537     0.0500   -78.2390    10.9627     7.1512     8.1324
 1584.0000     0.3389     8.4423   162.7879     2.5478     0.0350   -78.2349    11.0654     7.2182     8.1335
 1584.5000     0.3461     8.4625   163.1913     2.5688     0.0520   -78.8232    10.9658     7.5584     8.2097
 1585.0000     0.3405     8.4627   163.1962     2.5578     0.0511   -79.0166    10.8673     7.6996     8.2722
 1585.5000     0.3353     8.4630   160.8117     2.5529     0.0412   -79.2100    10.9688     7.5605     8.3353
 1586.0000     0.3274     8.3835   158.0277     2.5699     0.0542   -79.2033    11.2759     7.4239     8.3988
 1586.5000     0.3250     8.4435   156.4390     2.6009     0.0702   -78.8067    11.4859     7.5626     8.4628
 1587.0000     0.3234     8.4637   156.0455     2.5889     0.0473   -79.1975    11.4885     7.7749     8.5273
 1587.5000     0.3006     8.4639   160.0362     2.5721     0.0543   -79.3892    11.4891     7.7760     8.6028
 1588.0000     0.3017     8.4642   164.0247     2.5681     0.0633   -79.3883    11.0245     7.7771     8.6037
 1588.5000     0.3038     8.4644   163.2318     2.5572     0.0475   -79.3833    10.7264     7.7070     8.5263
 1589.0000     0.3186     8.5045   163.2368     2.5463     0.0385   -79.7732    10.6298     7.3622     8.3723
 1589.5000     0.3346     8.5047   162.8433     2.5642     0.0593   -79.5716    10.7293     7.2292     8.2210
 1590.0000     0.3398     8.4453   164.0435     2.5603     0.0825   -79.5674    10.7308     6.9894     8.2222
 1590.5000     0.3438     8.4455   164.8453     2.5713     0.0716   -79.3659    10.9312     7.0552     8.2233
 1591.0000     0.3322     8.4458   166.0455     2.5884     0.0716   -79.1643    10.9322     7.0558     8.1493
 1591.5000     0.3299     8.4460   167.6441     2.5754     0.0587   -79.1602    10.8877     7.0570     8.1504
