~VERSION INFORMATION
 VERS.                2.0:   CWLS LOG ASCII STANDARD - VERSION 2.0
 WRAP.                 NO:   ONE LINE PER DEPTH STEP
~WELL INFORMATION
#MNEM.UNIT      DATA TYPE    INFORMATION
#----------   ------------   ------------------------------
 STRT.F            0.0000:   START DEPTH
 STOP.F         5786.0000:   STOP DEPTH
 STEP.F            0.5000:   STEP LENGTH
 NULL.          -999.2500:   NO VALUE
 COMP. U.S. DEPARTMENT OF ENERGY:   COMPANY
 WELL. DEPARTMENT "X" #2-3:   WELL
 FLD .           N P R #3:   FIELD
 LOC .       S3 T38N R78W:   LOCATION
 CNTY.            NATRONA:   COUNTY
 STAT.            WYOMING:   STATE
 CTRY. UNITED STATES OF AMERICA:   COUNTRY
 SRVC.       BAKER HUHGES:   SERVICE COMPANY
 DATE.        14-JUL-2002:   LOGDATE
 API .     49025230540000:   API NUMBER
~CURVE INFORMATION
#MNEM.UNIT       API CODE    CURVE DESCRIPTION
#----------   ------------   ------------------------------
 DEPT.F                  :   
 TEND.LBS    45 635 01 00:   TENSION FROM DENSITY LOG
 CALD.IN     45 280 60 00:   CALIPER FROM DENSITY LOG
 ZCOR.G/C3   45 356 01 00:   DENSITY CORRECTION
 PE  .B/E    45 358 01 00:   PHOTOELECTRIC FACTOR
 ZDEN.G/C3   45 350 01 00:   BULK DENSITY
 CNCF.DEC    42 890 03 00:   NEUTRON POROSITY
 TENS.LBS    60 635 01 00:   TENSION FROM SONIC
 DT  .US/F   60 520 00 00:   DELTA TIME
 RD  .OHMM   11 220 10 00:   RESISTIVITY DEEP
 TENR.LBS    11 635 01 00:   TENSION FROM RES. LOG
 RS  .OHMM   11 220 09 00:   RESISTIVITY SHALLOW
 GRR .GAPI   11 310 01 00:   GAMMA RAY FROM RES.
 RMLL.OHMM   11 270 04 00:   MICRO LATEROLOG
 SPR .MV     11 010 01 00:   SPONTANEOUS POTENTIAL FROM RES.
~PARAMETER INFORMATION
#MNEM.UNIT          VALUE    DESCRIPTION
#----------   ------------   ------------------------------
 EKB .F         5164.7000:   Kelly bushing
 EGL .F         5154.7000:   Ground level
 EDF .F         5163.7000:   Drilling floor
 TD  .F         5773.0000:   Total depth
 DATE.        14-JUL-2002:   Date logged
 CLNT.            A2DTECH:   Client Code
 SL  . 838' FNL & 2128' FWL:   Surface Location
 PD  .                 GL:   Permanent Datum
 EPD .F            5154.7:   Elevation Permanent Datum
 LMF .                 KB:   Log Measured From
 DMF .                 KB:   Drilling Measured From
 DD  .F              5770:   Depth driller
 DL  .F              5773:   Depth logger
 BLI .F              5770:   Bottom log interval
 CS1 .IN            9.625:   Casing size
 CBD1.       9.625 @ 578':   Casing driller 1
 CBL1.F               578:   Casing logger 1
 BS1 .IN             8.75:   Bit size
 DFT .       GEL/CHEMICAL:   Type fluid in hole
 DFD .                  9:   Density
 DFV .                 45:   Viscosity
 DFPH.                8.5:   pH
 DFL .                9.6:   Fluid loss
 MSS .           FLOWLINE:   Source of sample
 RMS .OHMM          0.568:   Rm
 MST .F                91:   Rm Meas. temp.
 RMF .OHMM          0.490:   Rmf
 MFST.F                92:   Rmf Meas. temp.
 RMC .OHMM          1.072:   Rmc
 MCST.F                90:   Rmc Meas. temp.
 MFSS.               MEAS:   Source Rmf.
 RMB .OHMM          0.291:   Rm. at BHT
 BHT .F               184:   BHT.
 TCS .HRS               8:   Time Circ. stopped
 MRT .F               184:   Maximum recorded temp.
 LUN .            HL-6530:   Logging unit number
 LUL .             CASPER:   Logging unit location
 ENGI.           VERCIMAK:   Recorded By
 WITN.              HARDY:   Witnessed by
 ORIG.           5" PRINT:   Origin of data
 UWI .     49025230540000:   Unique Well ID
 DICO. A2D TECHNOLOGIES, INC.:   Digitizing Company
~OTHER INFORMATION
~A    DEPT    TEND       CALD       ZCOR         PE       ZDEN       CNCF       TENS         DT         RD       TENR         RS         GRR      RMLL        SPR   
# ...
 3332.0000   -23.3430     9.9550     0.2420     2.8760     2.5040     0.2760   -44.5890    86.7430     4.0220     4.4910     4.9650   141.9930  -999.2500     3.2990
 3332.5000   -27.8750     9.9480     0.1740     2.8860     2.5570     0.2700   -44.5890    86.2510     4.1130     4.4910     5.1060   140.0300  -999.2500     3.4080
 3333.0000    -9.2750     9.9510     0.1700     2.9600     2.5380     0.2690   -44.5890    85.3940     4.2510     4.4910     5.2500   140.1210  -999.2500     3.2260
 3333.5000     9.3250     9.9850     0.2180     3.0190     2.5100     0.2710   -44.5890    84.5370     4.3890     4.4910     5.3680   139.1550  -999.2500     3.1570
 3334.0000    25.0000    10.0180     0.2590     3.0340     2.4770     0.2720   -44.5890    84.4060     4.4910     4.4910     5.4570   139.0210  -999.2500     3.0750
 3334.5000    25.0000    10.0300     0.2680     3.0490     2.4850     0.2690   -44.5890    84.6630     4.4810     4.4910     5.5480   140.1020  -999.2500     2.9850
 3335.0000    19.3330     9.9770     0.2560     3.0530     2.4960     0.2640   -44.5890    84.6090     4.4710     4.4910     5.5330   138.9740  -999.2500     2.9020
 3335.5000     2.8000     9.9620     0.2380     2.9940     2.5020     0.2630   -44.5890    84.0910     4.4610     4.4910     5.5180   135.9860  -999.2500     2.6510
 3336.0000    -1.7600     9.9580     0.2210     2.9370     2.5050     0.2670   -44.5890    83.4740     4.4510     4.4910     5.5020   136.9180  -999.2500     2.7040
 3336.5000     8.1600     9.9550     0.2030     2.9060     2.5110     0.2700   -44.5890    83.5000     4.4090     4.4910     5.4970   139.1520  -999.2500     2.7430
 3337.0000    18.0800     9.9520     0.1890     2.8900     2.5250     0.2690   -44.5890    84.3440     4.3370     4.4910     5.3460   139.6470  -999.2500     2.7770
 3337.5000    20.9090     9.9490     0.1830     2.8740     2.5320     0.2680   -44.5890    85.1890     4.2700     4.4910     5.2060   138.1280  -999.2500     2.8120
 3338.0000     7.3820     9.9460     0.1930     2.8580     2.5280     0.2710   -44.5890    85.8000     4.2030     4.4910     5.0660   137.3670  -999.2500     2.8470
 3338.5000    -5.0000     9.9430     0.2330     2.8620     2.5050     0.2750   -44.5890    85.6530     4.1360     4.4910     4.9690   139.7890  -999.2500     2.8790
 3339.0000     5.0000     9.9480     0.2530     2.8850     2.4850     0.2750   -44.5890    85.2400     4.0590     4.4910     4.9460   143.8760  -999.2500     2.9350
 3339.5000    -2.7080     9.9590     0.2500     2.9080     2.4750     0.2750   -44.5890    85.3600     4.0260     4.4910     4.9240   147.8250  -999.2500     2.9900
 3340.0000   -14.1540     9.9700     0.2390     2.9300     2.4740     0.2750   -44.5890    85.4880     3.9920     4.4910     4.9010   149.5190  -999.2500     3.0450
 3340.5000   -25.0000     9.9800     0.2320     2.9300     2.4720     0.2800   -44.5890    85.7770     3.9480     4.4910     4.8780   150.4930  -999.2500     3.0660
 3341.0000   -36.2530     9.9910     0.2590     2.9300     2.4660     0.2910   -44.5890    86.1770     3.8830     4.4910     4.7890   150.2700  -999.2500     3.0660
 3341.5000   -49.4800    10.0010     0.2750     2.9440     2.4650     0.3020   -44.5890    86.7580     3.8180     4.4910     4.7260   150.3530  -999.2500     3.0660
 3342.0000   -62.7070    10.0120     0.2610     3.0090     2.4840     0.3070   -44.5890    87.3750     3.7530     4.4910     4.6600   151.8830  -999.2500     3.0660
 3342.5000   -46.7650    10.0230     0.2410     3.0720     2.5020     0.3010   -44.5890    88.4330     3.6880     4.4910     4.5940   152.9100  -999.2500     2.9970
 3343.0000   -17.5880    10.0600     0.2380     3.1120     2.5160     0.2950   -44.5890    88.7470     3.6690     4.4910     4.5740   151.5320  -999.2500     2.8750
 3343.5000    11.5880    10.0950     0.2550     3.1240     2.5000     0.2860   -44.5890    87.8930     3.7610    15.4940     4.6170   149.1800  -999.2500     2.7530
 3344.0000    35.0000    10.1220     0.2750     3.1350     2.4840     0.2770   -44.5890    86.9820     3.8450    24.4510     4.7060   148.1070  -999.2500     2.6710
 3344.5000    33.7870    10.1220     0.2830     3.1470     2.4730     0.2680   -52.2360    86.0710     3.9300    14.4100     4.7940   147.0320  -999.2500     2.7030
 3345.0000    27.3870    10.1220     0.2680     3.1580     2.4670     0.2680   -61.8740    85.1590     4.0140    -0.7290     4.8830   143.9680  -999.2500     2.7320
 3345.5000    20.9870    10.1210     0.2500     3.1690     2.4500     0.2740   -71.5120    84.6390     4.0960   -15.4690     4.9690   141.6590  -999.2500     2.7610
 3346.0000    14.5870    10.0790     0.2500     3.1450     2.4220     0.2800   -71.9060    84.3310     4.0960     0.5890     5.0150   140.6660  -999.2500     2.7900
 3346.5000     8.1870    10.0610     0.2460     3.0840     2.3920     0.2950   -62.2680    85.2280     4.0960     7.9690     5.0150   139.6570  -999.2500     2.8190
 3347.0000     1.7870    10.0960     0.2130     2.9540     2.3600     0.3130   -52.6300    86.4430     4.0960    15.3490     5.0150   139.4790  -999.2500     2.8480
 3347.5000    -5.0000    10.1600     0.1480     2.8500     2.3190     0.3140   -44.5890    85.4140     4.0960    22.7300     4.8630   139.8180  -999.2500     2.8770
 3348.0000   -22.1680    10.2650     0.1200     2.8310     2.2330     0.3090   -42.4840    84.8400     3.8850    23.1900     4.6000   140.5380  -999.2500     2.9380
 3348.5000   -40.4420    10.3700     0.1400     2.8290     2.2450     0.3060   -39.7720    88.1460     3.6670    20.9540     4.3370   143.8070  -999.2500     3.0010
 3349.0000   -58.7160    10.4220     0.1730     2.7930     2.2920     0.3160   -37.0590    88.5300     3.4480    18.7170     4.0740   147.5230  -999.2500     3.0700
 3349.5000   -75.0000    10.2630     0.2040     2.7510     2.3560     0.3250   -34.3460    89.6040     3.2630    16.4810     3.9490   149.7600  -999.2500     2.8280
 3350.0000   -57.0760    10.1960     0.2350     2.7550     2.3850     0.3160   -31.6330    90.3510     3.3280    14.4710     4.0220   148.2880  -999.2500     2.6830
 3350.5000   -37.3210    10.1640     0.2560     2.8580     2.3850     0.3040   -28.9200    88.1460     3.3930    18.1550     4.0440   146.8700  -999.2500     2.7400
 3351.0000   -17.5650    10.2020     0.2500     2.9500     2.3920     0.3000   -26.2070    89.8030     3.4400    22.2550     4.0590   146.6800  -999.2500     2.7960
 3351.5000   -11.1000    10.2400     0.2270     2.9550     2.4290     0.2720   -24.8650    91.5730     3.3510    30.7530     4.0480   146.8770  -999.2500     2.8530
 3352.0000    -6.6180    10.2660     0.2070     2.9180     2.4700     0.2610   -26.4840    92.5550     3.2850    16.6950     4.0250   146.4480  -999.2500     2.9100
 3352.5000    -2.1360    10.2750     0.2060     2.6210     2.5020     0.2660   -28.1030    90.7940     3.3500     2.6380     4.0220   144.5440  -999.2500     2.9670
 3353.0000     2.3450    10.2850     0.2250     2.5990     2.4900     0.2780   -29.7220    89.0920     3.4280     5.4710     4.1270   142.6790  -999.2500     3.0140
 3353.5000     2.5640    10.2950     0.2390     2.6320     2.4600     0.2890   -31.3410    87.8190     3.5060     9.9440     4.3290   140.8990  -999.2500     2.9060
 3354.0000    -3.4120    10.3110     0.2510     2.7400     2.4460     0.2950   -32.9600    87.7450     3.5690    14.4170     4.2890   140.0870  -999.2500     2.8610
 3354.5000    -9.3880    10.3690     0.2500     2.8460     2.4320     0.3030   -34.5690    89.0640     3.4540    18.8890     4.2610   139.9890  -999.2500     2.8640
 3355.0000   -15.3640    10.4280     0.2500     2.9240     2.4030     0.3150   -36.5730    90.4190     3.3120    23.3620     4.1020   140.7310  -999.2500     2.8660
 3355.5000   -21.3390    10.4950     0.2530     2.9810     2.3520     0.3420   -39.0400    91.1860     3.1700    22.7700     3.9440   141.6360  -999.2500     2.8660
 3356.0000   -27.3150    10.6180     0.2760     3.0060     2.2700     0.3360   -41.5070    91.4150     3.0280    11.4160     3.7850   140.9910  -999.2500     2.8650
