~VERSION INFORMATION
 VERS.                2.0:   CWLS LOG ASCII STANDARD - VERSION 2.0
 WRAP.                 NO:   ONE LINE PER DEPTH STEP
~WELL INFORMATION
#MNEM.UNIT      DATA TYPE    INFORMATION
#----------   ------------   ------------------------------
 STRT.F          200.0000:   START DEPTH
 STOP.F         3098.0000:   STOP DEPTH
 STEP.F            0.5000:   STEP LENGTH
 NULL.          -999.2500:   NO VALUE
 COMP.    FENIX & SCISSON:   COMPANY
 WELL.   FENIX "AX" #74-3:   WELL
 FLD .              N P R:   FIELD
 LOC .       S3 T38N R78W:   LOCATION
 CNTY.            NATRONA:   COUNTY
 STAT.            WYOMING:   STATE
 CTRY. UNITED STATES OF AMERICA:   COUNTRY
 SRVC.              WELEX:   SERVICE COMPANY
 DATE.        17-AUG-1977:   LOGDATE
 API .     49025104120000:   API NUMBER
~CURVE INFORMATION
#MNEM.UNIT       API CODE    CURVE DESCRIPTION
#----------   ------------   ------------------------------
 DEPT.F                  :   
 CALD.IN     45 280 60 00:   CALIPER FROM DENSITY LOG
 SPR .MV     07 010 01 00:   SPONTANEOUS POTENTIAL
 NPHI.DEC    42 890 00 00:   NEUTRON POROSITY
 GRD .GAPI   45 310 01 00:   GAMMA RAY FROM DENSITY LOG
 CORR.G/C3   45 356 01 00:   DENSITY CORRECTION
 RHOB.G/C3   45 350 01 00:   BULK DENSITY
 SGRD.OHMM   07 220 05 00:   SHALLOW SHORT GUARD RESISTIVITY
 ILD .OHMM   07 120 46 00:   DEEP INDUCTION RESISTIVITY
 ILM .OHMM   07 120 44 00:   INDUCTION LOG MEDIUM RESISTIVITY
~PARAMETER INFORMATION
#MNEM.UNIT          VALUE    DESCRIPTION
#----------   ------------   ------------------------------
 EKB .F         5141.0000:   Kelly bushing
 EGL .F         5131.0000:   Ground level
 EDF .F            0.0000:   Drilling floor
 TD  .F         3100.0000:   Total depth
 DATE.        17-AUG-1977:   Date logged
 CLNT.            A2DTECH:   Client Code
 SL  . 2272' FNL & 1060' FEL:   Surface Location
 PD  .                 GL:   Permanent Datum
 EPD .F              5131:   Elevation Permanent Datum
 LMF .                 KB:   Log Measured From
 DMF .                 KB:   Drilling Measured From
 DD  .F              3100:   Depth driller
 DL  .F              3100:   Depth logger
 BLI .F              3098:   Bottom log interval
 TLI .F               200:   Top log interval
 CS1 .IN            8.625:   Casing size
 CBD1.      8.625" @ 215':   Casing driller 1
 CBL1.F               218:   Casing logger 1
 BS1 .IN            7.875:   Bit size
 DFT .            KCL MUD:   Type fluid in hole
 DFD .                8.8:   Density
 DFV .                 33:   Viscosity
 DFPH.                9.5:   pH
 DFL .               10.6:   Fluid loss
 MSS .           FLOWLINE:   Source of sample
 RMS .OHMM            .67:   Rm
 MST .F                98:   Rm Meas. temp.
 RMF .OHMM            .64:   Rmf
 MFST.F                98:   Rmf Meas. temp.
 RMC .OHMM            .31:   Rmc
 MCST.F                98:   Rmc Meas. temp.
 MFSS.           MEASURED:   Source Rmf.
 RMB .OHMM            .57:   Rm. at BHT
 BHT .F               115:   BHT.
 TCS .HRS               3:   Time Circ. stopped
 MRT .F               115:   Maximum recorded temp.
 LUN .               8611:   Logging unit number
 LUL .             CASPER:   Logging unit location
 ENGI.            C. DOAK:   Recorded By
 WITN.     MR. PETTINGILL:   Witnessed by
 ORIG.           5" PRINT:   Origin of data
 UWI .     49025104120000:   Unique Well ID
 DICO. A2D TECHNOLOGIES, INC.:   Digitizing Company
 BSD1.               3100:   Depth drilled with bit1
~OTHER INFORMATION
~A   DEPT       CALD      SPR       NPHI          GRD      CORR        RHOB     SGRD        ILD        ILM   
  200.0000     8.2710  -999.2500  -999.2500     1.4620    -0.4980     2.0300  -999.2500  -999.2500  -999.2500
  200.5000     8.2710  -999.2500  -999.2500     1.4620    -0.4980     2.0330  -999.2500  -999.2500  -999.2500
  201.0000     8.2710  -999.2500  -999.2500     1.4620    -0.4990     2.0360  -999.2500  -999.2500  -999.2500
  201.5000     8.2710  -999.2500  -999.2500     1.4570    -0.5000     2.0410  -999.2500  -999.2500  -999.2500
  202.0000     8.2710  -999.2500  -999.2500     1.4850    -0.5020     2.0340  -999.2500  -999.2500  -999.2500
  202.5000     8.2710  -999.2500  -999.2500     2.0890    -0.5040     2.0320  -999.2500  -999.2500  -999.2500
  203.0000     8.2710  -999.2500  -999.2500     2.7030    -0.4970     2.0450  -999.2500  -999.2500  -999.2500
  203.5000     8.2740  -999.2500  -999.2500     3.3100    -0.4880     2.0680  -999.2500  -999.2500  -999.2500
  204.0000     8.2780  -999.2500  -999.2500     3.5870    -0.4780     2.0960  -999.2500  -999.2500  -999.2500
  204.5000     8.2820  -999.2500  -999.2500     2.7270    -0.4760     2.1180  -999.2500  -999.2500  -999.2500
  205.0000     8.2860  -999.2500  -999.2500     2.2120    -0.4750     2.1230  -999.2500  -999.2500  -999.2500
  205.5000     8.2900  -999.2500  -999.2500     1.7070    -0.4750     2.1280  -999.2500  -999.2500  -999.2500
  206.0000     8.2870  -999.2500  -999.2500     1.2030    -0.4750     2.1330  -999.2500  -999.2500  -999.2500
  206.5000     8.2810  -999.2500  -999.2500     0.6950    -0.4660     2.1470  -999.2500  -999.2500  -999.2500
  207.0000     8.2760  -999.2500  -999.2500     0.4630    -0.4550     2.1640  -999.2500  -999.2500  -999.2500
  207.5000     8.2710  -999.2500  -999.2500     0.4140    -0.4480     2.1810  -999.2500  -999.2500  -999.2500
  208.0000     8.2650  -999.2500  -999.2500     0.3670    -0.4430     2.1880  -999.2500  -999.2500  -999.2500
  208.5000     8.2600  -999.2500  -999.2500     0.3260    -0.4370     2.1830  -999.2500  -999.2500  -999.2500
  209.0000     8.2550  -999.2500  -999.2500     0.5080    -0.4300     2.1800  -999.2500  -999.2500  -999.2500
  209.5000     8.2610  -999.2500  -999.2500     1.1770    -0.4220     2.1900  -999.2500  -999.2500  -999.2500
  210.0000     8.2900  -999.2500  -999.2500     1.9230    -0.4040     2.2010  -999.2500  -999.2500  -999.2500
  210.5000     8.3170  -999.2500  -999.2500     4.5640    -0.3750     2.2040  -999.2500  -999.2500  -999.2500
  211.0000     8.3450  -999.2500  -999.2500     7.2570    -0.3450     2.1910  -999.2500  -999.2500  -999.2500
  211.5000     8.3730  -999.2500  -999.2500     9.9340    -0.3210     2.1750  -999.2500  -999.2500  -999.2500
  212.0000     8.4010  -999.2500  -999.2500    12.5080    -0.3010     2.1580  -999.2500  -999.2500  -999.2500
  212.5000     8.4460  -999.2500  -999.2500    14.2610    -0.2670     2.1510  -999.2500  -999.2500  -999.2500
  213.0000     8.4970  -999.2500  -999.2500    16.0080    -0.2230     2.1510  -999.2500  -999.2500  -999.2500
  213.5000     8.5470  -999.2500  -999.2500    20.0090    -0.1810     2.1500  -999.2500  -999.2500  -999.2500
  214.0000     8.5980  -999.2500  -999.2500    25.0610    -0.1370     2.1440  -999.2500  -999.2500  -999.2500
  214.5000     8.6480  -999.2500  -999.2500    30.1640    -0.0590     2.1450  -999.2500  -999.2500  -999.2500
  215.0000     8.6990  -999.2500  -999.2500    35.2630    -0.0180     2.1500  -999.2500  -999.2500  -999.2500
  215.5000     8.7470  -999.2500  -999.2500    41.0920     0.0200     2.1550  -999.2500  -999.2500  -999.2500
  216.0000     8.8070  -999.2500  -999.2500    47.0330     0.0580     2.1540  -999.2500  -999.2500  -999.2500
  216.5000     9.1050  -999.2500  -999.2500    48.3660     0.0920     2.1520  -999.2500  -999.2500  -999.2500
  217.0000     9.5250  -999.2500  -999.2500    50.2160     0.0910     2.1540  -999.2500  -999.2500  -999.2500
  217.5000     9.9350  -999.2500  -999.2500    53.4900     0.0900     2.1560  -999.2500  -999.2500  -999.2500
  218.0000    10.1760  -999.2500  -999.2500    56.7500     0.0830     2.1450  -999.2500  -999.2500  -999.2500
  218.5000    10.3850   -69.6710  -999.2500    60.0250     0.0590     2.1160  -999.2500  -999.2500  -999.2500
  219.0000    10.4710   -69.4770  -999.2500    60.4630     0.0360     2.1220  -999.2500  -999.2500  -999.2500
  219.5000    10.4990   -69.4770  -999.2500    60.8930     0.0130     2.2280  -999.2500  -999.2500  -999.2500
  220.0000    10.5270   -69.8400  -999.2500    62.0260     0.0030     2.3580  -999.2500  -999.2500  -999.2500
  220.5000    10.5040   -70.3670  -999.2500    63.1450     0.0380     2.4030  -999.2500  -999.2500  -999.2500
  221.0000    10.4540   -70.9000  -999.2500    63.6500     0.0400     2.4100  -999.2500  -999.2500  -999.2500
  221.5000    10.3990   -71.4330  -999.2500    63.1310     0.0420     2.4110     6.8210     5.0420  -999.2500
  222.0000    10.3450   -71.9660  -999.2500    62.6370     0.0370     2.4060     6.8840     5.2730  -999.2500
  222.5000    10.3250   -72.4990  -999.2500    62.3600     0.0320     2.4010     7.0150     5.3580     6.3560
  223.0000    10.3400   -73.0310  -999.2500    62.6610     0.0310     2.3950     6.9990     5.6110     6.4520
  223.5000    10.3560   -73.5640  -999.2500    62.9490     0.0300     2.3920     7.1410     6.0100     6.5480
  224.0000    10.3710   -74.0970  -999.2500    62.9170     0.0300     2.3910     7.2420     6.4080     6.6190
  224.5000    10.3860   -74.6290  -999.2500    62.1730     0.0290     2.3970     7.3430     6.8070     6.7210
  225.0000    10.4010   -75.1620  -999.2500    61.4440     0.0290     2.4030     7.4440     7.2060     6.8180
  225.5000    10.4160   -75.6960  -999.2500    60.7170     0.0330     2.4090     7.5450     7.2430     6.9140
  226.0000    10.4320   -76.2270  -999.2500    59.1560     0.0380     2.4200     7.6460     7.2810     7.0100
  226.5000    10.4350   -76.6610  -999.2500    57.3100     0.0400     2.4290     7.7540     7.3180     7.0750
  227.0000    10.4350   -76.7330  -999.2500    56.7870     0.0390     2.4240     7.7540     7.3560     7.0660
  227.5000    10.4350   -76.8170  -999.2500    57.5240     0.0390     2.4180     7.7540     7.4070     7.0550
  228.0000    10.4350   -76.9010  -999.2500    57.1100     0.0380     2.4130     7.8250     7.2540     7.0430
  228.5000    10.4350   -76.9850  -999.2500    56.4170     0.0380     2.4100     7.8250     7.0190     7.0320
  229.0000    10.4350   -77.0690  -999.2500    55.7110     0.0370     2.4160     7.7420     6.7840     7.0200
  229.5000    10.4350   -77.1530  -999.2500    55.0070     0.0370     2.4180     7.6510     6.5480     7.0110
  230.0000    10.4350   -77.2360  -999.2500    54.4450     0.0360     2.4080     7.5610     6.2810     6.9290
  230.5000    10.4350   -77.3210  -999.2500    55.3520     0.0360     2.4040     7.4710     6.3010     6.8490
  231.0000    10.4350   -77.4030  -999.2500    56.3700     0.0370     2.4060     7.3810     6.3250     6.7690
  231.5000    10.4490   -77.7450  -999.2500    57.3770     0.0370     2.4080     7.2910     6.3390     6.6890
  232.0000    10.4690   -78.2780  -999.2500    57.6990     0.0380     2.4100     7.2010     6.3220     6.6090
  232.5000    10.4870   -78.8150  -999.2500    57.1640     0.0380     2.4120     7.1110     6.3060     6.5280
  233.0000    10.5060   -79.3510  -999.2500    56.1460     0.0400     2.4110     7.0210     6.2890     6.4480
  233.5000    10.5240   -79.8880  -999.2500    57.0990     0.0410     2.4050     6.9470     6.2810     6.3680
  234.0000    10.5430   -80.4240  -999.2500    58.6020     0.0420     2.3950     6.8380     6.2240     6.2880
  234.5000    10.5620   -80.9610  -999.2500    60.0880     0.0390     2.3850     6.7620     6.0550     6.2080
  235.0000    10.5800   -81.4970  -999.2500    60.2990     0.0360     2.3740     6.6850     5.7180     6.0140
  235.5000    10.5910   -82.0330  -999.2500    60.4760     0.0330     2.3590     6.6360     5.4030     5.7050
  236.0000    10.5910   -82.5700  -999.2500    61.7750     0.0300     2.3390     6.2920     5.0870     5.3730
