~VERSION INFORMATION
 VERS.                2.0:   CWLS LOG ASCII STANDARD - VERSION 2.0
 WRAP.                 NO:   ONE LINE PER DEPTH STEP
~WELL INFORMATION
#MNEM.UNIT      DATA TYPE    INFORMATION
#----------   ------------   ------------------------------
 STRT.F          602.0000:   START DEPTH
 STOP.F         5553.0000:   STOP DEPTH
 STEP.F            0.5000:   STEP LENGTH
 NULL.          -999.2500:   NO VALUE
 COMP.         U. S. NAVY:   COMPANY
 WELL. U. S. 1-TP-33 NPR #3-33:   WELL
 FLD . TEAPOT NAVAL RESERVE:   FIELD
 LOC .      S33 T39N R78W:   LOCATION
 CNTY.            NATRONA:   COUNTY
 STAT.            WYOMING:   STATE
 CTRY. UNITED STATES OF AMERICA:   COUNTRY
 SRVC.       SCHLUMBERGER:   SERVICE COMPANY
 DATE.        24-JUN-1952:   LOGDATE
 API .     49025065260000:   API NUMBER
~CURVE INFORMATION
#MNEM.UNIT       API CODE    CURVE DESCRIPTION
#----------   ------------   ------------------------------
 DEPT.F                  :   
 SPR .MV     01 010 01 00:   SPONTANEOUS POTENTIAL FROM RES.
 ASN .OHMM   01 041 16 00:   AMPLIFIED SHORT NORMAL 16"
 LAT .OHMM   01 070 08 00:   LATERAL 8'
 LN  .OHMM   01 060 64 00:   LONG NORMAL 64"
~PARAMETER INFORMATION
#MNEM.UNIT          VALUE    DESCRIPTION
#----------   ------------   ------------------------------
 EKB .F         5160.0000:   Kelly bushing
 EGL .F         5147.0000:   Ground level
 TD  .F         5553.0000:   Total depth
 CLNT.            A2DTECH:   Client Code
 DATE.        24-JUN-1952:   Date Logged [DD-MMM-YYYY]
 DD  .F              5549:   Depth driller
 DL  .F              5553:   Depth logger
 BLI .F              5553:   Bottom log interval
 TLI .F               602:   Top log interval
 CBL1.F               602:   Casing logger 1
 BSD1.F              5549:   Depth drilled with bit1
 DFT .           GYP BASE:   Type fluid in hole
 DFD .                9.8:   Density
 DFV .                 44:   Viscosity
 MSS .           FLOWLINE:   Source of sample
 RMS .OHMM            1.4:   Rm
 MST .F                60:   Rm Meas. temp.
 RMB .OHMM           0.48:   Rm. at BHT
 BHT .F               175:   BHT.
 TCS .HRS             1.5:   Time Circ. stopped
 MRT .F               175:   Maximum recorded temp.
 LUN .                563:   Logging unit number
 ENGI.             SANDER:   Recorded By
 WITN.            GRIBBIN:   Witnessed by
 ORIG.      1" 2.5" PRINT:   Origin of data
 UWI .     49025065260000:   Unique Well ID
 DICO. A2D TECHNOLOGIES, INC.:   Digitizing Company
~OTHER INFORMATION
~A  DEPTH      SPR        ASN        LAT         LN
# ...
 2865.0000   -69.1624    23.5005    87.4567    30.6216
 2865.5000   -69.1653    23.2205    88.8922    30.0379
 2866.0000   -69.1682    22.8554    87.4538    29.1532
 2866.5000   -69.1710    22.1996    86.0156    28.2633
 2867.0000   -69.1739    21.6398    83.1407    27.2587
 2867.5000   -69.1768    21.0798    80.2657    26.5281
 2868.0000   -69.1799    20.3816    74.5171    25.6534
 2868.5000   -69.1827    19.7654    71.6421    24.7782
 2869.0000   -68.8989    19.0641    67.3304    23.7016
 2869.5000   -68.6151    18.4250    63.0186    22.2747
 2870.0000   -68.0447    17.8004    60.1436    21.2861
 2870.5000   -67.7609    17.1667    57.2686    20.4112
 2871.0000   -67.1905    16.6070    54.3937    19.5361
 2871.5000   -66.9067    16.0471    49.7943    18.6193
 2872.0000   -66.9096    15.4873    48.2124    17.8305
 2872.5000   -66.6258    14.9878    47.0616    17.2471
 2873.0000   -66.3420    14.4251    46.0544    16.6636
 2873.5000   -66.0582    13.6988    44.9036    15.9882
 2874.0000   -65.7745    13.1445    44.0401    15.4973
 2874.5000   -65.7774    12.5903    42.0272    14.9136
 2875.0000   -65.7803    12.0360    40.0142    14.5352
 2875.5000   -65.4964    11.4817    37.1393    14.1618
 2876.0000   -65.4994    10.9274    34.1206    13.8073
 2876.5000   -65.5421    10.6501    32.3950    13.5156
 2877.0000   -65.7917    10.3728    31.5316    13.0795
 2877.5000   -65.7946     9.9570    30.3807    12.5698
 2878.0000   -65.7975     9.6797    29.2299    12.1309
 2878.5000   -65.8003     9.4025    27.3606    11.6922
 2879.0000   -65.7373     9.1252    26.0542    11.1903
 2879.5000   -65.4482     9.7640    25.0464    10.7541
 2880.0000   -65.1592     8.9861    24.4635    10.2601
 2880.5000   -64.6649     8.5426    23.8549     9.8266
 2881.0000   -64.2945     8.1546    22.8668     9.5376
 2881.5000   -63.7189     7.7942    22.3036     9.1040
 2882.0000   -63.0459     7.4892    21.8678     8.9595
 2882.5000   -62.2810     7.1288    21.5492     8.6705
 2883.0000   -61.5973     6.7961    20.9961     8.3815
 2883.5000   -61.1299     6.4904    20.5603     7.9480
 2884.0000   -60.4357     6.2386    20.0880     7.6590
 2884.5000   -59.9784     5.9868    19.6489     7.3699
 2885.0000   -59.5318     5.7073    19.0661     7.2254
 2885.5000   -58.9615     5.4832    18.4831     6.7919
 2886.0000   -58.5381     5.2709    18.0939     6.6474
 2886.5000   -57.9627     5.2671    17.6580     6.5029
 2887.0000   -57.6736     5.2386    17.1657     6.3584
 2887.5000   -57.3845     5.1824    16.4991     6.2139
 2888.0000   -57.2561     5.1313    15.6493     6.2139
 2888.5000   -57.2589     5.0919    14.7760     6.0694
 2889.0000   -56.9757     5.0137    13.8324     6.0694
 2889.5000   -56.9786     4.9506    12.8119     6.0694
 2890.0000   -56.6943     4.8243    12.0882     5.9249
 2890.5000   -56.4110     4.6107    11.3616     5.9249
 2891.0000   -55.5540     4.3575    10.6352     5.9249
 2891.5000   -55.2702     4.2579    10.0816     5.7803
 2892.0000   -54.9864     4.2179     9.6492     5.7746
 2892.5000   -54.7026     4.2179     9.0730     5.6358
 2893.0000   -54.4185     4.2523     8.6406     5.6247
 2893.5000   -54.4217     4.3017     8.3518     5.4913
 2894.0000   -54.1376     4.3017     7.9193     5.4913
 2894.5000   -54.1407     4.2737     7.7742     5.4723
 2895.0000   -53.8569     4.2412     7.3418     5.3252
 2895.5000   -53.8598     4.2137     7.1967     5.2023
 2896.0000   -53.8626     4.1620     6.9079     5.2023
 2896.5000   -53.8655     4.1899     6.6191     5.2023
 2897.0000   -53.8683     4.1927     6.4740     5.2023
 2897.5000   -53.8712     4.2179     6.1853     5.2023
 2898.0000   -53.8740     4.2495     6.1752     5.2023
 2898.5000   -53.9327     4.3310     6.1296     5.2023
 2899.0000   -54.0549     4.3874     5.8425     5.2023
 2899.5000   -54.1777     4.4697     5.6026     5.2023
 2900.0000   -54.3930     4.4972     5.6034     5.2023
 2900.5000   -54.3897     4.5531     5.6042     5.2023
 2901.0000   -54.3869     4.5531     5.6537     5.2023
 2901.5000   -54.3841     4.4972     5.9423     5.2023
 2902.0000   -54.3813     4.4134     6.1810     5.2023
 2902.5000   -54.3785     4.3575     6.1818     5.2023
 2903.0000   -54.0953     4.3017     6.1825     5.1527
 2903.5000   -54.0925     4.2458     6.1320     5.0627
 2904.0000   -53.9811     4.2179     5.8449     5.0636
 2904.5000   -53.8065     4.2179     5.7013     5.0643
 2905.0000   -53.8037     4.3017     5.5579     5.0650
 2905.5000   -53.5206     4.3068     5.4145     5.0658
 2906.0000   -53.5178     4.2737     5.2711     5.2110
 2906.5000   -53.5150     4.2179     5.1277     5.2117
 2907.0000   -53.5621     4.1899     5.0387     5.0679
 2907.5000   -53.6297     4.1899     5.0395     5.0686
 2908.0000   -53.6972     4.1899     5.0402     5.0694
 2908.5000   -53.7647     4.2179     5.0409     5.0701
 2909.0000   -53.7813     4.2458     5.0417     5.0708
 2909.5000   -53.7785     4.2737     5.0424     5.0715
 2910.0000   -53.9065     4.3017     5.0431     5.0723
 2910.5000   -54.0533     4.3296     5.0438     5.0730
 2911.0000   -54.0505     4.3855     5.0445     5.0737
 2911.5000   -54.1841     4.4681     5.0453     5.0744
 2912.0000   -54.3252     4.5693     5.0460     5.0751
 2912.5000   -54.3224     4.6330     5.0467     5.0036
 2913.0000   -54.0392     4.7027     5.0474     4.9321
 2913.5000   -54.0364     4.7862     5.0481     4.9328
 2914.0000   -54.0336     4.8842     5.0489     4.9335
 2914.5000   -54.0308     4.9811     5.0496     4.9342
 2915.0000   -54.0280     5.0369     4.9880     4.9350
 2915.5000   -54.0252     5.0778     4.8446     4.9357
 2916.0000   -54.0224     5.0907     4.7011     4.9364
 2916.5000   -54.0196     5.0200     4.5578     4.9371
 2917.0000   -54.0168     4.9092     4.4784     4.9379
 2917.5000   -54.0140     4.7548     4.4792     4.9386
 2918.0000   -54.0112     4.5883     4.3362     4.9393
 2918.5000   -54.0084     4.4657     4.1932     4.7955
 2919.0000   -54.0056     4.3825     4.1940     4.7962
 2919.5000   -54.0028     4.2993     4.1947     4.7970
 2920.0000   -53.9994     4.1663     4.1954     4.6533
 2920.5000   -53.9966     4.1388     4.1961     4.6540
 2921.0000   -53.9939     4.1114     4.1968     4.6548
 2921.5000   -53.9911     4.1117     4.1976     4.6555
 2922.0000   -53.9883     4.1120     4.1983     4.5117
 2922.5000   -53.9855     4.1122     4.1990     4.5124
 2923.0000   -53.9827     4.1402     4.1997     4.5131
 2923.5000   -53.9799     4.1959     4.2004     4.3692
 2924.0000   -53.9771     4.2516     4.2011     4.3701
 2924.5000   -53.9743     4.2795     4.2019     4.3708
 2925.0000   -53.6911     4.3075     4.3463     4.3715
 2925.5000   -53.6883     4.3078     4.3470     4.3722
 2926.0000   -53.6855     4.3081     4.3477     4.3729
 2926.5000   -53.4024     4.3084     4.3484     4.3737
 2927.0000   -53.3996     4.2532     4.4928     4.3744
 2927.5000   -53.1164     4.1704     4.4935     4.3751
 2928.0000   -53.1136     4.0876     4.4195     4.3758
 2928.5000   -53.3916     4.0324     4.3513     4.3765
 2929.0000   -53.3884     3.9773     4.3520     4.2328
 2929.5000   -53.3856     3.9499     4.3527     4.2335
 2930.0000   -53.3828     3.9224     4.3534     4.2342
 2930.5000   -53.3800     3.8950     4.2105     4.2349
 2931.0000   -53.6576     3.8676     4.2112     4.0910
 2931.5000   -53.6548     3.8125     4.2119     4.0919
 2932.0000   -53.6520     3.8128     4.0690     4.0926
 2932.5000   -53.6492     3.7853     3.9907     4.0933
 2933.0000   -53.6464     3.7302     3.9267     3.9495
 2933.5000   -53.6436     3.7028     3.9274     3.9502
 2934.0000   -53.6408     3.6753     3.8477     3.9509
 2934.5000   -53.6380     3.6480     3.7043     3.9517
 2935.0000   -53.6352     3.6205     3.6422     3.8078
 2935.5000   -53.6324     3.5931     3.6430     3.8086
 2936.0000   -53.3493     3.5657     3.6437     3.8093
 2936.5000   -53.3465     3.5382     3.6444     3.8100
 2937.0000   -53.0633     3.4831     3.6451     3.8108
 2937.5000   -52.7801     3.4557     3.5022     3.8115
