~VERSION INFORMATION
 VERS.                2.0:   CWLS LOG ASCII STANDARD - VERSION 2.0
 WRAP.                 NO:   ONE LINE PER DEPTH STEP
~WELL INFORMATION
#MNEM.UNIT      DATA TYPE    INFORMATION
#----------   ------------   ------------------------------
 STRT.F          204.0000:   START DEPTH
 STOP.F         3104.0000:   STOP DEPTH
 STEP.F            0.5000:   STEP LENGTH
 NULL.          -999.2500:   NO VALUE
 COMP.    FENIX & SCISSON:   COMPANY
 WELL. FENIX NPR 83 "AX" #3-10:   WELL
 FLD .                NPR:   FIELD
 LOC .      S10 T38N R78W:   LOCATION
 CNTY.            NATRONA:   COUNTY
 STAT.            WYOMING:   STATE
 CTRY. UNITED STATES OF AMERICA:   COUNTRY
 SRVC.              WELEX:   SERVICE COMPANY
 DATE.        14-JUL-1977:   LOGDATE
 API .     49025103980000:   API NUMBER
~CURVE INFORMATION
#MNEM.UNIT       API CODE    CURVE DESCRIPTION
#----------   ------------   ------------------------------
 DEPT.F                  :   
 ILD .OHMM   07 120 46 00:   DEEP INDUCTION RESISTIVITY
 GURD.OHMM   07 220 05 00:   GUARD LOG RESISTIVITY
 ILM .OHMM   07 120 44 00:   INDUCTION LOG MEDIUM RESISTIVITY
 SPR .MV     07 010 01 00:   SPONTANEOUS POTENTIAL
 CALD.IN     45 280 60 00:   CALIPER FROM DENSITY LOG
 GRD .GAPI   45 310 01 00:   GAMMA RAY FROM DENSITY LOG
 RHOB.G/C3   45 350 01 00:   BULK DENSITY
 CORR.G/C3   45 356 01 00:   DENSITY CORRECTION
 NPHI.DEC    42 890 03 00:   NEUTRON POROSITY SANDSTONE
~PARAMETER INFORMATION
#MNEM.UNIT          VALUE    DESCRIPTION
#----------   ------------   ------------------------------
 EKB .F         5176.0000:   Kelly bushing
 EGL .F         5166.0000:   Ground level
 TD  .F         3105.0000:   Total depth
 DATE.        14-JUL-1977:   Date logged
 CLNT.            A2DTECH:   Client Code
 SL  . 1650' FNL & 100' FEL:   Surface Location
 PD  .                 GL:   Permanent Datum
 DD  .F              3094:   Depth driller
 DL  .F              3105:   Depth logger
 BLI .F              3103:   Bottom log interval
 CS1 .IN            8.625:   Casing size
 CBD1.      8.625" @ 218':   Casing driller 1
 CBL1.F               220:   Casing logger 1
 BS1 .IN            7.875:   Bit size
 DFT .            KCL/GEL:   Type fluid in hole
 DFD .                9.4:   Density
 DFV .                 36:   Viscosity
 DFPH.                  8:   pH
 DFL .                 12:   Fluid loss
 MSS .           FLOWLINE:   Source of sample
 RMS .OHMM           1.54:   Rm
 MST .F               100:   Rm Meas. temp.
 RMF .OHMM            1.5:   Rmf
 MFST.F               100:   Rmf Meas. temp.
 RMC .OHMM           3.47:   Rmc
 MCST.F               100:   Rmc Meas. temp.
 MFSS.               FANN:   Source Rmf.
 RMB .OHMM           1.36:   Rm. at BHT
 BHT .F               113:   BHT.
 TCS .HRS             2.5:   Time Circ. stopped
 MRT .F               113:   Maximum recorded temp.
 LUN .               8766:   Logging unit number
 LUL .             CASPER:   Logging unit location
 ENGI. G. BENTSEN/T. JOYNER:   Recorded By
 WITN.      B. HARRINGTON:   Witnessed by
 ORIG.           5" PRINT:   Origin of data
 UWI .     49025103980000:   Unique Well ID
 DICO. A2D TECHNOLOGIES, INC.:   Digitizing Company
 DAPD.F                10:   Feet Above Permanent Datum
 BSD1.F              3094:   Depth drilled with bit1
 MCSS.                KIT:   Source Rmc.
 TLI .F               210:   Top log interval
 EPD .F              5166:   Elevation Permanent Datum
 LMF .                 KB:   Log Measured From
 DMF .                 KB:   Drilling Measured From
~OTHER INFORMATION
~A   DEPT      ILD       GURD        ILM        SPR       CALD        GRD       RHOB       CORR       NPHI   
# ...
 3051.0000     4.3050     5.9810     3.8410   -53.6130     8.0210   133.5550     2.5490     0.0240     0.1840
 3051.5000     4.2750     5.6880     3.8630   -53.6270     8.0040   134.4750     2.5430     0.0230     0.1840
 3052.0000     4.2440     5.4870     3.8500   -53.6420     7.9930   135.3940     2.5360     0.0220     0.1840
 3052.5000     4.2130     5.9350     3.8260   -53.6560     8.0090   136.3090     2.5290     0.0220     0.1830
 3053.0000     4.1830     5.7060     3.8020   -53.6710     8.0240   137.2250     2.5250     0.0210     0.1830
 3053.5000     4.1520     5.4770     3.7780   -53.6850     8.0400   138.1430     2.5290     0.0200     0.1830
 3054.0000     4.1210     5.2480     3.7530   -53.7000     8.0550   139.0630     2.5330     0.0190     0.1840
 3054.5000     4.0910     5.0490     3.7290   -53.7140     8.0700   139.8020     2.5330     0.0160     0.1850
 3055.0000     4.0600     5.0900     3.7050   -53.7290     8.0860   138.9360     2.5240     0.0130     0.1860
 3055.5000     4.0290     5.1340     3.6810   -53.7430     8.0850   138.0390     2.5140     0.0100     0.1870
 3056.0000     3.9990     5.1780     3.6560   -53.7580     8.0800   137.1400     2.5050     0.0080     0.1900
 3056.5000     3.9680     5.2220     3.6320   -53.7590     8.0760   137.6740     2.5060     0.0050     0.1920
 3057.0000     3.9370     5.2650     3.6080   -53.7530     8.0720   138.3770     2.5120     0.0050     0.1950
 3057.5000     3.9070     5.3090     3.5550   -53.7470     8.0670   139.0820     2.5140     0.0080     0.1980
 3058.0000     3.8760     5.3370     3.5250   -53.7400     8.0630   139.7840     2.5110     0.0120     0.1990
 3058.5000     3.8420     5.1820     3.4870   -53.7340     8.0590   140.4940     2.5180     0.0150     0.2010
 3059.0000     3.8060     5.0490     3.4490   -53.7280     8.0540   140.2260     2.5250     0.0180     0.2010
 3059.5000     3.7700     4.8500     3.4100   -53.7210     8.0500   139.6840     2.5320     0.0220     0.2040
 3060.0000     3.7340     4.6460     3.3720   -53.7150     8.0460   139.1340     2.5300     0.0250     0.2060
 3060.5000     3.6980     4.5200     3.3340   -53.7090     8.0410   138.5850     2.5310     0.0260     0.2070
 3061.0000     3.6620     4.6780     3.2950   -53.7020     8.0370   138.0370     2.5320     0.0250     0.2070
 3061.5000     3.6260     4.8660     3.2570   -53.6960     8.0330   137.4890     2.5340     0.0230     0.2060
 3062.0000     3.5910     4.7960     3.2190   -53.6900     8.0310   136.9390     2.5350     0.0220     0.2030
 3062.5000     3.5550     4.6780     3.1810   -53.6840     8.0380   136.3910     2.5340     0.0200     0.2010
 3063.0000     3.5190     4.5600     3.1420   -53.6770     8.0440   135.8600     2.5220     0.0190     0.2000
 3063.5000     3.4830     4.4420     3.1040   -53.6710     8.0510   136.0990     2.5110     0.0170     0.2010
 3064.0000     3.4260     4.3890     3.0660   -53.6650     8.0570   137.4030     2.5040     0.0160     0.2030
 3064.5000     3.4600     4.3720     3.1380   -53.6580     8.0640   138.7110     2.5070     0.0140     0.2050
 3065.0000     3.5450     4.3560     3.2080   -53.6520     8.0700   140.0350     2.5090     0.0130     0.2080
 3065.5000     3.6290     4.5110     3.2790   -53.6460     8.0770   139.6080     2.5080     0.0140     0.2090
 3066.0000     3.7130     4.7620     3.3500   -53.6390     8.0830   138.7410     2.5120     0.0160     0.2080
 3066.5000     3.7980     5.0130     3.4210   -53.6330     8.0900   137.8280     2.5300     0.0190     0.2060
 3067.0000     3.8820     5.2630     3.4910   -53.6270     8.0960   139.8980     2.5470     0.0220     0.2040
 3067.5000     3.9660     5.5140     3.5620   -53.6200     8.1030   142.6050     2.5580     0.0250     0.2030
 3068.0000     4.0510     5.8430     3.6330   -53.6140     8.1090   145.3350     2.5610     0.0280     0.2010
 3068.5000     4.1350     5.8050     3.7040   -53.6080     8.1160   145.0240     2.5610     0.0300     0.1990
 3069.0000     4.2190     5.7290     3.7740   -53.6020     8.1220   144.2650     2.5580     0.0300     0.1990
 3069.5000     4.3050     5.6540     3.8270   -53.5950     8.1290   144.4760     2.5540     0.0310     0.2000
 3070.0000     4.2330     5.5780     3.7580   -53.5890     8.1360   146.8330     2.5450     0.0310     0.2040
 3070.5000     4.1370     5.5020     3.7030   -53.5830     8.1420   149.1530     2.5480     0.0310     0.2110
 3071.0000     4.0400     5.4270     3.6480   -53.5760     8.1490   151.4810     2.5520     0.0310     0.2160
 3071.5000     3.9440     5.2400     3.5930   -53.5700     8.1550   153.8020     2.5400     0.0300     0.2210
 3072.0000     3.8480     4.9300     3.5380   -53.5640     8.1620   156.2640     2.5230     0.0280     0.2220
 3072.5000     3.7510     4.6190     3.4830   -53.5570     8.1680   159.1510     2.5120     0.0260     0.2220
 3073.0000     3.6550     4.4550     3.4280   -53.5510     8.1750   162.1170     2.5280     0.0270     0.2220
 3073.5000     3.5590     4.3610     3.3730   -53.5450     8.1810   165.0870     2.5410     0.0310     0.2240
 3074.0000     3.4620     4.2760     3.3010   -53.5390     8.1880   168.0780     2.5530     0.0340     0.2280
 3074.5000     3.3660     4.4170     3.3950   -53.5320     8.1940   171.0370     2.5550     0.0370     0.2400
 3075.0000     3.2410     4.5760     3.5310   -53.5260     8.2010   169.6430     2.5530     0.0370     0.2650
 3075.5000     3.2800     4.7340     3.6670   -53.5200     8.2070   159.9310     2.5420     0.0340     0.2980
 3076.0000     3.3370     4.8920     3.8030   -53.5130     8.2140   150.5960     2.5330     0.0300  -999.2500
 3076.5000     3.3930     5.0960     3.9390   -53.5070     8.2200   141.2810     2.5270     0.0260  -999.2500
 3077.0000     3.4490     5.0620     4.0750   -53.5010     8.2200   131.9280     2.5240     0.0220  -999.2500
 3077.5000     3.5050     5.0130     4.2110   -53.4940     8.1880   127.3450     2.5220     0.0180  -999.2500
 3078.0000     3.5570     4.9640     4.3160   -53.4880     8.1570   123.7320     2.5200     0.0140  -999.2500
 3078.5000     3.5810     4.9160     4.2460   -53.4820     8.1260   123.0350     2.5220     0.0160  -999.2500
 3079.0000     3.6050     4.8670     4.1930   -53.4750     8.0950   124.9400     2.5270     0.0180  -999.2500
 3079.5000     3.6290     4.8190     4.1400   -53.4690     8.0640   126.6780     2.5330     0.0200  -999.2500
 3080.0000     3.6530     4.7700     4.0870   -53.4630     8.0330   125.3910     2.5390     0.0220  -999.2500
 3080.5000     3.6880     4.7210     4.0350   -53.4570     8.0020   124.1180     2.5420     0.0230  -999.2500
 3081.0000     3.6620     4.6900     3.9820   -53.4500     7.9710   124.7700     2.5380     0.0220  -999.2500
 3081.5000     3.6140     4.9190     3.9290   -53.4440     7.9390   126.2980     2.5340     0.0210  -999.2500
 3082.0000     3.5660     5.0960     3.8760   -53.4380     7.9390   127.8460     2.5300     0.0210  -999.2500
 3082.5000     3.5190     4.9460     3.8230   -53.4310     7.9480   129.2570     2.5260     0.0200  -999.2500
 3083.0000     3.4710     4.5610     3.7710   -53.4250     7.9580   129.2240     2.5220     0.0190  -999.2500
 3083.5000     3.4230     4.5910     3.7180   -53.4190     7.9680   129.2410     2.5210     0.0180  -999.2500
 3084.0000     3.3750     4.6040     3.6650   -53.4120     7.9780   129.2790     2.5220     0.0180  -999.2500
 3084.5000     3.3270     4.4580     3.6120   -53.4060     7.9880   125.7300     2.5240     0.0170  -999.2500
 3085.0000     3.2790     4.2760     3.5600   -53.4000     7.9980   110.5140     2.5250     0.0160  -999.2500
 3085.5000     3.2320     4.3850     3.5070   -53.3930     8.0080    73.7330     2.5260     0.0150  -999.2500
 3086.0000     3.1840     4.3110     3.4540   -53.3870     8.0090     0.1960     2.5270     0.0150  -999.2500
 3086.5000     3.1360     4.0450     3.4010   -53.3810     7.9890  -999.2500     2.5210     0.0150  -999.2500
 3087.0000     3.0880     4.1760     3.3480   -53.3750     7.9860  -999.2500     2.5150     0.0150  -999.2500
