~VERSION INFORMATION
 VERS.                2.0:   CWLS LOG ASCII STANDARD - VERSION 2.0
 WRAP.                 NO:   ONE LINE PER DEPTH STEP
~WELL INFORMATION
#MNEM.UNIT      DATA TYPE    INFORMATION
#----------   ------------   ------------------------------
 STRT.F          200.0000:   START DEPTH
 STOP.F         3038.0000:   STOP DEPTH
 STEP.F            0.5000:   STEP LENGTH
 NULL.          -999.2500:   NO VALUE
 COMP.    FENIX & SCISSON:   COMPANY
 WELL. FENIX NPR 3 "A" #63-28:   WELL
 FLD .            WILDCAT:   FIELD
 LOC .      S28 T39N R78W:   LOCATION
 CNTY.            NATRONA:   COUNTY
 STAT.            WYOMING:   STATE
 CTRY. UNITED STATES OF AMERICA:   COUNTRY
 SRVC.              WELEX:   SERVICE COMPANY
 DATE.        29-MAY-1977:   LOGDATE
 API .     49025103740000:   API NUMBER
~CURVE INFORMATION
#MNEM.UNIT       API CODE    CURVE DESCRIPTION
#----------   ------------   ------------------------------
 DEPT.F                  :   
 SPR .MV     07 010 01 00:   SPONTANEOUS POTENTIAL
 ILM .OHMM   07 120 44 00:   INDUCTION LOG MEDIUM RESISTIVITY
 ILD .OHMM   07 120 46 00:   DEEP INDUCTION RESISTIVITY
 SGRD.OHMM   07 220 05 00:   SHALLOW SHORT GUARD RESISTIVITY
 GRD .GAPI   45 310 01 00:   GAMMA RAY FROM DENSITY LOG
 CALD.IN     45 280 60 00:   CALIPER FROM DENSITY LOG
 RHOB.G/C3   45 350 01 00:   BULK DENSITY
 CORR.G/C3   45 356 01 00:   DENSITY CORRECTION
~PARAMETER INFORMATION
#MNEM.UNIT          VALUE    DESCRIPTION
#----------   ------------   ------------------------------
 EKB .F         5040.0000:   Kelly bushing
 EGL .F         5029.0000:   Ground level
 EDF .F            0.0000:   Drilling floor
 EPD .F         5029.0000:   Permanent datum
 TD  .F         3040.0000:   Total depth
 DATE.        29-MAY-1977:   Date logged
 CLNT.            A2DTECH:   Client Code
 SL  . 1650' FNL & 1650' FEL:   Surface Location
 PD  .                 GL:   Permanent Datum
 LMF .                 KB:   Log Measured From
 DMF .                 KB:   Drilling Measured From
 DD  .F              3040:   Depth driller
 DL  .F              3038:   Depth logger
 BLI .F              3036:   Bottom log interval
 TLI .F               200:   Top log interval
 CS1 .IN            8.625:   Casing size
 BSD1.F              3040:   Depth drilled with bit1
 DFT .            KCL MUD:   Type fluid in hole
 ORIG.     2.5", 5" PRINT:   Origin of data
 UWI .     49025103740000:   Unique Well ID
 DICO. A2D TECHNOLOGIES, INC.:   Digitizing Company
 DAPD.                 11:   Feet Above Permanent Datum
 CBD1.      8.625" @ 220':   Casing driller 1
 BS1 .              7.875:   Bit size
 DFD .                8.7:   Density
 MRT .                108:   Maximum recorded temp.
 ENGI.            C. DOAK:   Recorded By
 WITN.      W. PETTINGILL:   Witnessed by
~OTHER INFORMATION
~A   DEPT      SPR        ILM          ILD     SGRD         GRD        CALD       RHOB      CORR  
# ...
 1334.0000   -65.3920     7.4710     7.1130     9.4550    95.4940     9.8330     2.4750     0.0260
 1334.5000   -65.3920     7.4810     7.1110     9.4550    94.6140     9.8360     2.4650     0.0210
 1335.0000   -65.4020     7.4910     7.1110     9.4550    93.9840     9.8380     2.4640     0.0170
 1335.5000   -65.4130     7.5010     7.1110     9.4550    93.3520     9.8400     2.4650     0.0110
 1336.0000   -65.4240     7.5140     7.1110    10.1200    93.5230     9.8420     2.4660     0.0110
 1336.5000   -65.4350     7.4750     7.0590    10.3660    94.5230     9.8440     2.4640     0.0110
 1337.0000   -65.4450     7.4180     7.0120     9.8650    95.6320     9.8470     2.4590     0.0110
 1337.5000   -65.4560     7.3610     6.9640     9.5170    96.6510     9.8490     2.4640     0.0120
 1338.0000   -65.4670     7.3070     6.9160     9.4290    97.3540     9.8510     2.4680     0.0140
 1338.5000   -65.4780     7.2800     6.8680     9.3690    97.2550     9.8530     2.4720     0.0160
 1339.0000   -65.4890     7.2530     6.8290     9.3690    97.2690     9.8570     2.4640     0.0180
 1339.5000   -65.5000     7.2260     6.7940     9.3690    96.8150     9.8470     2.4610     0.0200
 1340.0000   -65.5100     7.2000     6.7590     9.2920    96.3430     9.8260     2.4680     0.0220
 1340.5000   -65.5210     7.1770     6.7310     9.1140    95.8470     9.8070     2.4730     0.0250
 1341.0000   -65.5320     7.1770     6.7460     9.2490    95.3880     9.7880     2.4790     0.0300
 1341.5000   -65.5430     7.1770     6.7600     9.3690    94.9850     9.7690     2.4880     0.0350
 1342.0000   -65.5540     7.1770     6.7740     9.1560    95.8790     9.7490     2.5000     0.0400
 1342.5000   -65.5650     7.1770     6.7880     9.1140    97.1890     9.7390     2.5090     0.0450
 1343.0000   -65.5760     7.1820     6.8090     9.2250    98.4720     9.7430     2.5100     0.0500
 1343.5000   -65.5880     7.1970     6.8310     9.4160    99.5610     9.7500     2.5060     0.0500
 1344.0000   -65.5560     7.2110     6.8520     9.6070    99.6000     9.7560     2.5000     0.0450
 1344.5000   -65.5160     7.2260     6.8740     9.7200    99.6300     9.7630     2.4980     0.0400
 1345.0000   -65.4770     7.2400     6.8960     9.4500    99.4970     9.7700     2.4990     0.0350
 1345.5000   -65.4370     7.2770     6.9180     9.1980    99.1160     9.7750     2.5000     0.0340
 1346.0000   -65.3980     7.3200     6.9630     9.1980    98.7370     9.7830     2.4950     0.0330
 1346.5000   -65.4600     7.3620     7.0070     9.3200    98.3500     9.7480     2.4900     0.0320
 1347.0000   -65.5380     7.3770     7.0520     9.4380    97.9650     9.7400     2.4900     0.0310
 1347.5000   -65.6170     7.3770     7.1110     9.4970    97.5830     9.7380     2.4910     0.0300
 1348.0000   -65.6970     7.3770     7.0890     9.5430    97.1980     9.7110     2.4860     0.0290
 1348.5000   -65.7750     7.3670     7.0550     9.7200    96.8060     9.6810     2.4820     0.0280
 1349.0000   -65.5830     7.3520     7.0220     9.6690    96.5190     9.6530     2.4810     0.0270
 1349.5000   -65.5890     7.3360     6.9880     9.6220    96.5290     9.6260     2.4820     0.0270
 1350.0000   -65.5890     7.3210     6.9540     9.5760    96.7280     9.6250     2.4830     0.0270
 1350.5000   -65.5880     7.3100     6.9180     9.5100    96.9400     9.6350     2.4840     0.0280
 1351.0000   -65.5880     7.1610     6.8550     9.4010    97.1670     9.6440     2.4830     0.0280
 1351.5000   -65.5880     6.9810     6.7650     9.0250    97.3590     9.6530     2.4800     0.0290
 1352.0000   -65.5880     6.9180     6.6680     8.7850    97.6020     9.6620     2.4780     0.0290
 1352.5000   -65.5880     6.9810     6.6680     8.8480    97.8130     9.6710     2.4750     0.0290
 1353.0000   -65.5880     7.0120     6.7290     9.0310    97.8780     9.6800     2.4750     0.0300
 1353.5000   -65.5880     7.0550     6.7770     8.9110    97.1390     9.6890     2.4790     0.0300
 1354.0000   -65.5880     7.0990     6.8710     8.7050    96.1530     9.6990     2.4820     0.0310
 1354.5000   -65.5880     7.1970     6.9640     9.2540    94.9540     9.7080     2.4820     0.0290
 1355.0000   -65.5880     7.3160     7.0570     9.6080    93.7990     9.7170     2.4820     0.0260
 1355.5000   -65.5880     7.4450     7.1510    10.0840    92.6420     9.7260     2.4800     0.0230
 1356.0000   -65.5880     7.5250     7.1960    10.1770    91.4410     9.7350     2.4730     0.0200
 1356.5000   -65.5880     7.5590     7.2230     9.7560    90.4660     9.7470     2.4790     0.0190
 1357.0000   -65.5880     7.5930     7.2490     9.5330    89.7140     9.7630     2.4870     0.0190
 1357.5000   -65.5880     7.6270     7.2760     9.4610    90.2350     9.7780     2.4950     0.0230
 1358.0000   -65.5880     7.6610     7.3100     9.3880    91.1540     9.7790     2.4980     0.0260
 1358.5000   -65.5880     7.6950     7.3020     9.3690    92.0750     9.7790     2.4990     0.0290
 1359.0000   -65.5880     7.7240     7.2910     9.5430    92.9780     9.7790     2.4990     0.0320
 1359.5000   -65.5880     7.7010     7.2790     9.8100    93.8560     9.7790     2.5000     0.0350
 1360.0000   -65.5880     7.6760     7.2680     9.5430    94.8710     9.7770     2.5000     0.0380
 1360.5000   -65.5880     7.6500     7.2570     9.7200    94.9310     9.7750     2.5050     0.0420
 1361.0000   -65.5880     7.6250     7.2460     9.5560    94.6070     9.7740     2.5090     0.0450
 1361.5000   -65.5880     7.6000     7.2220     9.4550    94.2300     9.7720     2.5140     0.0480
 1362.0000   -65.5880     7.5480     7.1950     9.6640    93.8720     9.7700     2.5220     0.0500
 1362.5000   -65.5880     7.4440     7.1670     9.7200    93.5070     9.7680     2.5300     0.0500
 1363.0000   -65.5880     7.3770     7.1400     9.3710    93.1490     9.7670     2.5420     0.0510
 1363.5000   -65.5750     7.4010     7.1110     9.1140    92.7730     9.7650     2.5380     0.0490
 1364.0000   -65.5440     7.4270     7.1000     9.4780    92.6250     9.7630     2.5190     0.0460
 1364.5000   -65.5120     7.4520     7.0880     9.9000    92.6410     9.7610     2.5080     0.0440
 1365.0000   -65.4800     7.4780     7.0770     9.6930    92.6280     9.7590     2.5080     0.0410
 1365.5000   -65.4480     7.5030     7.0650     9.5430    92.7400     9.7580     2.5030     0.0380
 1366.0000   -65.4170     7.5140     7.0470     9.5430    93.0270     9.7560     2.4980     0.0350
 1366.5000   -65.4120     7.5140     7.0560     9.6310    93.3000     9.7540     2.4920     0.0330
 1367.0000   -65.5130     7.5140     7.0860     9.4400    93.5770     9.7520     2.4860     0.0310
 1367.5000   -65.6120     7.5140     7.1150     9.3690    93.8530     9.7500     2.4810     0.0300
 1368.0000   -65.7100     7.5140     7.1440     9.5430    94.1350     9.7490     2.4810     0.0280
 1368.5000   -65.7930     7.5210     7.1730     9.5020    94.4010     9.7470     2.4870     0.0260
 1369.0000   -65.8200     7.5600     7.2020     9.3690    94.6910     9.7450     2.4850     0.0250
 1369.5000   -65.8490     7.5990     7.2430     9.6780    94.9940     9.7430     2.4790     0.0230
 1370.0000   -65.8780     7.6370     7.2310    10.0840    95.8480     9.7410     2.4830     0.0240
 1370.5000   -65.9070     7.6540     7.2010    10.0840    96.7190     9.7380     2.4870     0.0250
 1371.0000   -65.9360     7.5590     7.1770     9.8250    97.5970     9.7340     2.4910     0.0260
 1371.5000   -65.9650     7.4790     7.1580     9.1980    98.5000     9.7290     2.4960     0.0280
 1372.0000   -65.9740     7.4450     7.1350     9.4010    98.8720     9.7250     2.4970     0.0290
 1372.5000   -65.9600     7.4140     7.1110     9.7200    98.7280     9.7200     2.4990     0.0310
 1373.0000   -65.9460     7.3740     7.0880     9.4300    98.4410     9.7150     2.4920     0.0320
 1373.5000   -65.9320     7.3340     7.0650     9.3690    98.1790     9.7110     2.4970     0.0340
 1374.0000   -65.9180     7.2960     7.0460     9.6320    97.9010     9.7060     2.5020     0.0350
