~VERSION INFORMATION
 VERS.                2.0:   CWLS LOG ASCII STANDARD - VERSION 2.0
 WRAP.                 NO:   ONE LINE PER DEPTH STEP
~WELL INFORMATION
#MNEM.UNIT      DATA TYPE    INFORMATION
#----------   ------------   ------------------------------
 STRT.F          243.5000:   START DEPTH
 STOP.F         2836.0000:   STOP DEPTH
 STEP.F            0.5000:   STEP LENGTH
 NULL.          -999.2500:   NO VALUE
 COMP. FENIX & SCISSON U. S. NAVY:   COMPANY
 WELL.   FENIX "A" #86-20:   WELL
 FLD .             NPR #3:   FIELD
 LOC .      S20 T39N R78W:   LOCATION
 CNTY.            NATRONA:   COUNTY
 STAT.            WYOMING:   STATE
 CTRY. UNITED STATES OF AMERICA:   COUNTRY
 SRVC.       SCHLUMBERGER:   SERVICE COMPANY
 DATE.        22-MAR-1977:   LOGDATE
 API .     49025103130000:   API NUMBER
~CURVE INFORMATION
#MNEM.UNIT       API CODE    CURVE DESCRIPTION
#----------   ------------   ------------------------------
 DEPT.F                  :   
 SPR .MV     07 010 01 00:   SPONTANEOUS POTENTIAL
 ILD .OHMM   07 120 46 00:   DEEP INDUCTION RESISTIVITY
 ILM .OHMM   07 120 44 00:   INDUCTION LOG MEDIUM RESISTIVITY
 LL8 .OHMM   07 220 08 00:   LATEROLOG-8 RES.
 CALD.IN     45 280 60 00:   CALIPER FROM DENSITY LOG
 GRD .GAPI   45 310 01 00:   GAMMA RAY FROM DENSITY LOG
 RHOB.G/C3   45 350 01 00:   BULK DENSITY
 CORR.G/C3   45 356 01 00:   DENSITY CORRECTION
~PARAMETER INFORMATION
#MNEM.UNIT          VALUE    DESCRIPTION
#----------   ------------   ------------------------------
 EKB .F         5005.0000:   Kelly bushing
 EGL .F         4994.0000:   Ground level
 EDF .F            0.0000:   Drilling floor
 TD  .F         2836.0000:   Total depth
 DATE.        22-MAR-1977:   Date logged
 CLNT.            A2DTECH:   Client Code
 SL  . 330' FEL & 1650' FSL:   Surface Location
 PD  .                 GL:   Permanent Datum
 EPD .F              5005:   Elevation Permanent Datum
 LMF .                 KB:   Log Measured From
 DMF .                 KB:   Drilling Measured From
 DD  .F              2835:   Depth driller
 DL  .F              2836:   Depth logger
 BLI .F              2826:   Bottom log interval
 TLI .F               259:   Top log interval
 CBD1.      8.625" @ 258':   Casing driller 1
 CBL1.F               259:   Casing logger 1
 BS1 .IN            7.875:   Bit size
 DFT .                KCL:   Type fluid in hole
 DFD .                9.1:   Density
 DFV .                 35:   Viscosity
 DFPH.                  9:   pH
 DFL .                8.6:   Fluid loss
 MSS .              CIRC.:   Source of sample
 RMS .OHMM           0.22:   Rm
 MST .F                60:   Rm Meas. temp.
 RMF .OHMM           0.18:   Rmf
 MFST.F                60:   Rmf Meas. temp.
 RMC .OHMM           0.33:   Rmc
 MCST.F                60:   Rmc Meas. temp.
 MFSS.               MEAS:   Source Rmf.
 RMB .OHMM           0.12:   Rm. at BHT
 BHT .F               110:   BHT.
 TCS .HRS            0900:   Time Circ. stopped
 MRT .F               110:   Maximum recorded temp.
 LUN .               7980:   Logging unit number
 LUL .               CSPR:   Logging unit location
 ENGI.                FIX:   Recorded By
 WITN.               JAPP:   Witnessed by
 ORIG.           5" PRINT:   Origin of data
 UWI .     49025103130000:   Unique Well ID
 DICO. A2D TECHNOLOGIES, INC.:   Digitizing Company
 DAPD.                 11:   Feet Above Permanent Datum
 CS1 .              8.625:   Casing size
 BSD1.               2835:   Depth drilled with bit1
 MCSS.               CACL:   Source Rmc.
 TLAB.               1630:   Time logger at bottom
~OTHER INFORMATION
~A   DEPT      SPR        ILD        ILM        LL8       CALD         GRD      RHOB       CORR   
# ...
 2795.0000   -38.8700     6.6780     6.9260    12.3120     8.0760    98.3860     2.5150     0.0550
 2795.5000   -38.9970     6.5570     6.8730    10.7730     8.0760    99.7910     2.5090     0.0390
 2796.0000   -39.1290     6.5050     6.7120     9.4410     8.0770   101.1960     2.5060     0.0490
 2796.5000   -39.2660     6.4080     6.5500     9.7920     8.0770   102.6000     2.5130     0.0630
 2797.0000   -39.3980     6.3100     6.3890     9.6150     8.0780   104.0110     2.4950     0.0380
 2797.5000   -39.5320     6.2120     6.2270     8.6860     8.0780   105.4310     2.4830     0.0220
 2798.0000   -39.6650     6.1150     6.0660     8.0130     8.0780   105.1800     2.4880     0.0180
 2798.5000   -39.7990     6.0170     5.9040     8.0130     8.0790   104.7460     2.4880     0.0260
 2799.0000   -39.9320     5.9190     5.7720     8.4900     8.0790   102.6680     2.4910     0.0320
 2799.5000   -40.0660     5.8220     5.7260     9.3120     8.0800    95.3050     2.4710     0.0240
 2800.0000   -40.1990     5.7240     5.6660     9.9720     8.0800    99.7600     2.4760     0.0280
 2800.5000   -40.3330     5.6260     5.6070     8.9780     8.0810   102.7120     2.4780     0.0330
 2801.0000   -40.4660     5.5290     5.5480     7.7320     8.0810   105.7540     2.4750     0.0280
 2801.5000   -40.5990     5.4310     5.4890     7.1830     8.0820   108.5550     2.4730     0.0270
 2802.0000   -40.7330     5.3330     5.4300     7.0530     8.0820   108.3800     2.4800     0.0430
 2802.5000   -40.8660     5.1740     5.3710     7.0530     8.0830   106.7180     2.5140     0.0600
 2803.0000   -41.0000     5.1340     5.3120     7.0530     8.0830   105.9350     2.5280     0.0690
 2803.5000   -41.1330     5.0590     5.2530     7.0740     8.0840   106.8660     2.5260     0.0630
 2804.0000   -41.2660     4.9840     5.1940     7.1380     8.0840   109.1150     2.5210     0.0580
 2804.5000   -41.4040     4.9090     5.1350     7.1830     8.0850   111.8960     2.5220     0.0540
 2805.0000   -41.4990     4.8350     5.0810     7.1830     8.0830   111.7930     2.5220     0.0600
 2805.5000   -41.5510     4.8100     4.9890     6.7860     8.0750   111.3910     2.5130     0.0470
 2806.0000   -41.6080     4.8000     5.0070     6.4390     8.0670   110.0820     2.5060     0.0420
 2806.5000   -41.6640     4.7880     5.0270     6.8460     8.0580   107.4180     2.5130     0.0570
 2807.0000   -41.7190     4.7760     5.0480     7.4500     8.0500   104.7650     2.5180     0.0500
 2807.5000   -41.7760     4.7640     5.0690     7.3150     8.0460   102.3350     2.4910     0.0310
 2808.0000   -41.8320     4.7520     5.0810     7.4500     8.0460   102.8280     2.4860     0.0140
 2808.5000   -41.8880     4.7400     5.0810     8.1600     8.0470   105.4720     2.4900     0.0240
 2809.0000   -41.9440     4.7280     5.0810     7.4610     8.0470   113.8420     2.4940     0.0430
 2809.5000   -41.9990     4.7230     5.0810     6.7650     8.0470   115.7720     2.4810     0.0280
 2810.0000   -42.0560     4.5830     5.1740     6.3230     8.0480   115.7810     2.4560     0.0100
 2810.5000   -42.1110     4.5100     5.0040     6.8010     8.0480   115.5240     2.4540     0.0060
 2811.0000   -42.1670     4.4380     4.8260     6.6780     8.0490   117.8460     2.4720     0.0130
 2811.5000   -42.2250     4.3660     4.6490     6.5240     8.0490   117.7440     2.4880     0.0210
 2812.0000   -42.2590     4.2940     4.4720     6.2080     8.0500   116.5160     2.4930     0.0250
 2812.5000   -42.2640     4.2220     4.3120     6.2080     8.0500   115.3320     2.4910     0.0280
 2813.0000   -42.2430     4.1490     4.2340     6.2080     8.0510   116.3030     2.4720     0.0190
 2813.5000   -42.2600     4.0830     4.2340     6.0080     8.0510   116.2410     2.4830     0.0160
 2814.0000   -42.2890     4.0130     4.2210     5.3660     8.0510   114.5500     2.4860     0.0260
 2814.5000   -42.1230     4.0300     4.2080     5.5370     8.0520   114.4030     2.4840     0.0240
 2815.0000   -43.7450     4.0460     4.1950     5.9110     8.0520   117.4260     2.4790     0.0190
 2815.5000   -46.5020     4.0630     4.1830     6.2850     8.0530   115.3140     2.4750     0.0230
 2816.0000   -49.2020     4.0830     4.1700     6.6590     8.0530   113.7230     2.4970     0.0500
 2816.5000   -51.2260     4.0830     4.1580     7.1830     8.0540   111.4170     2.5180     0.0440
 2817.0000   -52.1600     4.0830     4.0460     6.6870     8.0540   113.3680     2.4700     0.0390
 2817.5000   -52.2450     4.0000     3.9840     5.8600     8.0550   113.1020     2.4820     0.0560
 2818.0000   -52.3380     3.8940     3.9230     5.1740     8.0550   113.7750     2.5000     0.0760
 2818.5000   -52.3790     3.7890     3.8610     5.0810     8.0560   117.6230     2.5060     0.0810
 2819.0000   -52.4470     3.6840     3.8000     4.9030     8.0560   119.0060     2.4980     0.0740
 2819.5000   -52.5040     3.5790     3.7390     4.7180     8.0560   121.2300     2.4770     0.0600
 2820.0000   -52.5630     3.4650     3.6770     4.5540     8.0570   124.8060     2.4690     0.0460
 2820.5000   -52.4830     3.4650     3.5940     4.4720     8.0570   126.9330     2.4650     0.0360
 2821.0000   -52.3390     3.4650     3.5940     4.7110     8.0580   125.0820     2.4800     0.0340
 2821.5000   -52.2000     3.4650     3.5940     4.8680     8.0580   126.8970     2.4850     0.0300
 2822.0000   -52.0570     3.4650     3.5610     4.7230     8.0590   132.2640     2.4830     0.0230
 2822.5000   -51.9200     3.4020     3.5250     4.8710     8.0590  -999.2500     2.4720     0.0170
 2823.0000   -51.8000     3.4020     3.4880     5.0810     8.0600  -999.2500     2.4470     0.0110
 2823.5000   -51.9010     3.3380     3.4510     4.8360     8.0600  -999.2500     2.4570     0.0140
 2824.0000   -52.0030     3.2770     3.4150     4.4560     8.0600  -999.2500     2.4630     0.0250
 2824.5000   -52.1380     3.2170     3.3780     4.0830     8.0610  -999.2500     2.4620     0.0410
 2825.0000   -52.0560     3.1560     3.3410     4.0830     8.0610  -999.2500     2.4900     0.0530
 2825.5000   -51.7270     3.1060     3.3050     4.2540     8.0620  -999.2500     2.4650     0.0390
 2826.0000   -51.4190     3.1060     3.2680     4.4260     8.0620  -999.2500     2.4580     0.0310
 2826.5000   -51.6710     3.1060     3.2310     4.5970     8.0630  -999.2500     2.4850     0.0500
 2827.0000   -51.9350  -999.2500     3.1950     4.7230     8.0630  -999.2500     2.4810     0.0450
 2827.5000   -52.1790  -999.2500     3.1630     4.6440     8.0640  -999.2500     2.4800     0.0450
 2828.0000  -999.2500  -999.2500     3.1060     4.4990     8.0640  -999.2500     2.4820     0.0690
 2828.5000  -999.2500  -999.2500     3.1060     4.3540     8.0650  -999.2500     2.4770     0.0530
 2829.0000  -999.2500  -999.2500  -999.2500     4.3120     8.0650  -999.2500     2.4710     0.0470
 2829.5000  -999.2500  -999.2500  -999.2500  -999.2500     8.0610  -999.2500     2.4690     0.0480
 2830.0000  -999.2500  -999.2500  -999.2500  -999.2500     8.0450  -999.2500     2.4650     0.0510
 2830.5000  -999.2500  -999.2500  -999.2500  -999.2500     8.0300  -999.2500  -999.2500     0.0470
 2831.0000  -999.2500  -999.2500  -999.2500  -999.2500     8.0260  -999.2500  -999.2500     0.0430
 2831.5000  -999.2500  -999.2500  -999.2500  -999.2500     8.0260  -999.2500  -999.2500     0.0340
 2832.0000  -999.2500  -999.2500  -999.2500  -999.2500     8.0210  -999.2500  -999.2500     0.0310
 2832.5000  -999.2500  -999.2500  -999.2500  -999.2500     8.0070  -999.2500  -999.2500  -999.2500
 2833.0000  -999.2500  -999.2500  -999.2500  -999.2500     7.9620  -999.2500  -999.2500  -999.2500
 2833.5000  -999.2500  -999.2500  -999.2500  -999.2500     7.9390  -999.2500  -999.2500  -999.2500
 2834.0000  -999.2500  -999.2500  -999.2500  -999.2500     7.8460  -999.2500  -999.2500  -999.2500
 2834.5000  -999.2500  -999.2500  -999.2500  -999.2500     7.8030  -999.2500  -999.2500  -999.2500
 2835.0000  -999.2500  -999.2500  -999.2500  -999.2500     7.6800  -999.2500  -999.2500  -999.2500
