~VERSION INFORMATION
 VERS.                2.0:   CWLS LOG ASCII STANDARD - VERSION 2.0
 WRAP.                 NO:   ONE LINE PER DEPTH STEP
~WELL INFORMATION
#MNEM.UNIT      DATA TYPE    INFORMATION
#----------   ------------   ------------------------------
 STRT.F            0.0000:   START DEPTH
 STOP.F         4000.0000:   STOP DEPTH
 STEP.F            0.5000:   STEP LENGTH
 NULL.          -999.2500:   NO VALUE
 COMP. LAWRENCE &  ALLISON ASSOC.:   COMPANY
 WELL. LAWRENCE NPR 3 "TX" #14-28:   WELL
 FLD .              N P R:   FIELD
 LOC .      S28 T39N R78W:   LOCATION
 CNTY.            NATRONA:   COUNTY
 STAT.            WYOMING:   STATE
 CTRY. UNITED STATES OF AMERICA:   COUNTRY
 SRVC.      DRESSER ATLAS:   SERVICE COMPANY
 DATE.        11-APR-1984:   LOGDATE
 API .     49025109710000:   API NUMBER
~CURVE INFORMATION
#MNEM.UNIT       API CODE    CURVE DESCRIPTION
#----------   ------------   ------------------------------
 DEPT.F                  :   
 RHOB.G/C3   45 350 01 00:   BULK DENSITY
 CORR.G/C3   45 356 01 00:   DENSITY CORRECTION
 TEND.LBS    45 635 01 00:   TENSION FROM DENSITY LOG
 CNC .DEC    42 890 03 00:   NEUTRON PORISITY SANDSTONE
 DT  .US/F   60 520 00 00:   DELTA TIME
 TENS.LBS    60 635 01 00:   TENSION FROM SONIC LOG
 GRR .GAPI   07 310 01 00:   GAMMA RAY FROM RESISTIVITY
 SPR .MV     07 010 01 00:   SPONTANEOUS POTENTIAL
 CALR.IN     07 280 01 00:   CALIPER FROM RESISTIVITY
 TENR.LBS    07 635 01 00:   TENSION
 RILD.OHMM   07 120 46 00:   INDUCTION LOG DEEP RESISTIVITY
 RILM.OHMM   07 120 44 00:   INDUCTION LOG MEDIUM RESISTIVITY
 RFOC.OHMM   07 220 01 00:   RESISTIVITY FOCUSED LOG RES.
~PARAMETER INFORMATION
#MNEM.UNIT          VALUE    DESCRIPTION
#----------   ------------   ------------------------------
 EKB .F         5024.0000:   Kelly bushing
 EGL .F         5014.0000:   Ground level
 TD  .F         3996.0000:   Total depth
 DATE.        11-APR-1984:   Date logged
 CLNT.            A2DTECH:   Client Code
 SL  . 250' FWL & 2100' FNL:   Surface Location
 PD  .                 GL:   Permanent Datum
 EPD .F              5014:   Elevation Permanent Datum
 LMF .                 KB:   Log Measured From
 DMF .                 KB:   Drilling Measured From
 DD  .F              3996:   Depth driller
 DL  .F              3994:   Depth logger
 BLI .F              3992:   Bottom log interval
 CS1 .IN            8.625:   Casing size
 CBD1.      8.625" @ 404':   Casing driller 1
 CBL1.F               404:   Casing logger 1
 BS1 .IN            7.875:   Bit size
 DFT .            GEL/KCL:   Type fluid in hole
 DFD .                9.1:   Density
 DFV .                 38:   Viscosity
 DFPH.                  8:   pH
 DFL .                 14:   Fluid loss
 MSS .           FLOWLINE:   Source of sample
 RMS .OHMM           .417:   Rm
 MST .F                90:   Rm Meas. temp.
 RMF .OHMM           .313:   Rmf
 MFST.F                90:   Rmf Meas. temp.
 RMC .OHMM           .521:   Rmc
 MCST.F                90:   Rmc Meas. temp.
 MFSS.               CALC:   Source Rmf.
 RMB .OHMM            .25:   Rm. at BHT
 BHT .F               150:   BHT.
 TCS .HRS               3:   Time Circ. stopped
 MRT .F               150:   Maximum recorded temp.
 LUN .               6307:   Logging unit number
 LUL .               GLTE:   Logging unit location
 ENGI.           FAHLSING:   Recorded By
 WITN.             STRONG:   Witnessed by
 ORIG.           5" PRINT:   Origin of data
 UWI .     49025109710000:   Unique Well ID
 DICO. A2D TECHNOLOGIES, INC.:   Digitizing Company
 DAPD.F                10:   Feet Above Permanent Datum
 BSD1.F              3996:   Depth drilled with bit1
 MCSS.               CALC:   Source Rmc.
~OTHER INFORMATION
~A    DEPT    RHOB       CORR       TEND        CNC         DT       TENS         GRR       SPR       CALR       TENR       RILD       RILM       RFOC   
# ...
 2314.0000     2.5400     0.0110    42.0790     0.2340    85.0000    41.2390   124.3240   -43.8610     8.0270    -9.3330     7.2990     6.9100     6.7440
 2314.5000     2.5370     0.0120    42.0790     0.2380    85.0000    41.4820   125.9220   -43.9640     8.0270    -9.1070     7.3740     7.0610     6.7440
 2315.0000     2.5370     0.0350    42.0790     0.2400    85.0000    41.7250   127.5270   -44.0660     8.0260    -8.8810     7.4820     7.0610     6.7440
 2315.5000     2.5380     0.0530    42.0790     0.2360    85.0000    41.9680   129.1170   -44.1680     8.0260    -8.6550     7.6010     7.0910     6.7440
 2316.0000     2.5380     0.0460    42.0790     0.2320    84.9010    42.0790   131.3260   -44.2720     8.0260    -8.4290     7.7190     7.2790     6.9480
 2316.5000     2.5410     0.0320    42.0790     0.2330    84.3260    42.0790   133.8580   -44.3810     8.0250    -8.2030     7.8380     7.4660     7.2150
 2317.0000     2.5440     0.0190    42.0790     0.2340    83.8120    42.0790   136.3980   -44.1330     8.0250    -7.9770     7.9560     7.6540     7.4830
 2317.5000     2.5460     0.0130    42.0790     0.2310    83.7130    42.0790   138.1960   -43.8240     8.0250    -7.7510     8.0750     7.8100     7.5980
 2318.0000     2.5410     0.0070    42.0790     0.2300    83.7130    42.0790   136.7370   -43.5150     8.0240    -7.5250     8.2520     7.8100     7.5980
 2318.5000     2.5410     0.0060    42.0790     0.2420    84.4830    42.0790   135.6300   -43.1840     8.0240    -7.2990     8.1770     7.7380     7.4080
 2319.0000     2.5430     0.0310    42.0790     0.2540    85.1250    42.0790   135.6230   -42.8450     8.0240    -7.0730     7.9740     7.5450     7.1970
 2319.5000     2.5450     0.0600    42.0790     0.2600    85.7660    42.0790   135.6200   -42.5040     8.0240    -6.8470     7.7360     7.3510     6.9870
 2320.0000     2.5430     0.0630    42.0790     0.2560    86.3170    42.0790   136.8810   -42.1630     8.0230    -6.6210     7.4990     7.1580     6.7760
 2320.5000     2.5310     0.0420    42.0790     0.2490    86.8190    42.0790   138.5980   -41.8220     8.0230    -6.3950     7.2580     6.9640     6.5650
 2321.0000     2.5180     0.0030    42.0790     0.2420    87.3210    42.0790   139.9410   -41.4870     8.0230    -6.1690     7.1910     6.8060     6.3540
 2321.5000     2.5160    -0.0170    42.0790     0.2340    87.6730    42.0790   138.8440   -41.2030     8.0220    -5.9430     7.2360     6.8440     6.2670
 2322.0000     2.5190    -0.0190    42.0790     0.2240    87.4750    42.0790   133.9470   -40.9340     8.0220    -5.7170     7.4750     7.0450     6.5510
 2322.5000     2.5260     0.0290    42.0790     0.2170    86.2580    42.0790   128.4820   -40.6640     8.0220    -5.4890     7.7140     7.2460     6.9130
 2323.0000     2.5280     0.0690    42.0790     0.2170    85.1650    42.0790   123.1310   -40.3940     8.0210    -5.7160     7.9550     7.4470     7.1910
 2323.5000     2.5270     0.0430    42.0790     0.2190    83.8120    42.0790   118.3870   -40.1240     8.0210    -5.9450     8.1020     7.5290     7.2580
 2324.0000     2.5180     0.0130    42.0790     0.2280    83.7130    42.0790   120.7160   -39.8560     8.0210    -6.1750     8.1770     7.5980     6.9220
 2324.5000     2.5040    -0.0050    42.0790     0.2390    83.8120    42.0790   128.5180   -39.6850     8.0200    -6.4040     7.9020     7.0620     6.5820
 2325.0000     2.5010    -0.0140    42.0790     0.2500    84.5840    42.0790   136.2210   -39.7860     8.0200    -6.6330     7.6320     6.6770     6.2430
 2325.5000     2.4980    -0.0080    42.0790     0.2430    85.0990    42.0790   143.9240   -39.8790     8.0200    -6.8630     7.3620     6.2920     5.9030
 2326.0000     2.5000     0.0020    42.0790     0.2260    87.4090    42.0790   151.7840   -39.9730     8.0190    -7.0920     7.0930     5.9860     5.5640
 2326.5000     2.5100     0.0180    42.0790     0.2060    88.8610    42.0790   152.2340   -40.0660     8.0190    -7.3210     6.9320     5.7700     5.3130
 2327.0000     2.5200     0.0350    42.0790     0.1940    89.1580    42.0790   144.1720   -40.1590     8.0190    -7.5510     6.9320     5.8770     5.3130
 2327.5000     2.5310     0.0470    42.0790     0.1900    87.8870    42.0790   125.5290   -40.2520     8.0180    -7.7800     7.3300     6.4290     5.8970
 2328.0000     2.5370     0.0360    42.0790     0.1930    85.2940    42.0790   115.4470   -40.3450     8.0180    -8.0090     7.9890     7.0450     6.5580
 2328.5000     2.5440     0.0400    42.0790     0.2050    81.6340    42.0790   112.5450   -40.4390     8.0180    -8.2390     8.6390     7.6150     7.2200
 2329.0000     2.5450     0.0470    42.0790     0.2090    80.7430    42.0790   112.0530   -40.5320     8.0170    -8.4680     8.8810     8.0170     7.7390
 2329.5000     2.5460     0.0510    42.0790     0.2070    80.7430    42.0790   112.9800   -40.6260     8.0150    -8.6970     8.8520     8.2670     7.9550
 2330.0000     2.5440     0.0410    42.0790     0.2060    81.3770    42.0790   114.8460   -40.7410     8.0140    -8.9270     8.8050     8.3010     7.9640
 2330.5000     2.5380     0.0320    42.0790     0.2060    82.6240    42.0790   116.6740   -40.8640     8.0120    -9.1560     8.7590     8.3280     7.9870
 2331.0000     2.5370     0.0260    42.0790     0.2100    82.7230    42.0790   118.5050   -40.9880     8.0110    -9.3850     8.7130     8.2970     8.0100
 2331.5000     2.5410     0.0280    42.0790     0.2120    82.8220    42.0790   120.3460   -41.1110     8.0090    -9.6150     8.6660     8.2720     8.0280
 2332.0000     2.5480     0.0520    42.0790     0.2140    82.3610    42.0790   122.1920   -41.2350     8.0070    -9.8440     8.5150     8.1940     7.8100
 2332.5000     2.5560     0.0720    42.0790     0.2100    82.0300    42.0790   122.6440   -41.3580     8.0060   -10.0730     8.2230     7.9370     7.6320
 2333.0000     2.5600     0.0730    42.0790     0.2100    82.3390    42.0790   121.9900   -41.4820     8.0040   -10.3030     7.9310     7.7390     7.4600
 2333.5000     2.5570     0.0550    42.0790     0.2150    82.8410    42.0790   118.9560   -41.6050     8.0030   -10.5320     7.7830     7.6740     7.4000
 2334.0000     2.5450     0.0260    42.0790     0.2200    83.0200    42.0790   113.8000   -41.7290     8.0010   -10.7610     7.6680     7.5950     7.3430
 2334.5000     2.5330     0.0100    42.0790     0.2210    82.7410    42.0790   112.8300   -41.8520     7.9990   -10.9910     7.7090     7.5170     7.2850
 2335.0000     2.5210     0.0000    42.0790     0.2180    82.6240    42.0790   114.7180   -41.9760     7.9980   -11.2200     7.7490     7.4380     7.2270
 2335.5000     2.5100    -0.0040    42.0790     0.2180    83.1130    42.0790   119.9980   -42.1000     7.9960   -11.4500     7.7890     7.3600     7.1690
 2336.0000     2.5140    -0.0080    42.0790     0.2170    84.1170    42.0790   125.1920   -42.2230     7.9950   -11.6790     7.8280     7.2820     7.0610
 2336.5000     2.5240    -0.0070    42.0790     0.2120    85.1210    42.0790   128.1570   -42.3270     7.9930   -11.9080     7.8680     7.2030     6.7440
 2337.0000     2.5340     0.0090    42.0790     0.2090    85.6930    42.0790   128.6470   -42.4310     7.9920   -12.1380     7.8820     7.1260     6.6820
 2337.5000     2.5410     0.0270    42.0790     0.2120    85.5940    42.0790   123.8190   -42.5350     7.9900   -12.3670     7.8820     7.3570     6.8060
 2338.0000     2.5500     0.0400    42.0790     0.2150    84.8120    42.0790   117.9000   -42.6390     7.9880   -12.5960     8.2080     7.7130     7.3900
 2338.5000     2.5580     0.0450    42.0790     0.2180    83.4070    42.0790   111.9600   -42.7430     7.9870   -12.8260     8.5960     8.0690     7.9470
 2339.0000     2.5600     0.0510    42.0790     0.2210    81.8330    42.0790   106.0670   -42.8470     7.9850   -13.0550     8.9620     8.4050     8.0280
 2339.5000     2.5570     0.0570    42.0790     0.2220    79.7860    42.0790   102.4300   -42.9500     7.9840   -13.2840     9.0450     8.4050     8.0280
