~VERSION INFORMATION
 VERS.                2.0:   CWLS LOG ASCII STANDARD - VERSION 2.0
 WRAP.                 NO:   ONE LINE PER DEPTH STEP
~WELL INFORMATION
#MNEM.UNIT      DATA TYPE    INFORMATION
#----------   ------------   ------------------------------
 STRT.F           35.5000:   START DEPTH
 STOP.F         6235.5000:   STOP DEPTH
 STEP.F            0.5000:   STEP LENGTH
 NULL.          -999.2500:   NO VALUE
 COMP. LAWRENCE-ALLISON ASSOCIATES:   COMPANY
 WELL. LAWRENCE-ALLISON "X" #62-11:   WELL
 FLD .                NPR:   FIELD
 LOC .      S11 T38N R78W:   LOCATION
 CNTY.            NATRONA:   COUNTY
 STAT.            WYOMING:   STATE
 CTRY. UNITED STATES OF AMERICA:   COUNTRY
 SRVC.      DRESSER ATLAS:   SERVICE COMPANY
 DATE.        18-DEC-1982:   LOGDATE
 API .     49025109020000:   API NUMBER
~CURVE INFORMATION
#MNEM.UNIT       API CODE    CURVE DESCRIPTION
#----------   ------------   ------------------------------
 DEPT.F                  :   
 ILM .OHMM   07 120 44 00:   INDUCTION LOG MEDIUM
 ILD .OHMM   07 120 46 00:   DEEP RESISTIVITY
 RFOC.OHMM   07 220 04 00:   RESISTIVITY FOCUSED LOG RES.
 DT  .US/F   60 520 00 00:   DELTA TIME
 TENS.LBS    60 635 01 00:   TENSION FROM SONIC LOG.
 RS  .OHMM   11 220 09 00:   RESISTIVITY SHALLOW
 RD  .OHMM   11 220 10 00:   RESISTIVITY DEEP
 RLL .OHMM   11 220 00 00:   LATEROLOG RESISTIVITY
 SPR .MV     07 010 01 00:   SPONTANEOUS POTENTIAL
 TENR.LBS    07 635 01 00:   TENSION FROM RES. LOG
 CALD.IN     45 280 60 00:   CALIPER FROM DENSITY LOG
 GRD .GAPI   45 310 01 00:   GAMMA RAY FROM DENSITY LOG
 DEN .G/C3   45 350 01 00:   FORMATION FACTOR DENSITY
 DRHO.G/C3   45 356 01 00:   DENSITY CORRECTION
 TEND.LBS    45 635 01 00:   TENSION FROM DENSITY LOG
 CN  .DEC    42 890 00 00:   NEUTRON POROSITY
~PARAMETER INFORMATION
#MNEM.UNIT          VALUE    DESCRIPTION
#----------   ------------   ------------------------------
 EKB .F         5218.0000:   Kelly bushing
 EGL .F         5208.0000:   Ground level
 EDF .F            0.0000:   Drilling floor
 TD  .F         6232.0000:   Total depth
 DATE.        18-DEC-1982:   Date logged
 CLNT.            A2DTECH:   Client Code
 SL  . 971' FNL & 1898' FEL:   Surface Location
 PD  .                 GL:   Permanent Datum
 EPD .F              5208:   Elevation Permanent Datum
 LMF .                 KB:   Log Measured From
 DMF .                 KB:   Drilling Measured From
 DAPD.F                10:   Feet Above Permanent Datum
 DD  .F              6222:   Depth driller
 DL  .F              6232:   Depth logger
 BLI .F              6230:   Bottom log interval
 CS1 .IN            9.625:   Casing size
 CBD1.     9.625" @ 1002':   Casing driller 1
 CBL1.F              1002:   Casing logger 1
 BS1 .IN             8.75:   Bit size
 BSD1.F              6222:   Depth drilled with bit1
 DFT .                KCL:   Type fluid in hole
 DFD .                  9:   Density
 DFV .                 37:   Viscosity
 DFPH.                  8:   pH
 DFL .                8.4:   Fluid loss
 MSS .           FLOWLINE:   Source of sample
 RMS .OHMM            .25:   Rm
 MST .F                60:   Rm Meas. temp.
 RMF .OHMM            .18:   Rmf
 MFST.F                62:   Rmf Meas. temp.
 RMC .OHMM            .32:   Rmc
 MCST.F                60:   Rmc Meas. temp.
 MFSS.               MEAS:   Source Rmf.
 MCSS.               CALC:   Source Rmc.
 RMB .OHMM            .09:   Rm. at BHT
 BHT .F               166:   BHT.
 TCS .HRS               6:   Time Circ. stopped
 MRT .F               166:   Maximum recorded temp.
 LUN .               6274:   Logging unit number
 LUL .               GLTE:   Logging unit location
 ENGI.             RAUTIO:   Recorded By
 WITN.           JENNINGS:   Witnessed by
 ORIG.           5" PRINT:   Origin of data
 UWI .     49025109020000:   Unique Well ID
 DICO. A2D TECHNOLOGIES, INC.:   Digitizing Company
~OTHER INFORMATION
~A  DEPTH      ILM        ILD       RFOC         DT       TENS         RS         RD        RLL        SPR       TENR       CALD        GRD        DEN       DRHO       TEND         CN
# ...
 6206.0000  -999.2500  -999.2500  -999.2500    54.9871    10.0482    60.2484    97.8081    17.0612   -20.2530   273.3434     8.5865    10.4711     2.7016     0.1184   304.2188     0.2044
 6206.5000  -999.2500  -999.2500  -999.2500    55.0668     9.9761    56.2115    92.4975    17.5432   -20.2590   382.5301     8.5865    12.3034     2.7039     0.1308   311.9915     0.2094
 6207.0000  -999.2500  -999.2500  -999.2500    54.9957     6.1218    56.2115    91.8336    21.7597   -20.2651   446.5361     8.5847    13.5296     2.6961     0.1402   319.7614     0.2109
 6207.5000  -999.2500  -999.2500  -999.2500    54.9239     6.0496    60.2484    98.4095    50.7814   -20.2711   465.3615     8.5714    14.7529     2.6893     0.1480   327.5374     0.2075
 6208.0000  -999.2500  -999.2500  -999.2500    54.8529     5.9655    65.0247   106.9314    66.1253   -20.2771   469.1265     8.5714    15.6774     2.6813     0.1558   335.3073     0.1975
 6208.5000  -999.2500  -999.2500  -999.2500    54.9341     5.9002    67.7876   111.4534    61.6922   -20.2831   469.1265     8.5865    15.9958     2.6750     0.1620   343.0893     0.1819
 6209.0000  -999.2500  -999.2500  -999.2500    55.2401     7.1861    66.3918   109.8827    22.0703   -20.2892   469.1265     8.5865    15.7081     2.6680     0.1558   354.7594     0.1713
 6209.5000  -999.2500  -999.2500  -999.2500    55.7730     9.5432    63.2456   101.0691    15.1684   -20.2952   469.1265     8.5865    18.4454     2.6555     0.1371   366.4477     0.1676
 6210.0000  -999.2500  -999.2500  -999.2500    56.2298     9.4469    58.1950    90.4112    15.5969   -20.3012   472.8916     8.5865    24.4981     2.6414     0.1296   382.0240     0.1610
 6210.5000  -999.2500  -999.2500  -999.2500    57.0637    13.1690    53.5477    82.0122    18.8155   -20.3072   476.6566     8.6015    24.2131     2.6289     0.1215   385.8997     0.1570
 6211.0000  -999.2500  -999.2500  -999.2500    58.1993    20.6491    47.5922    74.3933    22.8564   -20.3133   480.4217     8.6015    22.7188     2.6008     0.1153   393.6696     0.1545
 6211.5000  -999.2500  -999.2500  -999.2500    59.2602    47.0400    42.8899    67.9498    23.5021   -20.3193   484.1867     8.6015    22.7411     2.5898     0.1106   393.6328     0.1607
 6212.0000  -999.2500  -999.2500  -999.2500    60.0186   130.1751    39.4649    66.5313    22.5442   -20.3253   484.1867     8.6015    23.0623     2.5875     0.1106   393.5905     0.1701
 6212.5000  -999.2500  -999.2500  -999.2500    60.2492   341.8912    38.6522    66.5113    22.3896   -20.3313   484.1867     8.6015    23.0790     2.5883     0.1106   401.3604     0.1717
 6213.0000  -999.2500  -999.2500  -999.2500    60.1774   402.3455    39.4649    67.4244    23.3442   -20.3374   484.1867     8.5865    22.7941     2.5961     0.1090   405.2344     0.1710
 6213.5000  -999.2500  -999.2500  -999.2500    59.8061   421.1720    44.7124    77.9893    26.8250   -20.3434   484.1867     8.5803    22.5106     2.6117     0.1106   413.0078     0.1664
 6214.0000  -999.2500  -999.2500  -999.2500    59.1317   428.6761    52.0826    94.0526    34.9304   -20.3494   487.9518     8.5564    22.2284     2.6289     0.1168   420.7881     0.1570
 6214.5000  -999.2500  -999.2500  -999.2500    58.4573   439.9384    57.3933   109.5482    43.0258   -20.3554   499.2470     8.5403    22.2479     2.6336     0.1308   428.5579     0.1533
 6215.0000  -999.2500  -999.2500  -999.2500    58.2347   443.9012    60.2484   114.1808    45.1729   -20.3614   503.0121     8.5113    22.2647     2.6305     0.1433   436.3339     0.1679
 6215.5000  -999.2500  -999.2500  -999.2500    58.8438   451.1285    61.9432   115.7432    46.7723   -20.3677   499.2470     8.4962    22.2814     2.6227     0.1340   440.9155     0.1789
 6216.0000  -999.2500  -999.2500  -999.2500    59.5269   458.6327    61.9432   115.7116    65.2858   -20.3572   484.1867     8.4662    22.3009     2.6117     0.1090   447.9674     0.1801
 6216.5000  -999.2500  -999.2500  -999.2500    60.3608   469.8949    61.9432   115.6795    75.5431   -20.3379   484.1867     8.4361    22.3177     2.5992     0.1059   451.8359     0.1798
 6217.0000  -999.2500  -999.2500  -999.2500    61.4217   484.9394    61.9432   115.6475    67.1338   -20.3186   499.2470     8.4211    22.9405     2.5508     0.1215   459.6094     0.1786
 6217.5000  -999.2500  -999.2500  -999.2500    62.3310   499.9958    61.9432   115.6154    17.9400   -20.2993   514.3073     8.4017    22.9572     2.4898     0.1371   463.5255     0.1777
 6218.0000  -999.2500  -999.2500  -999.2500    62.9386   518.8223    61.9432   115.5834    15.1863   -20.2800   518.0723     8.3759    23.2784     2.4711     0.1464   467.3438     0.1770
 6218.5000  -999.2500  -999.2500  -999.2500    63.2446   534.7698    61.9432   115.5513    12.3307   -20.2607   510.5422     8.3609    23.5968     2.4648     0.1495   475.1102     0.1770
 6219.0000  -999.2500  -999.2500  -999.2500    63.6268   556.4995    62.3743   115.5192    11.0344   -20.2414   503.0121     8.3459    23.6163     2.4625     0.1433   478.9860     0.1746
 6219.5000  -999.2500  -999.2500  -999.2500    64.0836   575.3381    62.3743   115.4872    10.6585   -20.2221   514.3073     8.3308    23.5736     2.4633     0.1402   482.8557     0.1699
 6220.0000  -999.2500  -999.2500  -999.2500    64.6158   590.3825    62.8084   115.4551    10.9596   -20.2029   533.1325     8.3158    23.4467     2.4641     0.1433   490.6317     0.1689
 6220.5000  -999.2500  -999.2500  -999.2500    65.0726   601.6568    62.3743   115.4231    11.1911   -20.1836   533.1325     8.3158    23.3198     2.4633     0.1417   498.3985     0.1727
 6221.0000  -999.2500  -999.2500  -999.2500    65.5302   609.1609    62.3743   115.3910    10.6608   -20.1643   518.0723     8.3308    23.1929     2.4594     0.1402   502.2621     0.1780
 6221.5000  -999.2500  -999.2500  -999.2500    65.8362   620.4232    61.9432   115.3590    10.1555   -20.1450   514.3073     8.3308    23.0659     2.4570     0.1449   506.1328     0.1796
 6222.0000  -999.2500  -999.2500  -999.2500    65.9155   631.6855    62.0155   115.3269     9.9467   -20.1257   544.4277     8.3459    22.9390     2.4547     0.1402   513.8987     0.1793
 6222.5000  -999.2500  -999.2500  -999.2500  -999.2500   640.2272    62.1060   115.2948    10.2277   -20.1064   563.2530     8.3459    22.8121     2.4602     0.1308   514.2101     0.1790
 6223.0000  -999.2500  -999.2500  -999.2500  -999.2500   646.6818    62.1964   115.2628    13.5042   -20.0871   567.0181     8.3418    22.6852     2.5391     0.1215   517.7380     0.1791
 6223.5000  -999.2500  -999.2500  -999.2500  -999.2500   631.4570    62.2869   115.2307    30.0200   -20.0678   536.8976     8.3158  -999.2500     2.5656     0.1137   551.8282     0.1796
 6224.0000  -999.2500  -999.2500  -999.2500  -999.2500   574.6526    62.3773   115.1987    47.1539   -20.0485   529.3675     8.2857  -999.2500     2.5633     0.1090   588.2357     0.1802
 6224.5000  -999.2500  -999.2500  -999.2500  -999.2500   510.2840    62.4678   115.1666    37.4976   -20.0292   589.6085     8.2105  -999.2500     2.5289     0.1075   624.6431     0.1812
 6225.0000  -999.2500  -999.2500  -999.2500  -999.2500   411.8639    62.5582   115.1346    25.7713   -20.0099   638.5542     8.1203  -999.2500     2.4781     0.1121   661.0505     0.1818
 6225.5000  -999.2500  -999.2500  -999.2500  -999.2500   309.6738    62.6487   115.1025    19.1186   -19.9906   649.8494     8.0451  -999.2500     2.4352     0.1277   818.3152     0.1828
 6226.0000  -999.2500  -999.2500  -999.2500  -999.2500   233.9586    62.7391   115.0704    17.2280   -19.9713   623.4940     8.0000  -999.2500     2.4273     0.1340   872.9723     0.1831
 6226.5000  -999.2500  -999.2500  -999.2500  -999.2500   150.6672    62.8296   115.0384    16.4114   -19.9520   615.9639     7.9850  -999.2500     2.4188     0.1137   880.7482     0.1831
 6227.0000  -999.2500  -999.2500  -999.2500  -999.2500   101.4271    62.9200   115.0063    11.8413   -19.9327   672.4398     7.9699  -999.2500     2.4086     0.1028   872.8870     0.1834
