~VERSION INFORMATION
 VERS.                2.0:   CWLS LOG ASCII STANDARD - VERSION 2.0
 WRAP.                 NO:   ONE LINE PER DEPTH STEP
~WELL INFORMATION
#MNEM.UNIT      DATA TYPE    INFORMATION
#----------   ------------   ------------------------------
 STRT.F          502.0000:   START DEPTH
 STOP.F         4210.0000:   STOP DEPTH
 STEP.F            0.5000:   STEP LENGTH
 NULL.          -999.2500:   NO VALUE
 COMP.   FENIX & SCISSION:   COMPANY
 WELL. FENIX NPR 3 "JX" #43-34:   WELL
 FLD .              N P R:   FIELD
 LOC .      S34 T39N R78W:   LOCATION
 CNTY.            NATRONA:   COUNTY
 STAT.            WYOMING:   STATE
 CTRY. UNITED STATES OF AMERICA:   COUNTRY
 SRVC.              WELEX:   SERVICE COMPANY
 DATE.        05-FEB-1979:   LOGDATE
 API .     49025107690000:   API NUMBER
~CURVE INFORMATION
#MNEM.UNIT       API CODE    CURVE DESCRIPTION
#----------   ------------   ------------------------------
 DEPT.F                  :   
 TENR.LBS    07 635 01 00:   TENSION FROM RESISTIVITY
 SPR .MV     07 010 01 00:   SPONTANEOUS POTENTIAL
 SFL .OHMM   07 220 01 00:   SHALLOW FOCUSED LOG RESISTIVITY
 ILD .OHMM   07 120 46 00:   DEEP INDUCTION RESISTIVITY
 ILM .OHMM   07 120 44 00:   INDUCTION LOG MEDIUM RESISTIVITY
 TEND.LBS    45 635 01 00:   TENSION FROM DENSITY LOG
 CALD.IN     45 280 60 00:   CALIPER FROM DENSITY LOG
 GRD .GAPI   45 310 01 00:   GAMMA RAY FROM DENSITY LOG
 CORR.G/C3   45 356 01 00:   DENSITY CORRECTION
 NPHI.DEC    42 890 03 00:   NEUTRON POROSITY SANDSTONE
 RHOB.G/C3   45 350 01 00:   BULK DENSITY
~PARAMETER INFORMATION
#MNEM.UNIT          VALUE    DESCRIPTION
#----------   ------------   ------------------------------
 EKB .F         5108.0000:   Kelly bushing
 EGL .F         5098.0000:   Ground level
 TD  .F         4204.0000:   Total depth
 DATE.        05-FEB-1979:   Date logged
 CLNT.            A2DTECH:   Client Code
 SL  . 1627' FNL & 2110' FWL:   Surface Location
 PD  .                 GL:   Permanent Datum
 DD  .F              4200:   Depth driller
 DL  .F              4204:   Depth logger
 BLI .F              4202:   Bottom log interval
 CS1 .IN            8.625:   Casing size
 CBD1.      8.625" @ 506':   Casing driller 1
 CBL1.F               506:   Casing logger 1
 BS1 .IN            7.875:   Bit size
 DFT .           CHEM/GEL:   Type fluid in hole
 DFD .                9.2:   Density
 DFV .                 55:   Viscosity
 DFPH.                9.5:   pH
 DFL .                5.7:   Fluid loss
 MSS .            MUD/PIT:   Source of sample
 RMS .OHMM            1.1:   Rm
 MST .F                52:   Rm Meas. temp.
 RMF .OHMM            .45:   Rmf
 MFST.F                52:   Rmf Meas. temp.
 RMC .OHMM            1.8:   Rmc
 MCST.F                52:   Rmc Meas. temp.
 MFSS.               MEAS:   Source Rmf.
 RMB .OHMM           5.06:   Rm. at BHT
 BHT .F               128:   BHT.
 TCS .HRS               8:   Time Circ. stopped
 MRT .F               128:   Maximum recorded temp.
 LUN .               9685:   Logging unit number
 LUL .             CASPER:   Logging unit location
 ENGI.        KEIN/JOINER:   Recorded By
 WITN.        J. DINSMORE:   Witnessed by
 ORIG.           5" PRINT:   Origin of data
 UWI .     49025107690000:   Unique Well ID
 DICO. A2D TECHNOLOGIES, INC.:   Digitizing Company
 DAPD.F                10:   Feet Above Permanent Datum
 BSD1.F              4200:   Depth drilled with bit1
 MCSS.               MEAS:   Source Rmc.
 EPD .F              5098:   Elevation Permanent Datum
 LMF .                 KB:   Log Measured From
 DMF .                 KB:   Drilling Measured From
 TLI .F               500:   Top log interval
~OTHER INFORMATION
~A   DEPT     TENR        SPR        SFL        ILD        ILM        TEND        CALD       GRD        CORR       NPHI       RHOB 
# ...
 1966.0000  1100.5620   -56.2010     8.9670     6.5450     4.7840  1156.2090     9.5640   164.0630    -0.0060     0.3160     2.4170
 1966.5000  1100.6680   -56.2240     9.1510     6.5540     4.7690  1156.3350     9.5610   163.6970    -0.0050     0.3120     2.4170
 1967.0000  1100.7740   -56.2460     9.0970     6.5620     4.7530  1156.4611     9.5580   165.2150     0.0040     0.3080     2.4150
 1967.5000  1100.8810   -56.2690     8.9900     6.5590     4.7380  1156.5880     9.5550   166.9620     0.0120     0.3070     2.4210
 1968.0000  1100.9871   -56.2920     8.8870     6.5670     4.7220  1156.7140     9.5520   168.0870     0.0210     0.3080     2.4270
 1968.5000  1101.0930   -56.3140     8.8110     6.4240     4.7070  1156.8409     9.5490   168.7720     0.0290     0.3090     2.4230
 1969.0000  1101.1990   -56.3370     8.8110     6.2930     4.6920  1156.9670     9.5460   171.0780     0.0380     0.3120     2.4150
 1969.5000  1101.3051   -56.3620     8.8110     6.1620     4.6760  1157.0930     9.5420   174.5280     0.0400     0.3160     2.4190
 1970.0000  1101.4120   -56.3740     8.0650     6.0320     4.6610  1157.2200     9.5390   173.2930     0.0420     0.3190     2.4160
 1970.5000  1101.5179   -56.3660     7.7450     5.9850     4.6450  1157.3459     9.5240   170.9170     0.0450     0.3130     2.4120
 1971.0000  1101.6240   -56.3610     8.0110     6.0370     4.6300  1157.4720     9.5110   166.4920     0.0480     0.3150     2.3990
 1971.5000  1101.7300   -56.3550     8.6230     6.1010     4.6240  1157.5990     9.4970   164.0020     0.0490     0.3140     2.3780
 1972.0000  1101.8361   -56.3490     8.9750     6.1640     4.6240  1157.7250     9.4840   163.8170     0.0510     0.3130     2.3560
 1972.5000  1101.9430   -56.3430     8.9370     6.2270     4.6240  1157.8521     9.4710   165.9330     0.0130     0.3190     2.3510
 1973.0000  1102.0490   -56.3380     8.9000     6.2910     4.6240  1157.9780     9.4570   165.1710     0.0080     0.3200     2.3660
 1973.5000  1102.1550   -56.3320     8.8630     6.3540     4.6240  1158.1040     9.4440   165.0490     0.0090     0.3200     2.3800
 1974.0000  1102.2610   -56.3260     8.8110     6.4420     4.6240  1158.2310     9.4310   164.6380     0.0210     0.3190     2.3760
 1974.5000  1102.3669   -56.3200     8.8360     6.4270     4.6240  1158.3571     9.4170   164.3530     0.0380     0.3200     2.3660
 1975.0000  1102.4730   -56.3140     8.8770     6.4030     4.6240  1158.4840     9.4040   162.8520     0.0410     0.3200     2.3720
 1975.5000  1102.5800   -56.3080     8.9170     6.3790     4.6240  1158.6100     9.3910   161.4670     0.0430     0.3200     2.3890
 1976.0000  1102.6860   -56.3030     8.9750     6.3550     4.6240  1158.7360     9.3810   159.7480     0.0470     0.3200     2.3890
 1976.5000  1102.7920   -56.2970     8.8550     6.3310     4.6240  1158.8630     9.3930   160.4050     0.0310     0.3230     2.3760
 1977.0000  1102.8979   -56.2910     8.6560     6.3070     4.6240  1158.9890     9.4030   161.3860     0.0000     0.3250     2.3730
 1977.5000  1103.0040   -56.2850     8.3370     6.2830     4.6240  1159.1150     9.4140   162.6460     0.0020     0.3280     2.3750
 1978.0000  1103.1110   -56.2790     8.4110     6.2580     4.6240  1159.2419     9.4240   164.1920     0.0000     0.3270     2.3670
 1978.5000  1103.2170   -56.2740     8.6060     6.2340     4.6240  1159.3680     9.4350   165.6980    -0.0150     0.3250     2.3760
 1979.0000  1103.3230   -56.2680     8.6500     6.2090     4.6240  1159.4950     9.4450   167.4810    -0.0110     0.3230     2.3880
 1979.5000  1103.4290   -56.2620     8.6500     6.1980     4.6240  1159.6210     9.4560   168.7690    -0.0110     0.3180     2.3920
 1980.0000  1103.5350   -56.2560     8.6500     6.1860     4.6240  1159.7469     9.4600   170.3180    -0.0090     0.3120     2.3850
 1980.5000  1103.6410   -56.2500     8.5420     6.1740     4.6240  1159.8740     9.4600   171.7980    -0.0080     0.3080     2.3800
 1981.0000  1103.7480   -56.2450     8.3370     6.1620     4.6240  1160.0000     9.4600   173.2990    -0.0060     0.3080     2.3760
 1981.5000  1103.8540   -56.2390     8.5230     6.1500     4.6240  1160.1270     9.4600   174.7670    -0.0050     0.3080     2.3980
 1982.0000  1103.9600   -56.2330     8.8110     6.1380     4.6240  1160.2531     9.4600   175.6450     0.0050     0.3070     2.4120
 1982.5000  1104.0660   -56.2270     8.7200     6.1260     4.6240  1160.3790     9.4600   176.5490     0.0150     0.3090     2.4210
 1983.0000  1104.1720   -56.2210     8.5510     6.1150     4.6240  1160.5060     9.4600   177.1700     0.0190     0.3130     2.4290
 1983.5000  1104.2791   -56.2160     8.3630     6.1030     4.6240  1160.6320     9.4580   177.1180     0.0170     0.3180     2.4300
 1984.0000  1104.3850   -56.2100     8.4190     6.0910     4.6240  1160.7590     9.4550   175.8680     0.0150     0.3230     2.4220
 1984.5000  1104.4910   -56.2040     8.5300     6.0790     4.6240  1160.8850     9.4530   174.5410     0.0140     0.3210     2.4150
 1985.0000  1104.5970   -56.1980     8.6500     6.0670     4.6240  1161.0110     9.4500   173.7040     0.0110     0.3230     2.4070
 1985.5000  1104.7030   -56.1920     8.6790     6.0550     4.6240  1161.1379     9.4470   173.2670     0.0090     0.3240     2.4010
 1986.0000  1104.8101   -56.1860     8.7090     6.0430     4.6240  1161.2640     9.4450   172.7980     0.0050     0.3240     2.4190
 1986.5000  1104.9160   -56.1810     8.7400     6.0310     4.6240  1161.3900     9.4420   172.3460     0.0070     0.3210     2.4490
 1987.0000  1105.0220   -56.1750     8.7710     6.0200     4.6240  1161.5170     9.4390   171.8590     0.0170     0.3200     2.4400
 1987.5000  1105.1281   -56.1690     8.8110     6.0080     4.6240  1161.6429     9.4370   171.0640     0.0260     0.3180     2.4260
 1988.0000  1105.2340   -56.1630     8.6420     5.9960     4.6240  1161.7700     9.4340   169.3400     0.0230     0.3170     2.4180
 1988.5000  1105.3400   -56.1570     8.4010     5.9840     4.6140  1161.8960     9.4320   169.7350     0.0190     0.3190     2.4150
 1989.0000  1105.4470   -56.1520     8.0360     5.9720     4.6020  1162.0220     9.4290   170.4180     0.0140     0.3210     2.4130
 1989.5000  1105.5530   -56.1460     8.2220     5.9600     4.5910  1162.1490     9.4260   170.8430     0.0100     0.3210     2.4010
 1990.0000  1105.6591   -56.1400     8.6500     5.9480     4.5790  1162.2750     9.4240   170.7910     0.0060     0.3160     2.3910
 1990.5000  1105.7650   -56.1340     8.8110     5.9370     4.5680  1162.4020     9.4210   170.8290     0.0020     0.3160     2.3920
 1991.0000  1105.8710   -56.1280     8.8110     5.9240     4.5560  1162.5280     9.4180   171.3840    -0.0030     0.3160     2.3810
 1991.5000  1105.9780   -56.1230     8.8110     5.9140     4.5440  1162.6541     9.4160   171.9400    -0.0070     0.3150     2.3720
 1992.0000  1106.0840   -56.1170     8.8110     5.9010     4.5330  1162.7810     9.4130   172.3910    -0.0110     0.3190     2.3790
 1992.5000  1106.1899   -56.1110     8.7000     5.8890     4.5210  1162.9070     9.4100   172.4050    -0.0150     0.3220     2.3870
 1993.0000  1106.2960   -56.1050     8.4580     5.8750     4.5100  1163.0330     9.4070   172.3810    -0.0170     0.3220     2.3960
 1993.5000  1106.4020   -56.0990     8.2170     5.7950     4.4980  1163.1600     9.4040   172.6730    -0.0170     0.3200     2.4040
 1994.0000  1106.5090   -56.0930     8.0470     5.6790     4.4860  1163.2860     9.4020   173.6310    -0.0140     0.3150     2.4100
 1994.5000  1106.6150   -56.0880     8.0940     5.7450     4.4750  1163.4130     9.3990   173.4550    -0.0090     0.3150     2.4070
 1995.0000  1106.7209   -56.0820     8.1400     5.8120     4.4630  1163.5389     9.3960   171.6160    -0.0050     0.3170     2.4030
 1995.5000  1106.8270   -56.0760     8.1850     5.8750     4.4570  1163.6650     9.3930   170.9180    -0.0010     0.3170     2.3970
 1996.0000  1106.9330   -56.0700     8.1530     5.7510     4.4570  1163.7920     9.3910   171.5210     0.0040     0.3160     2.4080
