~VERSION INFORMATION
 VERS.                2.0:   CWLS LOG ASCII STANDARD - VERSION 2.0
 WRAP.                 NO:   ONE LINE PER DEPTH STEP
~WELL INFORMATION
#MNEM.UNIT      DATA TYPE    INFORMATION
#----------   ------------   ------------------------------
 STRT.F          620.0000:   START DEPTH
 STOP.F         3209.0000:   STOP DEPTH
 STEP.F            0.5000:   STEP LENGTH
 NULL.          -999.2500:   NO VALUE
 COMP. FENIX & SCISSON - US NAVY:   COMPANY
 WELL.   FENIX "A" #23-33:   WELL
 FLD .             NPR #3:   FIELD
 LOC .      S33 T39N R78W:   LOCATION
 CNTY.            NATRONA:   COUNTY
 STAT.            WYOMING:   STATE
 CTRY. UNITED STATES OF AMERICA:   COUNTRY
 SRVC.              WELEX:   SERVICE COMPANY
 DATE.        26-MAR-1977:   LOGDATE
 API .     49025103250000:   API NUMBER
~CURVE INFORMATION
#MNEM.UNIT       API CODE    CURVE DESCRIPTION
#----------   ------------   ------------------------------
 DEPT.F                  :   
 GRD .GAPI   45 310 01 00:   GAMMA RAY FROM DENSITY LOG
 CALD.IN     45 280 60 00:   CALIPER FROM DENSITY LOG
 CORR.G/C3   45 356 01 00:   DENSITY CORRECTION
 RHOB.G/C3   45 350 01 00:   BULK DENSITY
 SPR .MV     07 010 01 00:   SPONTANEOUS POTENTIAL
 ILD .OHMM   07 120 46 00:   DEEP INDUCTION RESISTIVITY
 ILM .OHMM   07 120 44 00:   INDUCTION LOG MEDIUM RESISTIVITY
 SGRD.OHMM   07 220 05 00:   SHALLOW SHORT GUARD RESISTIVITY
~PARAMETER INFORMATION
#MNEM.UNIT          VALUE    DESCRIPTION
#----------   ------------   ------------------------------
 EKB .F         5183.0000:   Kelly bushing
 EGL .F         5172.0000:   Ground level
 TD  .F         3213.0000:   Total depth
 CLNT.            A2DTECH:   Client Code
 SL  . 900' FWL & 1650' FNL:   Surface Location
 PD  .                 GL:   Permanent Datum
 EPD .F              5172:   Elevation Permanent Datum
 LMF .                 KB:   Log Measured From
 DMF .                 KB:   Drilling Measured From
 DAPD.F                11:   Feet Above Permanent Datum
 DATE.        26-MAR-1977:   Date Logged [DD-MMM-YYYY]
 DD  .F              3210:   Depth driller
 DL  .F              3213:   Depth logger
 BLI .F              3211:   Bottom log interval
 TLI .F               625:   Top log interval
 CS1 .IN            8.625:   Casing size
 CBD1.      8.625" @ 633':   Casing driller 1
 CBL1.F               635:   Casing logger 1
 BS1 .IN            7.875:   Bit size
 BSD1.F              3210:   Depth drilled with bit1
 DFT .            KCL MUD:   Type fluid in hole
 DFD .                9.5:   Density
 DFV .                 34:   Viscosity
 DFPH.                8.5:   pH
 DFL .                 14:   Fluid loss
 MSS .           FLOWLINE:   Source of sample
 RMS .OHMM           0.34:   Rm
 MST .F                86:   Rm Meas. temp.
 RMF .OHMM           0.25:   Rmf
 MFST.F                86:   Rmf Meas. temp.
 MFSS.            FANN KL:   Source Rmf.
 RMC .OHMM           0.55:   Rmc
 MCST.F                86:   Rmc Meas. temp.
 MCSS.            FANN KL:   Source Rmc.
 RMB .OHMM           0.31:   Rm. at BHT
 BHT .F                92:   BHT.
 TCS .HRS             2.5:   Time Circ. stopped
 MRT .F                92:   Maximum recorded temp.
 LUN .               8611:   Logging unit number
 LUL .             CASPER:   Logging unit location
 ENGI.            C. DOAK:   Recorded By
 WITN.            K. JAPP:   Witnessed by
 ORIG.           5" PRINT:   Origin of data
 UWI .     49025103250000:   Unique Well ID
 DICO. A2D TECHNOLOGIES, INC.:   Digitizing Company
~OTHER INFORMATION
~A   DEPT       GRD        CALD      CORR        RHOB      SPR        ILD        ILM       SGRD   
# ...
 1308.5000    72.8500    10.0560     0.0285     2.5002   -37.8213     7.5132     8.1813     9.7480
 1309.0000    71.5207    10.0572     0.0286     2.5018   -37.9217     7.5610     8.2428     9.7521
 1309.5000    70.6548    10.0583     0.0303     2.4957   -38.0678     7.6089     8.3047     9.7561
 1310.0000    70.7005    10.0595     0.0304     2.4831   -38.1897     7.6567     8.3090     9.7601
 1310.5000    71.0141    10.0606     0.0306     2.4824   -38.0227     7.7046     8.3716     9.7649
 1311.0000    71.0309    10.0618     0.0308     2.4795   -37.8593     7.7235     8.3774     9.7689
 1311.5000    70.6026    10.0630     0.0294     2.4743   -37.8446     7.7816     8.3237     9.7728
 1312.0000    70.3227    10.0493     0.0296     2.4698   -37.6813     7.8945     8.2717     9.8443
 1312.5000    70.0367    10.0356     0.0282     2.4676   -37.6665     7.9539     8.2200     9.9162
 1313.0000    69.8201    10.0368     0.0269     2.4647   -37.5032     7.9601     8.2262     9.9203
 1313.5000    69.6270    10.0382     0.0271     2.4677   -37.4885     8.0189     8.1747     9.9928
 1314.0000    69.3471    10.0243     0.0273     2.4685   -37.4738     8.0794     8.1798     9.9968
 1314.5000    69.0672    10.0255     0.0274     2.4663   -37.6077     8.1413     8.1848    10.0009
 1315.0000    69.0882    10.0269     0.0276     2.4687   -37.5929     8.1462     8.1899    10.0049
 1315.5000    69.1050    10.0280     0.0277     2.4717   -37.5780     8.1512     8.1950    10.0090
 1316.0000    69.4185    10.0440     0.0264     2.4703   -37.5631     8.0989     8.2010    10.0822
 1316.5000    69.4406    10.0452     0.0250     2.4628   -37.5483     8.0494     8.2626    10.0863
 1317.0000    69.7493    10.0760     0.0222     2.4591   -37.6825     8.0543     8.2676    10.0212
 1317.5000    70.6046    10.0772     0.0209     2.4562   -37.6678     8.0588     8.3873    10.0263
 1318.0000    70.6231    10.1080     0.0135     2.4562   -37.9465     8.0638     8.5086     9.9605
 1318.5000    70.6383    10.1092     0.0106     2.4570   -38.0841     8.1249     8.6913     9.9650
 1319.0000    70.8019    10.1104     0.0108     2.4556   -38.0657     8.1861     8.7566     9.9003
 1319.5000    70.9655    10.1116     0.0125     2.4503   -38.0509     8.2476     8.9446     9.9053
 1320.0000    70.9808    10.1129     0.0142     2.4497   -38.3370     8.2528     9.0119     9.8404
 1320.5000    70.9960    10.1141     0.0159     2.4655   -38.0238     8.2579     9.1423     9.8454
 1321.0000    71.0112    10.1195     0.0175     2.4776   -38.0094     8.3202     9.2110     9.8494
 1321.5000    71.1748    10.1313     0.0207     2.4867   -38.1434     8.3253     9.2802     9.8534
 1322.0000    71.1901    10.1323     0.0269     2.4942   -38.2774     8.3315     9.2859     9.8574
 1322.5000    71.3539    10.1336     0.0301     2.4973   -38.2591     8.3366     9.2917     9.8614
 1323.0000    71.2205    10.1347     0.0317     2.4943   -38.0959     8.2831     9.2986     9.9335
 1323.5000    71.2396    10.1211     0.0304     2.4869   -38.0813     8.2312     9.3684     9.9376
 1324.0000    71.2548    10.1223     0.0305     2.4839   -38.2189     8.1247     9.4388     9.9425
 1324.5000    71.4184    10.1237     0.0277     2.4840   -38.2006     8.0184     9.5098     9.8774
 1325.0000    72.0271    10.1248     0.0294     2.4840   -38.1860     7.8050     9.4489     9.8824
 1325.5000    72.3391    10.1258     0.0311     2.4849   -38.3236     7.6488     9.3255     9.7185
 1326.0000    72.6511    10.1271     0.0327     2.4872   -38.3054     7.4464     9.2477     9.5226
 1326.5000    72.6663    10.1135     0.0329     2.4902   -38.2907     7.4308     9.1475     9.3267
 1327.0000    72.3848    10.0995     0.0315     2.4933   -38.4250     7.3029     9.0280     9.1632
 1327.5000    72.1033    10.1009     0.0317     2.4963   -38.4101     7.2571     8.9099     8.9150
 1328.0000    72.1187    10.1021     0.0303     2.4904   -38.3952     7.2117     8.8543     8.8639
 1328.5000    72.1343    10.0736     0.0260     2.4874   -38.5319     7.1154     8.7240     8.8076
 1329.0000    72.4496    10.0748     0.0202     2.4845   -38.3650     7.0727     8.6841     8.8740
 1329.5000    72.7615    10.0760     0.0173     2.4770   -38.4993     7.0772     8.6298     8.9398
 1330.0000    73.6670    10.0922     0.0190     2.4824   -38.7816     7.0816     8.6364     9.0060
 1330.5000    73.9751    10.1082     0.0206     2.4914   -38.7670     7.0868     8.6417     9.1354
 1331.0000    73.1040    10.1094     0.0208     2.4930   -38.9009     7.1563     8.6469     9.2020
 1331.5000    71.9323    10.1402     0.0210     2.4938   -39.0349     7.1933     8.6522     9.0198
 1332.0000    70.7606    10.1414     0.0227     2.4984   -39.1689     7.2481     8.5981     8.7794
 1332.5000    70.1823    10.1425     0.0243     2.4999   -39.1506     7.3027     8.5444     8.6628
 1333.0000    70.6427    10.1437     0.0230     2.5000   -39.1360     7.3072     8.4897     8.7281
 1333.5000    71.3999    10.1448     0.0232     2.5000   -39.2736     7.3113     8.3800     8.7928
 1334.0000    72.0089    10.1460     0.0218     2.5001   -39.2554     7.3161     8.2706     8.9807
 1334.5000    71.8791    10.1472     0.0220     2.5031   -39.3930     7.3206     8.2187     9.0473
 1335.0000    71.4454    10.1483     0.0221     2.5062   -39.3747     7.3250     8.1674     9.1145
 1335.5000    71.1639    10.1347     0.0223     2.5085   -39.3601     7.2792     8.0894     9.1192
 1336.0000    70.8824    10.1210     0.0225     2.5093   -39.3455     7.2336     8.0104     9.1247
 1336.5000    70.3080    10.1223     0.0257     2.5094   -39.3309     7.1883     8.0154     9.1294
 1337.0000    70.1711    10.1237     0.0258     2.5079   -39.3162     7.1432     8.0204     9.1340
 1337.5000    70.3385    10.1246     0.0260     2.5087   -39.1530     7.0508     8.0817     9.1386
 1338.0000    70.9472    10.1260     0.0292     2.5103   -39.1382     6.9574     8.0866     9.0183
 1338.5000    71.7043    10.1270     0.0278     2.5096   -39.1233     6.9139     8.0915     9.0229
 1339.0000    72.4614    10.1282     0.0235     2.5067   -39.2578     6.8233     8.1523     8.9041
 1339.5000    72.6254    10.1294     0.0191     2.5015   -39.3881     6.7806     8.2136     8.7858
 1340.0000    72.3473    10.1157     0.0178     2.4947   -39.5233     6.5980     8.2753     8.5528
 1340.5000    72.0658    10.1169     0.0210     2.4947   -39.5369     6.6117     8.2804     8.4401
 1341.0000    71.9288    10.1183     0.0227     2.5016   -39.5518     6.6714     8.3426     8.5615
 1341.5000    71.6473    10.1193     0.0243     2.5077   -39.5666     6.6853     8.4053     8.6849
 1342.0000    71.6664    10.1055     0.0245     2.5108   -39.5814     6.7455     8.4685     8.6890
 1342.5000    71.3849    10.1069     0.0247     2.5131   -39.5962     6.7598     8.5321     8.6935
 1343.0000    71.1959    10.1081     0.0233     2.5124   -39.6111     6.8208     8.5373     8.8193
 1343.5000    70.9822    10.1093     0.0219     2.5027   -39.6259     6.8824     8.5426     9.1325
 1344.0000    70.8368    10.0956     0.0191     2.4922   -39.6408     6.9927     8.5479     9.4569
 1344.5000    70.7774    10.0819     0.0178     2.4900   -39.6556     7.0073     8.5542     9.5915
 1345.0000    70.7192    10.0831     0.0179     2.4870   -39.6704     7.0706     8.5594     9.2084
 1345.5000    71.0350    10.0843     0.0196     2.4823   -39.6852     7.1839     8.5646     9.3419
 1346.0000    71.4953    10.0771     0.0183     2.4781   -39.7001     7.1989     8.5698     9.3466
 1346.5000    71.8073    10.0717     0.0184     2.4820   -39.7149     7.2639     8.5744     9.3514
 1347.0000    71.6742    10.0583     0.0201     2.4873   -39.7298     7.2790     8.5802     9.2920
 1347.5000    71.3927    10.0593     0.0203     2.4896   -39.7386     7.2942     8.5850     9.2328
 1348.0000    70.9590    10.0605     0.0220     2.4926   -39.7290     7.3094     8.5907     9.2377
 1348.5000    70.5329    10.0618     0.0221     2.4935   -39.7194     7.3246     8.5959     9.2423
