~VERSION INFORMATION
 VERS.                2.0:   CWLS LOG ASCII STANDARD - VERSION 2.0
 WRAP.                 NO:   ONE LINE PER DEPTH STEP
~WELL INFORMATION
#MNEM.UNIT      DATA TYPE    INFORMATION
#----------   ------------   ------------------------------
 STRT.F           10.0000:   START DEPTH
 STOP.F         3234.0000:   STOP DEPTH
 STEP.F            0.5000:   STEP LENGTH
 NULL.          -999.2500:   NO VALUE
 COMP. LAWRENCE ALLISON & ASSOSCIATES:   COMPANY
 WELL. 		  38-X-10:   WELL
 FLD .             NPR #3:   FIELD
 LOC .      S10 T38N R78W:   LOCATION
 CNTY.            NATRONA:   COUNTY
 STAT.            WYOMING:   STATE
 CTRY. UNITED STATES OF AMERICA:   COUNTRY
 SRVC.      DRESSER ATLAS:   SERVICE COMPANY
 DATE.        02-AUG-1986:   LOGDATE
 API .       490251120600:   API NUMBER
~CURVE INFORMATION
#MNEM.UNIT       API CODE    CURVE DESCRIPTION
#----------   ------------   ------------------------------
 DEPT.F                  :   
 GRR .GAPI   07 310 01 00:   GAMMA RAY FROM RESISTIVITY
 SPR .MV     07 010 01 00:   SPONTANEOUS POTENTIAL
 TENR.LBS    07 635 01 00:   TENSION FROM RESISTIVITY
 RILM.OHMM   07 120 44 00:   RESISTIVITY INDUCTION LOG MEDIUM
 CNC .DEC    42 890 03 00:   NEUTRON POROSITY SANDSTONE
 CALD.IN     45 280 60 00:   CALIPER FROM DENSITY LOG
 GRD .GAPI   45 310 01 00:   GAMMA RAY FROM DENSITY LOG
 RHOB.G/C3   45 350 01 00:   BULK DENSITY
 TEND.LBS    45 635 01 00:   TENSION FORM DENSITY LOG
 CORR.G/C3   45 356 01 00:   DENSITY CORRECTION
 RILD.OHMM   07 120 46 00:   RESISTIVITY INDUCTION LOG DEEP
 RFOC.OHMM   07 220 04 00:   RESISTIVITY FOCUSED
~PARAMETER INFORMATION
#MNEM.UNIT          VALUE    DESCRIPTION
#----------   ------------   ------------------------------
 EKB .F         5224.0000:   Kelly bushing
 EGL .F         5212.0000:   Ground level
 EDF .F            0.0000:   Drilling floor
 TD  .F         3231.0000:   Total depth
 CLNT.            A2DTECH:   Client Code
 SL  . 296' FSL & 1435' FWL:   Surface Location
 PD  .                 GL:   Permanent Datum
 EPD .F              5212:   Elevation Permanent Datum
 LMF .                 KB:   Log Measured From
 DMF .                 KB:   Drilling Measured From
 DAPD.F                12:   Feet Above Permanent Datum
 DATE.        02-AUG-1986:   Date Logged [DD-MMM-YYYY]
 DD  .F              3230:   Depth driller
 DL  .F              3231:   Depth logger
 BLI .F              3229:   Bottom log interval
 TLI .F                11:   Top log interval
 CS1 .IN            8.625:   Casing size
 CBD1.      8.625" @ 626':   Casing driller 1
 CBL1.F               626:   Casing logger 1
 BS1 .IN            7.875:   Bit size
 BSD1.F              3230:   Depth drilled with bit1
 DFT .            KCL-GEL:   Type fluid in hole
 DFD .                  9:   Density
 DFV .                 36:   Viscosity
 DFPH.               10.5:   pH
 DFL .                 12:   Fluid loss
 MSS .           FLOWLINE:   Source of sample
 RMS .OHMM          0.263:   Rm
 MST .F               100:   Rm Meas. temp.
 RMF .OHMM          0.197:   Rmf
 MFST.F               100:   Rmf Meas. temp.
 MFSS.               MEAS:   Source Rmf.
 RMC .OHMM          0.329:   Rmc
 MCST.F               100:   Rmc Meas. temp.
 MCSS.               CALC:   Source Rmc.
 RMB .OHMM          0.193:   Rm. at BHT
 BHT .F               136:   BHT.
 TCS .HRS               5:   Time Circ. stopped
 MRT .F               136:   Maximum recorded temp.
 LUN .            HL-6274:   Logging unit number
 LUL .           GILLETTE:   Logging unit location
 ENGI.            PANASUK:   Recorded By
 WITN.             STRONG:   Witnessed by
 ORIG.        2" 5" PRINT:   Origin of data
 UWI .       490251120600:   Unique Well ID
 DICO. A2D TECHNOLOGIES, INC.:   Digitizing Company
~OTHER INFORMATION
~A   DEPT       GRR       SPR       TENR       RILM        CNC       CALD        GRD       RHOB       TEND       CORR       RILD       RFOC   
# ...
 3118.0000    72.8709   -25.3030   -37.5945     8.1794     0.2401     9.1400    71.3846     2.3185   -24.0964    -0.0076     8.4329     8.8383
 3118.5000    72.5474   -25.4545   -29.8034     8.4652     0.2339     9.1395    70.7778     2.3457   -16.5663     0.0060     8.4914     8.9554
 3119.0000    73.7392   -25.7576     0.7171     8.5243     0.2369     9.1389    72.2832     2.3487   -31.6265     0.0196     8.6100     8.9539
 3119.5000    74.6278   -26.0686     8.4992     8.5243     0.2424     9.1383    73.7893     2.3389   -39.1566     0.0181     8.6093     8.9527
 3120.0000    73.3902   -26.2121   -13.9758     8.4065     0.2451     9.1546    73.7855     2.3290   -39.1566     0.0136     8.5489     8.8893
 3120.5000    70.0365   -25.9091   -36.4599     8.2327     0.2454     9.1724    71.6710     2.3245   -39.1257     0.0317     8.3714     8.8264
 3121.0000    67.2888   -25.3797   -36.2330     8.0066     0.2354     9.1818    67.1432     2.3268   -16.5663     0.0393     8.1976     8.7639
 3121.5000    65.1485   -24.8485   -28.3964     8.2327     0.2302     9.1812    64.4253     2.3330    -9.0361     0.0272     8.1401     8.7624
 3122.0000    67.2479   -24.3939   -20.6142     8.4652     0.2296     9.1805    66.2318     2.3449     6.0241     0.0000     8.2562     8.7612
 3122.5000    69.3487   -23.9394     2.2965     8.5243     0.2281     9.1800    67.7379     2.3548    -9.0361    -0.0045     8.5459     8.8832
 3123.0000    67.8081   -23.4729     2.5144     8.5839     0.2244     9.1340    66.8294     2.3631   -24.0964     0.0272     8.7260     8.8203
 3123.5000    64.1513   -22.8788     2.7323     8.5839     0.2269     9.1032    65.3182     2.3699   -31.6265     0.0378     8.7254     8.7575
 3124.0000    61.4036   -22.4242   -12.1785     8.4652     0.2347     9.0709    61.6310     2.3752   -24.0964     0.0650     8.6642     8.7563
 3124.5000    61.0853   -22.1212   -34.6535     8.3472     0.2511     8.9808    60.7868     2.3555    -9.0361     0.1239     8.4253     8.8164
 3125.0000    62.2719   -21.9697   -49.5642     8.1189     0.2695     8.8592    61.9906     2.3215     6.0241     0.1722     8.0796     8.9390
 3125.5000    65.2818   -21.9697   -26.5990     8.2327     0.2702     8.7074    64.4010     2.3033    -1.7838     0.1843     8.2017     9.3196
 3126.0000    69.3346   -22.2727    -3.6884     8.5243     0.2615     8.6463    67.4147     2.3147   -16.5663     0.0816     8.6617     9.7164
 3126.5000    71.3015   -22.4242     4.0938     8.7650     0.2577     8.6306    70.1811     2.3350   -24.0964     0.0710     8.8442     9.9204
 3127.0000    72.4882   -22.7273     4.3116     8.9500     0.2583     8.6299    71.0289     2.3631   -24.0964     0.0755     9.0937     9.9191
 3127.5000    73.9829   -23.0303    -2.9804     8.7650     0.2592     8.6142    71.9303     2.3646   -16.5663     0.0876     9.5479     9.9177
 3128.0000    75.7807   -23.3333   -25.5098     8.3404     0.2592     8.6288    75.2456     2.3578   -16.5663     0.1017    10.2367     9.9858
 3128.5000    77.2754   -23.7879   -32.8563     7.7327     0.2586     8.6130    76.1478     2.3540   -16.5663     0.1450     9.9379     9.4425
 3129.0000    74.1450   -24.0909   -25.0197     7.4682     0.2563     8.7090    73.6425     2.3510    -9.0361     0.1888     9.2188     9.0544
 3129.5000    69.9567   -24.3939    -9.6732     7.6258     0.2579     9.2622    67.6948     2.3495    -9.0361     0.1964     8.9023     8.8042
 3130.0000    65.9969   -24.6970     5.6732     7.7867     0.2619     9.3827    65.2786     2.3638   -16.5663     0.1737     8.5370     8.6208
 3130.5000    64.4665   -24.8485    -1.6732     7.9511     0.2597     9.3821    64.3708     2.3578   -17.0920     0.0747     8.3017     8.4412
 3131.0000    65.0470   -24.8485   -24.1482     8.0066     0.2555     9.3815    64.6697     2.3132   -46.6867     0.0030     8.1862     8.2077
 3131.5000    65.3303   -24.8485   -39.0045     7.6728     0.2512     9.3809    64.9856     2.3270   -54.2169    -0.0091     8.0116     8.0930
 3132.0000    64.6871   -24.8485   -53.9153     7.4682     0.2500     9.3802    65.2672     2.3381   -31.6265    -0.0030     7.8496     8.0356
 3132.5000    63.4655   -25.0000   -46.1331     7.4164     0.2482     9.3949    63.7553     2.3427   -24.0964    -0.0272     7.7404     7.8683
 3133.0000    64.3542   -25.0000   -23.2224     7.4164     0.2436     9.4095    63.1491     2.3472   -24.0964    -0.0378     7.6861     7.8672
 3133.5000    66.1520   -25.0000   -22.9955     7.4682     0.2394     9.4088    64.3528     2.3548   -31.6265    -0.0317     7.6322     7.8661
 3134.0000    67.6518   -25.0000   -30.2966     7.5729     0.2345     9.3778    65.8700     2.3678   -46.6867    -0.0196     7.7388     8.4328
 3134.5000    68.2375   -25.0000   -30.0787     7.6799     0.2269     9.3621    66.4587     2.3835   -24.0964    -0.0091     7.8470     8.9777
 3135.0000    66.3938   -25.0000     0.3964     7.7958     0.2221     9.3464    65.2485     2.3964    13.5542    -0.0045     7.9013     9.5578
 3135.5000    65.7673   -25.0000    30.8714     7.8959     0.2178     9.3155    64.9446     2.4085    36.1446    -0.0076     7.9561    10.2466
 3136.0000    68.4690   -25.0000    46.2179     7.8959     0.2127     9.2847    65.5444     2.4206    21.0843    -0.0211     7.9554    10.6196
 3136.5000    73.9032   -25.0000    38.8715     7.8959     0.2101     9.2537    68.2904     2.4282    -1.5060    -0.0272     7.8996    10.0308
 3137.0000    82.0646   -25.1515    24.0152     7.7867     0.2128     9.2229    76.6993     2.4402   -16.5663    -0.0196     7.7897     9.4860
 3137.5000    86.5896   -25.0000     9.0500     7.5729     0.2261     9.1769    84.5396     2.4470   -24.0964    -0.0015     7.6279     9.0329
 3138.0000    88.6904   -25.0000   -13.3706     7.3104     0.2386     9.1159    88.1573     2.4448   -15.6540     0.0182     7.4094     8.5417
 3138.5000    86.4896   -25.0000   -14.4097     7.2127     0.2480     9.0548    85.4388     2.4175    13.5542     0.0121     7.1629     7.9100
 3139.0000    81.3718   -25.0000     9.7579     7.2631     0.2519     8.9935    80.9054     2.3744    36.1446    -0.0091     7.1127     7.5322
 3139.5000    78.3211   -25.0000    40.2421     7.3649     0.2552     8.9173    78.7958     2.3767    36.1446    -0.0109     7.2121     7.3753
 3140.0000    77.6997   -25.0000    40.5053     7.5729     0.2567     8.8562    79.6979     2.3805     6.0241    -0.0060     7.5197     7.5900
 3140.5000    79.7954   -24.8485    33.1588     7.8411     0.2555     8.7649    79.9974     2.3820   -24.0964     0.0045     7.9505     7.9055
 3141.0000    76.7447   -24.8485    10.6294     8.0625     0.2552     8.6734    73.9606     2.3449   -31.6265     0.0574     8.2389     8.1849
 3141.5000    70.6599   -24.6970   -19.3646     8.3481     0.2622     8.5820    68.8296     2.3177   -31.6265     0.0816     8.4054     8.5334
 3142.0000    67.2120   -24.5455   -26.7020     8.5839     0.2719     8.5209    65.5077     2.3026   -35.3761     0.0589     8.7029     8.7736
 3142.5000    66.0774   -24.3939   -41.6127     8.7042     0.2797     8.4599    65.2039     2.3094   -46.6867     0.0106     8.9486     9.0205
 3143.0000    66.6630   -24.2424   -41.3404     8.7042     0.2816     8.3988    65.8043     2.3192   -62.9067     0.0030     8.6413     9.2159
 3143.5000    66.9456   -23.9253   -33.5583     8.5243     0.2759     8.3528    66.4041     2.3207   -69.2771     0.0091     8.4030     9.7366
 3144.0000    67.2232   -23.4848   -40.9591     8.3481     0.2643     8.3370    66.4012     2.3147   -46.6867     0.0166     8.3441    10.2222
 3144.5000    66.5967   -23.1818   -48.2602     8.5848     0.2564     8.3212    65.4926     2.3041   -31.6265     0.0181     8.8837    10.5103
 3145.0000    64.0610   -22.7273   -48.0333     8.9604     0.2531     8.3207    63.6798     2.2980   -24.0964     0.0121     9.3927     9.8694
 3145.5000    60.4902   -22.4242   -17.5038     9.2670     0.2525     8.3201    59.1520     2.2935   -24.0964     0.0091     9.5241    11.6655
