~VERSION INFORMATION
 VERS.                2.0:   CWLS LOG ASCII STANDARD - VERSION 2.0
 WRAP.                 NO:   ONE LINE PER DEPTH STEP
~WELL INFORMATION
#MNEM.UNIT      DATA TYPE    INFORMATION
#----------   ------------   ------------------------------
 STRT.F           50.0000:   START DEPTH
 STOP.F         3270.0000:   STOP DEPTH
 STEP.F            0.5000:   STEP LENGTH
 NULL.          -999.2500:   NO VALUE
 COMP.   LAWRENCE ALLISON:   COMPANY
 WELL. LAWRENCE NPR 3 "AX" #12-11:   WELL
 FLD .                NPR:   FIELD
 LOC .      S11 T38N R78W:   LOCATION
 CNTY.            NATRONA:   COUNTY
 STAT.            WYOMING:   STATE
 CTRY. UNITED STATES OF AMERICA:   COUNTRY
 SRVC.      DRESSER ATLAS:   SERVICE COMPANY
 DATE.        18-JUL-1985:   LOGDATE
 API .     49025110460000:   API NUMBER
~CURVE INFORMATION
#MNEM.UNIT       API CODE    CURVE DESCRIPTION
#----------   ------------   ------------------------------
 DEPT.F                  :   
 TEND.LBS    45 635 01 00:   TENSION FROM DENSITY LOG
 RHOB.G/C3   45 350 01 00:   BULK DENSITY
 CORR.G/C3   45 356 01 00:   DENSITY CORRECTION
 NPHI.DEC    42 890 03 00:   NEUTRON POROSITY SANDSTONE
 TENR.LBS    07 635 01 00:   TENSION
 GRR .GAPI   07 310 01 00:   GAMMA RAY FROM RESISTIVITY
 RFOC.OHMM   07 220 01 00:   RESISTIVITY FOCUSED LOG RES.
 RILD.OHMM   07 120 46 00:   INDUCTION LOG DEEP RESISTIVITY
 RILM.OHMM   07 120 44 00:   INDUCTION LOG MEDIUM RESISTIVITY
 SN  .OHMM   01 040 00 00:   SHORT NORMAL
 ILD .OHMM   07 120 46 00:   INDUCTION LOG DEEP RESISTIVITY
 TENS.LBS    60 635 01 00:   TENSION FROM SONIC LOG
 DT  .US/F   60 520 00 00:   DELTA TIME
 SPR .MV     07 010 01 00:   SPONTANEOUS POTENTIAL
~PARAMETER INFORMATION
#MNEM.UNIT          VALUE    DESCRIPTION
#----------   ------------   ------------------------------
 EKB .F         5152.0000:   Kelly bushing
 EGL .F         5140.0000:   Ground level
 EDF .F            0.0000:   Drilling floor
 TD  .F         3271.0000:   Total depth
 DATE.        18-JUL-1985:   Date logged
 CLNT.            A2DTECH:   Client Code
 SL  . 1050' FNL & 150' FWL:   Surface Location
 PD  .                 GL:   Permanent Datum
 EPD .F              5140:   Elevation Permanent Datum
 LMF .                 KB:   Log Measured From
 DMF .                 KB:   Drilling Measured From
 DAPD.F                12:   Feet Above Permanent Datum
 DD  .F              3271:   Depth driller
 DL  .F              3262:   Depth logger
 BLI .F              3259:   Bottom log interval
 CS1 .IN            8.625:   Casing size
 CBD1.      8.625" @ 560':   Casing driller 1
 CBL1.F               560:   Casing logger 1
 BS1 .IN            7.875:   Bit size
 BSD1.F              3271:   Depth drilled with bit1
 DFT .            GEL/KCL:   Type fluid in hole
 DFD .                8.8:   Density
 DFV .                 40:   Viscosity
 DFPH.                  8:   pH
 DFL .                  8:   Fluid loss
 MSS .           MUD/TANK:   Source of sample
 RMS .OHMM            .31:   Rm
 MST .F                82:   Rm Meas. temp.
 RMF .OHMM            .25:   Rmf
 MFST.F                82:   Rmf Meas. temp.
 RMC .OHMM            .39:   Rmc
 MCST.F                82:   Rmc Meas. temp.
 MFSS.               MEAS:   Source Rmf.
 MCSS.               CALC:   Source Rmc.
 RMB .OHMM           .198:   Rm. at BHT
 BHT .F               128:   BHT.
 TCS .HRS               3:   Time Circ. stopped
 MRT .F               128:   Maximum recorded temp.
 LUN .            HL-6274:   Logging unit number
 LUL .           GILLETTE:   Logging unit location
 ENGI.             RAUTIO:   Recorded By
 WITN.             STRONG:   Witnessed by
 ORIG.           5" PRINT:   Origin of data
 UWI .     49025110460000:   Unique Well ID
 DICO. A2D TECHNOLOGIES, INC.:   Digitizing Company
~OTHER INFORMATION
~A   DEPT     TEND       RHOB       CORR       NPHI       TENR        GRR       RFOC       RILD       RILM           SN        ILD     TENS         DT         SPR  
# ...
 3039.0000   -46.8810     2.4740     0.0090     0.2410    -0.9330   114.2150     4.9980     3.7180     3.9050  -999.2500  -999.2500   -25.8960    82.4060    64.9030
 3039.5000   -44.6310     2.4730     0.0100     0.2390    -1.3110   113.5450     4.8680     3.7350     3.9130  -999.2500  -999.2500   -25.8960    81.9780    64.6090
 3040.0000   -42.3810     2.4700     0.0000     0.2320    -1.6880   112.8780     4.7480     3.7520     3.9210  -999.2500  -999.2500   -25.8960    81.7940    64.0160
 3040.5000   -40.1310     2.4660    -0.0120     0.2250    -2.0650   111.4200     4.6870     3.7690     3.9300  -999.2500  -999.2500   -25.8960    81.8440    63.4190
 3041.0000   -37.8810     2.4620    -0.0070     0.2240    -2.4430   108.8060     4.7850     3.7860     3.9370  -999.2500  -999.2500   -25.8960    81.7970    62.8100
 3041.5000   -35.6320     2.4600    -0.0010     0.2220    -2.8200   105.9810     4.8730     3.8300     3.9370  -999.2500  -999.2500   -25.8960    81.4220    62.7060
 3042.0000   -33.3820     2.4600     0.0060     0.2220    -3.1980   105.9010     4.9530     3.8120     3.9370  -999.2500  -999.2500   -25.8960    81.0470    62.5800
 3042.5000   -31.1320     2.4660     0.0250     0.2230    -3.5750   111.3870     4.8340     3.7950     3.9370  -999.2500  -999.2500   -25.8960    80.9860    62.5520
 3043.0000   -28.8820     2.4660     0.0170     0.2240    -3.9530   115.3620     4.7020     3.7780     3.9370  -999.2500  -999.2500   -25.8960    81.3070    62.5050
 3043.5000   -26.6320     2.4650     0.0100     0.2240    -4.3300   118.3450     4.5690     3.7600     3.9360  -999.2500  -999.2500   -25.8960    81.8070    62.4530
 3044.0000   -30.1340     2.4700     0.0100     0.2190    -4.7070   118.9610     4.4770     3.7770     3.9480  -999.2500  -999.2500   -25.8960    82.3070    62.3880
 3044.5000   -35.3320     2.4770     0.0140     0.2180    -5.0850   116.5860     4.4770     3.8110     3.9690  -999.2500  -999.2500   -23.6720    82.8070    62.0210
 3045.0000   -40.5300     2.4820     0.0190     0.2280    -5.4620   114.2330     4.4770     3.8450     3.9900  -999.2500  -999.2500   -21.5580    83.3070    61.6580
 3045.5000   -45.7280     2.4870     0.0220     0.2370    -5.8400   111.8610     4.4770     3.8790     4.0100  -999.2500  -999.2500   -19.4430    83.0540    61.8770
 3046.0000   -50.9260     2.4940     0.0220     0.2400    -6.2170   109.5230     4.8550     3.9130     3.9650  -999.2500  -999.2500   -17.3290    82.6790    62.1880
 3046.5000   -55.9700     2.4950     0.0160     0.2360    -6.5940   109.2820     5.2330     3.9370     3.9370  -999.2500  -999.2500   -15.2140    82.3040    62.5020
 3047.0000   -55.9700     2.4900     0.0110     0.2320    -6.9720   113.4450     5.0410     3.9730     3.9730  -999.2500  -999.2500   -13.1000    81.9290    62.8160
 3047.5000   -55.9700     2.4820     0.0050     0.2300    -7.3490   117.2180     4.7660     3.9200     3.9260  -999.2500  -999.2500   -10.9850    81.8820    63.1290
 3048.0000   -55.9700     2.4720     0.0030     0.2360    -7.7270   117.9270     4.5180     3.8640     3.8880  -999.2500  -999.2500    -8.8710    82.1270    63.4430
 3048.5000   -55.9700     2.4640     0.0020     0.2390    -8.1040   115.2130     4.5330     3.8090     3.8500  -999.2500  -999.2500    -6.7560    82.3800    63.7560
 3049.0000   -55.9700     2.4610     0.0020     0.2380    -8.4810   113.0230     4.5600     3.7530     3.8120  -999.2500  -999.2500    -4.6420    82.1090    63.6600
 3049.5000   -55.9700     2.4590     0.0070     0.2400    -8.8590   112.1890     4.4930     3.6970     3.7750  -999.2500  -999.2500    -2.5270    81.8820    63.4750
 3050.0000   -55.9700     2.4580     0.0110     0.2430    -9.2360   113.2260     4.3580     3.6250     3.7260  -999.2500  -999.2500    -0.4120    81.8820    63.2930
 3050.5000   -55.9700     2.4570     0.0160     0.2430    -9.6140   112.1090     4.2370     3.6300     3.7310  -999.2500  -999.2500     1.7020    81.8820    63.3400
 3051.0000   -55.9700     2.4560     0.0160     0.2420    -9.9910   109.6600     4.2750     3.6370     3.7390  -999.2500  -999.2500     3.9840    81.8820    63.8960
 3051.5000   -55.9700     2.4560     0.0040     0.2410   -10.3680   107.2440     4.3510     3.6450     3.7470  -999.2500  -999.2500    -1.2090    81.8410    64.3820
 3052.0000   -55.9700     2.4580    -0.0080     0.2400   -10.7460   107.3420     4.4280     3.6530     3.7550  -999.2500  -999.2500    -5.9760    81.7160    64.2730
 3052.5000   -55.9700     2.4620    -0.0140     0.2360   -11.1230   107.6940     4.4360     3.6580     3.7600  -999.2500  -999.2500    -6.2550    81.7290    63.9980
 3053.0000   -55.9700     2.4660    -0.0070     0.2320   -11.5010   106.7920     4.3820     3.6420     3.7440  -999.2500  -999.2500    -6.6300    81.8130    63.7920
 3053.5000   -55.9700     2.4700     0.0100     0.2290   -11.8780   107.0920     4.3320     3.5880     3.6880  -999.2500  -999.2500    -7.0060    81.8970    63.9760
 3054.0000   -55.9700     2.4710     0.0250     0.2300   -12.2560   107.8680     4.2820     3.5340     3.6330  -999.2500  -999.2500    -7.3810    81.9820    64.1870
 3054.5000   -55.9700     2.4700     0.0200     0.2320   -12.6330   108.6770     4.3260     3.4800     3.5770  -999.2500  -999.2500    -7.7560    82.1340    64.3840
 3055.0000   -55.9700     2.4650     0.0170     0.2280   -13.0100   109.6420     4.3950     3.4300     3.5260  -999.2500  -999.2500    -8.1320    82.2890    64.4550
 3055.5000   -55.9700     2.4570     0.0120     0.2230   -13.3880   110.7200     4.3250     3.3840     3.4840  -999.2500  -999.2500    -8.5070    82.5850    64.5210
 3056.0000   -55.9700     2.4480     0.0080     0.2200   -13.7650   112.4310     4.1770     3.3150     3.4230  -999.2500  -999.2500    -8.8820    83.0880    64.5870
 3056.5000   -55.9700     2.4350    -0.0100     0.2280   -14.1430   114.9650     4.0280     3.2460     3.3620  -999.2500  -999.2500    -9.2580    83.5910    64.6530
 3057.0000   -55.9700     2.4280    -0.0100     0.2350   -14.5200   113.6550     3.9730     3.1770     3.3010  -999.2500  -999.2500    -9.6330    84.2800    64.7180
 3057.5000   -55.9700     2.4290    -0.0150     0.2420   -14.8970   111.3370     3.9730     3.1080     3.2400  -999.2500  -999.2500   -10.0080    84.9700    64.7730
 3058.0000   -55.9700     2.4260    -0.0140     0.2420   -15.2750   109.5160     3.9730     3.0440     3.1790  -999.2500  -999.2500   -10.3840    85.1460    64.9800
 3058.5000   -55.9700     2.4190    -0.0140     0.2410   -15.6520   108.9470     3.8900     3.0400     3.1580  -999.2500  -999.2500   -10.7590    85.4030    65.2110
 3059.0000   -55.9700     2.4220    -0.0140     0.2400   -14.0140   108.2490     3.7660     3.0220     3.1580  -999.2500  -999.2500   -11.1350    85.9060    65.4460
 3059.5000   -55.9700     2.4260    -0.0120     0.2520   -12.0630   107.1890     3.6340     3.0050     3.1580  -999.2500  -999.2500   -11.5100    85.8770    65.6800
 3060.0000   -55.9700     2.4310    -0.0090     0.2460   -10.1120   106.5330     3.6980     2.9880     3.1580  -999.2500  -999.2500   -11.8850    85.5770    65.9150
 3060.5000   -55.9700     2.4360     0.0050     0.2400    -8.1610   108.5520     3.7840     2.9620     3.1690  -999.2500  -999.2500   -12.2610    85.2510    66.1480
 3061.0000   -55.9700     2.4410     0.0130     0.2390    -6.2100   111.7200     3.8650     3.0020     3.2000  -999.2500  -999.2500   -12.6360    84.9260    66.3780
 3061.5000   -55.9700     2.4480     0.0230     0.2370    -4.2590   113.3140     3.7350     3.0540     3.2500  -999.2500  -999.2500   -13.0110    84.7330    66.5910
 3062.0000   -48.7750     2.4580     0.0100     0.2340    -2.3080   109.5410     3.6580     3.1290     3.2990  -999.2500  -999.2500   -13.3870    84.6610    66.6730
 3062.5000   -41.0450     2.4700     0.0010     0.2290    -0.3570   108.2500     3.7670     3.3080     3.4650  -999.2500  -999.2500   -13.7620    84.5890    66.3730
 3063.0000   -33.3140     2.4760     0.0020     0.2240     1.5940   109.5480     3.9340     3.4850     3.6520  -999.2500  -999.2500   -14.1370    83.8150    66.5370
