~VERSION INFORMATION
 VERS.                2.0:   CWLS LOG ASCII STANDARD - VERSION 2.0
 WRAP.                 NO:   ONE LINE PER DEPTH STEP
~WELL INFORMATION
#MNEM.UNIT      DATA TYPE    INFORMATION
#----------   ------------   ------------------------------
 STRT.F          150.0000:   START DEPTH
 STOP.F         2980.0000:   STOP DEPTH
 STEP.F            0.5000:   STEP LENGTH
 NULL.          -999.2500:   NO VALUE
 COMP. FENIX & SCISSION U.S. NAVY:   COMPANY
 WELL.   FENIX "A" #84-20:   WELL
 FLD .             NPR #3:   FIELD
 LOC .      S20 T39N R78W:   LOCATION
 CNTY.            NATRONA:   COUNTY
 STAT.            WYOMING:   STATE
 CTRY. UNITED STATES OF AMERICA:   COUNTRY
 SRVC.       SCHLUMBERGER:   SERVICE COMPANY
 DATE.        21-FEB-1977:   LOGDATE
 API .     49025103020000:   API NUMBER
~CURVE INFORMATION
#MNEM.UNIT       API CODE    CURVE DESCRIPTION
#----------   ------------   ------------------------------
 DEPT.F                  :   
 NPHI.DEC    42 890 03 00:   NEUTRON POROSITY SANDSTONE
 GRD .GAPI   45 310 01 00:   GAMMA RAY FROM DENSITY LOG
 CALD.IN     45 280 60 00:   CALIPER FROM DENSITY LOG
 RHOB.G/C3   45 350 01 00:   BULK DENSITY
 DCOR.G/C3   45 356 01 00:   DENSITY CORRECTION
 SPR .MV     07 010 01 00:   SPONTANEOUS POTENTIAL
 LLD .OHMM   11 220 10 00:   LATEROLOG DEEP
 LLS .OHMM   11 220 09 00:   LATEROLOG SHALLOW
 MSFL.OHMM   07 270 04 00:   MICRO SPHERICALLY FOCUSED RES.
~PARAMETER INFORMATION
#MNEM.UNIT          VALUE    DESCRIPTION
#----------   ------------   ------------------------------
 EKB .F         5006.0000:   Kelly bushing
 EGL .F         4996.0000:   Ground level
 EDF .F            0.0000:   Drilling floor
 TD  .F         2973.0000:   Total depth
 DATE.        21-FEB-1977:   Date logged
 CLNT.            A2DTECH:   Client Code
 SL  . 330' FEL & 2310' FNL:   Surface Location
 PD  .                 GL:   Permanent Datum
 EPD .F              4996:   Elevation Permanent Datum
 LMF .                 KB:   Log Measured From
 DMF .                 KB:   Drilling Measured From
 DAPD.F                10:   Feet Above Permanent Datum
 DD  .F              2973:   Depth driller
 DL  .F              2971:   Depth logger
 BLI .F              2970:   Bottom log interval
 TLI .F               164:   Top log interval
 CS1 .IN            8.625:   Casing size
 CBD1.      8.625" @ 167':   Casing driller 1
 CBL1.F               164:   Casing logger 1
 BS1 .IN            7.875:   Bit size
 BSD1.F              2973:   Depth drilled with bit1
 DFT .            KCL MUD:   Type fluid in hole
 DFD .                9.5:   Density
 DFV .                 35:   Viscosity
 DFPH.                6.5:   pH
 DFL .                 11:   Fluid loss
 MSS .              CIRC.:   Source of sample
 RMS .OHMM           0.27:   Rm
 MST .F                72:   Rm Meas. temp.
 RMF .OHMM           0.19:   Rmf
 MFST.F                72:   Rmf Meas. temp.
 RMC .OHMM           0.35:   Rmc
 MCST.F                72:   Rmc Meas. temp.
 MFSS.               MEAS:   Source Rmf.
 MCSS.               CALC:   Source Rmc.
 RMB .OHMM           0.18:   Rm. at BHT
 BHT .F               110:   BHT.
 TCS .HRS            0300:   Time Circ. stopped
 TLAB.HRS            1000:   Time logger at bottom
 MRT .F               110:   Maximum recorded temp.
 LUN .               7711:   Logging unit number
 LUL .               CSPR:   Logging unit location
 ENGI.             SAYLER:   Recorded By
 WITN.               JAPP:   Witnessed by
 ORIG.           5" PRINT:   Origin of data
 UWI .     49025103020000:   Unique Well ID
 DICO. A2D TECHNOLOGIES, INC.:   Digitizing Company
~OTHER INFORMATION
~A   DEPT       NPHI       GRD      CALD       RHOB       DCOR        SPR        LLD        LLS       MSFL   
# ...
 2778.0000     0.2130   110.9370     9.4550     2.5250     0.0520   -49.1440     5.9130     6.6540     8.5590
 2778.5000     0.2170   110.8420     9.4610     2.5020     0.0280   -49.1950     6.1670     6.6980     8.4290
 2779.0000     0.2200   110.6150     9.4510     2.4900     0.0260   -49.5040     6.0960     6.7600     9.5250
 2779.5000     0.2200   109.5220     9.4400     2.5020     0.0370   -49.9060     5.9030     6.7180    10.1300
 2780.0000     0.2190   109.1820     9.4300     2.5180     0.0440   -50.3040     5.7100     6.6430     9.7130
 2780.5000     0.2210   110.5130     9.4240     2.5150     0.0350   -50.6990     5.5970     6.5670     8.5580
 2781.0000     0.2220   112.3510     9.4360     2.5230     0.0410   -51.0970     5.5460     6.4920     9.1470
 2781.5000     0.2240   114.7830     9.4480     2.5150     0.0320   -51.4930     5.5230     6.4170    10.1300
 2782.0000     0.2260   117.2390     9.4600     2.4960     0.0280   -51.8900     5.4090     6.3540     9.2470
 2782.5000     0.2290   119.6520     9.4710     2.5060     0.0360   -52.2870     5.3230     6.2270     8.5850
 2783.0000     0.2270   119.7760     9.4830     2.5120     0.0420   -52.6830     5.2330     6.0990     8.9070
 2783.5000     0.2240   118.7720     9.4940     2.5030     0.0360   -53.0800     5.1540     5.9720     8.1250
 2784.0000     0.2200   117.7820     9.5060     2.5180     0.0400   -53.4470     5.0750     5.8360     8.1420
 2784.5000     0.2160   117.2010     9.5190     2.5310     0.0470   -53.8020     5.0380     5.9120     8.1960
 2785.0000     0.2190   118.2050     9.4960     2.5280     0.0520   -54.1520     5.1270     5.9950     8.2500
 2785.5000     0.2210   119.7160     9.4640     2.5230     0.0400   -54.5130     5.2060     6.0770    11.7350
 2786.0000     0.2250   121.7880     9.4300     2.4940     0.0190   -54.8630     5.3230     6.1670    10.9160
 2786.5000     0.2290   124.0710     9.4300     2.4910     0.0200   -55.1580     5.2330     5.9980     8.5850
 2787.0000     0.2340   125.7060     9.4440     2.4920     0.0230   -55.0410     5.0550     5.8120     8.4500
 2787.5000     0.2350   124.8590     9.4590     2.4940     0.0240   -54.9330     4.8770     5.6270     8.2590
 2788.0000     0.2330   123.1570     9.4740     2.4930     0.0230   -54.8070     4.6800     5.4220     7.9190
 2788.5000     0.2370   122.7440     9.4770     2.4890     0.0190   -54.6910     4.7650     5.4980     7.0140
 2789.0000     0.2510   125.5720     9.4680     2.4840     0.0160   -54.5710     4.8590     5.6250     8.5850
 2789.5000     0.2620   126.5710     9.4590     2.4940     0.0290   -54.4500     4.9460     5.4880     8.5220
 2790.0000     0.2630   126.5080     9.4500     2.4880     0.0370   -54.3380     4.6910     5.2060     8.2640
 2790.5000     0.2610   126.1230     9.4410     2.4850     0.0340   -54.2060     4.4570     4.9460     7.6770
 2791.0000     0.2610   125.4370     9.4320     2.4870     0.0330   -54.1000     4.1920     4.8440     7.0140
 2791.5000     0.2600   125.0540     9.4230     2.4770     0.0260   -54.0250     4.1550     4.7500     7.0140
 2792.0000     0.2510   125.0900     9.4300     2.4750     0.0290   -54.5470     4.1130     4.6750     7.0140
 2792.5000     0.2430   123.9590     9.4380     2.4830     0.0310   -55.0470     4.0710     4.6540     6.8950
 2793.0000     0.2400   123.1160     9.4470     2.4900     0.0260   -55.5750     4.0250     4.6320     6.7570
 2793.5000     0.2460   122.8870     9.4560     2.4930     0.0310   -56.0900     3.9670     4.6010     6.5510
 2794.0000     0.2540   123.2400     9.4650     2.4870     0.0360   -56.6070     4.1250     4.6430     6.9440
 2794.5000     0.2610   123.8240     9.4740     2.4910     0.0410   -57.1190     4.2760     4.8330     8.5850
 2795.0000     0.2620   124.2270     9.4830     2.4850     0.0300   -57.6590     4.5120     5.1310     7.4110
 2795.5000     0.2610   123.6020     9.4920     2.4750     0.0230   -58.1340     4.4460     5.0370     8.2760
 2796.0000     0.2610   122.8670     9.5000     2.4740     0.0270   -58.7030     4.2950     4.8230     7.7970
 2796.5000     0.2630   124.0530     9.4930     2.4850     0.0350   -57.9370     4.1440     4.6080     6.7600
 2797.0000     0.2630   126.0960     9.4840     2.4860     0.0410   -57.4470     3.9670     4.3940     7.0060
 2797.5000     0.2620   127.6590     9.4750     2.4790     0.0300   -57.2270     3.8720     4.2460     7.5490
 2798.0000     0.2610   128.1220     9.4660     2.4730     0.0360   -57.2570     3.7580     4.1910     6.7600
 2798.5000     0.2620   127.9210     9.4570     2.4870     0.0380   -57.3910     3.6430     4.1370     6.6900
 2799.0000     0.2650   127.2790     9.4480     2.4820     0.0290   -57.5400     3.5520     4.0830     6.6030
 2799.5000     0.2690   126.8150     9.4460     2.4820     0.0200   -57.0520     3.5520     4.0300     6.5160
 2800.0000     0.2770   126.8240     9.4620     2.4740     0.0180   -56.3640     3.7520     3.9670     6.8860
 2800.5000     0.2900   126.8430     9.4780     2.4640     0.0190   -55.7040     3.9510     4.5950     6.8440
 2801.0000     0.3060   127.5150     9.4940     2.4620     0.0250   -55.2950     4.2690     4.4980     6.7600
 2801.5000     0.3020   128.4350     9.5090     2.4650     0.0250   -56.1080     4.1670     4.3360     6.9900
 2802.0000     0.3090   129.2320     9.5090     2.4690     0.0240   -56.7070     3.9090     4.1750     7.1440
 2802.5000     0.3050   129.9670     9.4620     2.4690     0.0310   -56.7700     3.6520     4.0130     6.0830
 2803.0000     0.3020   130.6280     9.4140     2.4660     0.0280   -56.7120     3.2400     3.8510     5.6080
 2803.5000     0.3000   130.4680     9.4160     2.4580     0.0180   -56.3340     3.2520     3.7480     5.3230
 2804.0000     0.2950   129.5970     9.4340     2.4510     0.0150   -56.3060     3.2790     3.7350     6.0540
 2804.5000     0.2910   130.4850     9.4520     2.4590     0.0270   -55.6530     3.3070     3.7210     5.9460
 2805.0000     0.2920   131.3980     9.4600     2.4720     0.0360   -54.1960     3.3340     3.7080     5.7290
 2805.5000     0.2950   131.5020     9.4550     2.4840     0.0340   -53.9700     3.3620     3.6940     6.1670
 2806.0000     0.2990   131.9460     9.4500     2.4880     0.0260   -54.1490     3.3350     3.6810     5.5230
 2806.5000     0.3020   133.4170     9.4450     2.4780     0.0210   -54.6030     3.3090     3.6670     6.1670
 2807.0000     0.3060   134.7500     9.4420     2.4760     0.0230   -54.9490     3.2820     3.6540     5.4220
 2807.5000     0.3100   135.8160     9.4420     2.4650     0.0190   -55.3370     3.2560     3.6400     5.7470
 2808.0000     0.3060   136.4810     9.4420     2.4620     0.0290   -55.7440     3.2290     3.6270     6.3980
 2808.5000     0.3100   136.8340     9.4420     2.4600     0.0310   -56.0960     3.2030     3.5850     5.9340
 2809.0000     0.3150   136.4460     9.4420     2.4560     0.0270   -56.3800     3.1810     3.5010     5.6250
 2809.5000     0.3140   135.5480     9.4420     2.4510     0.0300   -56.6860     3.0660     3.4170     5.5030
 2810.0000     0.3120   135.5690     9.4420     2.4450     0.0260   -56.9980     2.9700     3.3330     5.4220
 2810.5000     0.3100   136.5070     9.4420     2.4400     0.0260   -57.2980     2.8740     3.2490     4.9460
 2811.0000     0.3150   138.1090     9.4420     2.4520     0.0330   -57.5470     2.7970     3.1810     4.8560
 2811.5000     0.3200   139.7020     9.4420     2.4680     0.0390   -57.4070     2.8770     3.2270     4.9500
 2812.0000     0.3190   141.0120     9.4420     2.4690     0.0410   -57.2760     2.9440     3.2640     5.1860
 2812.5000     0.3070   141.5830     9.4400     2.4810     0.0450   -56.9500     3.0110     3.3020     5.4220
 2813.0000     0.3000   140.9650     9.4010     2.4900     0.0450   -56.2490     2.9560     3.3390     5.3230
 2813.5000     0.3000   140.4280     9.3640     2.4920     0.0480   -55.5210     2.9020     3.3620     5.0380
 2814.0000     0.3050   141.1320     9.3250     2.4830     0.0400   -55.0660     3.0110     3.3620     5.6020
