~VERSION INFORMATION
 VERS.                2.0:   CWLS LOG ASCII STANDARD - VERSION 2.0
 WRAP.                 NO:   ONE LINE PER DEPTH STEP
~WELL INFORMATION
#MNEM.UNIT      DATA TYPE    INFORMATION
#----------   ------------   ------------------------------
 STRT.F            2.0000:   START DEPTH
 STOP.F         3008.0000:   STOP DEPTH
 STEP.F            0.5000:   STEP LENGTH
 NULL.          -999.2500:   NO VALUE
 COMP.       FLUOR DANIEL:   COMPANY
 WELL.   FLUOR "X" #25-23:   WELL
 FLD .          N.P.R. #3:   FIELD
 LOC .      S23 T38N R78W:   LOCATION
 CNTY.            NATRONA:   COUNTY
 STAT.            WYOMING:   STATE
 CTRY. UNITED STATES OF AMERICA:   COUNTRY
 SRVC.      WESTERN ATLAS:   SERVICE COMPANY
 DATE.        21-APR-1995:   LOGDATE
 API .     49025227090000:   API NUMBER
~CURVE INFORMATION
#MNEM.UNIT       API CODE    CURVE DESCRIPTION
#----------   ------------   ------------------------------
 DEPT.F                  :   
 GRR .GAPI   07 310 01 00:   GAMMA RAY FROM RESISTIVITY
 TENR.LBS    07 635 01 00:   TENSION FROM RESISTIVITY
 RILD.OHMM   07 120 46 00:   RESISTIVITY INDUCTION LOG DEEP
 RILM.OHMM   07 120 44 00:   RESISTIVITY INDUCTION LOG MEDIUM
~PARAMETER INFORMATION
#MNEM.UNIT          VALUE    DESCRIPTION
#----------   ------------   ------------------------------
 EKB .F         5285.0000:   Kelly bushing
 EGL .F         5275.0000:   Ground level
 EDF .F         5284.0000:   Drilling floor
 TD  .F         3000.0000:   Total depth
 CLNT.            A2DTECH:   Client Code
 SL  . 2343' FSL & 1264' FWL:   Surface Location
 PD  .                 GL:   Permanent Datum
 EPD .F              5275:   Elevation Permanent Datum
 DMF .                 KB:   Drilling Measured From
 DAPD.                 10:   Feet Above Permanent Datum
 DATE.        21-APR-1995:   Date Logged [DD-MMM-YYYY]
 DD  .F              3000:   Depth driller
 DL  .F              3000:   Depth logger
 BLI .F              2999:   Bottom log interval
 TLI .F                 0:   Top log interval
 CS1 .IN            9.625:   Casing size
 CBD1.       9.625" @ 53':   Casing driller 1
 CBL1.F                53:   Casing logger 1
 BS1 .IN             6.25:   Bit size
 BSD1.F              3000:   Depth drilled with bit1
 DFT .                OIL:   Type fluid in hole
 MRT .F               114:   Maximum recorded temp.
 LUN .            HL 6530:   Logging unit number
 LUL .             CASPER:   Logging unit location
 ENGI.        VERN RAUTIO:   Recorded By
 WITN.        GARY STRONG:   Witnessed by
 ORIG.         2.5" PRINT:   Origin of data
 UWI .     49025227090000:   Unique Well ID
 DICO. A2D TECHNOLOGIES,INC.:   Digitizing Company
 LMF .                 KB:   Log Measured From
~OTHER INFORMATION
~A    DEPT      GRR      TENR       RILD       RILM   
# ...
 2338.0000   120.4948   -48.9321     7.4751     7.4360
 2338.5000   121.0792   -20.5410     7.4716     7.4321
 2339.0000   121.0736   -20.0292     7.5699     7.4283
 2339.5000   120.4326   -19.5175     7.5658     7.4245
 2340.0000   118.2301   -19.0059     7.5624     7.4206
 2340.5000   113.2134   -26.6795     7.5590     7.6205
 2341.0000   108.7232   -47.2222     7.7630     7.6162
 2341.5000   107.1387   -46.6486     7.8764     7.7474
 2342.0000   105.6983   -46.1597     7.9910     7.8176
 2342.5000   106.8727   -45.6708     8.1841     7.8126
 2343.0000   113.9467   -30.1668     8.0251     7.8075
 2343.5000   116.3382   -13.6750     7.9573     7.8035
 2344.0000   117.4754    14.3274     7.9528     7.7995
 2344.5000   112.4243    14.8391     7.9492     7.7955
 2345.0000   108.6924    -5.1229     7.9457     7.7914
 2345.5000   107.4277   -13.3772     7.9421     7.7872
 2346.0000   115.0906   -12.8655     7.9385     7.7830
 2346.5000   118.6248   -12.3539     7.8279     7.7788
 2347.0000   119.7994   -11.8422     7.8242     7.7746
 2347.5000   116.7555   -11.3305     7.9278     7.7704
 2348.0000   113.6835   -10.8188     7.9234     7.7654
 2348.5000   111.1721   -10.3071     8.1371     7.7614
 2349.0000   110.3374    -9.7954     8.1326     7.7574
 2349.5000   114.6124    -9.2837     8.0196     7.7533
 2350.0000   118.5841    -8.7720     7.9081     7.7493
 2350.5000   117.9876    -8.2603     7.6933     7.7452
 2351.0000   116.8021    -7.7486     7.4805     7.6163
 2351.5000   118.6306    -7.2369     7.2808     7.5300
 2352.0000   121.6999    -6.7252     7.2773     7.5259
 2352.5000   123.4414    -6.2135     7.4074     7.5218
 2353.0000   124.4495    -5.7018     7.4701     7.5170
 2353.5000   119.5097    -5.1902     7.6246     7.5131
 2354.0000   111.4563    -4.6785     7.6679     7.5092
 2354.5000   110.2708    -4.1668     7.6638     7.5054
 2355.0000   111.4452    -3.6551     7.4557     7.4006
 2355.5000   113.2376    -3.1434     7.4523     7.2971
 2356.0000   116.3260    -2.6317     7.3434     7.1756
 2356.5000   118.5081    -2.1200     7.2463     7.0943
 2357.0000   119.0925    -6.0929     7.1208     7.0905
 2357.5000   115.8113   -21.5702     7.0460     7.0867
 2358.0000   113.7689   -44.2503     7.0869     7.0821
 2358.5000   116.1232   -58.5527     7.2326     7.0784
 2359.0000   118.4776   -62.7198     7.2286     7.0748
 2359.5000   118.4499   -28.2340     7.3239     7.0711
 2360.0000   114.9262   -13.1254     7.4206     7.1639
 2360.5000   115.2227    -5.6314     7.4171     7.2578
 2361.0000   118.6786     2.4723     7.5219     7.2735
 2361.5000   119.6283   -11.6587     7.6139     7.4494
 2362.0000   119.6214   -25.7897     7.6100     7.4855
 2362.5000   119.6158   -25.2194     7.7495     7.6451
 2363.0000   119.6103   -18.4740     7.8115     7.6402
 2363.5000   119.6047     5.0439     7.9767     7.8459
 2364.0000   116.4376     5.6500     8.1272     7.8419
 2364.5000   113.1185    -8.4810     8.2347     7.8378
 2365.0000   109.5575    -7.9921     8.2306     8.0489
 2365.5000   110.1416    -7.5032     8.2269     8.0445
 2366.0000   110.3637    -7.0143     8.2230     8.0402
 2366.5000   109.5391    -7.6719     8.2191     8.0358
 2367.0000   107.7636   -20.6564     8.1832     8.0315
 2367.5000   108.9380   -20.1023     7.9919     8.0271
 2368.0000   111.4180   -19.5907     7.9351     8.0219
 2368.5000   113.6467   -19.0790     7.7702     8.0178
 2369.0000   113.2232   -18.5673     7.7667     8.0137
 2369.5000   109.5319   -47.2073     7.5557     8.0095
 2370.0000   106.5476   -46.7184     7.5523     7.7914
 2370.5000   110.0818   -46.2295     7.4471     7.5590
 2371.0000   111.2562   -45.7406     7.3437     7.3332
 2371.5000   112.4306   -45.2485     7.3402     7.1716
 2372.0000   118.0099   -15.4971     7.3065     7.1678
 2372.5000   122.1140   -14.9854     7.1948     7.1156
 2373.0000   123.0334   -14.4737     7.1339     6.9679
 2373.5000   122.4800   -13.9620     7.1298     6.9643
 2374.0000   119.4797   -13.4503     7.1266     6.9607
 2374.5000   115.9343   -12.9386     7.1234     6.9571
 2375.0000   114.7488   -12.4269     7.1202     7.0484
 2375.5000   118.2831   -11.9152     7.1170     7.1408
 2376.0000   121.2274   -11.4035     7.2224     7.1368
 2376.5000   121.1008   -10.8918     7.3058     7.1329
 2377.0000   117.4952   -10.3801     7.3020     7.2270
 2377.5000   113.0086    -9.8684     7.2985     7.3208
 2378.0000   115.3900    -9.3568     7.2434     7.3161
 2378.5000   115.8879    -4.1709     7.0962     7.1169
 2379.0000   115.8815    12.3347     7.0930     7.1132
 2379.5000   115.8759    21.4182     6.9003     7.0139
 2380.0000   114.6505     7.3099     6.9913     6.9160
 2380.5000   115.9762    -6.7983     6.9881     6.9122
 2381.0000   117.0392    -6.2345     7.0802     7.0031
 2381.5000   118.2124   -34.9854     7.0766     7.0949
 2382.0000   117.8760   -34.4965     7.0732     7.0905
 2382.5000   115.8398   -33.9913     7.0699     7.0867
 2383.0000   115.8343   -31.1349     7.0665     6.9868
 2383.5000   118.1886   -14.6406     7.0626     7.0784
 2384.0000   120.6676   -17.9210     7.0594     7.0748
 2384.5000   123.0013   -10.8967     7.0563     7.0711
 2385.0000   122.3608    -2.1929     7.0531     7.0675
 2385.5000   119.5249    -1.5901     7.0498     6.9686
 2386.0000   115.1550    -1.1012     7.0465     6.8712
 2386.5000   115.7935    -0.6123     7.0431     6.8674
 2387.0000   115.7870    -0.1234     6.9726     6.8637
 2387.5000   115.7815     0.3655     6.8484     6.6767
 2388.0000   115.1620   -13.7655     6.6622     6.4940
 2388.5000   114.5900     1.3888     6.4806     6.4907
 2389.0000   115.3434     1.9007     6.3905     6.3140
 2389.5000   117.6900   -26.9186     6.3017     6.3107
 2390.0000   122.5567   -26.3158     6.2989     6.2226
 2390.5000   121.6451   -25.8042     6.2112     6.1356
 2391.0000   121.6395   -25.2076     6.2083     6.1322
 2391.5000   122.8139   -24.7187     6.2903     6.1289
 2392.0000   123.9883   -24.2298     6.4051     6.2430
 2392.5000   122.8024   -38.3608     6.6338     6.3767
 2393.0000   122.7965   -37.4768     6.7740     6.6370
 2393.5000   123.2589   -20.9849     6.9019     6.8155
 2394.0000   124.5778     6.9653     6.8988     6.8115
 2394.5000   125.1386   -21.7856     6.8029     6.8080
 2395.0000   121.5923   -21.1988     6.7998     6.8045
 2395.5000   109.7873   -27.9000     6.7966     6.8008
 2396.0000   101.4983   -34.7954     6.6852     6.7971
 2396.5000    99.1567   -19.5854     6.4321     6.7934
 2397.0000   111.8706   -48.3365     6.1921     6.7897
 2397.5000   118.4760   -47.8476     6.0871     6.7861
 2398.0000   121.8644   -47.3587     6.0837     6.7817
 2398.5000   123.9105   -17.6171     6.1639     6.7782
 2399.0000   125.6748    -0.3349     6.4166     6.7747
 2399.5000   125.0793    12.6462     6.5898     6.7712
 2400.0000   120.3540    13.1578     6.7677     6.7671
 2400.5000   119.1740   -15.5702     6.9504     6.7636
 2401.0000   119.2526   -15.0584     6.9345     6.7601
 2401.5000   120.3540    14.5557     6.9465     6.7566
 2402.0000   120.9440    14.9751     6.7585     6.7531
 2402.5000   121.1404   -13.8453     6.6549     6.7494
 2403.0000   123.1866   -28.0458     6.5735     6.7457
 2403.5000   125.6238   -42.2514     6.5450     6.7421
 2404.0000   123.8151   -12.5732     6.4806     6.7384
 2404.5000   121.5339     4.8001     6.4785     6.7348
 2405.0000   121.5339    17.5439     6.4763     6.7311
 2405.5000   122.7139    17.9824     6.4737     6.7269
 2406.0000   124.4838    18.4210     6.3845     6.6329
 2406.5000   127.4336    18.8597     6.3825     6.5403
 2407.0000   129.7935    19.3786     6.3804     6.4490
 2407.5000   129.7935    19.7980     6.3783     6.3589
 2408.0000   127.3550    20.2174     6.3762     6.3555
 2408.5000   126.2537    20.6368     6.3740     6.3520
 2409.0000   126.2537    21.0562     6.3718     6.3486
 2409.5000   126.2537    -7.7642     6.2522     6.3451
 2410.0000   126.2537    -9.7441     6.1974     6.3417
 2410.5000   125.4768   -36.1652     6.1953     6.3383
