~VERSION INFORMATION
 VERS.                2.0:   CWLS LOG ASCII STANDARD - VERSION 2.0
 WRAP.                 NO:   ONE LINE PER DEPTH STEP
~WELL INFORMATION
#MNEM.UNIT      DATA TYPE    INFORMATION
#----------   ------------   ------------------------------
 STRT.F          450.0000:   START DEPTH
 STOP.F         3098.0000:   STOP DEPTH
 STEP.F            0.5000:   STEP LENGTH
 NULL.          -999.2500:   NO VALUE
 COMP. FENIX & SCISSON - U.S NAVY:   COMPANY
 WELL. FENIX NPR 3 "AX" #11-33:   WELL
 FLD .              N P R:   FIELD
 LOC .      S33 T39N R78W:   LOCATION
 CNTY.            NATRONA:   COUNTY
 STAT.            WYOMING:   STATE
 CTRY. UNITED STATES OF AMERICA:   COUNTRY
 SRVC.              WELEX:   SERVICE COMPANY
 DATE.        12-MAR-1977:   LOGDATE
 API .     49025103210000:   API NUMBER
~CURVE INFORMATION
#MNEM.UNIT       API CODE    CURVE DESCRIPTION
#----------   ------------   ------------------------------
 DEPT.F                  :   
 CALD.IN     45 280 60 00:   CALIPER FROM DENSITY LOG
 GRD .GAPI   45 310 01 00:   GAMMA RAY FROM DENSITY LOG
 RHOB.G/C3   45 350 01 00:   BULK DENSITY
 CORR.G/C3   45 356 01 00:   DENSITY CORRECTION
 SPR .MV     07 010 01 00:   SPONTANEOUS POTENTIAL
 SGRD.MV     07 010 01 00:   SHALLOW GUARD RESISTIVITY
 ILD .OHMM   07 120 46 00:   DEEP INDUCTION RESISTIVITY
 ILM .OHMM   07 120 44 00:   INDUCTION LOG MEDIUM RESISTIVITY
~PARAMETER INFORMATION
#MNEM.UNIT          VALUE    DESCRIPTION
#----------   ------------   ------------------------------
 EKB .F         5133.0000:   Kelly bushing
 EGL .F         5122.0000:   Ground level
 TD  .F         3130.0000:   Total depth
 DATE.        12-MAR-1977:   Date logged
 CLNT.            A2DTECH:   Client Code
 SL  . 331' FNL & 430' FWL:   Surface Location
 PD  .                 GL:   Permanent Datum
 DD  .F              3130:   Depth driller
 DL  .F              3102:   Depth logger
 BLI .F              3100:   Bottom log interval
 CS1 .IN            8.625:   Casing size
 CBD1.      8.625" @ 459':   Casing driller 1
 CBL1.F               455:   Casing logger 1
 BS1 .IN            7.875:   Bit size
 DFT .                KCL:   Type fluid in hole
 DFD .                9.3:   Density
 DFV .                 36:   Viscosity
 DFL .               16.2:   Fluid loss
 MSS .           FLOWLINE:   Source of sample
 RMS .OHMM           0.37:   Rm
 MST .F                50:   Rm Meas. temp.
 RMF .OHMM           0.32:   Rmf
 MFST.F                55:   Rmf Meas. temp.
 RMC .OHMM           0.58:   Rmc
 MCST.F                55:   Rmc Meas. temp.
 MFSS.               MEAS:   Source Rmf.
 RMB .OHMM           .168:   Rm. at BHT
 BHT .F               110:   BHT.
 TCS .HRS               4:   Time Circ. stopped
 MRT .F               110:   Maximum recorded temp.
 LUN .               0716:   Logging unit number
 LUL .             VERNAT:   Logging unit location
 ENGI.        E. CALLAHAN:   Recorded By
 WITN.            K. JAPP:   Witnessed by
 ORIG.           5" PRINT:   Origin of data
 UWI .     49025103210000:   Unique Well ID
 DICO. A2D TECHNOLOGIES, INC.:   Digitizing Company
 DAPD.F                11:   Feet Above Permanent Datum
 BSD1.               3950:   Depth drilled with bit1
 MCSS.               CALC:   Source Rmc.
 EPD .F              5122:   Elevation Permanent Datum
 LMF .                 KB:   Log Measured From
 DMF .                 KB:   Drilling Measured From
 TLI .F               455:   Top log interval
~OTHER INFORMATION
~A   DEPT       CALD       GRD        RHOB      CORR       SPR       SGRD        ILD        ILM   
# ...
 2880.0000     8.2881   148.5640     2.4960     0.0040   -46.6424     8.2577     4.9331     5.9853
 2880.5000     8.3077   147.7709     2.4990     0.0000   -46.6411     8.1082     4.9340     5.9861
 2881.0000     8.3076   147.9691     2.4785    -0.0030   -46.6381     8.1094     4.9347     5.9319
 2881.5000     8.3074   148.7621     2.4676    -0.0190   -46.4339     8.3375     4.9355     5.8784
 2882.0000     8.3073   151.6569     2.4426    -0.0369   -46.6296     8.3387     4.8910     5.7724
 2882.5000     8.2873   151.4579     2.4636    -0.0130   -46.4278     7.9650     4.8023     5.7202
 2883.0000     8.3070   148.6120     2.4546    -0.0090   -46.4248     7.5410     4.7156     5.6167
 2883.5000     8.3068   148.4137     2.4486    -0.0070   -46.6204     7.0066     4.6303     5.5151
 2884.0000     8.3067   148.0171     2.4346    -0.0130   -47.0148     6.8168     4.5047     5.3657
 2884.5000     8.2867   147.1756     2.4356    -0.0250   -46.4157     6.7549     4.5055     5.3175
 2885.0000     8.2865   146.3824     2.4281    -0.0040   -46.2139     6.8819     4.3839     5.2213
 2885.5000     8.3062   145.7874     2.4676     0.0020   -46.4095     6.8827     4.3842     5.2220
 2886.0000     8.3061   146.5806     2.4795     0.0080   -46.6052     6.9476     4.3447     5.1750
 2886.5000     8.2861   147.1754     2.5120     0.0120   -46.2047     6.8853     4.3453     5.1756
 2887.0000     8.2859   150.0511     2.4895     0.0180   -46.2017     6.9492     4.3457     5.1276
 2887.5000     8.2659   150.8432     2.4935     0.0220   -46.3974     6.8868     4.4681     5.1282
 2888.0000     8.3054   151.6353     2.5115     0.0319   -46.7917     6.8878     4.5521     5.1764
 2888.5000     8.3053   152.2275     2.5185     0.0319   -46.5900     7.0170     4.6802     5.6780
 2889.0000     8.2853   148.1667     2.5195     0.0280   -46.5869     7.6947     4.7242     5.7846
 2889.5000     8.2653   146.3817     2.5259     0.0180   -46.1864     8.5158     4.9023     5.8389
 2890.0000     8.2652   148.7617     2.5085     0.0080   -46.3821     9.3382     4.9482     5.8936
 2890.5000     8.2848   150.8311     2.4965     0.0020   -46.5778     9.0852     4.9490     5.9492
 2891.0000     8.2848   155.5892     2.4636    -0.0060   -46.3760     8.6778     4.8581     5.9496
 2891.5000     8.2845   158.9595     2.4563    -0.0020   -46.3730     7.9159     4.7700     5.7359
 2892.0000     8.2051   160.8325     2.4706     0.0040   -45.9724     7.2877     4.4731     5.3295
 2892.5000     8.2842   165.8334     2.4534     0.0000   -45.9693     6.7094     4.1948     4.8615
 2893.0000     8.2841   170.2605     2.4363    -0.0040   -45.7675     6.2322     3.9699     4.3538
 2893.5000     8.2839   179.5811     2.4191     0.0000   -45.7645     6.0073     3.7572     4.1587
 2894.0000     8.2838   179.9776     2.4017     0.0040   -45.7614     4.7314     3.5563     3.7937
 2894.5000     8.2836   171.6972     2.3847     0.0060   -45.5596     4.1220     3.5566     3.6235
 2895.0000     8.3826   163.4168     2.3728     0.0260   -45.5565     3.3362     3.5245     3.4933
 2895.5000     8.3627   151.8034     2.3807     0.0419   -45.5534     3.0433     3.4606     3.8307
 2896.0000     8.3625   135.0730     2.4187     0.0579   -45.9479     7.0333     3.3671     4.0861
 2896.5000     8.3624   133.0889     2.4506     0.0299   -46.1437     7.3653     3.3062     4.6916
 2897.0000     8.3622   134.8741     2.5534     0.0359   -46.1406     7.3656     3.5923     5.0046
 2897.5000     8.3621   136.2625     2.5489     0.0379   -46.3363     7.5037     3.7979     5.1453
 2898.0000     8.3619   137.8493     2.5364     0.0419   -46.1345     7.5027     4.0887     5.4384
 2898.5000     8.3618   139.2381     2.5175     0.0299   -46.3302     7.6425     4.4834     5.5911
 2899.0000     8.3616   144.1978     2.5015     0.0100   -46.5260     7.9332     4.7824     5.8554
 2899.5000     8.3614   143.9993     2.5117     0.0160   -46.3241     8.0077     4.9625     5.9653
 2900.0000     8.3613   146.7770     2.5205     0.0260   -46.3211     7.8628     5.0091     5.9660
 2900.5000     8.3611   148.8117     2.5134     0.0082   -46.3187     7.3738     5.0100     5.9672
 2901.0000     8.3811   149.8016     2.4985     0.0060   -46.5158     7.1084     5.0104     5.9130
 2901.5000     8.3612   151.7852     2.5100     0.0020   -46.9093     7.0437     5.0111     5.8062
 2902.0000     8.3612   153.7688     2.5304     0.0309   -46.7070     6.7905     4.9658     5.6489
 2902.5000     8.3612   155.9521     2.5215     0.0309   -46.3065     6.7914     4.9208     5.6497
 2903.0000     8.3611   158.7296     2.5168     0.0250   -46.3036     6.7302     4.7879     5.6505
 2903.5000     8.3611   161.1999     2.5015     0.0280   -46.1020     6.7312     4.6582     5.5995
 2904.0000     8.3611   166.8637     2.5167     0.0299   -46.0991     7.1801     4.5319     5.4982
 2904.5000     8.3809   173.4105     2.5299     0.0539   -45.8974     7.3144     4.4093     5.4494
 2905.0000     8.3610   174.5948     2.5235     0.0429   -45.6957     7.4516     4.3694     5.5506
 2905.5000     8.3610   181.9290     2.5185     0.0359   -45.6928     7.3844     4.1735     5.3507
 2906.0000     8.3610   186.5037     2.5075     0.0409   -45.6899     6.9244     4.0604     5.0178
 2906.5000     8.3610   194.7442     2.5055     0.0220   -45.6870     6.4940     3.9503     4.8817
 2907.0000     8.3609   202.9689     2.4785     0.0120   -45.4854     6.0892     3.8433     4.5358
 2907.5000     8.3609   207.9278     2.4696     0.0067   -45.4825     5.7100     3.7390     4.2144
 2908.0000     8.3411   205.9435     2.4486     0.0040   -45.4796     4.7509     3.6378     3.9885
 2908.5000     8.3410   192.3285     2.4366     0.0040   -45.0792     4.4960     3.5059     3.9525
 2909.0000     8.3410   186.3030     2.4381     0.0100   -44.8765     3.9895     3.4423     3.9531
 2909.5000     8.3410   174.2018     2.4556     0.0120   -44.8753     4.4562     3.4112     4.2951
 2910.0000     8.3410   150.9919     2.4641     0.0280   -45.2693     5.6619     3.5723     4.6239
 2910.5000     8.3409   141.4006     2.5010     0.0060   -45.4652     6.9982     3.6738     4.8869
 2911.0000     8.3211   138.0278     2.5000     0.0000   -45.8597     7.2590     3.8477     5.1653
 2911.5000     8.3211   136.6384     2.4940    -0.0100   -46.0556     7.1932     3.9558     5.4595
 2912.0000     8.3210   137.6290     2.4850    -0.0100   -46.0527     7.1942     4.1810     5.6132
 2912.5000     8.3210   135.8432     2.5045    -0.0020   -45.8511     7.1950     4.4598     5.6135
 2913.0000     8.3210   132.6684     2.5025    -0.0020   -45.6495     7.6078     4.6704     5.7186
 2913.5000     8.3210   130.4857     2.4785    -0.0060   -45.6466     7.8943     4.8913     5.9348
 2914.0000     8.3011   129.6915     2.4885    -0.0020   -45.6437     8.1166     4.9828     5.9902
 2914.5000     8.3209   129.2940     2.4975     0.0000   -45.4421     8.0431     5.0759     6.1024
 2915.0000     8.3209   129.0948     2.5284     0.0140   -45.4392     7.8973     5.2191     6.3322
 2915.5000     8.3209   128.1023     2.5259     0.0280   -45.4363     7.7548     5.2198     6.3917
 2916.0000     8.3010   129.0933     2.5140     0.0220   -45.4334     8.1213     5.3649     6.5112
 2916.5000     8.3208   129.2908     2.5080     0.0240   -45.2319     8.2735     5.5668     6.6334
 2917.0000     8.3208   129.6867     2.5080     0.0240   -45.2290     8.8224     5.6712     6.7577
 2917.5000     8.3605   130.6776     2.5100     0.0160   -45.2261     8.7426     5.7773     6.7584
 2918.0000     8.3208   130.4785     2.5025     0.0120   -45.0246     8.3535     5.8856     6.8221
 2918.5000     8.3207   130.6760     2.4895     0.0060   -44.8230     8.1271     5.9409     6.8860
 2919.0000     8.3207   132.2619     2.5155     0.0120   -44.8201     8.1283     5.9967     7.0146
 2919.5000     8.3207   132.6578     2.5015     0.0240   -44.8173     8.4345     5.9447     6.9519
 2920.0000     8.3207   133.2521     2.4955     0.0080   -44.6157     8.9157     6.2260     6.9530
