~VERSION INFORMATION
 VERS.                2.0:   CWLS LOG ASCII STANDARD - VERSION 2.0
 WRAP.                 NO:   ONE LINE PER DEPTH STEP
~WELL INFORMATION
#MNEM.UNIT      DATA TYPE    INFORMATION
#----------   ------------   ------------------------------
 STRT.F          180.0000:   START DEPTH
 STOP.F         3044.0000:   STOP DEPTH
 STEP.F            0.5000:   STEP LENGTH
 NULL.          -999.2500:   NO VALUE
 COMP.    FENIX & SCISSON:   COMPANY
 WELL.   FENIX "A" #55-29:   WELL
 FLD .           N P R #3:   FIELD
 LOC .      S29 T39N R78W:   LOCATION
 CNTY.            NATRONA:   COUNTY
 STAT.            WYOMING:   STATE
 CTRY. UNITED STATES OF AMERICA:   COUNTRY
 SRVC.              WELEX:   SERVICE COMPANY
 DATE.        21-JUL-1977:   LOGDATE
 API .     49025104020000:   API NUMBER
~CURVE INFORMATION
#MNEM.UNIT       API CODE    CURVE DESCRIPTION
#----------   ------------   ------------------------------
 DEPT.F                  :   
 CALD.IN     45 280 60 00:   CALIPER FROM DENSITY LOG
 RHOB.G/C3   45 350 01 00:   BULK DENSITY
 CORR.G/C3   45 356 01 00:   DENSITY CORRECTION
 GRD .GAPI   45 310 01 00:   GAMMA RAY FROM DENSITY LOG
 SPR .MV     07 010 01 00:   SPONTANEOUS POTENTIAL
 ILD .OHMM   07 120 46 00:   DEEP INDUCTION RESISTIVITY
 ILM .OHMM   07 120 44 00:   INDUCTION LOG MEDIUM RESISTIVITY
 SGRD.OHMM   07 220 05 00:   SHALLOW SHORT GUARD RESISTIVITY
~PARAMETER INFORMATION
#MNEM.UNIT          VALUE    DESCRIPTION
#----------   ------------   ------------------------------
 EKB .F         4995.0000:   Kelly bushing
 EGL .F         4985.0000:   Ground level
 EDF .F            0.0000:   Drilling floor
 EPD .F         4985.0000:   Permanent datum
 TD  .F         3045.0000:   Total depth
 DATE.        21-JUL-1977:   Date logged
 CLNT.            A2DTECH:   Client Code
 SL  . 2310' FSL & 2310' FEL:   Surface Location
 PD  .                 GL:   Permanent Datum
 DD  .F              3045:   Depth driller
 DL  .F              3045:   Depth logger
 BLI .F              3043:   Bottom log interval
 CS1 .IN            8.625:   Casing size
 CBD1.      8.625" @ 230':   Casing driller 1
 CBL1.F               216:   Casing logger 1
 BS1 .IN            7.875:   Bit size
 DFT .            KCL-MUD:   Type fluid in hole
 DFD .                8.8:   Density
 DFV .                 45:   Viscosity
 DFPH.                7.5:   pH
 DFL .                8.4:   Fluid loss
 MSS .           FLOWLINE:   Source of sample
 RMS .OHMM            .45:   Rm
 MST .F                86:   Rm Meas. temp.
 RMF .OHMM            .33:   Rmf
 MFST.F                86:   Rmf Meas. temp.
 RMC .OHMM            .72:   Rmc
 MCST.F                86:   Rmc Meas. temp.
 MFSS.               MEAS:   Source Rmf.
 RMB .OHMM            .30:   Rm. at BHT
 BHT .F               127:   BHT.
 TCS .HRS             2.5:   Time Circ. stopped
 MRT .F               127:   Maximum recorded temp.
 LUN .               8611:   Logging unit number
 LUL .             CASPER:   Logging unit location
 ENGI.            C. DOAK:   Recorded By
 WITN.      W. PETTINGILL:   Witnessed by
 ORIG.           5" PRINT:   Origin of data
 UWI .     49025104020000:   Unique Well ID
 DICO. A2D TECHNOLOGIES, INC.:   Digitizing Company
 DAPD.                 10:   Feet Above Permanent Datum
 BSD1.               3045:   Depth drilled with bit1
 MCSS.               MEAS:   Source Rmc.
 LMF .                 KB:   Log Measured From
 DMF .                 KB:   Drilling Measured From
 TLI .                200:   Top log interval
~OTHER INFORMATION
~A   DEPT       CALD     RHOB       CORR         GRD       SPR        ILD        ILM       SGRD   
# ...
  949.5000     8.2680     2.4590     0.0670    84.2630   -66.1840     8.6070     9.3360    13.0960
  950.0000     8.2710     2.4680     0.0670    84.4140   -66.2260     8.4920     9.2090    12.7650
  950.5000     8.2750     2.4780     0.0650    83.2300   -66.2730     8.3660     9.0940    12.8370
  951.0000     8.2780     2.4810     0.0630    85.9240   -66.3250     8.2390     9.0630    12.9400
  951.5000     8.2820     2.4780     0.0610    89.0700   -66.3760     8.1470     9.0350    13.0440
  952.0000     8.2670     2.4700     0.0590    88.5760   -66.4280     8.1470     9.0070    13.1330
  952.5000     8.2450     2.4600     0.0620    88.6600   -66.4790     8.1370     8.9780    13.1830
  953.0000     8.2230     2.4490     0.0640    89.0520   -66.5310     8.1250     8.9500    13.2410
  953.5000     8.2040     2.4450     0.0650    87.2820   -66.5820     8.1140     8.9040    13.0690
  954.0000     8.1840     2.4460     0.0660    86.7950   -66.6340     8.1020     8.7960    12.8000
  954.5000     8.1430     2.4560     0.0660    87.1890   -66.6850     8.0910     8.6890    12.5330
  955.0000     8.1030     2.4600     0.0670    87.5650   -66.7370     8.0740     8.5810    12.5330
  955.5000     8.0660     2.4630     0.0670    86.5530   -66.7880     8.0830     8.4510    12.5690
  956.0000     8.0650     2.4660     0.0680    84.1460   -66.8400     8.1080     8.4710    12.7600
  956.5000     8.0650     2.4680     0.0680    82.3740   -66.8910     8.1330     8.4950    12.9500
  957.0000     8.0760     2.4680     0.0690    82.7290   -66.9430     8.1590     8.5200    13.1410
  957.5000     8.0910     2.4640     0.0670    84.0450   -67.0030     8.1840     8.5450    13.3310
  958.0000     8.1070     2.4580     0.0650    85.7120   -67.1730     8.2100     8.5700    13.5220
  958.5000     8.1230     2.4570     0.0630    87.2950   -67.0730     8.2350     8.5950    13.6100
  959.0000     8.1390     2.4580     0.0620    87.9470   -66.9260     8.2600     8.6200    13.4040
  959.5000     8.1540     2.4550     0.0600    88.3730   -66.7800     8.2850     8.6450    13.2410
  960.0000     8.1700     2.4490     0.0580    87.2140   -66.6370     8.3100     8.6700    13.2410
  960.5000     8.1860     2.4510     0.0560    85.8960   -66.4930     8.3350     8.6950    13.8620
  961.0000     8.2010     2.4560     0.0550    85.2310   -66.3500     8.3600     8.7200    13.6250
  961.5000     8.2090     2.4610     0.0520    86.5040   -66.2320     8.3840     8.7450    13.3590
  962.0000     8.2150     2.4620     0.0500    87.7800   -66.3050     8.4090     8.7700    13.0920
  962.5000     8.2210     2.4610     0.0500    86.8210   -66.3860     8.4340     8.7950    13.0010
  963.0000     8.2270     2.4610     0.0510    87.6840   -66.4680     8.4590     8.8200    13.0540
  963.5000     8.2330     2.4570     0.0510    90.0240   -66.5490     8.4840     8.8450    13.1730
  964.0000     8.2400     2.4540     0.0520    93.7790   -66.6310     8.5090     8.8700    13.2930
  964.5000     8.2400     2.4600     0.0540    96.7630   -66.7120     8.5340     8.8950    13.4920
  965.0000     8.2350     2.4680     0.0580    95.4710   -66.7940     8.5600     8.9200    13.8040
  965.5000     8.2290     2.4770     0.0610    94.1010   -66.8310     8.5860     8.9450    14.1180
  966.0000     8.2230     2.4820     0.0650    92.7130   -66.8250     8.6120     8.9700    14.1180
  966.5000     8.2170     2.4840     0.0690    91.2740   -66.8160     8.6380     8.9950    13.4860
  967.0000     8.2110     2.4840     0.0680    92.7640   -66.8070     8.6640     9.0120    13.8620
  967.5000     8.2060     2.4940     0.0680    94.6880   -66.7990     8.6860     9.0170    13.3630
  968.0000     8.1980     2.5070     0.0670    95.4480   -66.7900     8.6710     9.0210    13.9130
  968.5000     8.1850     2.5170     0.0670    95.3770   -66.7810     8.6500     9.0250    14.1180
  969.0000     8.1730     2.5160     0.0660    94.6980   -66.7720     8.6280     9.0300    13.7010
  969.5000     8.1600     2.5070     0.0640    93.0190   -66.7630     8.6070     9.0340    13.4860
  970.0000     8.1470     2.4970     0.0630    91.0620   -66.7540     8.5860     9.0380    13.5030
  970.5000     8.1350     2.4870     0.0620    90.7240   -66.7450     8.5650     9.0430    13.5370
  971.0000     8.1230     2.4790     0.0600    91.0900   -66.7360     8.5440     9.0470    13.5720
  971.5000     8.1170     2.4770     0.0570    92.0130   -66.7270     8.5260     9.0510    13.6060
  972.0000     8.1100     2.4800     0.0530    92.9260   -66.7190     8.5160     9.0560    13.6760
  972.5000     8.1030     2.4810     0.0500    93.6370   -66.7100     8.5060     9.0600    13.9280
  973.0000     8.0970     2.4770     0.0470    94.4840   -66.7010     8.4960     9.0640    14.1180
  973.5000     8.0900     2.4690     0.0440    96.0140   -66.6920     8.4860     9.0690    13.8980
  974.0000     8.0840     2.4650     0.0410    97.4820   -66.6830     8.4760     9.0730    13.7360
  974.5000     8.0770     2.4510     0.0410   100.1310   -66.6740     8.4660     9.0770    13.9900
  975.0000     8.0710     2.4500     0.0420   100.2430   -66.6650     8.4560     9.0810    13.9900
  975.5000     8.0680     2.4510     0.0440    99.3880   -66.6560     8.4460     9.0860    13.8870
  976.0000     8.0830     2.4540     0.0460    98.2860   -66.6470     8.4360     9.0900    13.7150
  976.5000     8.0980     2.4600     0.0480    99.3460   -66.6380     8.4260     9.1060    13.5420
  977.0000     8.1130     2.4650     0.0500   101.4560   -66.5880     8.4160     9.1790    13.3630
  977.5000     8.1280     2.4660     0.0520    99.4570   -66.4880     8.4060     9.2520    13.1200
  978.0000     8.1430     2.4660     0.0540    96.1120   -66.3880     8.3970     9.3250    13.5800
  978.5000     8.1580     2.4660     0.0550    92.7710   -66.2890     8.3870     9.3970    13.9900
  979.0000     8.1640     2.4730     0.0550    91.6110   -66.1890     8.3740     9.4700    13.6100
  979.5000     8.1830     2.4800     0.0550    90.5170   -66.0890     8.3840     9.5200    13.4860
  980.0000     8.1790     2.4840     0.0560    90.3920   -65.9890     8.3980     9.2190    14.1180
  980.5000     8.1620     2.4840     0.0570    93.2200   -65.8890     8.4120     9.0110    14.0200
  981.0000     8.1450     2.4860     0.0580    93.0040   -65.7900     8.4260     8.9930    13.8790
  981.5000     8.1270     2.4930     0.0580    90.9060   -65.6910     8.4400     8.9730    13.8620
  982.0000     8.1090     2.5020     0.0560    88.1930   -65.6830     8.4530     8.9530    14.1180
  982.5000     8.1140     2.5050     0.0540    87.6060   -65.8160     8.4670     8.9320    15.4730
  983.0000     8.1310     2.5060     0.0530    89.3380   -65.9440     8.4810     8.9120    14.9900
  983.5000     8.1470     2.5080     0.0540    91.1450   -66.0730     8.4950     8.8920    13.5780
  984.0000     8.1630     2.5100     0.0540    92.7180   -66.2020     8.5090     8.8720    12.7650
  984.5000     8.1640     2.5120     0.0550    92.3650   -66.3300     8.5260     8.8520    13.3630
  985.0000     8.1640     2.5080     0.0570    91.6670   -66.4590     8.4700     8.8320    13.4070
  985.5000     8.1640     2.5010     0.0560    90.6270   -66.5890     8.3730     8.8110    13.4500
  986.0000     8.1640     2.4940     0.0550    90.9170   -66.6410     8.2750     8.7910    13.4860
  986.5000     8.1640     2.4910     0.0550    93.8480   -66.6610     8.1780     8.7710    13.6070
  987.0000     8.1640     2.4960     0.0540    96.7200   -66.6810     8.0810     8.6010    13.7360
  987.5000     8.1640     2.5000     0.0530    98.7070   -66.7000     7.9840     8.3740    13.5280
  988.0000     8.1640     2.4980     0.0530    98.3810   -66.7190     7.8850     8.2900    12.9400
  988.5000     8.1640     2.4960     0.0520    96.2740   -66.7380     7.7860     8.2010    12.3530
  989.0000     8.1620     2.4950     0.0520    96.9320   -66.7570     7.6870     8.1120    12.1930
  989.5000     8.1590     2.4980     0.0510    98.3730   -66.7760     7.5870     8.0230    12.2550
