~VERSION INFORMATION
 VERS.                2.0:   CWLS LOG ASCII STANDARD - VERSION 2.0
 WRAP.                 NO:   ONE LINE PER DEPTH STEP
~WELL INFORMATION
#MNEM.UNIT      DATA TYPE    INFORMATION
#----------   ------------   ------------------------------
 STRT.F            0.5000:   START DEPTH
 STOP.F         4128.0000:   STOP DEPTH
 STEP.F            0.5000:   STEP LENGTH
 NULL.          -999.2500:   NO VALUE
 COMP. LAWRENCE ALLISON ASSOC WEST:   COMPANY
 WELL. LAWRENCE NPR "AX" #12-33:   WELL
 FLD .      NPR - WILDCAT:   FIELD
 LOC .      S33 T39N R78W:   LOCATION
 CNTY.            NATRONA:   COUNTY
 STAT.            WYOMING:   STATE
 CTRY. UNITED STATES OF AMERICA:   COUNTRY
 SRVC.      DRESSER ATLAS:   SERVICE COMPANY
 DATE.        04-AUG-1984:   LOGDATE
 API .     49025109720000:   API NUMBER
~CURVE INFORMATION
#MNEM.UNIT       API CODE    CURVE DESCRIPTION
#----------   ------------   ------------------------------
 DEPT.F                  :   
 CORR.G/C3   45 356 01 00:   DENSITY CORRECTION
 TEND.LBS    45 635 01 00:   TENSION FROM DENSITY LOG
 RHOB.G/C3   45 350 01 00:   BULK DENSITY
 GRR .GAPI   07 310 01 00:   GAMMA RAY FROM RESISTIVITY
 SPR .MV     07 010 01 00:   SPONTANEOUS POTENTIAL
 RFOC.OHMM   07 220 04 00:   RESISTIVITY FOCUSED LOG RES.
 RILM.OHMM   07 120 44 00:   RESISTIVITY INDUCTION LOG MEDIUM
 RILD.OHMM   07 120 46 00:   RESISTIVITY INDUCTION LOG MEDIUM
 TENR.LBS    07 635 01 00:   TENSION FROM RESISTIVITY
 CALR.IN     07 280 01 00:   CALIPER FROM RESISTIVITY
 DT  .US/F   60 520 00 00:   DELTA TIME
 TENS.LBS    60 635 01 00:   TENSION FROM SONIC
 SPHI.DEC    60 890 00 00:   SONIC POROSITY
~PARAMETER INFORMATION
#MNEM.UNIT          VALUE    DESCRIPTION
#----------   ------------   ------------------------------
 EKB .F         5170.0000:   Kelly bushing
 EGL .F         5157.0000:   Ground level
 EDF .F            0.0000:   Drilling floor
 TD  .F         4121.0000:   Total depth
 DATE.        04-AUG-1984:   Date logged
 CLNT.            A2DTECH:   Client Code
 SL  . 857' FNL & 751' FWL:   Surface Location
 PD  .                 GL:   Permanent Datum
 EPD .F              5157:   Elevation Permanent Datum
 LMF .                 KB:   Log Measured From
 DMF .                 KB:   Drilling Measured From
 DAPD.F                13:   Feet Above Permanent Datum
 DD  .F              4120:   Depth driller
 DL  .F              4121:   Depth logger
 BLI .F              4119:   Bottom log interval
 CS1 .IN            8.625:   Casing size
 CBD1.      8.625" @ 625':   Casing driller 1
 CBL1.F               624:   Casing logger 1
 BS1 .IN            7.875:   Bit size
 BSD1.F              4120:   Depth drilled with bit1
 DFT .            GEL/KCL:   Type fluid in hole
 DFD .                9.1:   Density
 DFV .                 40:   Viscosity
 DFPH.                8.5:   pH
 DFL .                 11:   Fluid loss
 MSS .               TANK:   Source of sample
 RMS .OHMM           .302:   Rm
 MST .F                84:   Rm Meas. temp.
 RMF .OHMM            .22:   Rmf
 MFST.F                84:   Rmf Meas. temp.
 RMC .OHMM            .38:   Rmc
 MCST.F                84:   Rmc Meas. temp.
 MFSS.               CALC:   Source Rmf.
 MCSS.               CALC:   Source Rmc.
 RMB .OHMM            .19:   Rm. at BHT
 BHT .F               132:   BHT.
 TCS .HRS               4:   Time Circ. stopped
 MRT .F               132:   Maximum recorded temp.
 LUN .               6307:   Logging unit number
 LUL .               GLTE:   Logging unit location
 ENGI.           FAHLSING:   Recorded By
 WITN.       ROBERT SCOTT:   Witnessed by
 ORIG.           5" PRINT:   Origin of data
 UWI .     49025109720000:   Unique Well ID
 DICO. A2D TECHNOLOGIES, INC.:   Digitizing Company
~OTHER INFORMATION
~A    DEPT    CORR       TEND       RHOB         GRR       SPR       RFOC       RILM       RILD       TENR       CALR         DT       TENS       SPHI   
# ...
 4108.5000     0.0470   -35.4450     2.6110  -999.2500   -72.4650     5.5670     5.7110     5.0350   101.1920     7.8030  -999.2500    36.6530  -999.2500
 4109.0000     0.0540   -32.9320     2.6150  -999.2500   -72.9620     5.7600     5.8570     5.0430   102.2340     7.8030  -999.2500    37.7410  -999.2500
 4109.5000     0.0800   -30.4200     2.6150  -999.2500   -73.3810     6.0360     6.0030     5.0510   103.2760     7.8030  -999.2500    38.8290  -999.2500
 4110.0000     0.0780   -27.9070     2.6070  -999.2500   -73.8000     6.4490     6.1030     5.0580   104.3180     7.8030  -999.2500    39.9170  -999.2500
 4110.5000     0.0700   -25.3940     2.5960  -999.2500   -74.2200     6.3990     6.1590     5.0660   105.3600     7.8030  -999.2500    41.0050  -999.2500
 4111.0000     0.0610   -22.8810     2.5870  -999.2500   -74.6440     6.2980     6.0750     5.0740   106.4030     7.8030  -999.2500    42.0930  -999.2500
 4111.5000     0.0640   -20.3680     2.5850  -999.2500   -74.7970     6.1960     5.9990     5.0820   107.4450     7.8030  -999.2500    43.1810  -999.2500
 4112.0000     0.0740   -17.8550     2.5850  -999.2500   -74.7990     6.0950     5.9220     5.0900   108.4870     7.8030  -999.2500    44.2690  -999.2500
 4112.5000     0.0840   -15.3420     2.5850  -999.2500   -74.7970     5.9940     5.8460     5.0980   109.5290     7.8030  -999.2500    45.3570  -999.2500
 4113.0000     0.0820   -12.8290     2.5840  -999.2500   -74.7250     5.8820     5.7690     5.1060   110.5710     7.8030  -999.2500    46.4450  -999.2500
 4113.5000     0.0690   -10.3160     2.5790  -999.2500   -74.6500     5.8290     5.6930     5.1140   111.6130     7.8030  -999.2500    47.5330  -999.2500
 4114.0000     0.0560    -7.8040     2.5690  -999.2500   -74.5740     5.8290     5.6700     5.1240   112.6550     7.8030  -999.2500    48.6210  -999.2500
 4114.5000     0.0800    -5.2910     2.5600  -999.2500   -74.4990     5.8290     5.7120     5.1190   113.6970     7.8030  -999.2500    49.7090  -999.2500
 4115.0000     0.1140    20.4090     2.5430  -999.2500   -74.4240     5.8290     5.7450     5.1110   114.6350     7.8030  -999.2500    50.7970  -999.2500
 4115.5000     0.1100    49.1420     2.5280  -999.2500   -74.3490     5.8290     5.7770     5.1030   114.6350     7.8030  -999.2500    51.8850  -999.2500
 4116.0000     0.0990    77.8750     2.4830  -999.2500   -74.2740     5.8290     5.8100     5.0950   114.6350     7.8030  -999.2500    52.9730  -999.2500
 4116.5000  -999.2500   105.0000  -999.2500  -999.2500   -74.1980     5.3170     5.8420     5.0870   114.6350     7.8030  -999.2500    54.0610  -999.2500
 4117.0000  -999.2500    76.4140  -999.2500  -999.2500   -74.1230     4.7830     5.8750     5.0790   114.6350     7.8030  -999.2500    55.1490  -999.2500
 4117.5000  -999.2500    49.3430  -999.2500  -999.2500   -74.0480     4.7610     5.9080     5.0710   114.6350     7.8030  -999.2500    58.8510  -999.2500
 4118.0000  -999.2500    22.2730  -999.2500  -999.2500   -73.9730     4.9070     5.9370     5.0630   114.6350     7.8030  -999.2500    62.9920  -999.2500
 4118.5000  -999.2500    -4.7980  -999.2500  -999.2500   -73.8980     5.1990     5.9160     5.0550    93.6560     7.8030  -999.2500    65.3150  -999.2500
 4119.0000  -999.2500   -31.8690  -999.2500  -999.2500   -73.8210     5.4920     5.8960     5.0470    63.6860     7.8030  -999.2500    27.6590  -999.2500
 4119.5000  -999.2500   -58.9390  -999.2500  -999.2500  -999.2500  -999.2500  -999.2500  -999.2500    33.7160  -999.2500  -999.2500    -5.4700  -999.2500
 4120.0000  -999.2500   -75.3310  -999.2500  -999.2500  -999.2500  -999.2500  -999.2500  -999.2500     3.7460  -999.2500  -999.2500   -38.5980  -999.2500
 4120.5000  -999.2500   -76.1450  -999.2500  -999.2500  -999.2500  -999.2500  -999.2500  -999.2500   -26.2240  -999.2500  -999.2500   -69.9990  -999.2500
 4121.0000  -999.2500   -76.9580  -999.2500  -999.2500  -999.2500  -999.2500  -999.2500  -999.2500   -56.1940  -999.2500  -999.2500   -94.8450  -999.2500
 4121.5000  -999.2500   -77.7720  -999.2500  -999.2500  -999.2500  -999.2500  -999.2500  -999.2500   -67.5960  -999.2500  -999.2500  -119.6910  -999.2500
 4122.0000  -999.2500   -78.5850  -999.2500  -999.2500  -999.2500  -999.2500  -999.2500  -999.2500   -71.0410  -999.2500  -999.2500  -124.8750  -999.2500
 4122.5000  -999.2500   -79.3990  -999.2500  -999.2500  -999.2500  -999.2500  -999.2500  -999.2500   -74.4860  -999.2500  -999.2500  -137.8820  -999.2500
 4123.0000  -999.2500   -80.2130  -999.2500  -999.2500  -999.2500  -999.2500  -999.2500  -999.2500   -77.9310  -999.2500  -999.2500  -141.7050  -999.2500
 4123.5000  -999.2500   -81.0260  -999.2500  -999.2500  -999.2500  -999.2500  -999.2500  -999.2500   -81.3760  -999.2500  -999.2500  -144.8950  -999.2500
 4124.0000  -999.2500   -81.8400  -999.2500  -999.2500  -999.2500  -999.2500  -999.2500  -999.2500   -84.8200  -999.2500  -999.2500  -144.8950  -999.2500
 4124.5000  -999.2500   -82.6530  -999.2500  -999.2500  -999.2500  -999.2500  -999.2500  -999.2500   -88.2650  -999.2500  -999.2500  -144.8950  -999.2500
 4125.0000  -999.2500   -83.4670  -999.2500  -999.2500  -999.2500  -999.2500  -999.2500  -999.2500   -91.7100  -999.2500  -999.2500  -144.8950  -999.2500
 4125.5000  -999.2500   -84.2810  -999.2500  -999.2500  -999.2500  -999.2500  -999.2500  -999.2500   -95.1550  -999.2500  -999.2500  -144.8950  -999.2500
 4126.0000  -999.2500   -85.0000  -999.2500  -999.2500  -999.2500  -999.2500  -999.2500  -999.2500   -98.6000  -999.2500  -999.2500  -144.8950  -999.2500
 4126.5000  -999.2500   -85.0000  -999.2500  -999.2500  -999.2500  -999.2500  -999.2500  -999.2500  -102.0450  -999.2500  -999.2500  -144.8950  -999.2500
 4127.0000  -999.2500   -85.0000  -999.2500  -999.2500  -999.2500  -999.2500  -999.2500  -999.2500  -105.1450  -999.2500  -999.2500  -144.8950  -999.2500
 4127.5000  -999.2500  -999.2500  -999.2500  -999.2500  -999.2500  -999.2500  -999.2500  -999.2500  -105.1450  -999.2500  -999.2500  -144.8950  -999.2500
 4128.0000  -999.2500  -999.2500  -999.2500  -999.2500  -999.2500  -999.2500  -999.2500  -999.2500  -105.1450  -999.2500  -999.2500  -144.8950  -999.2500
