~VERSION INFORMATION
 VERS.                2.0:   CWLS LOG ASCII STANDARD - VERSION 2.0
 WRAP.                 NO:   ONE LINE PER DEPTH STEP
~WELL INFORMATION
#MNEM.UNIT      DATA TYPE    INFORMATION
#----------   ------------   ------------------------------
 STRT.F          198.0000:   START DEPTH
 STOP.F         3140.0000:   STOP DEPTH
 STEP.F            0.5000:   STEP LENGTH
 NULL.          -999.2500:   NO VALUE
 COMP.    FENIX & SCISSON:   COMPANY
 WELL. FENIX NPR 3 "AX" #43-34:   WELL
 FLD .                NPR:   FIELD
 LOC .      S34 T39N R78W:   LOCATION
 CNTY.            NATRONA:   COUNTY
 STAT.            WYOMING:   STATE
 CTRY. UNITED STATES OF AMERICA:   COUNTRY
 SRVC.              WELEX:   SERVICE COMPANY
 DATE.        02-JUL-1977:   LOGDATE
 API .     49025103890000:   API NUMBER
~CURVE INFORMATION
#MNEM.UNIT       API CODE    CURVE DESCRIPTION
#----------   ------------   ------------------------------
 DEPT.F                  :   
 CALD.IN     45 280 60 00:   CALIPER FROM DENSITY LOG
 GRD .GAPI   45 310 01 00:   GAMMA RAY FROM DENSITY LOG
 RHOB.G/C3   45 350 01 00:   BULK DENSITY
 CORR.G/C3   45 356 01 00:   DENSITY CORRECTION
 SPR .MV     07 010 01 00:   SPONTANEOUS POTENTIAL
 SFLU.OHMM   07 220 01 00:   SPHERICALLY FOCUSED LOG UNAVERAGED RESISTIVITY
 ILD .OHMM   07 120 46 00:   DEEP INDUCTION RESISTIVITY
 ILM .OHMM   07 120 44 00:   INDUCTION LOG MEDIUM RESISTIVITY
~PARAMETER INFORMATION
#MNEM.UNIT          VALUE    DESCRIPTION
#----------   ------------   ------------------------------
 EKB .F         5118.0000:   Kelly bushing
 EGL .F         5108.0000:   Ground level
 TD  .F         3145.0000:   Total depth
 DATE.        02-JUL-1977:   Date logged
 CLNT.            A2DTECH:   Client Code
 SL  . 1650' FNL & 2310' FWL:   Surface Location
 PD  .                 GL:   Permanent Datum
 EPD .F              5108:   Elevation Permanent Datum
 LMF .                 KB:   Log Measured From
 DMF .                 KB:   Drilling Measured From
 DAPD.F                10:   Feet Above Permanent Datum
 DD  .F              3145:   Depth driller
 DL  .F              3143:   Depth logger
 BLI .F              3141:   Bottom log interval
 TLI .F               200:   Top log interval
 CS1 .IN            8.625:   Casing size
 CBD1.      8.625" @ 203':   Casing driller 1
 CBL1.F               224:   Casing logger 1
 BS1 .IN            7.875:   Bit size
 BSD1.F              3145:   Depth drilled with bit1
 DFT .            KCL/MUD:   Type fluid in hole
 DFD .                  9:   Density
 DFV .                 34:   Viscosity
 DFPH.                7.5:   pH
 DFL .                9.2:   Fluid loss
 MSS .           FLOWLINE:   Source of sample
 RMS .OHMM            .18:   Rm
 MST .F                75:   Rm Meas. temp.
 RMF .OHMM            .16:   Rmf
 MFST.F                75:   Rmf Meas. temp.
 RMC .OHMM            .30:   Rmc
 MCST.F                75:   Rmc Meas. temp.
 MFSS.               FANN:   Source Rmf.
 MCSS.                KIT:   Source Rmc.
 RMB .OHMM            .11:   Rm. at BHT
 BHT .F               118:   BHT.
 TCS .HRS            3.75:   Time Circ. stopped
 MRT .F               118:   Maximum recorded temp.
 LUN .               8766:   Logging unit number
 LUL .             CASPER:   Logging unit location
 ENGI.          T. JOYNER:   Recorded By
 WITN.     W. PETTNG/GILL:   Witnessed by
 ORIG.           5" PRINT:   Origin of data
 UWI .     49025103890000:   Unique Well ID
 DICO. A2D TECHNOLOGIES, INC.:   Digitizing Company
~OTHER INFORMATION
~A   DEPT     CALD         GRD        RHOB     CORR        SPR       SFLU        ILD        ILM   
# ...
 1939.5000     8.2735   163.3273     2.4769     0.0356   -50.3976    11.7081     7.5938     8.6326
 1940.0000     8.2739   165.7164     2.4789     0.0357   -50.3976    11.7064     7.5921     8.6319
 1940.5000     8.2743   162.9463     2.4829     0.0357   -50.3976    11.4915     7.5904     8.6300
 1941.0000     8.2747   164.9386     2.4869     0.0398   -50.3976    11.2813     7.5888     8.4719
 1941.5000     8.2751   166.5339     2.4889     0.0398   -50.3976    11.2788     7.5871     8.4700
 1942.0000     8.2755   165.3513     2.4919     0.0438   -50.3976    11.2772     7.5860     8.3148
 1942.5000     8.2759   165.7561     2.4959     0.0439   -50.3976    11.2747     7.4464     8.1618
 1943.0000     8.2763   163.3830     2.4979     0.0439   -50.3976    11.2730     7.3602     8.1606
 1943.5000     8.2767   160.2161     2.4950     0.0440   -50.3976    11.2706     7.3078     8.0105
 1944.0000     8.2771   161.0225     2.4940     0.0440   -50.3976    11.2689     7.1744     7.8637
 1944.5000     8.2775   160.6289     2.4940     0.0401   -50.3976    11.2664     7.1734     7.8620
 1945.0000     8.2779   159.4447     2.4940     0.0401   -50.3976    11.2648     7.1723     7.8608
 1945.5000     8.2783   158.6605     2.4941     0.0402   -50.3976    11.2631     7.1712     7.8597
 1946.0000     8.2787   158.2716     2.5031     0.0402   -50.3976    11.2615     7.1691     8.0034
 1946.5000     8.2791   159.4701     2.5111     0.0403   -49.9992    10.8542     7.3008     8.3020
 1947.0000     8.2795   162.6529     2.5131     0.0403   -49.9992    10.8518     7.4344     8.3001
 1947.5000     8.2799   166.2357     2.5131     0.0484   -49.9992    11.4619     7.5715     8.2989
 1948.0000     8.2803   165.0499     2.5111     0.0484   -49.9992    11.2524     7.7100     8.2965
 1948.5000     8.2807   163.4705     2.4972     0.0445   -49.9992    11.2500     7.7088     8.2952
 1949.0000     8.2811   161.8910     2.4873     0.0445   -49.9992    11.2490     7.8492     8.2940
 1949.5000     8.2815   161.8990     2.4843     0.0406   -49.9992    11.4552     7.8481     8.6021
 1950.0000     8.2819   165.8754     2.4833     0.0406   -49.9992    11.5192     7.8469     8.6008
 1950.5000     8.2823   165.4834     2.4883     0.0447   -49.9992    11.7160     7.8447     8.5986
 1951.0000     8.2827   162.3197     2.4903     0.0487   -50.0071    11.9162     7.8435     8.5969
 1951.5000     8.2831   161.5339     2.4923     0.0607   -50.0103    11.9578     7.8418     8.5958
 1952.0000     8.2835   162.3356     2.4944     0.0607   -50.0151    12.5404     7.8406     8.4383
 1952.5000     8.2838   162.3435     2.4954     0.0608   -50.0182    11.8685     7.8395     8.4352
 1953.0000     8.2842   163.1452     2.4994     0.0608   -50.0230    11.8659     7.8383     8.4342
 1953.5000     8.2846   167.5185     2.4994     0.0609   -50.0262    12.3974     7.9823     8.4333
 1954.0000     8.2850   168.7170     2.5004     0.0609   -50.0309    12.3382     8.1283     8.7473
 1954.5000     8.2854   168.7250     2.5004     0.0610   -50.0341    12.2793     8.2776     8.7454
 1955.0000     8.2858   169.1298     2.5005     0.0610   -50.0389    12.2207     8.5845     9.0702
 1955.5000     8.2862   169.1378     2.5005     0.0611   -50.0420    12.1622     8.7421     9.2375
 1956.0000     8.2866   168.3520     2.4995     0.0571   -50.0468    12.5221     8.7409     9.4058
 1956.5000     8.2870   166.7726     2.4946     0.0572   -50.0499    12.5194     8.7396     9.4044
 1957.0000     8.2874   166.7805     2.4896     0.0572   -50.0547    12.5175     8.5782     9.4023
 1957.5000     8.2878   170.3602     2.4876     0.0533   -50.4558    12.5148     8.4210     9.4017
 1958.0000     8.2882   167.5885     2.4837     0.0414   -50.0626    12.2860     8.2673     9.0603
 1958.5000     8.2886   167.5949     2.4797     0.0374   -50.0658    12.0604     8.2655     9.0589
 1959.0000     8.2890   164.8313     2.4757     0.0375   -50.0705    11.8399     8.1128     8.8923
 1959.5000     8.2894   162.8518     2.4728     0.0375   -50.0737    11.6226     7.9642     8.7293
 1960.0000     8.2898   163.2566     2.4708     0.0376   -50.0784    11.6217     7.9622     8.7274
 1960.5000     8.2902   162.4708     2.4698     0.0376   -50.0816    10.6020     7.8165     8.7261
 1961.0000     8.2906   162.8756     2.4679     0.0337   -49.6886    12.0499     7.8154     8.7242
 1961.5000     8.2910   162.4867     2.4659     0.0337   -49.6918    12.9626     7.8137     8.7230
 1962.0000     8.2914   162.8915     2.4659     0.0378   -49.2990    12.9607     7.8125     8.7217
 1962.5000     8.2918   162.8995     2.4659     0.0378   -49.3022    12.0428     7.8108     8.7191
 1963.0000     8.2922   168.8602     2.4660     0.0339   -49.3070    11.8226     7.9543     8.8793
 1963.5000     8.2926   169.6619     2.4660     0.0299   -49.3102    11.9062     8.2491     8.8780
 1964.0000     8.2930   168.0824     2.4660     0.0300   -49.3150    11.9045     8.4007     9.0404
 1964.5000     8.2934   168.8841     2.4660     0.0300   -49.3182    12.3467     8.5550     9.2064
 1965.0000     8.2938   169.2873     2.4660     0.0301   -49.3231    12.5735     8.7121     9.2044
 1965.5000     8.2942   170.0890     2.4720     0.0381   -49.3263    12.8035     8.8721     9.3728
 1966.0000     8.2946   171.6843     2.4751     0.0342   -48.9337    12.8016     8.8702     9.5449
 1966.5000     8.2950   173.2797     2.4681     0.0342   -48.9369    12.7988     8.8682    10.2703
 1967.0000     8.2954   174.4782     2.4641     0.0343   -48.9418    12.7969     8.8669    10.2688
 1967.5000     8.2958   178.8468     2.4642     0.0383   -48.9450    13.0310     8.8650    10.2658
 1968.0000     8.2962   172.5098     2.4642     0.0463   -48.9498    13.0291     8.8637     9.8944
 1968.5000     8.2966   171.3272     2.4542     0.0344   -48.9531    13.0262     8.8624     9.5358
 1969.0000     8.2970   173.7179     2.4563     0.0344   -48.9579    13.0243     8.6987     9.5344
 1969.5000     8.2974   173.7211     2.4603     0.0345   -48.9612    13.0215     8.5387     9.3597
 1970.0000     8.2978   171.7480     2.4623     0.0345   -48.9660    12.9228     8.5371     9.3584
 1970.5000     8.2981   169.3748     2.4583     0.0386   -48.9692    12.9200     8.5362     9.1862
 1971.0000     8.2985   167.3985     2.4504     0.0346   -48.9741    12.9181     8.5349     9.0179
 1971.5000     8.2989   165.8206     2.4544     0.0387   -48.9773    12.6810     8.5324     9.0152
 1972.0000     8.2993   165.8270     2.4624     0.0387   -48.9822    12.2233     8.5308     9.0139
 1972.5000     8.2997   167.0255     2.4664     0.0428   -48.9854    11.3576     8.5293     9.6693
 1973.0000     8.3001   168.2208     2.4724     0.0428   -48.9902    11.5658     8.5280     9.6679
 1973.5000     8.3005   169.4225     2.4764     0.0468   -48.9934    12.4418     8.5262    10.0577
 1974.0000     8.3009   168.6368     2.4744     0.0469   -48.9983    12.9039     8.5249    10.0555
 1974.5000     8.3013   169.4384     2.4744     0.0429   -49.0015    12.9986     8.5237     9.6911
 1975.0000     8.3017   170.2401     2.4705     0.0390   -49.0063    12.7925     8.5215     9.5142
 1975.5000     8.3021   169.4543     2.4645     0.0391   -49.0096    12.5897     8.5212     9.3385
 1976.0000     8.3025   169.0654     2.4645     0.0391   -49.0144    11.7666     8.6764     9.3367
 1976.5000     8.3029   168.6765     2.4646     0.0392   -49.0176    11.5506     8.8358     9.3358
 1977.0000     8.3033   170.2719     2.4626     0.0432   -49.0225    11.9796     8.9981     9.3337
 1977.5000     8.3037   171.0736     2.4606     0.0472   -49.0257    12.8870     8.9961     9.3323
 1978.0000     8.3041   170.2878     2.4606     0.0512   -49.0305    12.8851     8.9948     9.5038
 1978.5000     8.2450   171.0895     2.4607     0.0553   -49.0337    12.8823     8.9935     9.8561
 1979.0000     8.2453   173.4785     2.4627     0.0553   -49.0386    12.6467     8.9915     9.8546
 1979.5000     8.2457   173.0896     2.4667     0.0594   -49.0418    12.4146     8.8261     9.8532
