~VERSION INFORMATION
 VERS.                2.0:   CWLS LOG ASCII STANDARD - VERSION 2.0
 WRAP.                 NO:   ONE LINE PER DEPTH STEP
~WELL INFORMATION
#MNEM.UNIT      DATA TYPE    INFORMATION
#----------   ------------   ------------------------------
 STRT.F          196.5000:   START DEPTH
 STOP.F         3219.0000:   STOP DEPTH
 STEP.F            0.5000:   STEP LENGTH
 NULL.          -999.2500:   NO VALUE
 COMP.    FENIX & SCISSON:   COMPANY
 WELL.  FENIX "AX" #73-15:   WELL
 FLD .              NPR 3:   FIELD
 LOC .      S15 T38N R78W:   LOCATION
 CNTY.            NATRONA:   COUNTY
 STAT.            WYOMING:   STATE
 CTRY. UNITED STATES OF AMERICA:   COUNTRY
 SRVC.       SCHLUMBERGER:   SERVICE COMPANY
 DATE.        30-AUG-1977:   LOGDATE
 API .     49025104270000:   API NUMBER
~CURVE INFORMATION
#MNEM.UNIT       API CODE    CURVE DESCRIPTION
#----------   ------------   ------------------------------
 DEPT.F                  :   
 NPHI.DEC    42 890 03 00:   NEUTRON POROSITY SANDSTONE
 CALD.IN     45 280 60 00:   CALIPER FROM DENSITY LOG
 GRD .GAPI   45 310 01 00:   GAMMA RAY FROM DENSITY LOG
 CORR.G/C3   45 356 01 00:   DENSITY CORRECTION
 RHOB.G/C3   45 350 01 00:   BULK DENSITY
 SPR .MV     07 010 01 00:   SPONTANEOUS POTENTIAL
 RILD.OHMM   07 120 46 00:   DEEP INDUCTION RESISTIVITY
 RILM.OHMM   07 120 44 00:   INDUCTION LOG MEDIUM RESISTIVITY
 LL8 .OHMM   07 220 08 00:   LATEROLOG-8 RES.
~PARAMETER INFORMATION
#MNEM.UNIT          VALUE    DESCRIPTION
#----------   ------------   ------------------------------
 EKB .F         5263.0000:   Kelly bushing
 EGL .F         5253.0000:   Ground level
 TD  .F         3220.0000:   Total depth
 CLNT.            A2DTECH:   Client Code
 SL  . 1650' FNL & 875' FEL:   Surface Location
 PD  .                 GL:   Permanent Datum
 EPD .F              5253:   Elevation Permanent Datum
 LMF .                 KB:   Log Measured From
 DMF .                 KB:   Drilling Measured From
 DAPD.F                10:   Feet Above Permanent Datum
 DATE.        30-AUG-1977:   Date Logged [DD-MMM-YYYY]
 DD  .F              3220:   Depth driller
 DL  .F              3219:   Depth logger
 BLI .F              3209:   Bottom log interval
 TLI .F               216:   Top log interval
 CS1 .IN            8.625:   Casing size
 CBL1.F               216:   Casing logger 1
 BS1 .IN            7.875:   Bit size
 BSD1.F              3220:   Depth drilled with bit1
 DFT .                FGM:   Type fluid in hole
 DFD .                8.9:   Density
 DFPH.                 11:   pH
 MSS .            MUDTANK:   Source of sample
 RMS .OHMM           0.40:   Rm
 MST .F                82:   Rm Meas. temp.
 RMF .OHMM           0.25:   Rmf
 MFST.F                72:   Rmf Meas. temp.
 MFSS.               MEAS:   Source Rmf.
 RMC .OHMM           0.60:   Rmc
 MCST.F                82:   Rmc Meas. temp.
 MCSS.               CALC:   Source Rmc.
 RMB .OHMM           0.27:   Rm. at BHT
 BHT .F               120:   BHT.
 MRT .F               120:   Maximum recorded temp.
 LUN .               5642:   Logging unit number
 LUL .               CSPR:   Logging unit location
 ENGI.                FIX:   Recorded By
 WITN.         RETTINGILL:   Witnessed by
 ORIG.           5" PRINT:   Origin of data
 UWI .     49025104270000:   Unique Well ID
 DICO. A2D TECHNOLOGIES, INC.:   Digitizing Company
 DFV .                 35:   Viscosity
 DFL .                8.4:   Fluid loss
 CBD1.      8.625" @ 216':   Casing driller 1
~OTHER INFORMATION
~A   DEPT       NPHI     CALD        GRD       CORR       RHOB        SPR       RILD       RILM        LL8   
# ...
 3189.5000     0.2790     7.7532   139.1445     0.0553     2.4504   -77.8739     3.2064     3.1871     3.7881
 3190.0000     0.2772     7.7556   145.1910     0.0404     2.4482   -78.0072     3.1416     3.1353     3.6568
 3190.5000     0.2699     7.7580   148.3401     0.0541     2.4543   -77.9895     3.0781     3.0836     3.4879
 3191.0000     0.2817     7.7454   151.2639     0.0602     2.4559   -78.1228     3.0314     3.0319     3.5373
 3191.5000     0.2988     7.7478   158.2019     0.0680     2.4598   -78.2538     2.9754     2.9802     3.6879
 3192.0000     0.3036     7.7352   170.9147     0.0527     2.4682   -78.2356     2.9556     2.9285     3.8449
 3192.5000     0.3078     7.7382   180.2041     0.0470     2.4638   -78.2175     2.9160     2.8674     3.8993
 3193.0000     0.3094     7.7405   183.3523     0.0426     2.4406   -78.1994     2.8771     2.7514     3.8200
 3193.5000     0.3061     7.7429   182.8113     0.0330     2.4280   -78.3332     2.8385     2.6801     3.6655
 3194.0000     0.2989     7.7453   167.2632     0.0181     2.4123   -78.3111     2.8005     2.6438     3.4450
 3194.5000     0.2976     7.7476   137.4232     0.0250     2.4034   -78.1423     2.7614     2.5903     3.2603
 3195.0000     0.3042     7.7345   134.1085     0.0273     2.4028   -78.1245     2.6854     2.5729     3.1501
 3195.5000     0.3108     7.7220   134.3603     0.0117     2.3849   -77.9557     2.6161     2.5738     3.0648
 3196.0000     0.3150     7.7249   134.6122     0.0283     2.3730   -77.9380     2.5988     2.5745     3.0025
 3196.5000     0.3088     7.7273   134.6411     0.0322     2.3851   -77.7692     2.5817     2.5931     3.0053
 3197.0000     0.3043     7.7297   134.6826     0.0248     2.3882   -77.7514     2.5648     2.6118     3.1096
 3197.5000     0.3032     7.7320   134.9220     0.0182     2.3928   -77.7337     2.5480     2.6307     3.4027
 3198.0000     0.3104     7.7344   134.9510     0.0303     2.3990   -77.7160     2.5312     2.6314     3.2203
 3198.5000     0.3286     7.7368   134.9855     0.0364     2.4036   -77.6979     2.5149     2.6124     3.0476
 3199.0000     0.3349     7.7391   135.0142     0.0381     2.4044   -77.6798     2.4984     2.5579     2.9446
 3199.5000     0.3322     7.7415   135.0429     0.0367     2.4083   -77.6583     2.4820     2.5090     2.9048
 3200.0000     0.3244     7.7439   134.8416     0.0443     2.4264   -77.6405     2.4657     2.4922     2.9458
 3200.5000     0.3110     7.7462   134.8775     0.0392     2.4122   -77.5937     2.4482     2.4587     3.0925
 3201.0000     0.3005     7.7486   134.9062     0.0348     2.4044   -77.4540     2.4000     2.4594     3.0088
 3201.5000  -999.2500     7.7510   134.7048     0.0447     2.4000   -77.2870     2.3680     2.4429     2.9071
 3202.0000  -999.2500     7.7533   134.7204     0.0523     2.4126   -77.2675     2.3363     2.4267     2.8480
 3202.5000  -999.2500     7.7534   134.7040     0.0561     2.4052   -77.2497     2.3207     2.4106     2.8486
 3203.0000  -999.2500     7.7526   134.6877     0.0592     2.4091   -77.2320     2.3057     2.3782     2.9119
 3203.5000  -999.2500     7.7518   134.6713     0.0519     2.3897   -77.0632     2.2906     2.3461     3.0965
 3204.0000  -999.2500     7.7510   134.6549     0.0565     2.3853   -76.8943     2.2756     2.2985     3.2283
 3204.5000  -999.2500     7.7503   134.6386     0.0476     2.3741   -76.8761     2.2763     2.2832     3.0341
 3205.0000  -999.2500     7.7495   134.6222     0.0364     2.3562   -76.7034     2.2614     2.2681     2.8714
 3205.5000  -999.2500     7.7487   134.6059     0.0485     2.3609   -76.6857     2.2779     2.2846     2.7743
 3206.0000  -999.2500     7.7479   134.5895     0.0689     2.4128   -76.5169     2.2945     2.3011     2.7367
 3206.5000  -999.2500     7.7472   134.5731     0.0563     2.4001   -76.4991     2.3286     2.3664     2.8337
 3207.0000  -999.2500     7.7472   134.5568     0.0526     2.4055   -76.1793     2.3989     2.5020     2.9340
 3207.5000  -999.2500     7.7496   134.5396     0.0520     2.4057   -75.8594     2.5307     2.6090     3.0378
 3208.0000  -999.2500     7.7520   134.5817     0.0551     2.3884   -75.5395     2.6389     2.7969     3.1453
 3208.5000  -999.2500     7.7394   134.7056     0.0702     2.3958   -75.2197     2.8289     2.9368     3.3261
 3209.0000  -999.2500     7.7269   134.8774     0.0396     2.3834   -75.0509     3.0326     3.1266     3.6832
 3209.5000  -999.2500     7.7298   135.1410     0.0479     2.3940   -74.8821     3.1404     3.3058     4.7890
 3210.0000  -999.2500     7.7167   135.1799     0.0390     2.4339   -74.5619     3.2074     3.3761     6.0721
 3210.5000  -999.2500     7.7196   135.2189     0.0467     2.4273  -999.2500  -999.2500  -999.2500  -999.2500
 3211.0000  -999.2500     7.7220   135.2563     0.0535     2.4150  -999.2500  -999.2500  -999.2500  -999.2500
 3211.5000  -999.2500     7.7095   135.2967     0.0589     2.4001  -999.2500  -999.2500  -999.2500  -999.2500
 3212.0000  -999.2500     7.7118   135.3343     0.0635     2.3931  -999.2500  -999.2500  -999.2500  -999.2500
 3212.5000  -999.2500     7.6987   135.3733     0.0298     2.4043  -999.2500  -999.2500  -999.2500  -999.2500
 3213.0000  -999.2500     7.6862   135.4123     0.0465     2.4369  -999.2500  -999.2500  -999.2500  -999.2500
 3213.5000  -999.2500     7.6742   135.4524     0.0451     2.4535  -999.2500  -999.2500  -999.2500  -999.2500
 3214.0000  -999.2500     7.6611   135.4903     0.0589     2.4769  -999.2500  -999.2500  -999.2500  -999.2500
 3214.5000  -999.2500     7.6641   135.5293     0.0550     2.4830  -999.2500  -999.2500  -999.2500  -999.2500
 3215.0000  -999.2500     7.6509   135.3455     0.0498     2.4629  -999.2500  -999.2500  -999.2500  -999.2500
 3215.5000  -999.2500     7.6384   135.3852     0.0438     2.4442  -999.2500  -999.2500  -999.2500  -999.2500
 3216.0000  -999.2500     7.6414   135.6470     0.0574     2.4616  -999.2500  -999.2500  -999.2500  -999.2500
 3216.5000  -999.2500     7.6282   135.6859     0.1066     2.4557  -999.2500  -999.2500  -999.2500  -999.2500
 3217.0000  -999.2500     7.0800   136.6164     0.1439     2.4393  -999.2500  -999.2500  -999.2500  -999.2500
 3217.5000  -999.2500     7.0519   138.8841     0.1556     2.4424  -999.2500  -999.2500  -999.2500  -999.2500
 3218.0000  -999.2500     7.0549   162.1093     0.1730     2.4523  -999.2500  -999.2500  -999.2500  -999.2500
 3218.5000  -999.2500     7.0720   185.3216     0.1979     2.4374  -999.2500  -999.2500  -999.2500  -999.2500
 3219.0000  -999.2500  -999.2500   189.5953     0.2085     2.4149  -999.2500  -999.2500  -999.2500  -999.2500
