~VERSION INFORMATION
 VERS.                2.0:   CWLS LOG ASCII STANDARD - VERSION 2.0
 WRAP.                 NO:   ONE LINE PER DEPTH STEP
~WELL INFORMATION
#MNEM.UNIT      DATA TYPE    INFORMATION
#----------   ------------   ------------------------------
 STRT.F          500.0000:   START DEPTH
 STOP.F         4646.0000:   STOP DEPTH
 STEP.F            0.5000:   STEP LENGTH
 NULL.          -999.2500:   NO VALUE
 COMP.    FENIX & SCISSON:   COMPANY
 WELL. LAWRENCE NPR 3 "X" #34-10:   WELL
 FLD .                NPR:   FIELD
 LOC .      S10 T38N R78W:   LOCATION
 CNTY.            NATRONA:   COUNTY
 STAT.            WYOMING:   STATE
 CTRY. UNITED STATES OF AMERICA:   COUNTRY
 SRVC.              WELEX:   SERVICE COMPANY
 DATE.        12-OCT-1979:   LOGDATE
 API .     49025109290000:   API NUMBER
~CURVE INFORMATION
#MNEM.UNIT       API CODE    CURVE DESCRIPTION
#----------   ------------   ------------------------------
 DEPT.F                  :   
 SPR .MV     07 010 01 00:   SPONTANEOUS POTENTIAL
 SGRD.OHMM   07 220 05 00:   SHALLOW GUARD LOG RESISTIVITY
 ILD .OHMM   07 120 46 00:   DEEP INDUCTION RESISTIVITY
 ILM .OHMM   07 120 44 00:   INDUCTION LOG MEDIUM RESISTIVITY
 TEND.LBS    45 635 01 00:   TENSION FROM DENSITY LOG
 CORR.G/C3   45 356 01 00:   DENSITY CORRECTION
 RHOB.G/C3   45 350 01 00:   BULK DENSITY
 NPHI.DEC    42 890 03 00:   NEUTRON POROSITY SANDSTONE
 GRD .GAPI   45 310 01 00:   GAMMA RAY FROM DENSITY LOG
 CALD.IN     45 280 60 00:   CALIPER FROM DENSITY LOG
~PARAMETER INFORMATION
#MNEM.UNIT          VALUE    DESCRIPTION
#----------   ------------   ------------------------------
 EKB .F         5234.0000:   Kelly bushing
 EGL .F         5224.0000:   Ground level
 EDF .F            0.0000:   Drilling floor
 TD  .F         4650.0000:   Total depth
 DATE.        12-OCT-1979:   Date logged
 CLNT.            A2DTECH:   Client Code
 SL  . 2055' FNL & 1509' FWL:   Surface Location
 PD  .                 GL:   Permanent Datum
 DD  .F              4650:   Depth driller
 DL  .F              4646:   Depth logger
 BLI .F              4644:   Bottom log interval
 CS1 .IN              500:   Casing size
 CBD1.      8.625" @ 500':   Casing driller 1
 CBL1.F               502:   Casing logger 1
 BS1 .IN            7.875:   Bit size
 DFT .           CHEM/GEL:   Type fluid in hole
 DFD .                8.8:   Density
 DFV .                 62:   Viscosity
 DFPH.               11.2:   pH
 DFL .                4.5:   Fluid loss
 MSS .            MUD/PIT:   Source of sample
 RMS .OHMM           1.18:   Rm
 MST .F                60:   Rm Meas. temp.
 RMF .OHMM            .94:   Rmf
 MFST.F                60:   Rmf Meas. temp.
 RMC .OHMM           1.41:   Rmc
 MCST.F                60:   Rmc Meas. temp.
 MFSS.               MEAS:   Source Rmf.
 RMB .OHMM            .81:   Rm. at BHT
 BHT .F                87:   BHT.
 TCS .HRS               2:   Time Circ. stopped
 MRT .F                87:   Maximum recorded temp.
 LUN .               1892:   Logging unit number
 LUL .             CASPER:   Logging unit location
 ENGI.               REIN:   Recorded By
 WITN.           DINSMORE:   Witnessed by
 ORIG.           5" PRINT:   Origin of data
 UWI .     49025109290000:   Unique Well ID
 DICO. A2D TECHNOLOGIES, INC.:   Digitizing Company
 DAPD.                 10:   Feet Above Permanent Datum
 BSD1.F              4650:   Depth drilled with bit1
 MCSS.               MEAS:   Source Rmc.
 EPD .F              5224:   Elevation Permanent Datum
 LMF .                 KB:   Log Measured From
 DMF .                 KB:   Drilling Measured From
 TLI .F               500:   Top log interval
~OTHER INFORMATION
~A   DEPT      SPR         SGRD      ILD         ILM      TEND         CORR       RHOB       NPHI       GRD        CALD 
# ...
 1337.5000   -40.2190     7.3030     6.9830     7.0560  1691.6920     0.1480     2.4770     0.0920    86.7290    10.6440
 1338.0000   -40.2240     7.2280     6.9080     7.0570  1691.6920     0.1500     2.4810     0.0850    86.7600    10.6560
 1338.5000   -40.3170     7.1530     6.8320     7.0400  1691.6920     0.1570     2.4910     0.0780    86.7850    10.6680
 1339.0000   -40.4090     7.0780     6.7560     7.0050  1691.6920     0.1630     2.5040     0.0760    86.8320    10.6800
 1339.5000   -40.5000     7.0040     6.6770     6.9700  1691.6920     0.1690     2.5160     0.0790    85.3580    10.6920
 1340.0000   -40.5910     6.9270     6.6440     6.9350  1691.6920     0.1760     2.5150     0.0810    82.9870    10.7000
 1340.5000   -40.6820     6.9530     6.6090     6.9000  1691.6920     0.1700     2.5100     0.0860    80.5940    10.6930
 1341.0000   -40.7730     6.9780     6.5750     6.8650  1691.6920     0.1620     2.5060     0.0890    78.1980    10.6850
 1341.5000   -40.8870     7.0040     6.5400     6.8290  1691.1940     0.1540     2.4970     0.0940    75.7210    10.6770
 1342.0000   -41.0250     7.0300     6.5060     6.7940  1690.2070     0.1460     2.4880     0.0990    76.1750    10.6690
 1342.5000   -41.1630     7.0560     6.4710     6.7590  1689.2200     0.1410     2.4790     0.0970    77.3780    10.6620
 1343.0000   -41.3010     7.0820     6.4370     6.7240  1688.2330     0.1410     2.4780     0.0980    78.5900    10.6690
 1343.5000   -41.4380     7.1080     6.4020     6.6890  1687.2460     0.1450     2.4810     0.0990    78.9790    10.7110
 1344.0000   -41.5850     7.1220     6.3680     6.6540  1686.2600     0.1520     2.4790     0.0960    78.4230    10.7510
 1344.5000   -41.4850     6.9920     6.3330     6.6150  1685.2729     0.1630     2.4830     0.0890    78.2770    10.7910
 1345.0000   -41.2980     6.9030     6.2990     6.5920  1684.2860     0.1750     2.4940     0.0810    79.0190    10.8330
 1345.5000   -41.1100     6.8640     6.2640     6.5660  1683.2990     0.1860     2.5040     0.0820    79.7520    10.8480
 1346.0000   -40.9220     6.9110     6.2300     6.5400  1682.3120     0.1890     2.5120     0.0860    80.3940    10.8570
 1346.5000   -40.7350     6.9460     6.1950     6.5150  1681.3260     0.1800     2.5050     0.0900    79.6250    10.8660
 1347.0000   -40.5470     6.9920     6.1610     6.4890  1680.3390     0.1710     2.4950     0.0900    78.8170    10.8750
 1347.5000   -40.3590     6.9510     6.1260     6.4630  1679.3521     0.1670     2.4950     0.0890    79.5990    10.8850
 1348.0000   -40.1710     6.8700     6.0920     6.4380  1678.3650     0.1660     2.5010     0.0880    81.7870    10.8940
 1348.5000   -40.0270     6.7890     6.0570     6.4120  1677.3781     0.1630     2.5020     0.0900    83.9610    10.9030
 1349.0000   -40.0950     6.7080     6.0230     6.3860  1676.3920     0.1610     2.4980     0.0880    85.1400    10.9120
 1349.5000   -40.1580     6.6280     5.9880     6.3600  1675.4050     0.1580     2.4930     0.0870    80.6020    10.9220
 1350.0000   -40.2210     6.5550     5.9620     6.3350  1674.4180     0.1620     2.4970     0.0820    73.0500    10.9310
 1350.5000   -40.2850     6.6660     5.9390     6.3120  1673.4310     0.1740     2.5010     0.0830    75.2570    10.9400
 1351.0000   -40.3480     6.7680     5.9170     6.2960  1672.4440     0.1820     2.5060     0.0850    78.0510    10.9490
 1351.5000   -40.4110     6.8700     5.8940     6.2810  1671.6720     0.1900     2.5060     0.0860    80.8770    10.9590
 1352.0000   -40.4740     6.9270     5.8680     6.2650  1671.6720     0.1830     2.5050     0.0950    83.6750    10.9680
 1352.5000   -40.5370     6.6340     5.8930     6.2490  1671.6720     0.1760     2.5030     0.1010    84.3810    10.9770
 1353.0000   -40.6000     6.4940     5.9230     6.2330  1671.6720     0.1680     2.5000     0.1040    84.7720    10.9860
 1353.5000   -40.6630     6.5830     5.9520     6.2180  1671.6720     0.1740     2.4880     0.1070    85.1960    10.9960
 1354.0000   -40.7260     6.6770     5.9810     6.2020  1671.6720     0.1660     2.4770     0.1090    83.8410    11.0050
 1354.5000   -40.7890     6.6030     6.0110     6.2270  1671.6720     0.1620     2.4650     0.1150    82.1110    11.0140
 1355.0000   -40.8530     6.4940     6.0400     6.2530  1671.6720     0.1610     2.4530     0.1200    81.4100    11.0230
 1355.5000   -40.9160     6.7010     6.0690     6.2790  1671.6720     0.1600     2.4410     0.1260    81.7580    11.0330
 1356.0000   -40.9780     6.8640     6.0930     6.3040  1671.6720     0.1590     2.4290     0.1260    82.1100    11.0370
 1356.5000   -40.9520     6.7500     6.1070     6.3300  1671.6720     0.1590     2.4380     0.1160    82.3980    11.0170
 1357.0000   -40.7730     6.6150     6.1200     6.3550  1671.6720     0.1600     2.4520     0.1090    81.5980    10.9980
 1357.5000   -40.5960     6.6770     6.1340     6.3810  1671.6720     0.1620     2.4660     0.1030    80.7830    10.9790
 1358.0000   -40.4180     6.7720     6.1470     6.4060  1671.6720     0.1680     2.4800     0.0980    79.9680    10.9590
 1358.5000   -40.2400     6.8670     6.1610     6.4320  1671.6720     0.1730     2.4830     0.0950    79.6460    10.9400
 1359.0000   -40.0630     6.9270     6.1750     6.4570  1671.6720     0.1790     2.4850     0.0920    79.6410    10.9210
 1359.5000   -39.8830     6.8640     6.1880     6.4830  1671.6720     0.1840     2.4910     0.0900    79.6390    10.9020
 1360.0000   -39.8770     6.8780     6.2020     6.5080  1671.6720     0.1900     2.4940     0.0950    79.3090    10.8830
 1360.5000   -39.9610     6.9000     6.2150     6.5340  1671.6720     0.1870     2.4840     0.1020    78.9400    10.8630
 1361.0000   -40.0480     6.9220     6.2290     6.5600  1671.6720     0.1810     2.4740     0.1090    78.5910    10.8440
 1361.5000   -40.1340     6.9440     6.2420     6.5850  1671.6720     0.1760     2.4640     0.1070    79.5860    10.8250
 1362.0000   -40.2210     6.9660     6.2560     6.6110  1671.6720     0.1700     2.4630     0.1090    82.1740    10.8050
 1362.5000   -40.3240     6.9870     6.2690     6.6240  1671.6720     0.1650     2.4650     0.1060    84.7380    10.8040
 1363.0000   -40.4280     7.0090     6.2830     6.6340  1671.6720     0.1590     2.4680     0.1070    86.8660    10.8080
 1363.5000   -40.5320     7.0310     6.2960     6.6440  1671.6720     0.1540     2.4650     0.1070    85.6710    10.8120
 1364.0000   -40.6350     7.0530     6.3100     6.6540  1671.6720     0.1480     2.4630     0.1000    82.8220    10.8170
 1364.5000   -40.7390     7.0750     6.3240     6.6650  1671.6720     0.1440     2.4790     0.1020    79.8650    10.8210
 1365.0000   -40.8420     7.0970     6.3370     6.6750  1671.6720     0.1410     2.4810     0.1060    80.8340    10.8260
 1365.5000   -40.9460     7.1190     6.3510     6.6850  1671.6720     0.1390     2.4740     0.1080    82.9970    10.8300
 1366.0000   -41.0500     7.3210     6.3640     6.6950  1672.0090     0.1360     2.4660     0.1020    85.1890    10.8340
 1366.5000   -41.1520     7.2600     6.3810     6.7060  1672.5551     0.1350     2.4630     0.1020    87.4010    10.8390
 1367.0000   -41.1720     7.1220     6.4170     6.7160  1673.1010     0.1370     2.4720     0.1020    88.0680    10.8430
 1367.5000   -41.0430     7.1540     6.4520     6.7260  1673.6470     0.1380     2.4760     0.1000    85.8730    10.8480
 1368.0000   -40.9160     7.1940     6.4880     6.7360  1674.1940     0.1400     2.4720     0.0960    82.9550    10.8520
 1368.5000   -40.7890     7.2540     6.5240     6.7470  1674.7400     0.1440     2.4780     0.0920    80.0110    10.8560
 1369.0000   -40.6620     7.1870     6.5550     6.7570  1675.2860     0.1500     2.4860     0.0880    80.6290    10.8600
 1369.5000   -40.5350     7.0560     6.5230     6.7670  1675.8320     0.1550     2.4940     0.0840    81.3700    10.8540
 1370.0000   -40.4090     7.1570     6.4940     6.7770  1676.3781     0.1610     2.5030     0.0860    79.3410    10.8460
 1370.5000   -40.2820     7.2540     6.4660     6.7870  1676.9240     0.1670     2.5080     0.0890    80.0100    10.8390
