~VERSION INFORMATION
 VERS.                2.0:   CWLS LOG ASCII STANDARD - VERSION 2.0
 WRAP.                 NO:   ONE LINE PER DEPTH STEP
~WELL INFORMATION
#MNEM.UNIT      DATA TYPE    INFORMATION
#----------   ------------   ------------------------------
 STRT.F           14.0000:   START DEPTH
 STOP.F         3030.0000:   STOP DEPTH
 STEP.F            0.5000:   STEP LENGTH
 NULL.          -999.2500:   NO VALUE
 COMP. LAWRENCE ALLISON & ASSOC. WEST:   COMPANY
 WELL. LAWRENCE "X" #37-28:   WELL
 FLD .          N.P.R. #3:   FIELD
 LOC .      S28 T39N R78W:   LOCATION
 CNTY.            NATRONA:   COUNTY
 STAT.            WYOMING:   STATE
 CTRY. UNITED STATES OF AMERICA:   COUNTRY
 SRVC.      DRESSER ATLAS:   SERVICE COMPANY
 DATE.        22-SEP-1986:   LOGDATE
 API .     49025111090000:   API NUMBER
~CURVE INFORMATION
#MNEM.UNIT       API CODE    CURVE DESCRIPTION
#----------   ------------   ------------------------------
 DEPT.F                  :   
 GRR .GAPI   07 310 01 00:   GAMMA RAY FROM RESISTIVITY
 SPR .MV     07 010 01 00:   SPONTANEOUS POTENTIAL
 TENR.LBS    07 635 01 00:   TENSION FROM RESISTIVITY
 RILD.OHMM   07 120 46 00:   DEEP INDUCTION RESISTIVITY
 RILM.OHMM   07 120 44 00:   INDUCTION LOG MEDIUM RESISTIVITY
 RFOC.OHMM   07 220 04 00:   RESISTIVITY FOCUSED LOG RES.
 CNC .DEC    42 890 03 00:   NEUTRON PORISITY SANDSTONE
 RHOB.G/C3   45 350 01 00:   BULK DENSITY
 CORR.G/C3   45 356 01 00:   DENSITY CORRECTION
 TEND.LBS    45 635 01 00:   TENSION FROM DENSITY LOG
 CALD.IN     45 280 60 00:   CALIPER FROM DENSITY LOG
~PARAMETER INFORMATION
#MNEM.UNIT          VALUE    DESCRIPTION
#----------   ------------   ------------------------------
 EKB .F         5124.0000:   Kelly bushing
 EGL .F         5113.0000:   Ground level
 EDF .F         5123.0000:   Drilling floor
 TD  .F         3026.0000:   Total depth
 DATE.        22-SEP-1986:   Date logged
 CLNT.            A2DTECH:   Client Code
 SL  . 1097' FSL & 1722' FWL:   Surface Location
 PD  .                 GL:   Permanent Datum
 EPD .F              5113:   Elevation Permanent Datum
 LMF .                 KB:   Log Measured From
 DMF .                 KB:   Drilling Measured From
 DAPD.F                11:   Feet Above Permanent Datum
 DD  .F              3026:   Depth driller
 DL  .F              3023:   Depth logger
 BLI .F              3020:   Bottom log interval
 CS1 .IN            8.625:   Casing size
 CBD1.      8.625" @ 517':   Casing driller 1
 CBL1.F               518:   Casing logger 1
 BS1 .IN            7.875:   Bit size
 BSD1.F              3026:   Depth drilled with bit1
 DFT .            KCL-GEL:   Type fluid in hole
 DFD .                8.6:   Density
 DFV .                 41:   Viscosity
 DFPH.                9.5:   pH
 DFL .                6.8:   Fluid loss
 MSS .           FLOWLINE:   Source of sample
 RMS .OHMM           0.37:   Rm
 MST .F                58:   Rm Meas. temp.
 RMF .OHMM           0.33:   Rmf
 MFST.F                63:   Rmf Meas. temp.
 RMC .OHMM           0.59:   Rmc
 MCST.F                58:   Rmc Meas. temp.
 MFSS.               MEAS:   Source Rmf.
 MCSS.               CALC:   Source Rmc.
 RMB .OHMM           0.16:   Rm. at BHT
 BHT .F               131:   BHT.
 TCS .HRS               3:   Time Circ. stopped
 MRT .F               131:   Maximum recorded temp.
 LUN .            HL 6426:   Logging unit number
 LUL .                 RS:   Logging unit location
 ENGI.               RALL:   Recorded By
 WITN.             STRONG:   Witnessed by
 ORIG.           5" PRINT:   Origin of data
 UWI .     49025111090000:   Unique Well ID
 DICO. A2D TECHNOLOGIES, INC.:   Digitizing Company
~OTHER INFORMATION
~A   DEPT      GRR        SPR       TENR       RILD       RILM       RFOC        CNC       RHOB       CORR       TEND       CALD   
# ...
 2149.0000   130.2050   -16.4150   -48.2770     4.4420     5.0740     7.2260  -999.2500  -999.2500  -999.2500  -999.2500  -999.2500
 2149.5000   130.3580   -16.7970   -50.4090     4.5120     5.0820     7.1480  -999.2500  -999.2500  -999.2500  -999.2500  -999.2500
 2150.0000   127.8600   -17.1210   -52.5420     4.5480     5.1150     5.8940  -999.2500  -999.2500  -999.2500  -999.2500  -999.2500
 2150.5000   123.8240   -17.5060   -54.0200     4.8350     5.2250     5.5750  -999.2500  -999.2500  -999.2500  -999.2500  -999.2500
 2151.0000   120.3380   -17.8230   -52.7110     4.9430     5.3710     5.7320  -999.2500  -999.2500  -999.2500  -999.2500  -999.2500
 2151.5000   116.7970   -18.1960   -51.5310     4.9890     5.6540     6.3400  -999.2500  -999.2500  -999.2500  -999.2500  -999.2500
 2152.0000   117.1720   -18.4630   -50.3510     4.9890     5.9370     7.4280  -999.2500  -999.2500  -999.2500  -999.2500  -999.2500
 2152.5000   121.2020   -18.2940   -49.1700     5.1400     6.2200     7.5420  -999.2500  -999.2500  -999.2500  -999.2500  -999.2500
 2153.0000   121.5720   -18.0390   -47.9900     5.3720     6.4270     7.3680  -999.2500  -999.2500  -999.2500  -999.2500  -999.2500
 2153.5000   118.9800   -17.8420   -46.8100     5.8390     6.4650     7.4910  -999.2500  -999.2500  -999.2500  -999.2500  -999.2500
 2154.0000   117.7130   -17.6040   -45.6290     5.8080     6.3070     7.7800  -999.2500  -999.2500  -999.2500  -999.2500  -999.2500
 2154.5000   117.2030   -17.3930   -44.4490     5.5810     6.0600     7.6370  -999.2500  -999.2500  -999.2500  -999.2500  -999.2500
 2155.0000   116.6450   -17.1610   -43.5330     5.3540     5.7390     7.2300  -999.2500  -999.2500  -999.2500  -999.2500  -999.2500
 2155.5000   118.7020   -16.9540   -42.4300     5.1300     5.3340     6.9710  -999.2500  -999.2500  -999.2500  -999.2500  -999.2500
 2156.0000   123.2230   -16.7110   -41.3260     5.0110     5.1770     6.8980  -999.2500  -999.2500  -999.2500  -999.2500  -999.2500
 2156.5000   124.8870   -16.4810   -40.2230     4.8980     5.3230     6.1730  -999.2500  -999.2500  -999.2500  -999.2500  -999.2500
 2157.0000   120.9470   -16.5140   -39.1200     4.9290     5.6480     4.9890  -999.2500  -999.2500  -999.2500  -999.2500  -999.2500
 2157.5000   115.0970   -16.6320   -38.0160     4.9890     5.9480     4.7190  -999.2500  -999.2500  -999.2500  -999.2500  -999.2500
 2158.0000   112.3850   -16.6780   -36.9130     5.2430     6.4060     5.4220  -999.2500  -999.2500  -999.2500  -999.2500  -999.2500
 2158.5000   111.0410   -16.7920   -35.8090     5.3720     6.8980     7.8520  -999.2500  -999.2500  -999.2500  -999.2500  -999.2500
 2159.0000   107.7590   -16.8550   -34.7060     5.3180     6.8980     8.8040  -999.2500  -999.2500  -999.2500  -999.2500  -999.2500
 2159.5000   103.8770   -16.6570   -33.9200     5.2250     6.5250     9.4920  -999.2500  -999.2500  -999.2500  -999.2500  -999.2500
 2160.0000   101.4640   -16.3750   -39.8580     4.8990     5.7830     9.5370  -999.2500  -999.2500  -999.2500  -999.2500  -999.2500
 2160.5000   102.4800   -16.1510   -44.4720     4.3830     4.6760     7.8520  -999.2500  -999.2500  -999.2500  -999.2500  -999.2500
 2161.0000   108.1660   -15.8600   -49.0860     4.1130     4.2000     6.0790  -999.2500  -999.2500  -999.2500  -999.2500  -999.2500
 2161.5000   114.1070   -15.6800   -54.0200     3.7350     3.6420     4.4830  -999.2500  -999.2500  -999.2500  -999.2500  -999.2500
 2162.0000   115.7850   -15.7760   -49.5580     3.2590     3.5750     3.6760  -999.2500  -999.2500  -999.2500  -999.2500  -999.2500
 2162.5000   115.8810   -15.9550   -43.4670     3.1530     3.5750     3.6150  -999.2500  -999.2500  -999.2500  -999.2500  -999.2500
 2163.0000   115.3600   -16.0360   -37.3770     3.0110     3.6080     3.5750  -999.2500  -999.2500  -999.2500  -999.2500  -999.2500
 2163.5000   112.5510   -15.9760   -31.2860     2.8370     3.6470     3.7790  -999.2500  -999.2500  -999.2500  -999.2500  -999.2500
 2164.0000   108.2660   -15.8380   -23.8690     2.8100     3.6880     4.6760  -999.2500  -999.2500  -999.2500  -999.2500  -999.2500
 2164.5000   105.0270   -15.5940   -31.8090     2.8480     3.7280     5.7850  -999.2500  -999.2500  -999.2500  -999.2500  -999.2500
 2165.0000   105.2520   -15.3100   -43.9700     2.8970     3.7440     5.2820  -999.2500  -999.2500  -999.2500  -999.2500  -999.2500
 2165.5000   106.3460   -15.1100   -38.2220     2.9190     3.6450     4.3830  -999.2500  -999.2500  -999.2500  -999.2500  -999.2500
 2166.0000   109.4710   -14.8260   -28.7060     2.9270     3.4800     4.4690  -999.2500  -999.2500  -999.2500  -999.2500  -999.2500
 2166.5000   115.3690   -14.6730   -19.1900     2.9340     3.3200     4.5060  -999.2500  -999.2500  -999.2500  -999.2500  -999.2500
 2167.0000   121.3280   -14.9180   -16.1470     2.9410     3.3200     4.0700  -999.2500  -999.2500  -999.2500  -999.2500  -999.2500
 2167.5000   126.9720   -15.2050   -21.4890     2.9160     3.4190     3.5100  -999.2500  -999.2500  -999.2500  -999.2500  -999.2500
 2168.0000   129.9430   -15.4380   -26.8320     2.8830     3.5020     3.3510  -999.2500  -999.2500  -999.2500  -999.2500  -999.2500
 2168.5000   127.5620   -15.7220   -32.1740     2.8560     3.5850     3.6960  -999.2500  -999.2500  -999.2500  -999.2500  -999.2500
 2169.0000   120.7400   -15.9870   -32.8710     2.8370     3.6690     4.6450  -999.2500  -999.2500  -999.2500  -999.2500  -999.2500
 2169.5000   114.3680   -16.3010   -30.6640     3.0310     3.7440     5.3230  -999.2500  -999.2500  -999.2500  -999.2500  -999.2500
 2170.0000   113.6440   -16.6530   -28.4580     3.2290     4.0510     5.3230  -999.2500  -999.2500  -999.2500  -999.2500  -999.2500
 2170.5000   113.6400   -16.9500   -26.2510     3.4580     4.3020     4.3020  -999.2500  -999.2500  -999.2500  -999.2500  -999.2500
 2171.0000   113.6300   -17.2800   -23.8690     3.7440     4.6990     4.4230  -999.2500  -999.2500  -999.2500  -999.2500  -999.2500
 2171.5000   118.1750   -17.7050   -23.8690     3.9500     5.0820     5.3230  -999.2500  -999.2500  -999.2500  -999.2500  -999.2500
 2172.0000   120.4730   -18.0290   -23.8690     4.1080     5.2520     7.2250  -999.2500  -999.2500  -999.2500  -999.2500  -999.2500
 2172.5000   120.3270   -18.4390   -23.8690     4.4320     5.4340     7.2250  -999.2500  -999.2500  -999.2500  -999.2500  -999.2500
 2173.0000   121.8820   -18.8900   -23.8690     4.7170     5.6170     6.2600  -999.2500  -999.2500  -999.2500  -999.2500  -999.2500
 2173.5000   124.4920   -18.7760   -23.8690     5.0630     5.8530     5.8940  -999.2500  -999.2500  -999.2500  -999.2500  -999.2500
 2174.0000   125.4250   -18.7120   -23.8690     5.5240     6.1830     6.5250  -999.2500  -999.2500  -999.2500  -999.2500  -999.2500
 2174.5000   118.7710   -18.8990   -23.8690     5.7850     6.5130     7.3040  -999.2500  -999.2500  -999.2500  -999.2500  -999.2500
 2175.0000   112.2940   -19.1100   -23.8690     5.8770     6.5860     8.0640  -999.2500  -999.2500  -999.2500  -999.2500  -999.2500
 2175.5000   111.1010   -20.2070   -23.8690     5.8500     6.4650     8.7750  -999.2500  -999.2500  -999.2500  -999.2500  -999.2500
 2176.0000   111.6060   -21.2970   -23.8690     5.8230     6.2500     8.6140  -999.2500  -999.2500  -999.2500  -999.2500  -999.2500
 2176.5000   116.6850   -21.5240   -23.8690     5.7950     6.0040     7.7430  -999.2500  -999.2500  -999.2500  -999.2500  -999.2500
 2177.0000   123.6940   -21.6770   -23.8690     5.7540     6.1160     7.0920  -999.2500  -999.2500  -999.2500  -999.2500  -999.2500
 2177.5000   130.9910   -21.6460   -23.8690     5.7040     6.2500     6.3980  -999.2500  -999.2500  -999.2500  -999.2500  -999.2500
 2178.0000   134.8820   -21.4920   -20.1450     5.6540     6.3790     6.3470  -999.2500  -999.2500  -999.2500  -999.2500  -999.2500
 2178.5000   132.5730   -21.4520   -17.1590     5.6950     6.5250     6.6710  -999.2500  -999.2500  -999.2500  -999.2500  -999.2500
 2179.0000   132.3530   -21.3420   -13.8190     5.8400     6.8780     7.1190  -999.2500  -999.2500  -999.2500  -999.2500  -999.2500
