~VERSION INFORMATION
 VERS.                2.0:   CWLS LOG ASCII STANDARD - VERSION 2.0
 WRAP.                 NO:   ONE LINE PER DEPTH STEP
~WELL INFORMATION
#MNEM.UNIT      DATA TYPE    INFORMATION
#----------   ------------   ------------------------------
 STRT.F           72.5000:   START DEPTH
 STOP.F         2820.0000:   STOP DEPTH
 STEP.F            0.5000:   STEP LENGTH
 NULL.          -999.2500:   NO VALUE
 COMP.          INTEX OIL:   COMPANY
 WELL. INTEX OIL AX N. P. R. #51-29:   WELL
 FLD .             TEAPOT:   FIELD
 LOC .      S29 T39N R78W:   LOCATION
 CNTY.            NATRONA:   COUNTY
 STAT.            WYOMING:   STATE
 CTRY. UNITED STATES OF AMERICA:   COUNTRY
 SRVC.       SCHLUMBERGER:   SERVICE COMPANY
 DATE.        01-MAY-1966:   LOGDATE
 API .     49025094920000:   API NUMBER
~CURVE INFORMATION
#MNEM.UNIT       API CODE    CURVE DESCRIPTION
#----------   ------------   ------------------------------
 DEPT.F                  :   
 GRD .GAPI   45 310 01 00:   GAMMA RAY FROM DENSITY LOG
 CALD.IN     45 280 60 00:   CALIPER FROM DENSITY LOG
 RHOB.G/C3   45 350 01 00:   BULK DENSITY
 CORR.G/C3   45 356 01 00:   DENSITY CORRECTION
 SPR .MV     07 010 01 00:   SPONTANEOUS POTENTIAL
 ASN .OHMM   05 041 16 00:   AMPLIFIED SHORT NORMAL 16"
 ILD .OHMM   05 120 46 00:   DEEP INDUCTION RESISTIVITY
 DT  .US/F   60 520 00 00:   DELTA TIME
~PARAMETER INFORMATION
#MNEM.UNIT          VALUE    DESCRIPTION
#----------   ------------   ------------------------------
 EKB .F         5007.3000:   Kelly bushing
 EGL .F         4997.0000:   Ground level
 EDF .F            0.0000:   Drilling floor
 TD  .F         2799.0000:   Total depth
 DATE.        01-MAY-1966:   Date logged
 CLNT.            A2DTECH:   Client Code
 PD  .                 GL:   Permanent Datum
 EPD .F              4997:   Elevation Permanent Datum
 LMF .                 KB:   Log Measured From
 DMF .                 KB:   Drilling Measured From
 DAPD.F              10.3:   Feet Above Permanent Datum
 DD  .F              2798:   Depth driller
 DL  .F              2799:   Depth logger
 BLI .F              2798:   Bottom log interval
 TLI .F                88:   Top log interval
 CS1 .IN            10.75:   Casing size
 CBD1.       10.75" @ 30':   Casing driller 1
 BS1 .IN            7.875:   Bit size
 BSD1.F              2798:   Depth drilled with bit1
 DFT .           CHEM/OIL:   Type fluid in hole
 DFD .                9.5:   Density
 DFV .                 46:   Viscosity
 DFPH.                7.2:   pH
 DFL .                7.0:   Fluid loss
 MSS .         CIRCULATED:   Source of sample
 RMS .OHMM           2.28:   Rm
 MST .F                68:   Rm Meas. temp.
 RMF .OHMM           1.32:   Rmf
 MFST.F                72:   Rmf Meas. temp.
 MFSS.                 FP:   Source Rmf.
 RMB .OHMM           1.52:   Rm. at BHT
 BHT .F               102:   BHT.
 TCS .HRS             1.5:   Time Circ. stopped
 MRT .F               102:   Maximum recorded temp.
 LUN .               4507:   Logging unit number
 LUL .               CSPR:   Logging unit location
 ENGI.               HAUG:   Recorded By
 WITN.      TUTTLE/HUDSON:   Witnessed by
 ORIG.           5" PRINT:   Origin of data
 UWI .     49025094920000:   Unique Well ID
 DICO. A2D TECHNOLOGIES, INC.:   Digitizing Company
~OTHER INFORMATION
~A   DEPT      GRD       CALD       RHOB       CORR        SPR        ASN        ILD         DT   
# ...
 1976.0000  -999.2500  -999.2500  -999.2500  -999.2500   -44.3400     8.7900     5.3230  -999.2500
 1976.5000  -999.2500  -999.2500  -999.2500  -999.2500   -44.2610     8.6490     5.2610  -999.2500
 1977.0000  -999.2500  -999.2500  -999.2500  -999.2500   -44.1820     8.4600     5.1880  -999.2500
 1977.5000  -999.2500  -999.2500  -999.2500  -999.2500   -44.1080     8.2550     5.1130  -999.2500
 1978.0000  -999.2500  -999.2500  -999.2500  -999.2500   -44.0350     8.1190     5.0550  -999.2500
 1978.5000  -999.2500  -999.2500  -999.2500  -999.2500   -43.9520     8.1000     5.0100  -999.2500
 1979.0000  -999.2500  -999.2500  -999.2500  -999.2500   -43.8620     8.1190     4.9520  -999.2500
 1979.5000  -999.2500  -999.2500  -999.2500  -999.2500   -43.7930     8.0360     4.8880  -999.2500
 1980.0000  -999.2500  -999.2500  -999.2500  -999.2500   -43.7690     7.8300     4.8710  -999.2500
 1980.5000  -999.2500  -999.2500  -999.2500  -999.2500   -43.7870     7.6790     4.9450  -999.2500
 1981.0000  -999.2500  -999.2500  -999.2500  -999.2500   -43.8180     7.8040     5.0840  -999.2500
 1981.5000  -999.2500  -999.2500  -999.2500  -999.2500   -43.8430     8.2480     5.2410  -999.2500
 1982.0000  -999.2500  -999.2500  -999.2500  -999.2500   -43.8630     8.8260     5.4290  -999.2500
 1982.5000  -999.2500  -999.2500  -999.2500  -999.2500   -43.8870     9.3290     5.7010  -999.2500
 1983.0000  -999.2500  -999.2500  -999.2500  -999.2500   -43.9130     9.7020     6.0490  -999.2500
 1983.5000  -999.2500  -999.2500  -999.2500  -999.2500   -43.9380    10.0180     6.4040  -999.2500
 1984.0000  -999.2500  -999.2500  -999.2500  -999.2500   -43.9600    10.3110     6.7540  -999.2500
 1984.5000  -999.2500  -999.2500  -999.2500  -999.2500   -43.9840    10.5520     7.1540  -999.2500
 1985.0000  -999.2500  -999.2500  -999.2500  -999.2500   -44.0090    10.7570     7.5840  -999.2500
 1985.5000  -999.2500  -999.2500  -999.2500  -999.2500   -44.0350    11.0030     7.8870  -999.2500
 1986.0000  -999.2500  -999.2500  -999.2500  -999.2500   -44.0570    11.2870     7.9310  -999.2500
 1986.5000  -999.2500  -999.2500  -999.2500  -999.2500   -44.0790    11.4670     7.7700  -999.2500
 1987.0000  -999.2500  -999.2500  -999.2500  -999.2500   -44.1060    11.4220     7.5620  -999.2500
 1987.5000  -999.2500  -999.2500  -999.2500  -999.2500   -44.1360    11.2100     7.3840  -999.2500
 1988.0000  -999.2500  -999.2500  -999.2500  -999.2500   -44.1540    10.9780     7.2190  -999.2500
 1988.5000  -999.2500  -999.2500  -999.2500  -999.2500   -44.1460    10.7740     7.0690  -999.2500
 1989.0000  -999.2500  -999.2500  -999.2500  -999.2500   -44.1140    10.5330     6.9700  -999.2500
 1989.5000  -999.2500  -999.2500  -999.2500  -999.2500   -44.0770    10.2490     6.9200  -999.2500
 1990.0000  -999.2500  -999.2500  -999.2500  -999.2500   -44.0450    10.0540     6.8800  -999.2500
 1990.5000  -999.2500  -999.2500  -999.2500  -999.2500   -44.0160    10.0630     6.8460  -999.2500
 1991.0000  -999.2500  -999.2500  -999.2500  -999.2500   -43.9830    10.2390     6.8610  -999.2500
 1991.5000  -999.2500  -999.2500  -999.2500  -999.2500   -43.9490    10.4450     6.9370  -999.2500
 1992.0000  -999.2500  -999.2500  -999.2500  -999.2500   -43.9170    10.6170     7.0360  -999.2500
 1992.5000  -999.2500  -999.2500  -999.2500  -999.2500   -43.8880    10.7860     7.1200  -999.2500
 1993.0000  -999.2500  -999.2500  -999.2500  -999.2500   -43.8550    10.9650     7.1940  -999.2500
 1993.5000  -999.2500  -999.2500  -999.2500  -999.2500   -43.8150    11.1290     7.2740  -999.2500
 1994.0000  -999.2500  -999.2500  -999.2500  -999.2500   -43.7810    11.2990     7.3600  -999.2500
 1994.5000  -999.2500  -999.2500  -999.2500  -999.2500   -43.7730    11.5340     7.4430  -999.2500
 1995.0000  -999.2500  -999.2500  -999.2500  -999.2500   -43.8000    11.7840     7.5230  -999.2500
 1995.5000  -999.2500  -999.2500  -999.2500  -999.2500   -43.8490    11.8700     7.6030  -999.2500
 1996.0000  -999.2500  -999.2500  -999.2500  -999.2500   -43.9010    11.7200     7.6900  -999.2500
 1996.5000  -999.2500  -999.2500  -999.2500  -999.2500   -43.9470    11.5190     7.7930  -999.2500
 1997.0000  -999.2500  -999.2500  -999.2500  -999.2500   -43.9900    11.5420     7.9150  -999.2500
 1997.5000  -999.2500  -999.2500  -999.2500  -999.2500   -44.0430    11.8750     8.0510  -999.2500
 1998.0000  -999.2500  -999.2500  -999.2500  -999.2500   -44.1020    12.3810     8.2050  -999.2500
 1998.5000  -999.2500  -999.2500  -999.2500  -999.2500   -44.1490    12.8700     8.3880  -999.2500
 1999.0000  -999.2500  -999.2500  -999.2500  -999.2500   -44.1690    13.2120     8.5860  -999.2500
 1999.5000  -999.2500  -999.2500  -999.2500  -999.2500   -44.1670    13.3640     8.7430  -999.2500
 2000.0000   132.8000     8.7510     2.4300    -0.0070   -44.1610    13.3690     8.8110    92.7340
 2000.5000   132.8000     8.7510     2.4370    -0.0070   -43.7910    11.8070     7.5790    92.7940
 2001.0000   132.8000     8.7570     2.4520    -0.0030   -43.7150    11.3190     6.9880    93.5120
 2001.5000   130.5750     8.7650     2.4470    -0.0030   -43.6390    10.7190     6.7560    94.0380
 2002.0000   129.3220     8.7730     2.4180    -0.0070   -43.5630    10.1380     6.5910    94.1250
 2002.5000   128.0700     8.7810     2.4160    -0.0110   -43.5040    10.0540     6.3980    94.3740
 2003.0000   127.0400     8.7900     2.3810    -0.0160   -42.7170     9.9410     6.4600    94.1250
 2003.5000   125.7820     8.8000     2.3920    -0.0170   -42.8860     9.9410     6.5360    94.0760
 2004.0000   123.4640     8.7950     2.4140    -0.0160   -43.1560    10.3520     6.6120    94.0380
 2004.5000   121.5980     8.7990     2.4290    -0.0160   -43.4250    10.8460     6.6880    93.0860
 2005.0000   122.7590     8.8030     2.4330    -0.0150   -43.6950    11.3190     6.7910    92.1330
 2005.5000   122.6300     8.8070     2.4160    -0.0150   -43.7780    11.1220     6.7910    92.4110
 2006.0000   125.1510     8.8110     2.4050    -0.0180   -43.8030    10.6190     6.4220    93.0570
 2006.5000   129.2530     8.8150     2.3860    -0.0270   -43.6510     9.9410     6.1250    93.0820
 2007.0000   131.7260     8.8190     2.4020    -0.0260   -43.4040     9.9410     5.8290    93.3800
 2007.5000   132.1940     8.8230     2.4290    -0.0160   -43.1380     9.9320     5.8150    94.0120
 2008.0000   133.0600     8.8270     2.4520    -0.0090   -42.9080     9.7570     5.5170    94.7800
 2008.5000   137.5110     8.8310     2.4730     0.0050   -42.7570     9.3170     5.2510    95.4170
 2009.0000   140.3880     8.8310     2.5000     0.0350   -42.7000     8.7480     5.0350    96.2130
 2009.5000   141.6740     8.8310     2.4890     0.0270   -42.7070     8.4020     4.8860    95.4080
 2010.0000   140.9150     8.8310     2.4610     0.0010   -42.7250     8.4220     4.7840    94.5130
 2010.5000   139.5790     8.8310     2.4660    -0.0120   -42.7210     8.6560     4.7020    93.6180
 2011.0000   137.5550     8.8310     2.4760    -0.0050   -42.7090     8.8450     4.6490    92.7240
 2011.5000   135.6740     8.8310     2.4590    -0.0070   -42.7150     8.8130     4.6470    93.4210
 2012.0000   133.7310     8.8310     2.4450    -0.0100   -42.7290     8.5480     4.6870    94.4230
 2012.5000   131.7480     8.8310     2.4620    -0.0060   -42.7040     8.2170     4.7330    94.1250
 2013.0000   130.9550     8.8310     2.4580     0.0000   -42.6140     8.0330     4.7620    95.1320
 2013.5000   133.0670     8.8310     2.4330     0.0030   -42.4900     8.0670     4.7740    95.7320
 2014.0000   134.8030     8.8310     2.4370    -0.0030   -42.3880     8.2090     4.7970    93.8270
 2014.5000   136.6800     8.8310     2.4470    -0.0070   -42.3090     8.3380     4.8710    94.6220
 2015.0000   137.6980     8.8310     2.4540    -0.0120   -42.1950     8.4270     5.0060    94.6220
 2015.5000   137.8550     8.8310     2.4390    -0.0170   -42.0390     8.5200     5.1650    93.8600
 2016.0000   137.2320     8.8310     2.4270    -0.0120   -41.9580     8.6660     5.3110    95.3680
