~VERSION INFORMATION
 VERS.                2.0:   CWLS LOG ASCII STANDARD - VERSION 2.0
 WRAP.                 NO:   ONE LINE PER DEPTH STEP
~WELL INFORMATION
#MNEM.UNIT      DATA TYPE    INFORMATION
#----------   ------------   ------------------------------
 STRT.F          502.0000:   START DEPTH
 STOP.F         4210.0000:   STOP DEPTH
 STEP.F            0.5000:   STEP LENGTH
 NULL.          -999.2500:   NO VALUE
 COMP.   FENIX & SCISSION:   COMPANY
 WELL. FENIX NPR 3 "JX" #43-34:   WELL
 FLD .              N P R:   FIELD
 LOC .      S34 T39N R78W:   LOCATION
 CNTY.            NATRONA:   COUNTY
 STAT.            WYOMING:   STATE
 CTRY. UNITED STATES OF AMERICA:   COUNTRY
 SRVC.              WELEX:   SERVICE COMPANY
 DATE.        05-FEB-1979:   LOGDATE
 API .     49025107690000:   API NUMBER
~CURVE INFORMATION
#MNEM.UNIT       API CODE    CURVE DESCRIPTION
#----------   ------------   ------------------------------
 DEPT.F                  :   
 TENR.LBS    07 635 01 00:   TENSION FROM RESISTIVITY
 SPR .MV     07 010 01 00:   SPONTANEOUS POTENTIAL
 SFL .OHMM   07 220 01 00:   SHALLOW FOCUSED LOG RESISTIVITY
 ILD .OHMM   07 120 46 00:   DEEP INDUCTION RESISTIVITY
 ILM .OHMM   07 120 44 00:   INDUCTION LOG MEDIUM RESISTIVITY
 TEND.LBS    45 635 01 00:   TENSION FROM DENSITY LOG
 CALD.IN     45 280 60 00:   CALIPER FROM DENSITY LOG
 GRD .GAPI   45 310 01 00:   GAMMA RAY FROM DENSITY LOG
 CORR.G/C3   45 356 01 00:   DENSITY CORRECTION
 NPHI.DEC    42 890 03 00:   NEUTRON POROSITY SANDSTONE
 RHOB.G/C3   45 350 01 00:   BULK DENSITY
~PARAMETER INFORMATION
#MNEM.UNIT          VALUE    DESCRIPTION
#----------   ------------   ------------------------------
 EKB .F         5108.0000:   Kelly bushing
 EGL .F         5098.0000:   Ground level
 TD  .F         4204.0000:   Total depth
 DATE.        05-FEB-1979:   Date logged
 CLNT.            A2DTECH:   Client Code
 SL  . 1627' FNL & 2110' FWL:   Surface Location
 PD  .                 GL:   Permanent Datum
 DD  .F              4200:   Depth driller
 DL  .F              4204:   Depth logger
 BLI .F              4202:   Bottom log interval
 CS1 .IN            8.625:   Casing size
 CBD1.      8.625" @ 506':   Casing driller 1
 CBL1.F               506:   Casing logger 1
 BS1 .IN            7.875:   Bit size
 DFT .           CHEM/GEL:   Type fluid in hole
 DFD .                9.2:   Density
 DFV .                 55:   Viscosity
 DFPH.                9.5:   pH
 DFL .                5.7:   Fluid loss
 MSS .            MUD/PIT:   Source of sample
 RMS .OHMM            1.1:   Rm
 MST .F                52:   Rm Meas. temp.
 RMF .OHMM            .45:   Rmf
 MFST.F                52:   Rmf Meas. temp.
 RMC .OHMM            1.8:   Rmc
 MCST.F                52:   Rmc Meas. temp.
 MFSS.               MEAS:   Source Rmf.
 RMB .OHMM           5.06:   Rm. at BHT
 BHT .F               128:   BHT.
 TCS .HRS               8:   Time Circ. stopped
 MRT .F               128:   Maximum recorded temp.
 LUN .               9685:   Logging unit number
 LUL .             CASPER:   Logging unit location
 ENGI.        KEIN/JOINER:   Recorded By
 WITN.        J. DINSMORE:   Witnessed by
 ORIG.           5" PRINT:   Origin of data
 UWI .     49025107690000:   Unique Well ID
 DICO. A2D TECHNOLOGIES, INC.:   Digitizing Company
 DAPD.F                10:   Feet Above Permanent Datum
 BSD1.F              4200:   Depth drilled with bit1
 MCSS.               MEAS:   Source Rmc.
 EPD .F              5098:   Elevation Permanent Datum
 LMF .                 KB:   Log Measured From
 DMF .                 KB:   Drilling Measured From
 TLI .F               500:   Top log interval
~OTHER INFORMATION
~A   DEPT     TENR        SPR        SFL        ILD        ILM        TEND        CALD       GRD        CORR       NPHI       RHOB 
# ...
 2698.0000  1282.0850   -53.1870    12.2100     9.6320     6.1040  1358.0510     9.4930   116.9980     0.0110     0.2030     2.4260
 2698.5000  1282.1650   -53.1870    12.2750     9.7490     6.2090  1358.3280     9.4950   117.9860     0.0090     0.2030     2.4340
 2699.0000  1282.2460   -53.1870    12.5750     9.8410     6.1900  1358.6050     9.4960   120.0560     0.0120     0.2030     2.4320
 2699.5000  1282.3260   -53.1870    13.0670     9.6140     6.1590  1358.8820     9.4980   122.0370     0.0180     0.2040     2.4230
 2700.0000  1282.4060   -53.1870    13.4600     9.3330     6.1270  1359.1591     9.4990   124.0380     0.0140     0.2070     2.4150
 2700.5000  1282.4871   -53.1870    12.5790     9.0510     6.0960  1359.4360     9.5030   126.0650     0.0030     0.2090     2.4080
 2701.0000  1282.5670   -53.1870    11.8460     8.7700     5.9690  1359.7130     9.5110   128.0540    -0.0010     0.2110     2.4160
 2701.5000  1282.6470   -53.1870    11.1130     8.4920     5.8940  1359.9900     9.5190   130.0440     0.0020     0.2130     2.4260
 2702.0000  1282.7271   -53.1870    10.3800     8.3040     5.8190  1360.2670     9.5260   132.1770     0.0030     0.2160     2.4360
 2702.5000  1282.8080   -53.1870     9.6610     8.1180     5.7440  1360.5439     9.5340   133.2950     0.0040     0.2190     2.4460
 2703.0000  1282.8879   -53.1870     9.6610     7.9330     5.6700  1360.8210     9.5380   133.1790     0.0060     0.2220     2.4430
 2703.5000  1282.9680   -53.1880     9.6610     7.7470     5.5950  1361.0980     9.5280   133.1880     0.0070     0.2230     2.4390
 2704.0000  1283.0490   -53.1860     9.6610     7.6040     5.5200  1361.3750     9.5190   133.2280     0.0090     0.2220     2.4490
 2704.5000  1283.1290   -53.1870     9.6610     7.5100     5.4450  1361.6520     9.5100   133.2280     0.0110     0.2230     2.4540
 2705.0000  1283.2090   -53.1000     9.6610     7.3970     5.3580  1361.9290     9.5010   134.0990     0.0090     0.2260     2.4420
 2705.5000  1283.2900   -52.9720     9.6610     7.2840     5.2670  1362.2061     9.5000   134.9110     0.0050     0.2280     2.4300
 2706.0000  1283.3700   -52.8430     9.6610     7.1710     5.1590  1362.4830     9.5000   137.0090     0.0040     0.2300     2.4270
 2706.5000  1283.4500   -52.7640     9.4030     7.0640     5.0500  1362.7600     9.5000   138.9860     0.0090     0.2370     2.4300
 2707.0000  1283.5310   -52.7240     8.9570     6.6880     4.9420  1363.0370     9.5000   139.7880     0.0130     0.2380     2.4330
 2707.5000  1283.6110   -52.6820     8.8890     6.3320     4.8330  1363.3140     9.5000   139.9420     0.0170     0.2390     2.4340
 2708.0000  1283.6910   -52.6390     8.8110     5.9750     4.7100  1363.5909     9.5000   140.1370     0.0220     0.2420     2.4310
 2708.5000  1283.7710   -52.5980     8.1520     5.6180     4.6530  1363.8680     9.5000   140.3480     0.0160     0.2450     2.4340
 2709.0000  1283.8521   -52.5560     7.3890     5.3030     4.5290  1364.1450     9.5000   140.0320     0.0260     0.2450     2.4440
 2709.5000  1283.9320   -52.5140     6.6840     5.0970     4.4060  1364.4220     9.5000   139.5530     0.0350     0.2450     2.4480
 2710.0000  1284.0120   -52.4710     6.3250     4.8920     4.2820  1364.6990     9.5000   138.9510     0.0460     0.2470     2.4380
 2710.5000  1284.0930   -52.4300     6.3250     4.6860     4.1590  1364.9760     9.5000   139.3740     0.0510     0.2500     2.4300
 2711.0000  1284.1730   -52.3910     6.0750     4.4800     4.0360  1365.2531     9.5000   140.7860     0.0380     0.2530     2.4190
 2711.5000  1284.2531   -52.4060     5.7110     4.3760     3.9120  1365.5300     9.5000   140.8810     0.0270     0.2540     2.4230
 2712.0000  1284.3340   -52.4600     5.1650     4.3760     3.7760  1365.8070     9.5000   139.3140     0.0360     0.2510     2.4290
 2712.5000  1284.4139   -52.5140     5.3820     4.3760     3.7760  1366.0850     9.5000   135.8550     0.0420     0.2440     2.4190
 2713.0000  1284.4940   -52.5690     5.8190     4.4170     3.7760  1366.3621     9.5000   135.3240     0.0310     0.2390     2.4060
 2713.5000  1284.5750   -52.6230     6.2090     4.4760     3.7760  1366.6390     9.5000   134.7380     0.0210     0.2360     2.3980
 2714.0000  1284.6550   -52.6780     6.0050     4.5400     3.9390  1366.9160     9.5000   133.1670     0.0090     0.2320     2.3940
 2714.5000  1284.7350   -52.7320     5.8200     4.9680     4.0850  1367.1930     9.5000   131.7440    -0.0010     0.2240     2.3850
 2715.0000  1284.8149   -52.7870     6.2450     5.4380     4.2320  1367.4700     9.5000   132.1860    -0.0120     0.2180     2.3810
 2715.5000  1284.8960   -52.8410     7.4040     5.7710     4.3790  1367.7469     9.4970   133.2470    -0.0080     0.2170     2.3870
 2716.0000  1284.9760   -52.8960     8.9750     5.9790     4.5260  1368.0240     9.4940   134.7590    -0.0030     0.2170     2.3930
 2716.5000  1285.0560   -52.9500     8.8680     6.1860     4.6720  1368.3010     9.4920   134.8970    -0.0010     0.2210     2.3880
 2717.0000  1285.1370   -53.0050     8.6660     6.3460     4.8190  1368.5780     9.4890   136.1390    -0.0030     0.2190     2.3730
 2717.5000  1285.2170   -53.0590     8.4920     6.4110     4.8870  1368.8550     9.4860   137.0480    -0.0050     0.2170     2.3700
 2718.0000  1285.2970   -53.1130     8.6500     6.4750     4.9660  1369.1320     9.4840   137.9340     0.0000     0.2170     2.3750
 2718.5000  1285.3781   -53.1700     8.5440     6.5390     5.0360  1369.4091     9.4810   137.4330     0.0090     0.2170     2.4170
 2719.0000  1285.4580   -53.1770     8.3500     6.6040     5.1060  1369.6860     9.4780   136.9630     0.0120     0.2170     2.4270
 2719.5000  1285.5380   -53.1530     8.1850     6.6680     5.1650  1369.9630     9.4750   136.4380     0.0150     0.2180     2.4150
 2720.0000  1285.6190   -53.1330     8.4550     6.6070     5.1240  1370.2400     9.4730   135.9410     0.0140     0.2200     2.4050
 2720.5000  1285.6990   -53.1130     8.6500     6.5060     5.0900  1370.5170     9.4700   135.4410     0.0130     0.2210     2.4050
 2721.0000  1285.7791   -53.0920     8.3330     6.4420     5.0550  1370.7939     9.4670   134.9170     0.0120     0.2210     2.4050
 2721.5000  1285.8590   -53.0710     8.0600     6.4420     5.0200  1371.0710     9.4650   134.4470     0.0110     0.2210     2.4120
 2722.0000  1285.9399   -53.0510     7.8890     6.4420     4.9850  1371.3480     9.4620   134.0290     0.0090     0.2210     2.4220
 2722.5000  1286.0200   -53.0300     7.8890     6.4420     4.9500  1371.6250     9.4600   135.4950     0.0080     0.2230     2.4320
 2723.0000  1286.1000   -53.0090     7.9620     6.4420     4.9160  1371.9020     9.4600   137.2050     0.0090     0.2240     2.4450
 2723.5000  1286.1810   -52.9890     8.0550     6.4420     4.8810  1372.1790     9.4600   137.0360     0.0130     0.2260     2.4390
 2724.0000  1286.2610   -52.9680     8.1850     6.3050     4.8460  1372.4561     9.4600   138.5720     0.0180     0.2280     2.4360
 2724.5000  1286.3409   -52.9480     8.0010     6.1310     4.8110  1372.7330     9.4600   140.0610     0.0220     0.2240     2.4490
 2725.0000  1286.4220   -52.9270     7.6900     6.0590     4.7770  1373.0100     9.4600   140.2720     0.0270     0.2210     2.4570
 2725.5000  1286.5020   -52.9060     7.3790     5.9670     4.7420  1373.2870     9.4600   139.8000     0.0240     0.2210     2.4510
 2726.0000  1286.5820   -52.8860     7.1950     5.8750     4.7070  1373.5640     9.4600   140.2160     0.0200     0.2210     2.4430
 2726.5000  1286.6630   -52.8650     7.1950     5.7670     4.6720  1373.8409     9.4600   143.1970     0.0190     0.2210     2.4520
 2727.0000  1286.7430   -52.8440     7.1950     5.6630     4.6370  1374.1180     9.4600   144.5370     0.0220     0.2220     2.4440
 2727.5000  1286.8230   -52.8250     7.1520     5.5580     4.5870  1374.3960     9.4600   145.5440     0.0220     0.2260     2.4230
 2728.0000  1286.9041   -52.8020     6.9580     5.4580     4.5260  1374.6730     9.4600   146.9800     0.0170     0.2290     2.4020
