~VERSION INFORMATION
 VERS.                2.0:   CWLS LOG ASCII STANDARD - VERSION 2.0
 WRAP.                 NO:   ONE LINE PER DEPTH STEP
~WELL INFORMATION
#MNEM.UNIT      DATA TYPE    INFORMATION
#----------   ------------   ------------------------------
 STRT.F          216.0000:   START DEPTH
 STOP.F         3241.0000:   STOP DEPTH
 STEP.F            0.5000:   STEP LENGTH
 NULL.          -999.2500:   NO VALUE
 COMP.    FENIX & SCISSON:   COMPANY
 WELL.    FENIX "A" #72-4:   WELL
 FLD .             NPR #3:   FIELD
 LOC .       S4 T38N R78W:   LOCATION
 CNTY.            NATRONA:   COUNTY
 STAT.            WYOMING:   STATE
 CTRY. UNITED STATES OF AMERICA:   COUNTRY
 SRVC.              WELEX:   SERVICE COMPANY
 DATE.        09-JUL-1977:   LOGDATE
 API .     49025103900000:   API NUMBER
~CURVE INFORMATION
#MNEM.UNIT       API CODE    CURVE DESCRIPTION
#----------   ------------   ------------------------------
 DEPT.F                  :   
 CORR.G/C3   45 356 01 00:   DENSITY CORRECTION
 GRD .GAPI   45 310 01 00:   GAMMA RAY FROM DENSITY LOG
 RHOB.G/C3   45 350 01 00:   BULK DENSITY
 CALD.IN     45 280 60 00:   CALIPER FROM DENSITY LOG
 SPR .MV     07 010 01 00:   SPONTANEOUS POTENTIAL
 ILD .OHMM   07 120 46 00:   DEEP INDUCTION RESISTIVITY
 ILM .OHMM   07 120 44 00:   INDUCTION LOG MEDIUM RESISTIVITY
 SGRD.OHMM   07 220 05 00:   SHALLOW SHORT GUARD RESISTIVITY
~PARAMETER INFORMATION
#MNEM.UNIT          VALUE    DESCRIPTION
#----------   ------------   ------------------------------
 EKB .F         5192.0000:   Kelly bushing
 EGL .F         5182.0000:   Ground level
 TD  .F         3243.0000:   Total depth
 CLNT.            A2DTECH:   Client Code
 SL  . 990' FNL & 990' FEL:   Surface Location
 PD  .                 GL:   Permanent Datum
 EPD .F              5182:   Elevation Permanent Datum
 LMF .                 KB:   Log Measured From
 DMF .                 KB:   Drilling Measured From
 DAPD.F                10:   Feet Above Permanent Datum
 DATE.        09-JUL-1977:   Date Logged [DD-MMM-YYYY]
 DD  .F              3230:   Depth driller
 DL  .F              3243:   Depth logger
 BLI .F              3241:   Bottom log interval
 TLI .F               224:   Top log interval
 CS1 .IN            8.625:   Casing size
 CBD1.      8.625" @ 221':   Casing driller 1
 CBL1.F               224:   Casing logger 1
 BS1 .IN            7.875:   Bit size
 BSD1.F              3230:   Depth drilled with bit1
 DFT .                KCL:   Type fluid in hole
 DFD .                8.9:   Density
 DFV .                 44:   Viscosity
 DFPH.                7.5:   pH
 DFL .                5.8:   Fluid loss
 MSS .            MUD PIT:   Source of sample
 RMS .OHMM           0.24:   Rm
 MST .F                68:   Rm Meas. temp.
 RMF .OHMM           0.20:   Rmf
 MFST.F                68:   Rmf Meas. temp.
 MFSS.               MEAS:   Source Rmf.
 RMC .OHMM           0.31:   Rmc
 MCST.F                68:   Rmc Meas. temp.
 MCSS.               MEAS:   Source Rmc.
 RMB .OHMM           0.13:   Rm. at BHT
 BHT .F               117:   BHT.
 TCS .HRS               3:   Time Circ. stopped
 MRT .F               117:   Maximum recorded temp.
 LUN .               8766:   Logging unit number
 LUL .             CASPER:   Logging unit location
 ENGI.          T. JOYNER:   Recorded By
 WITN.         HARRINGTON:   Witnessed by
 ORIG.           5" PRINT:   Origin of data
 UWI .     49025103900000:   Unique Well ID
 DICO. A2D TECHNOLOGIES, INC.:   Digitizing Company
~OTHER INFORMATION
~A   DEPT     CORR         GRD        RHOB     CALD        SPR        ILD        ILM       SGRD   
# ...
  621.0000     0.0265    69.3294     2.4004    10.9285   -61.0565    10.4359    11.9242    10.2931
  621.5000     0.0265    69.6423     2.4004    10.9299   -61.1910    10.4565    11.7675    10.2994
  622.0000     0.0281    69.6601     2.4020    10.9313   -61.3256    10.5222    11.6144    10.3057
  622.5000     0.0296    69.6746     2.4035    10.9329   -61.4602    10.5283    11.5416    10.2391
  623.0000     0.0327    69.3875     2.4058    10.9036   -61.5948    10.5348    11.4690    10.1041
  623.5000     0.0343    69.7037     2.4096    10.8710   -61.7294    10.5415    11.4762    10.1118
  624.0000     0.0343    70.0163     2.4134    10.8178   -61.8647    10.5480    11.3905    10.1180
  624.5000     0.0336    69.7291     2.4164    10.7894   -61.9976    10.4815    11.3321    10.1947
  625.0000     0.0329    69.8963     2.4180    10.7610   -62.0357    10.4881    11.3408    10.2010
  625.5000     0.0322    70.3579     2.4135    10.7326   -62.2508    10.4959    11.3477    10.1367
  626.0000     0.0316    70.8256     2.4045    10.7042   -62.4413    10.5023    11.1969    10.1431
  626.5000     0.0316    71.1326     2.4068    10.7060   -62.6174    10.5071    11.0497    10.1506
  627.0000     0.0324    70.9976     2.4136    10.7075   -62.6334    10.4417    10.8310    10.1568
  627.5000     0.0317    71.3138     2.4152    10.6791   -63.1272    10.3750    10.6149    10.0911
  628.0000     0.0288    71.9245     2.4167    10.6656   -63.5125    10.3584    10.4738    10.0275
  628.5000     0.0259    72.8332     2.4175    10.6674   -63.4961    10.2445    10.3376     9.8953
  629.0000     0.0244    73.4439     2.4168    10.6689   -63.6554    10.1110    10.2018     9.7663
  629.5000     0.0245    73.4584     2.4137    10.6703   -63.9220    10.1172    10.0678     9.6376
  630.0000     0.0253    72.5787     2.4093    10.6565   -64.0589     9.9838     9.9355     9.5768
  630.5000     0.0261    72.5933     2.4079    10.6583   -64.2050     9.7164     9.8064     9.4505
  631.0000     0.0247    73.2151     2.4094    10.6536   -64.3469     9.5113     9.8124     9.3234
  631.5000     0.0232    74.1133     2.4094    10.6313   -64.4882     9.2043     9.5504     9.1315
  632.0000     0.0225    74.4288     2.4072    10.6328   -64.6293     9.0201     9.2312     8.9579
  632.5000     0.0211    74.8905     2.4050    10.6343   -64.7704     8.8383     8.9214     8.8398
  633.0000     0.0212    75.3521     2.4035    10.6361   -64.8401     8.4843     8.3891     8.7827
  633.5000     0.0220    75.6647     2.4028    10.6373   -64.8404     7.8110     7.7790     8.6669
  634.0000     0.0253    75.9773     2.4029    10.6388   -64.8408     7.0921     7.1635     8.4948
  634.5000     0.0303    76.2899     2.4142    10.6404   -64.8410     6.5293     6.6886     8.3236
  635.0000     0.0341    76.0060     2.4270    10.6419   -64.8405     6.0952     6.1594     7.9901
  635.5000     0.0364    76.0219     2.4391    10.6433   -64.7766     5.7695     5.7501     7.3561
  636.0000     0.0373    76.9459     2.4429    10.6448   -64.7035     5.4613     5.4378     6.2746
  636.5000     0.0373    77.5439     2.4354    10.6463   -64.6304     5.3520     5.2142     5.6970
  637.0000     0.0374    78.0055     2.4294    10.6534   -64.5573     5.3554     5.3034     5.4273
  637.5000     0.0374    77.8673     2.4264    10.6791   -64.4843     5.3967     6.3967     6.1829
  638.0000     0.0375    77.8855     2.4204    10.6808   -64.4112     5.4755     7.0517     8.3040
  638.5000     0.0368    78.0454     2.4111    10.6786   -64.3382     5.6331     7.1544     9.0936
  639.0000     0.0331    77.6129     2.3972    10.6539   -64.2652     5.9583     7.2585     9.0992
  639.5000     0.0272    77.9291     2.3905    10.6604   -64.1921     6.3905     7.4668     9.0418
  640.0000     0.0228    78.2417     2.3883    10.6776   -64.1191     6.9498     7.8422     8.9834
  640.5000     0.0213    78.5571     2.4034    10.6732   -64.0461     7.5580     8.2936     9.1159
  641.0000     0.0251    78.8674     2.4214    10.6597   -63.9730     8.1062     8.6505     9.2490
  641.5000     0.0274    79.0494     2.4651    10.6612   -63.9000     8.5150     8.8987     9.5152
  642.0000     0.0259    79.1976     2.4832    10.6477   -63.8270     8.9444     9.1575     9.7213
  642.5000     0.0216    79.5102     2.4787    10.6342   -63.7539     9.2714     9.4256     9.7951
  643.0000     0.0156    80.1208     2.4686    10.6186   -63.6809     9.5992     9.6884     9.8012
  643.5000     0.0112    80.4334     2.4581    10.6073   -63.6078     9.8768     9.8294     9.8073
  644.0000     0.0113    80.5970     2.4495    10.6006   -63.5348    10.0209     9.9725     9.8145
  644.5000     0.0128    80.4625     2.4420    10.5803   -63.4618    10.0554    10.1176    10.0271
  645.0000     0.0129    79.7367     2.4315    10.5672   -63.3887    10.2443    10.2649    10.1031
  645.5000     0.0144    78.9910     2.4301    10.5537   -63.3157    10.4663    10.3425    10.2506
  646.0000     0.0160    78.0964     2.4376    10.5552   -63.2426    10.6191    10.4930    10.5457
  646.5000     0.0175    77.2443     2.4459    10.5417   -63.1682    10.8491    10.7197    10.6996
  647.0000     0.0206    76.6591     2.4520    10.5435   -63.0959    11.0842    10.8757    11.0075
  647.5000     0.0222    77.1244     2.4615    10.5299   -63.0677    11.2460    11.0340    11.1682
  648.0000     0.0222    75.7976     2.4641    10.5315   -62.9074    11.3316    11.1956    11.3313
  648.5000     0.0230    74.6165     2.4521    10.5177   -63.0652    11.4173    11.4440    11.3383
  649.0000     0.0238    74.0383     2.4484    10.5042   -63.1385    11.4244    11.6171    11.4371
  649.5000     0.0239    73.6057     2.4484    10.5060   -63.2235    11.4329    11.8553    11.5108
  650.0000     0.0240    74.0710     2.4530    10.5075   -63.3163    11.3590    12.1114    11.3590
  650.5000     0.0255    74.9797     2.4620    10.5106   -63.4089    11.2874    12.2876    11.5266
  651.0000     0.0271    75.2887     2.4704    10.5234   -63.5010    11.4539    12.3805    11.6140
  651.5000     0.0210    74.8475     2.4644    10.5182   -63.5932    11.4609    12.6609    11.8656
  652.0000     0.0157    74.4148     2.4505    10.5124   -63.6853    11.7902    12.9305    11.9556
  652.5000     0.0144    73.5320     2.4298    10.5136   -63.7775    11.8935    13.1960    12.0462
  653.0000     0.0145    73.9990     2.4246    10.4995   -63.8697    11.9713    13.1103    12.0536
  653.5000     0.0145    74.6250     2.4163    10.5009   -63.9618    11.9785    12.7610    12.0609
  654.0000     0.0116    75.0573     2.4111    10.5171   -64.0540    11.9859    12.4194    11.9848
  654.5000     0.0109    73.8795     2.4081    10.5183   -64.1462    11.9084    12.2553    11.9092
  655.0000     0.0117    74.4872     2.4090    10.5195   -64.2383    11.8332    12.0934    11.7540
  655.5000     0.0147    75.3930     2.4217    10.5206   -64.3305    11.6790    11.9256    11.7612
  656.0000     0.0178    75.4045     2.4360    10.5218   -64.4226    11.6053    11.8577    11.7684
  656.5000     0.0178    75.2668     2.4443    10.5232   -64.5148    11.5320    11.9481    11.7756
  657.0000     0.0193    75.2806     2.4534    10.4796   -64.6070    11.5392    11.9546    11.9475
  657.5000     0.0194    75.3105     2.4594    10.4509   -64.6991    11.5464    11.8785    11.9548
  658.0000     0.0179    75.6028     2.4565    10.4073   -64.7913    11.4750    11.8014    11.7972
  658.5000     0.0150    75.7634     2.4503    10.3783   -64.8835    11.4008    11.7264    11.8044
  659.0000     0.0143    75.4769     2.4445    10.3646   -64.9764    11.3306    11.5730    11.7002
  659.5000     0.0151    73.9981     2.4415    10.3660   -65.0707    11.3145    11.4201    11.5910
  660.0000     0.0175    75.2020     2.4483    10.3672   -65.1503    11.2642    11.1915    11.4387
  660.5000     0.0204    76.7038     2.4596    10.3833   -65.0502    11.1174    11.0362    11.2108
  661.0000     0.0220    76.5623     2.4679    10.4030   -65.2246    11.1242    10.8226    10.9112
