~VERSION INFORMATION
 VERS.                2.0:   CWLS LOG ASCII STANDARD - VERSION 2.0
 WRAP.                 NO:   ONE LINE PER DEPTH STEP
~WELL INFORMATION
#MNEM.UNIT      DATA TYPE    INFORMATION
#----------   ------------   ------------------------------
 STRT.F          484.0000:   START DEPTH
 STOP.F         4334.0000:   STOP DEPTH
 STEP.F            0.5000:   STEP LENGTH
 NULL.          -999.2500:   NO VALUE
 COMP.    FENIX & SCISSON:   COMPANY
 WELL. FENIX NPR 3 "JX" #46-27:   WELL
 FLD .              N P R:   FIELD
 LOC .      S27 T39N R78W:   LOCATION
 CNTY.            NATRONA:   COUNTY
 STAT.            WYOMING:   STATE
 CTRY. UNITED STATES OF AMERICA:   COUNTRY
 SRVC.       SCHLUMBERGER:   SERVICE COMPANY
 DATE.        01-MAR-1979:   LOGDATE
 API .     49025107660000:   API NUMBER
~CURVE INFORMATION
#MNEM.UNIT       API CODE    CURVE DESCRIPTION
#----------   ------------   ------------------------------
 DEPT.F                  :   
 TENR.LBS    07 635 01 00:   TENSION FROM RESISTIVITY
 SPR .MV     07 010 01 00:   SPONTANEOUS POTENTIAL
 SFL .OHMM   07 220 01 00:   SHALLOW FOCUSED LOG RESISTIVITY
 ILD .OHMM   07 120 46 00:   DEEP INDUCTION RESISTIVITY
 ILM .OHMM   07 120 44 00:   INDUCTION LOG MEDIUM RESISTIVITY
 TEND.LBS    42 635 01 00:   TENSION FROM COMPENSATE NEUTRON
 GRD .GAPI   45 310 01 00:   GAMMA RAY FROM DENSITY LOG
 CALD.IN     45 280 60 00:   CALIPER FROM DENSITY LOG
 RHOB.G/C3   45 350 01 00:   BULK DENSITY
 CORR.G/C3   45 356 01 00:   DENSITY CORRECTION
 NPHI.DEC    42 890 03 00:   NEUTRON POROSITY SANDSTONE
~PARAMETER INFORMATION
#MNEM.UNIT          VALUE    DESCRIPTION
#----------   ------------   ------------------------------
 EKB .F         5059.0000:   Kelly bushing
 EGL .F         5049.0000:   Ground level
 EDF .F            0.0000:   Drilling floor
 TD  .F         4320.0000:   Total depth
 DATE.        01-MAR-1979:   Date logged
 CLNT.            A2DTECH:   Client Code
 SL  . 1625' FSL & 2281' FWL:   Surface Location
 PD  .                 GL:   Permanent Datum
 DD  .F              4320:   Depth driller
 DL  .F              4319:   Depth logger
 BLI .F              4316:   Bottom log interval
 CS1 .IN            8.625:   Casing size
 CBD1.      8.625" @ 505':   Casing driller 1
 CBL1.F               500:   Casing logger 1
 BS1 .IN            7.875:   Bit size
 DFT .                FGM:   Type fluid in hole
 DFD .                9.1:   Density
 DFV .                 40:   Viscosity
 DFPH.               11.7:   pH
 DFL .                6.5:   Fluid loss
 MSS .               TANK:   Source of sample
 RMS .OHMM           .901:   Rm
 MST .F                65:   Rm Meas. temp.
 RMF .OHMM           .852:   Rmf
 MFST.F                65:   Rmf Meas. temp.
 MFSS.               MEAS:   Source Rmf.
 RMB .OHMM            .39:   Rm. at BHT
 BHT .F               151:   BHT.
 TCS .HRS            1200:   Time Circ. stopped
 MRT .F               151:   Maximum recorded temp.
 LUN .               8043:   Logging unit number
 LUL .               CSPR:   Logging unit location
 ENGI.              PFARR:   Recorded By
 WITN.              AMENO:   Witnessed by
 ORIG.         2.5" PRINT:   Origin of data
 UWI .     49025107660000:   Unique Well ID
 DICO. A2D TECHNOLOGIES, INC.:   Digitizing Company
 DAPD.                 10:   Feet Above Permanent Datum
 BSD1.F              4320:   Depth drilled with bit1
 EPD .F              5049:   Elevation Permanent Datum
 LMF .                 KB:   Log Measured From
 DMF .                 KB:   Drilling Measured From
 TLI .F               500:   Top log interval
 TLAB.HRS            1900:   Time logger at bottom
~OTHER INFORMATION
~A   DEPT     TENR        SPR        SFL        ILD        ILM       TEND         GRD      CALD       RHOB       CORR         NPHI 
# ...
 2009.0000   682.4770   -40.7480     7.7530     5.9330     5.9410   991.0090   126.0100     8.6570     2.4980     0.0040     0.3070
 2009.5000   682.7590   -40.6740     7.4630     6.1540     6.0420   991.1150   128.4570     8.6710     2.5030     0.0030     0.3070
 2010.0000   683.0420   -40.6720     7.1220     6.1020     5.9300   991.2200   128.4450     8.6860     2.5080     0.0030     0.3140
 2010.5000   683.3240   -40.6630     7.1220     5.9180     5.7640   991.3260   126.9750     8.7000     2.5130     0.0020     0.3210
 2011.0000   683.6070   -40.7150     7.1220     5.7340     5.5980   991.4310   125.2700     8.7140     2.5170     0.0050     0.3280
 2011.5000   683.8890   -40.3510     6.8670     5.5490     5.4320   991.5360   126.0760     8.7290     2.5110     0.0090     0.3300
 2012.0000   684.1720   -40.2630     6.4510     5.3650     5.2660   991.6420   127.1720     8.7420     2.5000     0.0100     0.3270
 2012.5000   684.4540   -39.9250     5.9330     5.1810     5.1000   991.7470   132.5500     8.7630     2.4890     0.0070     0.3440
 2013.0000   684.7370   -39.5610     6.2490     4.9420     4.9340   991.8530   136.9970     8.7810     2.4810     0.0070     0.3680
 2013.5000   685.0200   -39.1590     6.5370     4.8520     4.7360   991.9580   141.6210     8.8000     2.4800     0.0060     0.3600
 2014.0000   685.3020   -38.7940     6.0470     4.5010     4.5050   992.0630   146.1810     8.8190     2.4870     0.0140     0.3470
 2014.5000   685.5850   -38.4010     5.2380     4.1850     4.2740   992.1690   150.8360     8.8370     2.4960     0.0650     0.3340
 2015.0000   685.8670   -38.5550     4.4290     3.9690     4.1160   992.2740   155.1830     8.8600     2.4850     0.0910     0.3450
 2015.5000   686.1500   -38.9480     3.6890     3.9690     4.1160   992.3800   162.6360     8.8390     2.4080     0.0780     0.3650
 2016.0000   686.4320   -39.3360     3.6980     4.0370     4.1870   992.4850   173.7510     8.7840     2.3740     0.0480     0.3850
 2016.5000   686.7150   -39.7270     3.7270     4.1320     4.2850   992.5910   185.9840     8.7280     2.3840     0.0520     0.3990
 2017.0000   686.9970   -40.0550     3.7570     4.2260     4.3830   992.6960   183.9790     8.6750     2.4150     0.0710     0.4140
 2017.5000   687.2800   -40.9230     5.2220     4.3480     4.5100   992.8010   180.0950     8.6230     2.4100     0.0610     0.4280
 2018.0000   687.5620   -42.2520     6.7870     4.9450     5.0790   992.9070   183.4570     8.6210     2.4060     0.0180     0.4440
 2018.5000   687.8450   -43.5190     8.3520     5.6410     5.7340   993.0120   191.2500     8.6190     2.4230    -0.0050     0.4120
 2019.0000   688.1270   -44.3690     9.4440     6.3380     6.3900   993.1180   194.6750     8.6200     2.4370    -0.0030     0.3790
 2019.5000   688.4100   -44.7320     9.9210     7.0340     7.0450   993.2230   191.7130     8.6200     2.4520     0.0020     0.3820
 2020.0000   688.6920   -44.8270    10.6080     7.7310     7.7010   993.3290   189.5410     8.6200     2.4520     0.0090     0.3860
 2020.5000   688.9750   -44.9770    11.2950     8.4270     8.3560   993.4340   187.0340     8.6200     2.4440     0.0140     0.3920
 2021.0000   689.2580   -44.9680    11.9810     9.0320     9.0320   993.5390   184.4840     8.6200     2.4330     0.0120     0.3880
 2021.5000   689.5400   -44.7200    12.5500     9.1990     9.1090   993.6450   182.3750     8.6200     2.4190     0.0090     0.3840
 2022.0000   689.8230   -44.4990    12.2820     9.2400     9.1890   993.7500   181.2170     8.6200     2.4170     0.0080     0.3630
 2022.5000   690.1050   -44.2650    12.0520     9.2930     9.2690   993.8560   192.2050     8.6200     2.4240     0.0090     0.3530
 2023.0000   690.3880   -44.0330    11.8230     9.3460     9.3490   993.9610   202.7950     8.6200     2.4340     0.0100     0.3630
 2023.5000   690.6700   -43.8660    11.4540     9.5410     9.4290   994.0670   214.3300     8.6200     2.4390     0.0120     0.3720
 2024.0000   690.9530   -43.9860    11.6210     9.6650     9.5090   994.1720   227.3490     8.6200     2.4290     0.0060     0.3840
 2024.5000   691.2350   -44.0820    12.0500     9.7690     9.6530   994.2770   224.7720     8.6200     2.4160     0.0010     0.3790
 2025.0000   691.5180   -44.2230    12.4780     9.8730     9.8420   994.3830   220.0780     8.6200     2.4010    -0.0060     0.3710
 2025.5000   691.8000   -44.0480    12.9060     9.9770    10.0300   994.4880   214.8220     8.6200     2.3940     0.0010     0.3740
 2026.0000   692.0830   -43.6470    13.3350    10.0810    10.2190   994.5940   211.6650     8.6200     2.3930     0.0070     0.3820
 2026.5000   692.3650   -43.2500    13.7630    10.1860    10.4070   994.6990   201.5510     8.6200     2.4070     0.0450     0.3890
 2027.0000   692.6480   -43.0560    14.1910    10.2900    10.5960   994.8050   192.9710     8.6200     2.4180     0.0780     0.3970
 2027.5000   692.9300   -43.1210    14.5260    10.3940    10.7840   994.9100   179.4170     8.6200     2.4260     0.1110     0.3990
 2028.0000   693.2130   -43.1600    14.3610    10.6470    10.9730   995.0150   166.5790     8.6200     2.3920     0.1230     0.3990
 2028.5000   693.4960   -43.2020    13.9700    10.5820    11.0430   995.1210   156.7440     8.6200     2.3530     0.0570     0.3720
 2029.0000   693.7780   -43.2480    13.5800    10.4790    10.9480   995.2260   151.0820     8.6200     2.3400     0.0160     0.3480
 2029.5000   694.0610   -43.2900    13.1890    10.3750    10.8330   995.3320   145.8110     8.6110     2.3530     0.0100     0.3270
 2030.0000   694.3430   -43.3330    12.7990    10.2720    10.7190   995.4370   145.3670     8.5980     2.3950     0.0080     0.3260
 2030.5000   694.5960   -43.3770    12.4080    10.1680    10.6040   995.5430   146.4110     8.5860     2.4030     0.0140     0.3310
 2031.0000   694.8330   -43.4230    12.0180    10.0650    10.4890   995.6480   152.8050     8.5740     2.4110     0.0130     0.3370
 2031.5000   695.0700   -43.4170    11.8810     9.9610    10.3740   995.7530   157.8920     8.5620     2.4200     0.0110     0.3400
 2032.0000   695.3060   -43.2810    12.3630     9.8570    10.2590   995.8590   160.9310     8.5500     2.4340     0.0120     0.3370
 2032.5000   695.5430   -43.1480    12.7820     9.7540    10.1450   995.9640   163.8300     8.5380     2.4440     0.0160     0.3300
 2033.0000   695.7800   -43.0110    12.1330     9.6500    10.0300   996.0700   162.5820     8.5260     2.4460     0.0130     0.3230
 2033.5000   696.0160   -42.8750    11.5340     9.5470     9.9150   996.1750   155.2860     8.5150     2.4390     0.0080     0.3200
 2034.0000   696.2530   -42.7400    10.8430     9.4430     9.8000   996.2810   146.2600     8.5010     2.4390     0.0040     0.3220
 2034.5000   696.4890   -42.6030    11.3430     9.3680     9.7170   996.3860   127.8880     8.5000     2.4640     0.0080     0.3230
 2035.0000   696.7260   -42.4670    12.0860     9.3280     9.6760   996.4910   115.4110     8.5000     2.4860     0.0130     0.3230
 2035.5000   696.9630   -42.3350    12.7820     9.2450     9.5890   996.5970   107.7810     8.5160     2.5080     0.0180     0.2910
 2036.0000   697.1990   -42.1510    11.9200     9.1610     9.5020   996.7020   103.3490     8.5390     2.5350     0.0220     0.2720
 2036.5000   697.4360   -41.9120    10.9470     9.0780     9.4150   996.8080   109.4270     8.5970     2.5310     0.0260     0.2540
 2037.0000   697.6730   -41.6790    10.4220     8.9940     9.3290   996.9130   113.1570     8.6680     2.5260     0.0280     0.2680
 2037.5000   697.9090   -41.4450    10.3560     8.9100     9.2420   997.0190   117.0930     8.7360     2.5050     0.0240     0.2820
 2038.0000   698.1460   -41.2080    10.2910     8.8280     9.1570   997.1240   115.7560     8.7370     2.4870     0.0180     0.2870
 2038.5000   698.3830   -40.9810    10.2250     8.7470     9.0730   997.2290   116.3910     8.7370     2.4740     0.0120     0.2910
 2039.0000   698.6190   -40.7420    10.1600     8.6660     8.9890   997.3350   120.6390     8.7340     2.4720     0.0100     0.3090
