~VERSION INFORMATION
 VERS.                2.0:   CWLS LOG ASCII STANDARD - VERSION 2.0
 WRAP.                 NO:   ONE LINE PER DEPTH STEP
~WELL INFORMATION
#MNEM.UNIT      DATA TYPE    INFORMATION
#----------   ------------   ------------------------------
 STRT.F           41.0000:   START DEPTH
 STOP.F          925.0000:   STOP DEPTH
 STEP.F            0.5000:   STEP LENGTH
 NULL.          -999.2500:   NO VALUE
 COMP. LAWRENCE ALLISON & ASSOCIATION:   COMPANY
 WELL. LAWRENCE ALLISON #48-2:   WELL
 FLD .       N.P.R. NO. 3:   FIELD
 LOC .       S2 T38N R78W:   LOCATION
 CNTY.            NATRONA:   COUNTY
 STAT.            WYOMING:   STATE
 CTRY. UNITED STATES OF AMERICA:   COUNTRY
 SRVC.       SCHLUMBERGER:   SERVICE COMPANY
 DATE.        06-SEP-1982:   LOGDATE
 API .     49025109110000:   API NUMBER
~CURVE INFORMATION
#MNEM.UNIT       API CODE    CURVE DESCRIPTION
#----------   ------------   ------------------------------
 DEPT.F                  :   
 ILM .OHMM   07 120 44 00:   INDUCTION LOG MEDIUM RESISTIVITY
 ILD .OHMM   07 120 46 00:   DEEP INDUCTION RESISTIVITY
 CALD.IN     45 280 60 00:   CALIPER FROM DENSITY LOG
 GRD .GAPI   45 310 01 00:   GAMMA RAY FROM DENSITY LOG
 TEND.LBS    45 635 01 00:   TENSION FROM DENSITY LOG
 CORR.G/C3   45 356 01 00:   DENSITY CORRECTION
 RHOB.G/C3   45 350 01 00:   BULK DENSITY
 NPHI.DEC    42 890 03 00:   NEUTRON POROSITY SANDSTONE
~PARAMETER INFORMATION
#MNEM.UNIT          VALUE    DESCRIPTION
#----------   ------------   ------------------------------
 EKB .F         5192.0000:   Kelly bushing
 EGL .F         5182.0000:   Ground level
 TD  .F          920.0000:   Total depth
 CLNT.            A2DTECH:   Client Code
 DATE.         6-SEP-1982:   Date Logged [DD-MMM-YYYY]
 DD  .F               920:   Depth driller
 DL  .F               918:   Depth logger
 BLI .F               908:   Bottom log interval
 TLI .F                49:   Top log interval
 CBL1.IN               49:   Casing logger 1
 BSD1.F               920:   Depth drilled with bit1
 DFT .                AIR:   Type fluid in hole
 TCS .HRS            0730:   Time Circ. stopped
 TLAB.HRS            0900:   Time logger at bottom
 LUN .               8035:   Logging unit number
 LUL .               CSPR:   Logging unit location
 ENGI.              PENNY:   Recorded By
 WITN.           JENNINGS:   Witnessed by
 ORIG.           5" PRINT:   Origin of data
 UWI .     49025109110000:   Unique Well ID
 DICO. A2D TECHNOLOGIES, INC.:   Digitizing Company
 PD  .                 GL:   Permanent Datum
 EPD .               5180:   Elevation Permanent Datum
 LMF .                 KB:   Log Measured From
 DMF .                 KB:   Drilling Measured From
 DAPD.                 10:   Feet Above Permanent Datum
~OTHER INFORMATION
~A   DEPT      ILM        ILD       CALD         GRD      TEND       CORR       RHOB       NPHI   
# ...
   81.5000     6.4426     6.5211    12.7951   122.9404   466.0158     0.0498     2.3813  -999.2500
   82.0000     6.4448     6.5216    12.7816   125.3987   465.5639     0.0442     2.3737  -999.2500
   82.5000     6.4469     6.4288    12.7832   127.1913   465.1119     0.0380     2.3675  -999.2500
   83.0000     6.4038     6.3376    12.7845   128.0963   464.6599     0.0348     2.3614  -999.2500
   83.5000     6.2001     6.2475    12.7858   127.8875   464.2080     0.0326     2.3535  -999.2500
   84.0000     6.1579     6.1117    12.7575   126.7999   463.7560     0.0318     2.3475  -999.2500
   84.5000     5.9856     5.8569    12.7588   125.4859   463.3040     0.0349     2.3407  -999.2500
   85.0000     5.9449     5.8996    12.7749   123.7282   462.8483     0.0404     2.3384  -999.2500
   85.5000     6.0329     5.9855    12.7762   121.0830   462.3839     0.0475     2.3468  -999.2500
   86.0000     5.9495     5.9859    12.7775   117.7456   461.8351     0.0483     2.3430  -999.2500
   86.5000     5.8248     5.9009    12.7640   115.2759   461.3832     0.0467     2.3385  -999.2500
   87.0000     5.6618     5.8170    12.7505   112.8063   460.9312     0.0506     2.3529  -999.2500
   87.5000     5.5035     5.5718    12.7519   111.1719   460.4792     0.0648     2.3597  -999.2500
   88.0000     5.3876     5.4481    12.7534   115.1834   460.0273     0.0742     2.3615  -999.2500
   88.5000     5.3900     5.4146    12.7547   119.1950   459.5753     0.0718     2.3484  -999.2500
   89.0000     5.5490     5.4935    12.7560   120.0956   459.1234     0.0624     2.3356  -999.2500
   89.5000     5.5116     5.4939    12.7722   116.3452   458.6688     0.0632     2.3356  -999.2500
   90.0000     5.4736     5.4548    12.7583   113.3588   458.2043     0.0648     2.3509  -999.2500
   90.5000     5.4363     5.4553    12.7600   114.7328   457.6544     0.0639     2.3474  -999.2500
   91.0000     5.4778     5.4556    12.7613   123.4351   457.2025     0.0467     2.3334  -999.2500
   91.5000     5.5590     5.4954    12.7774   130.3053   456.7505     0.0341     2.3282  -999.2500
   92.0000     5.5609     5.5755    12.7787   133.5114   456.2986     0.0349     2.3335  -999.2500
   92.5000     5.5629     5.6161    12.7948   128.9313   455.8466     0.0365     2.3441  -999.2500
   93.0000     5.5652     5.6165    12.7961   126.1832   455.3946     0.0341     2.3358  -999.2500
   93.5000     5.5672     5.4970    12.7977   128.4733   454.9427     0.0318     2.3275  -999.2500
   94.0000     5.4115     5.4188    12.7839   132.1374   454.4892     0.0326     2.3268  -999.2500
   94.5000     5.3741     5.4193    12.7855   132.5954   454.0248     0.0341     2.3298  -999.2500
   95.0000     5.4152     5.4197    12.7868   128.9313   453.4738     0.0357     2.3351  -999.2500
   95.5000     5.4171     5.4592    12.7730   126.6412   453.0218     0.0396     2.3480  -999.2500
   96.0000     5.4191     5.4596    12.7746   125.4962   452.5698     0.0498     2.3601  -999.2500
   96.5000     5.4213     5.4600    12.7655   125.0382   452.1179     0.0593     2.3603  -999.2500
   97.0000     5.4232     5.4998    12.7583   124.8092   451.6659     0.0593     2.3579  -999.2500
   97.5000     5.5035     5.5399    12.7596   124.5802   451.2139     0.0491     2.3693  -999.2500
   98.0000     5.5850     5.6205    12.7609   123.4351   450.7620     0.0475     2.3909  -999.2500
   98.5000     5.6678     5.7023    12.7622   121.6031   450.3096     0.0548     2.4240  -999.2500
   99.0000     5.7106     5.7027    12.7637   120.2290   449.8452     0.0640     2.4259  -999.2500
   99.5000     5.7130     5.7032    12.8096   119.5420   464.8859     0.0679     2.3822  -999.2500
  100.0000     5.5929     5.6222    12.8257   118.1679   464.3712     0.0553     2.3656  -999.2500
  100.5000     5.5933     5.5430    12.8270   117.8429   448.5905     0.0428     2.3595  -999.2500
  101.0000     5.5937     5.5044    12.7987   117.8609   448.2897     0.0412     2.3543  -999.2500
  101.5000     5.4359     5.4662    12.7701   118.1040   447.9876     0.0436     2.3603  -999.2500
  102.0000     5.3587     5.3893    12.8161   119.6747   447.6780     0.0453     2.3695  -999.2500
  102.5000     5.3591     5.3137    12.8766   117.4826   447.3120     0.0492     2.3819  -999.2500
  103.0000     5.3211     5.2387    12.8927   116.1701   447.0112     0.0476     2.3944  -999.2500
  103.5000     5.2834     5.1283    12.8940   116.1903   446.7104     0.0563     2.4012  -999.2500
  104.0000     5.2460     5.0923    12.8953   115.9646   446.4095     0.0587     2.3899  -999.2500
  104.5000     5.2088     5.0937    12.8818   115.0888   461.5886     0.0524     2.3732  -999.2500
  105.0000     5.1720     5.0947    12.8516   114.6956   461.2878     0.0571     2.3672  -999.2500
  105.5000     5.1724     5.0958    12.7960   115.1638   460.9869     0.0634     2.3725  -999.2500
  106.0000     5.1357     5.0969    12.7677   114.7347   460.6811     0.0674     2.3740  -999.2500
  106.5000     5.1361     5.1348    12.7838   115.2029   460.3101     0.0525     2.3612  -999.2500
  107.0000     5.1364     5.1361    12.7851   118.1070   460.0092     0.0502     2.3544  -999.2500
  107.5000     5.1001     5.1743    12.7565   121.8987   459.7084     0.0601     2.3584  -999.2500
  108.0000     5.1373     5.2127    12.7430   124.5810   459.4076     0.0698     2.3670  -999.2500
  108.5000     5.2495     5.2893    12.7295   127.4851   459.1068     0.0605     2.3545  -999.2500
  109.0000     5.3258     5.3286    12.7311   127.7367   458.8060     0.0471     2.3167  -999.2500
  109.5000     5.3645     5.4069    12.7176   125.7396   458.5052     0.0377     2.3130  -999.2500
  110.0000     5.3649     5.4081    12.7190   125.3248   458.2043     0.0425     2.3409  -999.2500
  110.5000     5.3653     5.3704    12.7351   126.0100   457.8947     0.0574     2.3674  -999.2500
  111.0000     5.2891     5.2570    12.7364   124.7031   457.5275     0.0692     2.3757  -999.2500
  111.5000     5.2141     5.1459    12.7229   123.1693   457.2267     0.0653     2.3667  -999.2500
  112.0000     5.1772     5.1871    12.7245   120.5261   456.9258     0.0496     2.3599  -999.2500
  112.5000     5.1405     5.2604    12.7406   119.8751   472.1049     0.0369     2.3606  -999.2500
  113.0000     5.1041     5.2237    12.7419   120.7871   471.8040     0.0332     2.3683  -999.2500
  113.5000     5.0680     5.2251    12.7432   123.0256   486.9831     0.0442     2.3705  -999.2500
  114.0000     4.9961     5.1147    12.7445   125.2640   486.6823     0.0497     2.3615  -999.2500
  114.5000     4.8900     4.9707    12.7458   127.5025   486.3777     0.0505     2.3532  -999.2500
  115.0000     4.8904     4.9005    12.7471   127.7439   486.0682     0.0506     2.3494  -999.2500
  115.5000     4.8907     4.9018    12.7336   125.4629   485.7046     0.0498     2.3441  -999.2500
  116.0000     4.9263     4.9739    12.7349   120.0216   485.4038     0.0443     2.3373  -999.2500
  116.5000     4.9622     4.9749    12.7363   116.0470   485.1030     0.0349     2.3328  -999.2500
  117.0000     4.9983     5.0480    12.7228   112.0725   484.8022     0.0271     2.3555  -999.2500
  117.5000     5.1074     5.1222    12.7241   109.8731   484.5013     0.0304     2.3797  -999.2500
  118.0000     5.1817     5.1603    12.7257   109.6658   484.2005     0.0454     2.4054  -999.2500
  118.5000     5.1820     5.2364    12.7270   109.2416   483.8997     0.0633     2.4061  -999.2500
  119.0000     5.2197     5.2375    12.7135   110.5974   483.5913     0.0602     2.3790  -999.2500
  119.5000     5.2201     5.2386    12.7148   112.8358   498.7027     0.0492     2.3729  -999.2500
  120.0000     5.2205     5.2775    12.7457   119.5122   498.4019     0.0437     2.3707  -999.2500
  120.5000     5.2209     5.0923    12.7766   123.3040   498.1010     0.0453     2.3700  -999.2500
  121.0000     5.2213     5.0204    12.8075   121.7203   497.8002     0.0500     2.3669  -999.2500
  121.5000     5.1842     5.0944    12.8236   117.1348   497.4994     0.0524     2.3632  -999.2500
