~VERSION INFORMATION
 VERS.                2.0:   CWLS LOG ASCII STANDARD - VERSION 2.0
 WRAP.                 NO:   ONE LINE PER DEPTH STEP
~WELL INFORMATION
#MNEM.UNIT      DATA TYPE    INFORMATION
#----------   ------------   ------------------------------
 STRT.F          298.0000:   START DEPTH
 STOP.F         3084.0000:   STOP DEPTH
 STEP.F            0.5000:   STEP LENGTH
 NULL.          -999.2500:   NO VALUE
 COMP. LAWERNCE ALLISON AND ASSOCIATED:   COMPANY
 WELL. LAWERNCE "TX" #77-20:   WELL
 FLD .        TEAPOT DOME:   FIELD
 LOC .      S20 T39N R78W:   LOCATION
 CNTY.            NATRONA:   COUNTY
 STAT.            WYOMING:   STATE
 CTRY. UNITED STATES OF AMERICA:   COUNTRY
 SRVC.       SCHLUMBERGER:   SERVICE COMPANY
 DATE.        22-JAN-1982:   LOGDATE
 API .     49025108840000:   API NUMBER
~CURVE INFORMATION
#MNEM.UNIT       API CODE    CURVE DESCRIPTION
#----------   ------------   ------------------------------
 DEPT.F                  :   
 CALD.IN     45 280 60 00:   CALIPER FROM DENSITY LOG
 GRD .GAPI   45 310 01 00:   GAMMA RAY FROM DENSITY LOG
 TEND.LBS    45 635 01 00:   TENSION FROM DENSITY LOG
 RHOB.G/C3   45 350 01 00:   BULK DENSITY
 NPHI.DEC    42 890 03 00:   NEUTRON POROSITY SANDSTONE
 CORR.G/C3   45 356 01 00:   DENSITY CORRECTION
 SFLU.OHMM   07 220 01 00:   SPHERICALLY FOCUSED LOG UNAVERAGED RESISTIVITY
 ILD .OHMM   07 120 46 00:   INDUCTION LOG DEEP RESISTIVITY
 ILM .OHMM   07 120 44 00:   INDUCTION LOG MEDIUM RESISTIVITY
 TENR.LBS    07 635 01 00:   TENSION
 SPR .MV     07 010 01 00:   SPONTANEOUS POTENTIAL
~PARAMETER INFORMATION
#MNEM.UNIT          VALUE    DESCRIPTION
#----------   ------------   ------------------------------
 EKB .F         5022.0000:   Kelly bushing
 EGL .F         5012.0000:   Ground level
 EDF .F         5021.0000:   Drilling floor
 TD  .F         3079.0000:   Total depth
 DATE.        22-JAN-1982:   Date logged
 CLNT.            A2DTECH:   Client Code
 SL  . 986' FSL & 779' FEL:   Surface Location
 PD  .                 GL:   Permanent Datum
 EPD .F              5012:   Elevation Permanent Datum
 LMF .                 KB:   Log Measured From
 DMF .                 KB:   Drilling Measured From
 DAPD.F                10:   Feet Above Permanent Datum
 DD  .F              3079:   Depth driller
 DL  .F              3070:   Depth logger
 BLI .F              3064:   Bottom log interval
 TLI .F               328:   Top log interval
 CS1 .IN            9.625:   Casing size
 CBD1.      9.625" @ 300':   Casing driller 1
 CBL1.F               328:   Casing logger 1
 BS1 .IN            7.875:   Bit size
 BSD1.F              3079:   Depth drilled with bit1
 DFT .           CHEM/GEL:   Type fluid in hole
 DFD .                8.9:   Density
 DFV .                 50:   Viscosity
 DFPH.               10.5:   pH
 DFL .                  8:   Fluid loss
 MSS .           FLOWLINE:   Source of sample
 RMS .OHMM           2.53:   Rm
 MST .F                49:   Rm Meas. temp.
 RMF .OHMM           2.04:   Rmf
 MFST.F                49:   Rmf Meas. temp.
 RMC .OHMM           3.80:   Rmc
 MCST.F                49:   Rmc Meas. temp.
 MFSS.               MEAS:   Source Rmf.
 MCSS.               CALC:   Source Rmc.
 RMB .OHMM           1.04:   Rm. at BHT
 BHT .F               119:   BHT.
 TCS .HRS            0330:   Time Circ. stopped
 TLAB.HRS            0800:   Time logger at bottom
 MRT .F               119:   Maximum recorded temp.
 LUN .               8043:   Logging unit number
 LUL .               CSPR:   Logging unit location
 ENGI.            PERAKIS:   Recorded By
 WITN.              SCOTT:   Witnessed by
 ORIG.           5" PRINT:   Origin of data
 UWI .     49025108840000:   Unique Well ID
 DICO. A2D TECHNOLOGIES, INC.:   Digitizing Company
~OTHER INFORMATION
~A   DEPT       CALD       GRD      TEND         RHOB       NPHI     CORR       SFLU        ILD        ILM       TENR        SPR   
# ...
 3043.0000     7.4060   150.2210  1293.4200     2.4850     0.2770     0.0330     4.4400     3.7450     3.8080  1248.7310   -20.8710
 3043.5000     7.4030   151.1140  1307.6990     2.4770     0.2920     0.0290     4.6740     3.5120     3.6870  1272.6750   -20.5230
 3044.0000     7.4000   150.3100  1321.9790     2.4890     0.3070     0.0440     4.9090     3.4450     3.5690  1296.2440   -20.1620
 3044.5000     7.3970   149.6370  1336.2581     2.5040     0.3120     0.0600     4.9490     3.4060     3.6180  1329.9490   -19.8000
 3045.0000     7.3940   149.8060  1350.2540     2.5010     0.3120     0.0660     4.8750     3.4850     3.6660  1329.9490   -19.4360
 3045.5000     7.3920   151.7360  1350.2540     2.4890     0.3120     0.0540     4.7040     3.5610     3.7130  1322.8140   -19.4900
 3046.0000     7.3890   153.6080  1291.8220     2.4800     0.3170     0.0450     4.5330     3.7890     3.9500  1293.6331   -19.6130
 3046.5000     7.3860   154.2940  1248.7310     2.4870     0.3120     0.0470     4.5080     4.2040     4.4190  1248.7310   -19.7390
 3047.0000     7.3830   153.3260  1248.7310     2.4950     0.3020     0.0490     5.1520     4.5930     4.8580  1252.5861   -19.8640
 3047.5000     7.3800   152.5720  1250.1580     2.4980     0.3040     0.0470     7.5220     5.3680     5.7340  1260.9430   -19.9890
 3048.0000     7.3770  -999.2500  1255.6910     2.4850     0.3150     0.0370    10.1660     6.0970     6.5580  1269.3010   -20.1140
 3048.5000     7.3740  -999.2500  1261.2240     2.4830     0.3290     0.0230    12.5960     6.8260     7.3820  1277.6591   -20.2380
 3049.0000     7.3710  -999.2500  1266.7570     2.4920     0.3110     0.0090    15.4130     7.5560     8.2200  1286.0160   -20.3640
 3049.5000     7.3680  -999.2500  1272.2900     2.5240     0.2650     0.0050    16.3610     8.2850     9.0930  1294.3740   -20.5680
 3050.0000     7.3650  -999.2500  1277.8230     2.5400     0.2290     0.0100    16.3610     9.0140     9.9720  1302.7321   -20.7820
 3050.5000     7.3620  -999.2500  1283.3560     2.5530     0.2030     0.0160    14.4850     9.5170    10.0470  1311.0890   -21.0160
 3051.0000     7.3590  -999.2500  1289.3400     2.5530     0.1990     0.0150    12.7770     9.4790    10.1600  1319.4470   -21.3900
 3051.5000     7.3560  -999.2500  1284.6050     2.5350     0.1970     0.0100    11.7980     9.1720    10.1600  1327.8051   -21.7710
 3052.0000     7.3530  -999.2500  1269.9740     2.5230     0.1990     0.0070    11.7980     8.8650     9.7290  1308.0980   -22.1550
 3052.5000     7.3570  -999.2500  1255.3430     2.5340     0.2000     0.0160    11.9840     8.5590     9.4060  1278.7040   -22.1600
 3053.0000     7.3670  -999.2500  1240.7120     2.5390     0.2020     0.0220    12.0210     8.2520     9.0830  1248.7310   -21.6270
 3053.5000     7.3770  -999.2500  1228.4260     2.5260     0.2040     0.0130    11.5040     7.9450     8.7600  1264.2460   -21.0560
 3054.0000     7.3870  -999.2500  1235.2410     2.5100     0.2060     0.0040    10.8440     7.7010     8.4370  1280.0730   -20.5440
 3054.5000     7.3970  -999.2500  1247.2910     2.5040     0.2070     0.0090    10.1830     7.3790     8.1200  1290.2670   -21.1650
 3055.0000     7.4070  -999.2500  1259.3400     2.5210     0.2070     0.0200     9.5590     6.9810     7.6380  1292.5031   -21.9470
 3055.5000     7.4110  -999.2500  1271.3890     2.5410     0.2060     0.0300     8.9430     6.5820     7.1660  1294.7400   -21.9830
 3056.0000     7.4080  -999.2500  1283.4380     2.5490     0.2040     0.0340     8.3270     6.1840     6.6930  1296.9760   -22.3190
 3056.5000     7.4060  -999.2500  1295.4880     2.5460     0.2060     0.0360     7.9530     5.7860     6.2210  1299.2130   -21.8900
 3057.0000     7.4030  -999.2500  1307.5370     2.5400     0.2090     0.0310     7.4290     5.3880     5.7480  1301.4490   -21.3140
 3057.5000     7.4000  -999.2500  1319.5861     2.5350     0.2120     0.0250     6.6090     4.9900     5.2760  1303.6860   -20.9970
 3058.0000     7.3970  -999.2500  1331.6350     2.5300     0.2150     0.0180     5.7900     4.5930     4.8810  1305.9220   -21.5430
 3058.5000     7.3950  -999.2500  1343.6851     2.5220     0.2150     0.0170     5.2350     4.3440     4.5610  1308.1591   -21.9860
 3059.0000     7.3920  -999.2500  1329.0811     2.5100     0.2130     0.0190     5.4170     4.0720     4.2230  1304.9070   -22.1600
 3059.5000     7.3890  -999.2500  1282.5270     2.4990     0.2110     0.0210     5.6410     3.8000     3.9250  1270.6150   -22.3390
 3060.0000     7.3860  -999.2500  1248.7310     2.4910     0.2080     0.0230     5.5140     3.5280     3.6080  1248.7310   -22.2730
 3060.5000     7.3830  -999.2500  1248.7310     2.4910     0.2060     0.0250     5.1660     3.2510     3.2910  1262.9440   -21.8870
 3061.0000     7.3810  -999.2500  1256.9250     2.4920     0.2040     0.0270     4.4700     3.2540     2.9750  1277.6410   -21.5100
 3061.5000     7.3780  -999.2500  1268.8340     2.4880     0.2020     0.0270     3.6780     3.2610     2.5980  1288.0291   -21.1350
 3062.0000     7.3750  -999.2500  1280.7430     2.4830     0.2050     0.0310     2.8870     3.2690     2.6470  1281.5990   -20.7580
 3062.5000     7.3720  -999.2500  1292.6520     2.4690     0.2090     0.0370     2.4110     3.2760     2.9880  1275.1689   -20.5840
 3063.0000     7.3840  -999.2500  1304.5620     2.4440     0.2140     0.0440     2.5740     3.2840     3.3220  1269.0360   -21.0030
 3063.5000     7.3980  -999.2500  1316.4709     2.4150     0.2170     0.0420     2.8260     3.2920     3.4610  1269.0360   -21.4640
 3064.0000     7.4120  -999.2500  1328.3800     2.4000     0.2100     0.0290     2.9290     3.2990     3.4970  1283.4520   -21.7690
 3064.5000     7.4050  -999.2500  1340.2889     2.4030     0.2030     0.0130  -999.2500     3.3070     3.5320  1314.3149   -21.4160
 3065.0000     7.3770  -999.2500  1350.2540     2.4330     0.1960     0.0090  -999.2500  -999.2500  -999.2500  1350.2540  -999.2500
 3065.5000     7.3500  -999.2500  1305.3790     2.4600     0.1900     0.0260  -999.2500  -999.2500  -999.2500  1310.1980  -999.2500
 3066.0000     7.3220  -999.2500  1269.0360     2.4740     0.1890     0.0460  -999.2500  -999.2500  -999.2500  1282.1410  -999.2500
 3066.5000     7.2950  -999.2500  1269.0360     2.4730     0.1890     0.0470  -999.2500  -999.2500  -999.2500  1269.0360  -999.2500
 3067.0000     7.2680  -999.2500  1274.1121     2.4750     0.1890     0.0420  -999.2500  -999.2500  -999.2500  1277.0610  -999.2500
 3067.5000     7.2110  -999.2500  1279.2330     2.4860     0.1900     0.0420  -999.2500  -999.2500  -999.2500  1291.7570  -999.2500
 3068.0000     7.1560  -999.2500  1284.3540     2.5100     0.1900     0.0510  -999.2500  -999.2500  -999.2500  1306.4540  -999.2500
 3068.5000     7.1080  -999.2500  1289.3400     2.5340     0.1910     0.0650  -999.2500  -999.2500  -999.2500  1298.1390  -999.2500
 3069.0000     7.1250  -999.2500  1278.0790     2.5510     0.1910     0.0790  -999.2500  -999.2500  -999.2500  1283.4420  -999.2500
 3069.5000     7.1440  -999.2500  1208.1219     2.5570  -999.2500     0.0860  -999.2500  -999.2500  -999.2500  1269.0360  -999.2500
 3070.0000     7.1640  -999.2500  1257.8380  -999.2500  -999.2500  -999.2500  -999.2500  -999.2500  -999.2500  1295.2620  -999.2500
 3070.5000     7.1840  -999.2500  1329.9490  -999.2500  -999.2500  -999.2500  -999.2500  -999.2500  -999.2500  1320.9810  -999.2500
 3071.0000  -999.2500  -999.2500  1350.2540  -999.2500  -999.2500  -999.2500  -999.2500  -999.2500  -999.2500  1346.7010  -999.2500
 3071.5000  -999.2500  -999.2500  1259.1550  -999.2500  -999.2500  -999.2500  -999.2500  -999.2500  -999.2500  1234.6060  -999.2500
 3072.0000  -999.2500  -999.2500  1110.1820  -999.2500  -999.2500  -999.2500  -999.2500  -999.2500  -999.2500  1100.4189  -999.2500
 3072.5000  -999.2500  -999.2500   914.6010  -999.2500  -999.2500  -999.2500  -999.2500  -999.2500  -999.2500   966.2330  -999.2500
 3073.0000  -999.2500  -999.2500   821.9370  -999.2500  -999.2500  -999.2500  -999.2500  -999.2500  -999.2500   832.0460  -999.2500
