~VERSION INFORMATION
 VERS.                2.0:   CWLS LOG ASCII STANDARD - VERSION 2.0
 WRAP.                 NO:   ONE LINE PER DEPTH STEP
~WELL INFORMATION
#MNEM.UNIT      DATA TYPE    INFORMATION
#----------   ------------   ------------------------------
 STRT.F           11.5000:   START DEPTH
 STOP.F         1726.0000:   STOP DEPTH
 STEP.F            0.5000:   STEP LENGTH
 NULL.          -999.2500:   NO VALUE
 COMP. LAWRENCE ALLISON & ASSOC WEST:   COMPANY
 WELL. LAWRENCE NPR 3 "X" #51-26:   WELL
 FLD .                NPR:   FIELD
 LOC .      S26 T38N R78W:   LOCATION
 CNTY.            NATRONA:   COUNTY
 STAT.            WYOMING:   STATE
 CTRY. UNITED STATES OF AMERICA:   COUNTRY
 SRVC.      DRESSER ATLAS:   SERVICE COMPANY
 DATE.        13-AUG-1983:   LOGDATE
 API .     49025109270000:   API NUMBER
~CURVE INFORMATION
#MNEM.UNIT       API CODE    CURVE DESCRIPTION
#----------   ------------   ------------------------------
 DEPT.F                  :   
 CALD.IN     45 280 60 00:   CALIPER FROM DENSITY LOG
 RHOB.G/C3   45 350 01 00:   BULK DENSITY
 CORR.G/C3   45 356 01 00:   DENSITY CORRECTION
 TEND.LBS    45 635 01 00:   TENSION FROM DENSITY LOG
 GRR .GAPI   07 310 01 00:   GAMMA RAY FROM RESISTIVITY
 RILD.OHMM   07 120 46 00:   INDUCTION LOG DEEP RESISTIVITY
 RILM.OHMM   07 120 44 00:   INDUCTION LOG MEDIUM RESISTIVITY
 TENR.LBS    07 635 01 00:   TENSION
~PARAMETER INFORMATION
#MNEM.UNIT          VALUE    DESCRIPTION
#----------   ------------   ------------------------------
 EKB .F         5455.0000:   Kelly bushing
 EGL .F         5444.0000:   Ground level
 EDF .F            0.0000:   Drilling floor
 EPD .F         5444.0000:   Permanent datum
 TD  .F         1726.0000:   Total depth
 DATE.        13-AUG-1983:   Date logged
 CLNT.            A2DTECH:   Client Code
 PD  .                 GL:   Permanent Datum
 LMF .                 KB:   Log Measured From
 DMF .                 KB:   Drilling Measured From
 DAPD.F                11:   Feet Above Permanent Datum
 DD  .F              1726:   Depth driller
 DL  .F              1724:   Depth logger
 BLI .F              1718:   Bottom log interval
 CBD1.F                47:   Casing driller 1
 CBL1.F                48:   Casing logger 1
 BS1 .IN            12.25:   Bit size
 BSD1.F              1726:   Depth drilled with bit1
 DFT .           AIR/FOAM:   Type fluid in hole
 TCS .HRS               1:   Time Circ. stopped
 MRT .F                85:   Maximum recorded temp.
 LUN .               6270:   Logging unit number
 LUL .              WLSTN:   Logging unit location
 ENGI.            QUICKEL:   Recorded By
 WITN.           JENNINGS:   Witnessed by
 ORIG.           5" PRINT:   Origin of data
 UWI .     49025109270000:   Unique Well ID
 DICO. A2D TECHNOLOGIES, INC.:   Digitizing Company
~OTHER INFORMATION
~A   DEPT     CALD       RHOB       CORR       TEND         GRR      RILD       RILM       TENR   
# ...
   52.0000    13.6870     2.3120     0.0190   -70.3540   127.2220    46.5950    36.4370   -70.4330
   52.5000    13.4490     2.3050     0.0250   -69.6150   127.0020    59.4910    47.6610   -70.9000
   53.0000    13.3620     2.2890     0.0330   -68.8760   126.8040    33.3410    46.7040   -71.3680
   53.5000    13.3100     2.2520     0.0390   -68.1380   126.5270    23.6590    43.1830   -71.8350
   54.0000    13.2570     2.2030     0.0360   -67.3990   124.2990    22.2500    30.0100   -72.3020
   54.5000    13.2040     2.1550     0.0340   -66.6610   122.8020    20.2510    20.0000   -72.7700
   55.0000    13.1490     2.1060     0.0320   -65.9220   122.3750    18.0670    30.0410   -73.2370
   55.5000    13.1180     2.0810     0.0300   -65.1840   122.2740    18.3690    41.6850   -73.7040
   56.0000    13.0870     2.1120     0.0270   -64.4450   121.4330    25.2970    52.2740   -74.1720
   56.5000    13.0680     2.1400     0.0170   -63.7070   119.6980    33.1480    39.8160   -74.6390
   57.0000    13.0750     2.1590     0.0070   -62.9680   118.1850    40.9980    31.4500   -75.1060
   57.5000    13.0810     2.1540     0.0110   -62.2300   117.2610    44.6760    32.5190   -75.5730
   58.0000    13.0870     2.1240     0.0180   -61.4910   112.3970    39.4710    34.5310   -76.0410
   58.5000    13.0940     2.0770     0.0240   -60.7530   106.4970    35.4630    36.5430   -76.5080
   59.0000    13.1000     2.0370     0.0390   -60.0140   102.8050    36.8580    38.2670   -76.9810
   59.5000    13.1060     2.0190     0.0580   -59.2760   102.7770    38.2930    38.7190   -76.9510
   60.0000    13.1120     2.0110     0.0760   -58.5370   105.7340    39.7280    38.8950   -76.9140
   60.5000    13.1190     2.0150     0.0840   -57.7990   107.4220    41.1120    36.5880   -76.8770
   61.0000    13.1250     2.0290     0.0800   -57.0600   107.8650    39.7200    34.6920   -76.8390
   61.5000    13.1460     2.0470     0.0760   -53.6710   109.4260    38.3750    32.7950   -76.8020
   62.0000    13.1750     2.0660     0.0740   -48.1050   111.1600    37.0300    30.8990   -76.7650
   62.5000    13.2660     2.0770     0.0820   -42.5400   112.0200    35.6850    29.9210   -76.7270
   63.0000    13.3890     2.0750     0.0900   -36.9740   109.7350    34.4940    29.7540   -76.6900
   63.5000    13.5130     2.0760     0.0980   -31.6270   103.4360    34.3090    31.5530   -76.6520
   64.0000    13.6370     2.0880     0.1000   -43.8210    98.9410    34.1770    33.1670   -76.6150
   64.5000    13.7130     2.1180     0.0820   -55.5560    98.2930    35.9370    34.7820   -76.5780
   65.0000    13.4920     2.1480     0.0640   -67.2900    98.8150    37.4740    36.0580   -76.5400
   65.5000    13.2690     2.1720     0.0490   -79.0240    96.9120    39.0110    36.7680   -76.5030
   66.0000    13.0490     2.1910     0.0770   -84.4580    94.3250    40.5480    37.4790   -76.4660
   66.5000    12.8910     2.1840     0.1320   -77.2890    96.3130    42.0840    38.1900   -76.4280
   67.0000    12.7360     2.1740     0.1870   -70.1200    98.6370    43.6210    38.9000   -76.3910
   67.5000    12.6520     2.1720     0.2350   -62.9520    99.6620    45.1580    39.6110   -76.3540
   68.0000    12.6540     2.1820     0.2120   -55.7830   100.1530    46.6950    41.7560   -76.3160
   68.5000    12.6560     2.2280     0.1520   -51.9350    96.3010    48.2320    45.5310   -76.2790
   69.0000    12.6590     2.2790     0.0930   -52.4620    91.6550    50.4890    49.3050   -76.2420
   69.5000    12.6610     2.3230     0.0630   -52.9900    87.0180    53.8990    53.0790   -76.2040
   70.0000    12.6640     2.3500     0.0680   -53.5180    85.0560    57.3090    56.8530   -76.1670
   70.5000    12.6660     2.3760     0.0790   -54.0460    83.5630    60.7200    60.6270   -76.1290
   71.0000    12.6690     2.4050     0.0960   -54.5740    79.8410    62.4250    65.2490   -76.0920
   71.5000    12.6710     2.4120     0.0810   -55.1020    76.1790    57.5120    61.9880   -76.0550
   72.0000    12.6740     2.3880     0.0610   -55.6300    74.4010    53.5820    56.3560   -76.0170
   72.5000    12.6770     2.3220     0.0540   -56.1580    76.1640    49.6520    50.7230   -75.9800
   73.0000    12.6790     2.2590     0.0510   -56.6860    81.4610    45.7210    45.0900   -75.9430
   73.5000    12.6820     2.2130     0.0470   -57.2130    90.2820    41.7910    39.4570   -75.9050
   74.0000    12.6840     2.2190     0.0440   -57.7410    98.8580    37.8610    33.8240   -75.8680
   74.5000    12.6870     2.2320     0.0470   -58.2690   107.5270    33.9300    28.9410   -75.8310
   75.0000    12.6890     2.2450     0.0510   -58.7970   113.2870    31.0950    29.2560   -75.7930
   75.5000    12.6920     2.2580     0.0520   -59.3250   114.8230    30.8720    29.5480   -75.7560
   76.0000    12.6940     2.2700     0.0490   -59.8530   116.2660    30.5900    29.8390   -75.7180
   76.5000    12.6970     2.2740     0.0450   -60.3810   116.8260    31.2510    30.5080   -75.6810
   77.0000    12.6990     2.2610     0.0420   -60.9090   114.5700    32.4750    31.9020   -75.6440
   77.5000    12.7020     2.2430     0.0480   -61.4360   112.7230    33.6990    33.2960   -75.6060
   78.0000    12.7040     2.2230     0.0750   -61.9640   111.3550    34.9230    34.6900   -75.5690
   78.5000    12.7070     2.2000     0.1020   -62.4920   109.9500    36.1470    36.0840   -75.5320
   79.0000    12.7090     2.1770     0.1180   -63.0200   109.5230    37.3710    37.4780   -75.4940
   79.5000    12.7120     2.1560     0.0980   -63.5480   109.4200    38.5950    38.5380   -75.4570
   80.0000    12.7140     2.1550     0.0820   -64.0760   108.9300    39.9190    38.5380   -75.4200
   80.5000    12.7170     2.1560     0.0660   -64.6040   108.3270    39.4560    38.5380   -75.3820
   81.0000    12.7190     2.1640     0.0680   -65.1320   107.9370    38.8950    37.5660   -75.3450
   81.5000    12.7220     2.1710     0.0770   -65.6600   108.8500    37.9190    36.2920   -75.3080
   82.0000    12.7240     2.1800     0.0920   -66.1870   109.4750    36.5180    35.0180   -75.2700
   82.5000    12.7270     2.1900     0.1040   -66.7150   108.6650    35.1170    33.7440   -75.2330
   83.0000    12.7290     2.2140     0.0720   -67.2430   112.8940    33.7170    32.4700   -75.1950
   83.5000    12.7280     2.2400     0.0390   -67.7710   120.9310    32.3160    31.1610   -75.1580
   84.0000    12.7260     2.2660     0.0050   -68.2990   131.8360    31.4500    31.2200   -75.1210
   84.5000    12.7240     2.2930     0.0070   -68.8270   131.0900    31.4500    31.2810   -75.0830
   85.0000    12.7220     2.3040     0.0080   -69.3550   130.3460    31.4500    31.3430   -75.0460
   85.5000    12.7200     2.3070    -0.0200   -69.8830   130.1430    31.4500    31.4040   -75.0090
   86.0000    12.7180     2.3110    -0.0100   -70.4110   131.6180    31.4500    31.4500   -74.9710
   86.5000    12.7160     2.3080     0.0080   -70.9380   131.6090    31.4500    31.1310   -74.9340
   87.0000    12.7140     2.3040     0.0220   -71.4660   129.1790    31.4500    30.8270   -74.8970
   87.5000    12.7120     2.3000     0.0150   -71.8780   124.8190    31.1780    30.5240   -74.8590
   88.0000    12.7100     2.2910     0.0010   -72.1110   121.3070    30.8720    30.2200   -74.8220
   88.5000    12.7080     2.2790    -0.0350   -72.3440   122.4190    30.5650    29.9170   -74.7840
   89.0000    12.7060     2.2660    -0.0130   -72.5770   123.3710    30.2590    29.6140   -74.7470
   89.5000    12.7040     2.2500     0.0140   -72.8090   123.5020    29.9530    29.3100   -74.7100
   90.0000    12.7020     2.2540     0.0420   -73.0420   121.8680    29.6460    29.0070   -74.6720
   90.5000    12.7000     2.2610     0.0500   -73.2750   119.6720    29.3400    28.5580   -74.6350
   91.0000    12.6980     2.2630     0.0510   -73.5080   117.4660    29.0330    27.9050   -74.5980
   91.5000    12.6960     2.2600     0.0520   -73.7400   115.1700    28.7270    27.2530   -74.5600
   92.0000    12.6940     2.2600     0.0510   -73.9730   114.4170    28.3160    26.6000   -74.5230
