~VERSION INFORMATION
 VERS.                2.0:   CWLS LOG ASCII STANDARD - VERSION 2.0
 WRAP.                 NO:   ONE LINE PER DEPTH STEP
~WELL INFORMATION
#MNEM.UNIT      DATA TYPE    INFORMATION
#----------   ------------   ------------------------------
 STRT.F           60.0000:   START DEPTH
 STOP.F         3178.0000:   STOP DEPTH
 STEP.F            0.5000:   STEP LENGTH
 NULL.          -999.2500:   NO VALUE
 COMP. LAWRENCE-ALLISON & ASSOSCIATES:   COMPANY
 WELL. LAWRENCE "AX" #46-21:   WELL
 FLD .             NPR #3:   FIELD
 LOC .      S21 T39N R78W:   LOCATION
 CNTY.            NATRONA:   COUNTY
 STAT.            WYOMING:   STATE
 CTRY. UNITED STATES OF AMERICA:   COUNTRY
 SRVC.       SCHLUMBERGER:   SERVICE COMPANY
 DATE.        03-JUN-1982:   LOGDATE
 API .     49025108890000:   API NUMBER
~CURVE INFORMATION
#MNEM.UNIT       API CODE    CURVE DESCRIPTION
#----------   ------------   ------------------------------
 DEPT.F                  :   
 TEND.LBS    45 635 01 00:   TENSION FORM DENSITY LOG
 CALD.IN     45 280 60 00:   CALIPER FROM DENSITY LOG
 CORR.G/C3   45 356 01 00:   DENSITY CORRECTION
 RHOB.G/C3   45 350 01 00:   BULK DENSITY
 NPHI.DEC    42 890 03 00:   NEUTRON POROSITY SANDSTONE
 GRR .GAPI   07 310 01 00:   GAMMA RAY FROM RESISTIVITY
 SPR .MV     07 010 01 00:   SPONTANEOUS POTENTIAL
 SFL .OHMM   07 220 01 00:   SHALLOW FOCUSED LOG RESISTIVITY
 ILD .OHMM   07 120 46 00:   DEEP INDUCTION RESISTIVITY
 ILM .OHMM   07 120 44 00:   INDUCTION LOG MEDIUM RESISTIVITY
 TENR.LBS    07 635 01 00:   TENSION FROM RESISTIVITY
~PARAMETER INFORMATION
#MNEM.UNIT          VALUE    DESCRIPTION
#----------   ------------   ------------------------------
 EKB .F         5008.0000:   Kelly bushing
 EGL .F         4998.0000:   Ground level
 EDF .F         5007.0000:   Drilling floor
 TD  .F         3230.0000:   Total depth
 CLNT.            A2DTECH:   Client Code
 SL  . 1864' FSL & 2484' FWL:   Surface Location
 PD  .                 GL:   Permanent Datum
 EPD .F              4998:   Elevation Permanent Datum
 LMF .                 KB:   Log Measured From
 DMF .                 KB:   Drilling Measured From
 DAPD.F                10:   Feet Above Permanent Datum
 DATE.        03-JUN-1982:   Date Logged [DD-MMM-YYYY]
 DD  .F              3230:   Depth driller
 DL  .F              3200:   Depth logger
 BLI .F              3190:   Bottom log interval
 TLI .F               475:   Top log interval
 CS1 .IN            9.625:   Casing size
 CBD1.      9.625" @ 465':   Casing driller 1
 CBL1.F               475:   Casing logger 1
 BS1 .IN             8.75:   Bit size
 BSD1.F              3230:   Depth drilled with bit1
 DFT .   FORM WATER / AIR:   Type fluid in hole
 TCS .HRS            1530:   Time Circ. stopped
 TLAB.HRS            1900:   Time logger at bottom
 MRT .F               135:   Maximum recorded temp.
 LUN .               8035:   Logging unit number
 LUL .               CSPR:   Logging unit location
 ENGI.              PENNY:   Recorded By
 WITN.           JENNINGS:   Witnessed by
 ORIG.      2.5" 5" PRINT:   Origin of data
 UWI .     49025108890000:   Unique Well ID
 DICO. A2D TECHNOLOGIES, INC.:   Digitizing Company
~OTHER INFORMATION
~A   DEPT     TEND       CALD       CORR       RHOB       NPHI        GRR        SPR        SFL        ILD        ILM       TENR   
# ...
 2774.5000  1870.6366     9.1286    -0.0001     2.5330     0.2945   135.3938   -23.5709     5.9491     5.3845     5.3946  1840.7574
 2775.0000  1868.2927     9.1139     0.0030     2.5444     0.3044   136.8182   -23.5650     6.1181     5.3842     5.4709  1840.9091
 2775.5000  1881.3152     9.0993     0.0122     2.5504     0.3073   136.1526   -23.5589     6.2919     5.4597     5.4712  1841.0605
 2776.0000  1878.8881     9.0846     0.0114     2.5520     0.3111   135.7110   -23.5529     6.2924     5.4593     5.4716  1841.2122
 2776.5000  1884.6085     9.0848     0.0062     2.5393     0.3176   135.7240   -23.5468     6.2928     5.4589     5.4720  1841.3636
 2777.0000  1890.3199     9.0849     0.0018     2.5202     0.3227   135.7369   -23.5408     6.2933     5.4586     5.4724  1841.5151
 2777.5000  1887.8927     9.0555     0.0010     2.5108     0.3271   136.2120   -23.5336     6.2937     5.4582     5.4728  1841.6934
 2778.0000  1885.7998     9.0260     0.0049     2.5124     0.3316   137.1265   -23.5279     6.2941     5.4578     5.4732  1841.8181
 2778.5000  1883.7068     9.0114     0.0111     2.5207     0.3357   135.6755   -23.5221     6.2946     5.4574     5.4736  1841.9696
 2779.0000  1881.6141     8.9967     0.0140     2.5223     0.3291   134.2789   -23.8187     6.2951     5.4163     5.4739  1842.1211
 2779.5000  1894.0513     8.9803     0.0111     2.5223     0.3225   133.9864   -23.8127     6.2955     5.3807     5.4743  1842.2727
 2780.0000  1892.3765     8.9674     0.0096     2.5299     0.3219   134.4545   -23.8470     6.2959     5.3056     5.3987  1846.4646
 2780.5000  1890.5355     8.9676     0.0135     2.5484     0.3308   134.4705   -24.1747     6.1228     5.2315     5.3867  1872.8788
 2781.0000  1903.1390     8.9678     0.0286     2.5586     0.3338   134.0273   -24.3998     5.9544     5.1584     5.3051  1873.0303
 2781.5000  1915.9108     8.9679     0.0384     2.5662     0.3364   137.6783   -24.5281     5.7907     5.1560     5.2246  1873.1819
 2782.0000  1913.9016     8.9681     0.0343     2.5663     0.3316   143.6003   -24.6888     5.7107     5.0153     5.1454  1873.3334
 2782.5000  1911.8091     8.9682     0.0115     2.5513     0.3327   147.7494   -24.9849     5.6318     4.9453     5.0674  1873.5110
 2783.0000  1909.5490     8.9683     0.0092     2.5340     0.3366   149.6939   -24.9782     5.6026     4.8762     4.9666  1873.6364
 2783.5000  1907.6235     8.9685     0.0138     2.5356     0.3383   152.2799   -24.9724     5.5545     4.8473     4.9669  1873.7996
 2784.0000  1905.5305     8.9686     0.0192     2.5372     0.3374   153.6565   -25.2689     5.4777     4.8077     4.9672  1873.9395
 2784.5000  1903.3547     8.9688     0.0147     2.5207     0.3362   151.8513   -25.5652     5.4022     4.7405     4.8986  1874.0909
 2785.0000  1901.1776     8.9689     0.0072     2.5065     0.3418   148.6825   -25.5589     5.4025     4.7402     4.8990  1874.2426
 2785.5000  1899.0013     8.9691     0.0073     2.5080     0.3519   148.6973   -25.5529     5.4029     4.6740     4.8993  1874.3939
 2786.0000  1897.1602     8.9692     0.0096     2.5141     0.3602   149.2122   -25.8501     5.4032     4.6737     4.8996  1874.5454
 2786.5000  1895.1511     8.9694     0.0029     2.5127     0.3483   149.6304   -25.8429     5.4079     4.6734     4.9000  1874.6969
 2787.0000  1907.9226     8.9696    -0.0016     2.5066     0.3411   148.7343   -25.8357     5.4800     4.6731     4.9003  1874.8485
 2787.5000  1905.7454     8.9697    -0.0023     2.5098     0.3387   148.2928   -25.8300     5.4997     4.6727     4.9007  1875.0255
 2788.0000  1903.7366     8.9698    -0.0022     2.5113     0.3431   146.9272   -25.8242     5.5580     4.6724     4.9011  1875.1515
 2788.5000  1901.6440     8.9700    -0.0014     2.5129     0.3335   143.7797   -25.5164     5.5583     4.7380     4.9014  1875.3140
 2789.0000  1899.5518     8.9701     0.0107     2.5220     0.3141   139.7018   -25.5106     5.6010     4.7376     4.9017  1875.4583
 2789.5000  1897.4592     8.9703     0.0251     2.5401     0.3081   135.6238   -25.5045     5.8788     4.8040     4.9021  1875.6061
 2790.0000  1895.3658     8.9704     0.0380     2.5559     0.3165   132.0004   -25.4985     5.9620     4.8714     4.9714  1875.7576
 2790.5000  1908.4725     8.9706     0.0410     2.5635     0.3242   130.1619   -25.4924     6.0463     4.8711     4.9809  1883.5004
 2791.0000  1906.1289     8.9707     0.0298     2.5508     0.3304   129.2991   -25.4864     6.0467     4.9394     5.0421  1906.3636
 2791.5000  1904.0358     8.9709     0.0171     2.5433     0.3295   129.3136   -25.4804     6.0471     5.0087     5.1134  1906.5151
 2792.0000  1901.7762     8.9414     0.0156     2.5562     0.3181   130.7087   -25.4733     6.0475     5.1505     5.1445  1906.6666
 2792.5000  1892.3768     8.9268     0.0292     2.5683     0.3118   134.0450   -25.4676     6.1330     5.1641     5.2244  1906.8182
 2793.0000  1882.6428     8.9121     0.0361     2.5736     0.3088   136.4243   -25.4618     6.1605     5.2437     5.3335  1906.9873
 2793.5000  1880.7175     8.9123     0.0399     2.5752     0.3055   135.7340   -25.7583     6.3442     5.3997     5.4089  1907.1211
 2794.0000  1878.6249     8.8977     0.0336     2.5707     0.2986   131.2016   -25.7523     6.5802     5.4830     5.4854  1907.2758
 2794.5000  1876.5317     8.8830     0.0197     2.5617     0.2893   129.3963   -25.7462     6.9572     5.6787     5.6413  1907.4242
 2795.0000  1889.5547     8.8683     0.0077     2.5460     0.2866   128.9545   -25.7402     7.2555     5.7583     5.7224  1907.5757
 2795.5000  1887.2944     8.8685    -0.0020     2.5220     0.2964   132.8300   -25.7341     7.4617     5.5212     5.7215  1907.7272
 2796.0000  1885.2017     8.8539     0.0055     2.5123     0.3086   137.8548   -25.7281     7.4734     5.4440     5.6257  1907.8788
 2796.5000  1883.1095     8.8688     0.0192     2.5259     0.3107   139.4500   -25.7209     7.1563     5.2198     5.5405  1908.0303
 2797.0000  1895.9642     8.8689     0.0277     2.5538     0.3157   138.4911   -26.0181     6.6422     5.1414     5.4115  1908.1818
 2797.5000  1893.8711     8.8691     0.0389     2.5674     0.3285   134.5081   -26.0115     5.9233     5.0045     5.3368  1908.3333
 2798.0000  1876.4966     8.8840     0.0163     2.5460     0.3359   131.3118   -26.0058     5.4671     4.9851     5.2631  1908.4849
 2798.5000  1874.4871     8.8842     0.0043     2.5224     0.3397   130.8682   -26.0000     5.3097     4.9342     5.1904  1908.6364
 2799.0000  1842.5833     8.8843    -0.0001     2.4999     0.3364   131.3377   -25.9940     5.2638     4.9339     5.1188  1908.7904
 2799.5000  1840.5737     8.8845    -0.0046     2.4962     0.3099   132.7143   -25.9879     5.2642     4.9730     5.1191  1908.9395
 2800.0000  1808.6699     8.8846    -0.0030     2.4947     0.2991   132.2727   -25.9819     5.4139     5.0027     5.1195  1909.1029
 2800.5000  1814.7549     8.8975     0.0102     2.5258     0.2978   130.8756   -25.9758     5.8061     5.1444     5.1991  1909.2424
 2801.0000  1820.8397     8.9164     0.0190     2.5595     0.2919   129.3849   -25.9704     6.2268     5.2900     5.2799  1909.3939
 2801.5000  1826.9247     8.9353     0.0258     2.5746     0.2835   127.9409   -26.0478     6.6779     5.4399     5.4150  1909.5454
 2802.0000  1833.0096     8.9542     0.0319     2.5783     0.2724   126.8701   -26.1182     7.0624     5.5208     5.5219  1909.6969
 2802.5000  1839.0945     8.9731     0.0364     2.5806     0.2715   129.1740   -26.1886     6.8538     5.6851     5.6867  1909.8484
 2803.0000  1843.9731     8.9920     0.0366     2.5807     0.2745   130.0843   -26.2590     6.7501     5.7520     5.8082  1910.0164
 2803.5000  1827.0554     9.0109     0.0337     2.5807     0.2691   128.2791   -26.1768     6.6797     5.8327     5.8903  1910.1515
 2804.0000  1810.4635     9.0297     0.0277     2.5747     0.2649   123.4712   -26.1189     6.6803     5.8694     5.9736  1910.3049
 2804.5000  1800.9379     9.0244     0.0112     2.5496     0.2630   120.9496   -26.2840     6.7312     5.9140     6.0581  1910.4545
