~VERSION INFORMATION
 VERS.                2.0:   CWLS LOG ASCII STANDARD - VERSION 2.0
 WRAP.                 NO:   ONE LINE PER DEPTH STEP
~WELL INFORMATION
#MNEM.UNIT      DATA TYPE    INFORMATION
#----------   ------------   ------------------------------
 STRT.F            3.5000:   START DEPTH
 STOP.F         5648.0000:   STOP DEPTH
 STEP.F            0.5000:   STEP LENGTH
 NULL.          -999.2500:   NO VALUE
 COMP.       FLUOR DANIEL:   COMPANY
 WELL.   FLUOR "X" #46-10:   WELL
 FLD .          N.P.R. #3:   FIELD
 LOC .      S10 T38N R78W:   LOCATION
 CNTY.            NATRONA:   COUNTY
 STAT.            WYOMING:   STATE
 CTRY. UNITED STATES OF AMERICA:   COUNTRY
 SRVC.      WESTERN ATLAS:   SERVICE COMPANY
 DATE.        25-MAR-1996:   LOGDATE
 API .     49025227700000:   API NUMBER
~CURVE INFORMATION
#MNEM.UNIT       API CODE    CURVE DESCRIPTION
#----------   ------------   ------------------------------
 DEPT.F                  :   
 CALD.IN     45 280 60 00:   CALIPER FROM DENSITY LOG
 ZDEN.G/C3   45 350 01 00:   BULK DENSITY
 ZCOR.G/C3   45 356 01 00:   DENSITY CORRECTION
 TEND.LBS    45 635 01 00:   TENSION FORM DENSITY LOG
 GRD .GAPI   45 310 01 00:   GAMMA RAY FROM DENSITY LOG
 CNC .DEC    42 890 01 00:   NEUTRON POROSITY LIMESTONE
 SPR .MV     07 010 01 00:   SPONTANEOUS POTENTIAL
 RD  .OHMM   07 220 10 00:   RESISTIVITY DEEP
 RS  .OHMM   07 220 09 00:   RESISTIVITY SHALLOW
~PARAMETER INFORMATION
#MNEM.UNIT          VALUE    DESCRIPTION
#----------   ------------   ------------------------------
 EKB .F         5216.0000:   Kelly bushing
 EGL .F         5206.0000:   Ground level
 EDF .F         5215.0000:   Drilling floor
 TD  .F         5650.0000:   Total depth
 CLNT.            A2DTECH:   Client Code
 SL  . 1493' FSL & 2330' FWL:   Surface Location
 PD  .                 GL:   Permanent Datum
 EPD .F              5206:   Elevation Permanent Datum
 LMF .                 KB:   Log Measured From
 DMF .                 KB:   Drilling Measured From
 DAPD.F                10:   Feet Above Permanent Datum
 DATE.        25-MAR-1996:   Date Logged [DD-MMM-YYYY]
 DD  .F              5650:   Depth driller
 DL  .F              5648:   Depth logger
 BLI .F              5636:   Bottom log interval
 TLI .F                 0:   Top log interval
 CS1 .IN            9.625:   Casing size
 CBD1.      9.625" @ 498':   Casing driller 1
 CBL1.F               496:   Casing logger 1
 BS1 .IN             8.75:   Bit size
 BSD1.F              5650:   Depth drilled with bit1
 DFT .           CHEM GEL:   Type fluid in hole
 DFD .                9.6:   Density
 DFV .                 54:   Viscosity
 DFPH.                9.5:   pH
 DFL .                8.4:   Fluid loss
 MSS .           FLOWLINE:   Source of sample
 RMS .OHMM          0.635:   Rm
 MST .F                68:   Rm Meas. temp.
 RMF .OHMM          0.483:   Rmf
 MFST.F                68:   Rmf Meas. temp.
 MFSS.               MEAS:   Source Rmf.
 RMC .OHMM          0.789:   Rmc
 MCST.F                68:   Rmc Meas. temp.
 MCSS.               MEAS:   Source Rmc.
 RMB .OHMM           0.26:   Rm. at BHT
 BHT .F               166:   BHT.
 TCS .HRS               6:   Time Circ. stopped
 MRT .F               166:   Maximum recorded temp.
 LUN .            HL-6530:   Logging unit number
 LUL .             CASPER:   Logging unit location
 ENGI.        VERN RAUTIO:   Recorded By
 WITN. LORRAINE LAFRENIERE:   Witnessed by
 ORIG.           5" PRINT:   Origin of data
 UWI .     49025227700000:   Unique Well ID
 DICO. A2D TECHNOLOGIES, INC.:   Digitizing Company
~OTHER INFORMATION
~A  DEPTH     CALD       ZDEN       ZCOR       TEND        GRD        CNC        SPR         RD         RS
# ...
 1500.0000     9.3685     2.5195     0.1298   -20.4516    88.2530     0.3153   -83.5336     9.0828     5.8916
 1500.5000     9.3988     2.5150     0.1434   -25.0353    90.0673     0.3150   -83.8304     8.8072     5.8289
 1501.0000     9.3991     2.5105     0.1600   -37.0149    90.6739     0.3211   -82.4620     8.7453     5.8277
 1501.5000     9.3994     2.4955     0.1751   -55.7769    88.8737     0.3295   -82.0015     8.7442     5.8266
 1502.0000     9.3997     2.4639     0.1917   -65.7371    87.0323     0.3307   -82.1440     8.8682     5.8255
 1502.5000     9.4000     2.4719     0.1981   -65.7371    85.5717     0.3132   -82.1369     8.9872     5.8645
 1503.0000     9.4313     2.5099     0.1543   -65.7371    84.6737     0.3084   -81.6767     8.9858     5.9044
 1503.5000     9.4769     2.5250     0.1091   -55.7769    85.2832     0.2943   -80.9143     8.9846     5.9170
 1504.0000     9.4924     2.5212     0.1121   -39.3924    86.4950     0.2991   -82.1139     8.9834     5.9428
 1504.5000     9.5229     2.5182     0.1336   -55.7769    85.8968     0.3090   -83.3292     8.8934     5.9003
 1505.0000     9.5990     2.5265     0.1876   -55.7769    85.6012     0.3251   -83.9475     8.7963     5.8992
 1505.5000     9.6742     2.5401     0.1846   -45.8167    86.5121     0.3322   -83.9205     8.8562     5.8980
 1506.0000     9.7197     2.5567     0.1546   -49.2530    86.2163     0.3328   -85.1231     8.9785     5.8969
 1506.5000     9.6751     2.5401     0.1531   -55.7769    85.0185     0.3289   -85.7230     9.0393     5.9416
 1507.0000     9.5234     2.4920     0.1698   -75.6972    84.1205     0.3258   -84.5073     9.1012     6.1443
 1507.5000     9.4354     2.4327     0.1954   -75.6972    84.4288     0.3199   -83.4392     9.2266     6.3157
 1508.0000     9.3757     2.3975     0.1880   -75.6972    85.6392     0.3175   -82.6816     9.2253     6.2276
 1508.5000     9.3460     2.3688     0.1895   -55.7769    86.8497     0.3193   -82.6759     9.1603     6.1407
 1509.0000     9.3164     2.3327     0.2092   -45.8167    86.5240     0.3263   -82.6701     9.0959     5.9715
 1509.5000     9.2868     2.3358     0.2393   -45.8167    85.3563     0.3404   -82.6643     8.9697     5.8476
 1510.0000     9.2872     2.3907     0.2318   -35.8566    83.9031     0.3440   -82.6585     8.7761     5.7660
 1510.5000     9.3177     2.4245     0.1687   -35.8566    83.5943     0.3271   -82.6697     8.6024     5.8049
 1511.0000     9.3333     2.4576     0.1130   -15.9363    83.9419     0.3100   -83.0987     8.3665     5.8037
 1511.5000     9.3638     2.4607     0.0875     3.9841    87.1788     0.3088   -83.5475     8.2504     5.8024
 1512.0000     9.4093     2.4492     0.0861    41.3679    89.8730     0.3127   -83.3892     8.2491     5.8013
 1512.5000     9.4862     2.4276     0.1102    63.7450    90.7675     0.3229   -82.9303     8.2480     5.7601
 1513.0000     9.6659     2.3698     0.1447    63.7450    87.3815     0.3311   -82.6204     8.2279     5.7189
 1513.5000     9.8618     2.3630     0.2217    53.7849    81.4370     0.3449   -82.0109     8.1325     5.7178
 1514.0000    10.0126     2.4134     0.2233    33.1677    79.9291     0.3626   -82.3073     8.1312     5.7167
 1514.5000    10.2688     2.4776     0.1917    15.4330    81.4222     0.3569   -83.8120     8.1301     5.6370
 1515.0000    10.4346     2.5353     0.1790     2.7081    82.0122     0.3449   -85.0147     8.2424     5.5581
 1515.5000    10.4500     2.5736     0.1347    -9.0969    81.4009     0.3133   -86.3685     8.3561     5.6736
 1516.0000    10.4355     2.5737     0.1061   -25.8964    79.8910     0.2899   -86.9669     8.5300     5.8724
 1516.5000    10.3007     2.5737     0.0806   -35.8566    80.4831     0.2778   -85.7512     8.7081     6.0781
 1517.0000    10.1357     2.5805     0.0566   -15.9363    82.2925     0.2748   -85.4433     8.8283     6.2044
 1517.5000     9.8504     2.5850     0.0521    -1.4940    84.0676     0.2742   -85.2865     8.8269     6.2031
 1518.0000     9.7456     2.5903     0.0492    13.9442    86.7618     0.2730   -84.9786     8.8870     6.2018
 1518.5000     9.7461     2.5933     0.0478    23.9044    88.5551     0.2700   -84.5196     8.8856     6.2005
 1519.0000     9.7465     2.5933     0.0463    33.8645    88.5465     0.2682   -84.0592     8.8844     6.1992
 1519.5000     9.7620     2.5858     0.0464    39.1577    88.2357     0.2673   -84.0534     8.8833     6.2845
 1520.0000     9.7624     2.5767     0.0555    53.7849    87.6266     0.2711   -84.5023     8.9438     6.2830
 1520.5000     9.7629     2.5678     0.0615    53.7849    87.6182     0.2797   -84.3440     8.9423     6.1953
 1521.0000     9.7633     2.5551     0.0706    33.8645    87.3093     0.2812   -84.0361     8.9412     6.1907
 1521.5000     9.7638     2.5446     0.0737    22.2709    87.6012     0.2830   -83.8793     8.9400     6.1074
 1522.0000     9.7944     2.5431     0.0768    14.2561    89.6927     0.2879   -83.8720     8.8769     6.0641
 1522.5000     9.8098     2.5499     0.0768     3.6888    91.4860     0.2926   -83.7152     8.8146     6.0211
 1523.0000     9.8403     2.5589     0.0769     3.5280    91.1772     0.2932   -83.5584     8.6923     6.0199
 1523.5000     9.8859     2.5665     0.0634    -5.9761    90.8663     0.2902   -83.4015     8.6274     5.9356
 1524.0000     9.9315     2.5755     0.0439    13.9442    91.7587     0.2854   -83.2447     8.4525     5.8528
 1524.5000     9.9921     2.5823     0.0393    33.8645    94.7532     0.2866   -83.2387     8.3353     5.8517
 1525.0000    10.0376     2.5906     0.0380    53.7849    94.4445     0.2887   -83.6848     8.4506     5.8505
 1525.5000    10.0863     2.6036     0.0396    63.7450    92.3317     0.2899   -83.6791     8.5723     5.9307
 1526.0000    10.1589     2.6057     0.0487    43.8247    90.8217     0.2875   -83.6733     8.8275     6.0961
 1526.5000    10.1894     2.5952     0.0611     3.9841    89.0115     0.2806   -83.5164     9.1781     6.3534
 1527.0000    10.1898     2.5839     0.0714   -15.9363    86.9009     0.2782   -83.0574     9.4345     6.6217
 1527.5000    10.1753     2.5629     0.0835   -55.7769    84.7882     0.2773   -83.0502     9.5647     6.8533
 1528.0000    10.1306     2.5434     0.0895   -69.3625    83.8788     0.2785   -83.6487     9.5631     6.8047
 1528.5000    10.1009     2.5404     0.0790   -65.7371    84.4709     0.2797   -83.7954     9.4305     6.7098
 1529.0000    10.0863     2.5465     0.0806   -45.8167    86.2642     0.2761   -83.3350     9.2355     6.5252
 1529.5000    10.1169     2.5555     0.0897   -35.8566    88.3557     0.2734   -83.7824     9.0984     6.4338
 1530.0000    10.1474     2.5623     0.0943   -29.7560    89.5484     0.2716   -84.3809     8.9808     6.3885
 1530.5000    10.1930     2.5690     0.0913   -25.8964    90.7411     0.2710   -84.3736     8.9796     6.4316
 1531.0000    10.2084     2.5773     0.0703   -15.9363    91.0330     0.2725   -84.3679     8.9784     6.5198
 1531.5000    10.2240     2.5796     0.0583     3.9841    90.4217     0.2755   -84.5146     9.1653     6.6204
 1532.0000    10.2244     2.5691     0.0735    20.1195    87.7106     0.2746   -84.2052     9.2277     6.7934
 1532.5000    10.2248     2.5646     0.0795    43.9530    85.6000     0.2740   -84.1994     9.4201     6.8392
 1533.0000    10.2102     2.5624     0.0796    53.5182    86.1921     0.2746   -84.6454     9.4188     6.7907
 1533.5000    10.2107     2.5669     0.0766    54.0158    88.8842     0.2761   -85.6970     9.4173     6.6959
 1534.0000    10.2112     2.5700     0.0692    53.7849    91.8787     0.2776   -86.1458     9.4161     6.6023
 1534.5000    10.2116     2.5730     0.0828    53.7849    92.1726     0.2799   -86.1386     9.2854     6.6010
 1535.0000    10.1820     2.5745     0.0904    43.8247    89.4593     0.2831   -85.9818     9.3487     6.5997
 1535.5000    10.1673     2.5708     0.0965    53.4162    87.0463     0.2849   -85.3545     9.4774     6.5984
 1536.0000    10.1378     2.5625     0.0750    44.2094    88.5393     0.2771   -85.0639     9.5423     6.8292
