~VERSION INFORMATION
 VERS.                2.0:   CWLS LOG ASCII STANDARD - VERSION 2.0
 WRAP.                 NO:   ONE LINE PER DEPTH STEP
~WELL INFORMATION
#MNEM.UNIT      DATA TYPE    INFORMATION
#----------   ------------   ------------------------------
 STRT.F            0.0000:   START DEPTH
 STOP.F         3504.0000:   STOP DEPTH
 STEP.F            0.5000:   STEP LENGTH
 NULL.          -999.2500:   NO VALUE
 COMP. LAWRENCE-ALLISON AND ASSOCIATES:   COMPANY
 WELL. LAWRENCE "TX" #16-34:   WELL
 FLD .              NPR 3:   FIELD
 LOC .      S34 T39N R78W:   LOCATION
 CNTY.            NATRONA:   COUNTY
 STAT.            WYOMING:   STATE
 CTRY. UNITED STATES OF AMERICA:   COUNTRY
 SRVC.       SCHLUMBERGER:   SERVICE COMPANY
 DATE.        10-APR-1982:   LOGDATE
 API .     49025108970000:   API NUMBER
~CURVE INFORMATION
#MNEM.UNIT       API CODE    CURVE DESCRIPTION
#----------   ------------   ------------------------------
 DEPT.F                  :   
 SPR .MV     07 010 01 00:   SPONTANEOUS POTENTIAL
 ILD .OHMM   07 120 46 00:   DEEP INDUCTION RESISTIVITY
 SFLU.OHMM   07 220 01 00:   SPHERICALLY FOCUSED LOG UNAVERAGED RESISTIVITY
 TENR.LBS    07 635 01 00:   TENSION FROM RESISTIVITY
 ILM .OHMM   07 120 44 00:   INDUCTION LOG MEDIUM RESISTIVITY
 GRD .GAPI   45 310 01 00:   GAMMA RAY FROM DENSITY LOG
 CALD.IN     45 280 60 00:   CALIPER FROM DENSITY LOG
 RHOB.G/C3   45 350 01 00:   BULK DENSITY
 CORR.G/C3   45 356 01 00:   DENSITY CORRECTION
 TEND.LBS    45 635 01 00:   TENSION FROM DENSITY LOG
 NPHI.DEC    42 890 03 00:   NEUTRON POROSITY SANDSTONE
~PARAMETER INFORMATION
#MNEM.UNIT          VALUE    DESCRIPTION
#----------   ------------   ------------------------------
 EKB .F         5149.0000:   Kelly bushing
 EGL .F         5139.0000:   Ground level
 EDF .F            0.0000:   Drilling floor
 TD  .F         3500.0000:   Total depth
 DATE.        10-APR-1982:   Date logged
 CLNT.            A2DTECH:   Client Code
 SL  . 1406' FSL & 423' FWL:   Surface Location
 PD  .                 GL:   Permanent Datum
 EPD .F              5139:   Elevation Permanent Datum
 LMF .                 KB:   Log Measured From
 DMF .                 KB:   Drilling Measured From
 DAPD.F                10:   Feet Above Permanent Datum
 DD  .F              3500:   Depth driller
 DL  .F              3497:   Depth logger
 BLI .F              3491:   Bottom log interval
 TLI .F               658:   Top log interval
 CS1 .IN            9.625:   Casing size
 CBD1.      9.625" @ 632':   Casing driller 1
 CBL1.F               658:   Casing logger 1
 BS1 .IN             8.75:   Bit size
 BSD1.F              3500:   Depth drilled with bit1
 DFT .           SPUD MUD:   Type fluid in hole
 DFD .                  9:   Density
 DFV .                 44:   Viscosity
 DFPH.                 10:   pH
 DFL .                  7:   Fluid loss
 MSS .           FLOWLINE:   Source of sample
 RMS .OHMM              2:   Rm
 MST .F                53:   Rm Meas. temp.
 RMF .OHMM            1.9:   Rmf
 MFST.F                53:   Rmf Meas. temp.
 RMC .OHMM            1.5:   Rmc
 MCST.F                53:   Rmc Meas. temp.
 MFSS.               MEAS:   Source Rmf.
 MCSS.               CALC:   Source Rmc.
 RMB .OHMM              1:   Rm. at BHT
 BHT .F               106:   BHT.
 TCS .HRS            1100:   Time Circ. stopped
 TLAB.HRS            1330:   Time logger at bottom
 MRT .F               106:   Maximum recorded temp.
 LUN .               8151:   Logging unit number
 LUL .                GLT:   Logging unit location
 ENGI.            NEUFFER:   Recorded By
 WITN.           JENNINGS:   Witnessed by
 ORIG.           5" PRINT:   Origin of data
 UWI .     49025108970000:   Unique Well ID
 DICO. A2D TECHNOLOGIES, INC.:   Digitizing Company
~OTHER INFORMATION
~A    DEPT     SPR        ILD       SFLU       TENR        ILM        GRD       CALD       RHOB       CORR       TEND       NPHI   
# ...
 3080.5000   -18.3880     5.7220     8.9970  1698.3020     5.9370    97.0750     7.7490     2.5280     0.0390  1596.2760     0.2430
 3081.0000   -18.4040     5.7450     7.7590  1698.3020     5.9610    98.4270     7.7530     2.5210     0.0250  1593.4540     0.2380
 3081.5000   -18.4200     5.7750     6.9870  1698.3020     5.9920    98.0430     7.7580     2.5000     0.0130  1590.6310     0.2340
 3082.0000   -18.4360     5.5860     6.8580  1698.3020     5.8850    98.7050     7.7620     2.4850     0.0080  1587.8080     0.2340
 3082.5000   -18.4520     5.3340     6.7290  1698.3020     5.7420   100.9850     7.7660     2.4790     0.0080  1584.9860     0.2330
 3083.0000   -18.4680     5.1180     6.6000  1698.3020     5.6000   105.1500     7.7710     2.4790     0.0090  1582.1630     0.2310
 3083.5000   -18.4840     5.0780     6.3870  1698.3020     5.2830   109.0070     7.7750     2.4850     0.0150  1580.4380     0.2310
 3084.0000   -18.5000     5.0380     5.9960  1698.3020     5.1180   110.8110     7.7800     2.4890     0.0240  1582.3110     0.2360
 3084.5000   -18.5170     4.9980     5.5590  1698.3020     5.1070   113.1300     7.7840     2.4850     0.0280  1584.1851     0.2540
 3085.0000   -18.5330     4.9580     5.1220  1698.3020     5.0950   116.1970     7.7880     2.4790     0.0240  1586.0590     0.2730
 3085.5000   -18.5480     4.9180     4.9390  1698.3020     5.0780   119.2260     7.7930     2.4730     0.0160  1587.9320     0.2730
 3086.0000   -18.5330     4.8980     5.9580  1698.3020     5.1210   120.9180     7.7970     2.4770     0.0110  1589.8060     0.2570
 3086.5000   -18.4190     4.9350     7.2560  1698.3020     5.2360   119.3570     7.8010     2.4860     0.0080  1591.6801     0.2300
 3087.0000   -18.3090     4.9650     8.8180  1698.3020     5.3510   117.2570     7.8060     2.5010     0.0110  1593.5540     0.2120
 3087.5000   -18.1990     4.9950     8.5520  1698.3020     5.4650   117.9160     7.8100     2.5190     0.0180  1595.4270     0.2050
 3088.0000   -18.0880     5.0310     7.6240  1698.3020     5.2890   119.8180     7.8140     2.5340     0.0240  1597.3010     0.2230
 3088.5000   -17.9780     4.9480     6.6950  1698.3020     5.1480   121.2080     7.8190     2.5320     0.0250  1599.1750     0.2390
 3089.0000   -17.8670     4.8440     6.0200  1698.3020     5.0300   120.2040     7.8230     2.5130     0.0210  1601.0490     0.2450
 3089.5000   -17.7570     4.6920     5.5090  1698.3020     4.8670   119.3370     7.8200     2.4940     0.0170  1602.9220     0.2500
 3090.0000   -17.6470     4.5080     5.1650  1698.3020     4.6770   121.0350     7.8140     2.4870     0.0170  1604.7960     0.2540
 3090.5000   -17.5910     4.3230     4.8580  1698.3020     4.4860   122.8470     7.8080     2.4810     0.0160  1606.6700     0.2570
 3091.0000   -17.6560     4.1390     4.7820  1698.3020     4.2950   123.7640     7.8020     2.4750     0.0160  1608.5430     0.2600
 3091.5000   -17.7180     4.0330     4.7610  1698.3020     4.2040   122.1440     7.7960     2.4740     0.0150  1610.4170     0.2620
 3092.0000   -17.7790     3.9730     5.1090  1698.3020     4.1710   119.9330     7.7900     2.4750     0.0140  1612.2910     0.2630
 3092.5000   -17.8400     3.9120     5.3920  1698.3020     4.1300   117.7050     7.7860     2.4770     0.0150  1614.1650     0.2580
 3093.0000   -17.9010     3.8520     5.6750  1698.3020     4.0600   115.4830     7.7960     2.4910     0.0170  1616.0380     0.2520
 3093.5000   -17.9620     3.7920     5.8820  1698.3020     3.9900   113.6840     7.8070     2.5000     0.0240  1617.9120     0.2550
 3094.0000   -18.0230     3.7310     5.2220  1698.3020     3.9200   115.0100     7.8170     2.5010     0.0290  1619.7860     0.2640
 3094.5000   -18.0840     3.6710     4.4520  1698.3020     3.8500   118.5340     7.8280     2.4950     0.0320  1621.6600     0.2790
 3095.0000   -18.1460     3.6100     4.1090  1698.3020     3.7800   122.0850     7.8380     2.4820     0.0280  1623.5330     0.2860
 3095.5000   -18.2070     3.5500     3.9700  1698.3020     3.7100   125.6320     7.8480     2.4750     0.0230  1625.4070     0.2900
 3096.0000   -18.2680     3.4900     4.0320  1698.3020     3.6400   125.2760     7.8590     2.4730     0.0200  1627.2810     0.2850
 3096.5000   -18.3280     3.4290     4.1090  1698.3020     3.5700   123.4120     7.8690     2.4730     0.0170  1629.1541     0.2820
 3097.0000   -18.3430     3.3690     4.0840  1698.3020     3.5000   121.5400     7.8790     2.4740     0.0140  1631.0280     0.2860
 3097.5000   -18.2980     3.3250     4.0600  1698.3020     3.4500   119.6400     7.8900     2.4720     0.0110  1632.9020     0.2890
 3098.0000   -18.2530     3.3250     4.0370  1698.3020     3.4500   118.9400     7.9000     2.4690     0.0090  1634.7760     0.2900
 3098.5000   -18.2080     3.3070     4.0140  1698.3020     3.4500   118.1560     7.9050     2.4690     0.0160  1636.6490     0.2890
 3099.0000   -18.1640     3.2910     3.9970  1698.3020     3.4500   116.5540     7.9060     2.4760     0.0230  1638.5229     0.2880
 3099.5000   -18.1190     3.2740     3.9970  1698.3020     3.4500   115.0910     7.9080     2.4810     0.0280  1640.3970     0.2870
 3100.0000   -18.0740     3.2580     4.1860  1698.3020     3.4500   115.4410     7.9100     2.4830     0.0310  1642.2710     0.2890
 3100.5000   -18.0290     3.2410     4.3420  1698.3020     3.4500   115.7670     7.9120     2.4870     0.0350  1644.1440     0.2920
 3101.0000   -17.9840     3.2250     4.1370  1698.3020     3.4500   116.0840     7.9130     2.4960     0.0470  1646.0179     0.2940
 3101.5000   -17.9390     3.2080     3.8880  1698.3020     3.4500   116.4020     7.9150     2.5050     0.0590  1647.8920     0.2930
 3102.0000   -17.8950     3.1920     3.9840  1698.3020     3.4500   116.7280     7.9170     2.5060     0.0670  1649.7650     0.2830
 3102.5000   -17.8500     3.1750     4.1270  1698.3020     3.4500   117.2980     7.9180     2.4960     0.0750  1651.6390     0.2730
 3103.0000   -17.8050     3.1590     4.2630  1698.3020     3.3480   118.0830     7.9200     2.5050     0.1070  1653.5129     0.2700
 3103.5000   -17.7780     3.1470     4.0860  1698.3020     3.2950   118.3640     7.9220     2.5190     0.1410  1655.3870     0.2740
 3104.0000   -17.8170     3.2400     3.9240  1698.3020     3.4120   117.5350     7.9180     2.5250     0.1540  1657.2600     0.2940
 3104.5000   -17.8530     3.3300     3.5790  1698.3020     3.5060   116.5780     7.9030     2.5110     0.1220  1659.1340     0.3000
 3105.0000   -17.8900     3.4180     3.7210  1698.3020     3.6480   116.4790     7.8880     2.4900     0.0810  1660.5090     0.2990
 3105.5000   -17.9260     3.7230     3.8920  1698.3020     3.9610   116.7170     7.8730     2.4780     0.0520  1661.4570     0.2970
 3106.0000   -17.9630     4.0210     4.5440  1698.3020     4.2740   116.2110     7.8580     2.4730     0.0270  1662.4041     0.2780
 3106.5000   -18.0000     4.3200     5.3080  1698.3020     4.5860   112.6520     7.8430     2.4750     0.0050  1663.3510     0.2560
 3107.0000   -18.0360     4.6190     6.0730  1698.3020     4.8990   108.4440     7.8280     2.4830     0.0120  1664.2980     0.2410
 3107.5000   -18.0730     4.9170     6.7820  1698.3020     5.2120   104.5910     7.8130     2.4930     0.0220  1665.2450     0.2370
 3108.0000   -18.1090     5.2160     7.3810  1698.3020     5.5240   101.8100     7.7980     2.5060     0.0300  1666.1920     0.2380
 3108.5000   -18.1460     5.5150     7.6390  1698.3020     5.8380   100.5610     7.7850     2.5160     0.0330  1667.1400     0.2370
 3109.0000   -18.1820     5.8290     7.8680  1698.3020     6.1030   100.8080     7.7880     2.5140     0.0340  1668.0870     0.2360
 3109.5000   -18.2190     5.8820     8.0430  1698.3020     6.1590   101.0430     7.7910     2.5130     0.0350  1669.0341     0.2360
 3110.0000   -18.2560     5.7760     7.3920  1698.3020     5.9340   102.2050     7.7940     2.5170     0.0360  1669.9810     0.2430
 3110.5000   -18.2920     5.6640     6.8260  1698.3020     5.7380   104.4490     7.7970     2.5200     0.0370  1670.9280     0.2510
