~VERSION INFORMATION
 VERS.                2.0:   CWLS LOG ASCII STANDARD - VERSION 2.0
 WRAP.                 NO:   ONE LINE PER DEPTH STEP
~WELL INFORMATION
#MNEM.UNIT      DATA TYPE    INFORMATION
#----------   ------------   ------------------------------
 STRT.F          200.0000:   START DEPTH
 STOP.F         3150.0000:   STOP DEPTH
 STEP.F            0.5000:   STEP LENGTH
 NULL.          -999.2500:   NO VALUE
 COMP.  FENIX AND SCISSON:   COMPANY
 WELL.  FENIX "AX" #88-10:   WELL
 FLD .              NPR 3:   FIELD
 LOC .      S10 T38N R78W:   LOCATION
 CNTY.            NATRONA:   COUNTY
 STAT.            WYOMING:   STATE
 CTRY. UNITED STATES OF AMERICA:   COUNTRY
 SRVC.              WELEX:   SERVICE COMPANY
 DATE.        13-JUN-1977:   LOGDATE
 API .     49025103780000:   API NUMBER
~CURVE INFORMATION
#MNEM.UNIT       API CODE    CURVE DESCRIPTION
#----------   ------------   ------------------------------
 DEPT.F                  :   
 CALD.IN     45 280 60 00:   CALIPER FROM DENSITY LOG
 GRD .GAPI   45 310 01 00:   GAMMA RAY FROM DENSITY LOG
 RHOB.G/C3   45 350 01 00:   BULK DENSITY
 CORR.G/C3   45 356 01 00:   DENSITY CORRECTION
 SPR .MV     07 010 01 00:   SPONTANEOUS POTENTIAL
 GURD.OHMM   07 220 05 00:   GUARD LOG RESISTIVITY
 ILD .OHMM   07 120 46 00:   INDUCTION LOG DEEP RESISTIVITY
 ILM .OHMM   07 120 44 00:   INDUCTION LOG MEDIUM RESISTIVITY
~PARAMETER INFORMATION
#MNEM.UNIT          VALUE    DESCRIPTION
#----------   ------------   ------------------------------
 EKB .F         5264.0000:   Kelly bushing
 EGL .F         5254.0000:   Ground level
 EDF .F            0.0000:   Drilling floor
 TD  .F         3160.0000:   Total depth
 DATE.        13-JUN-1977:   Date logged
 CLNT.            A2DTECH:   Client Code
 SL  . 430' FSL & 330' FEL:   Surface Location
 PD  .                 GL:   Permanent Datum
 EPD .F              5254:   Elevation Permanent Datum
 LMF .                 KB:   Log Measured From
 DMF .                 KB:   Drilling Measured From
 DAPD.F                10:   Feet Above Permanent Datum
 DD  .F              3160:   Depth driller
 DL  .F              3151:   Depth logger
 BLI .F              3149:   Bottom log interval
 CS1 .IN            8.625:   Casing size
 CBD1.      8.625" @ 208':   Casing driller 1
 BS1 .IN            7.875:   Bit size
 BSD1.F              3160:   Depth drilled with bit1
 DFT .            KCL MUD:   Type fluid in hole
 DFD .                9.1:   Density
 DFV .                 31:   Viscosity
 DFPH.                7.5:   pH
 DFL .                 20:   Fluid loss
 MSS .           FLOWLINE:   Source of sample
 RMS .OHMM            .90:   Rm
 MST .F                60:   Rm Meas. temp.
 RMF .OHMM            .53:   Rmf
 MFST.F                60:   Rmf Meas. temp.
 RMC .OHMM           1.47:   Rmc
 MCST.F                60:   Rmc Meas. temp.
 MFSS.               MEAS:   Source Rmf.
 MCSS.               MEAS:   Source Rmc.
 RMB .OHMM            .46:   Rm. at BHT
 BHT .F               116:   BHT.
 TCS .HRS               8:   Time Circ. stopped
 MRT .F               116:   Maximum recorded temp.
 LUN .               8611:   Logging unit number
 LUL .             CASPER:   Logging unit location
 ENGI.            C. DOAK:   Recorded By
 WITN.         D. RHOADES:   Witnessed by
 ORIG.           5" PRINT:   Origin of data
 UWI .     49025103780000:   Unique Well ID
 DICO. A2D TECHNOLOGIES, INC.:   Digitizing Company
~OTHER INFORMATION
~A   DEPT       CALD       GRD      RHOB       CORR        SPR       GURD        ILD        ILM   
  200.0000     8.0672    75.6467  -999.2500  -999.2500  -999.2500  -999.2500  -999.2500  -999.2500
  200.5000     8.0672    75.6491     1.8906    -0.4492  -999.2500  -999.2500  -999.2500  -999.2500
  201.0000     8.0672    76.5820     1.9065    -0.4472  -999.2500  -999.2500  -999.2500  -999.2500
  201.5000     8.0672    77.5148     1.9264    -0.4472  -999.2500  -999.2500  -999.2500  -999.2500
  202.0000     8.0672    78.4476     1.9403    -0.4512  -999.2500  -999.2500  -999.2500  -999.2500
  202.5000     8.0672    79.3805     1.9662    -0.4492  -999.2500  -999.2500  -999.2500  -999.2500
  203.0000     8.0672    80.3133     1.9761    -0.4512  -999.2500  -999.2500  -999.2500  -999.2500
  203.5000     8.0672    81.6174     1.9821    -0.4552  -999.2500  -999.2500  -999.2500  -999.2500
  204.0000     8.0672    82.0150     1.9841    -0.4552  -999.2500  -999.2500  -999.2500  -999.2500
  204.5000     8.0938    80.0395     1.9841    -0.4611  -999.2500  -999.2500  -999.2500  -999.2500
  205.0000     8.0925    79.2513     1.9821    -0.4631  -999.2500  -999.2500  -999.2500  -999.2500
  205.5000     8.0913    78.8592     1.9821    -0.4671  -999.2500  -999.2500  -999.2500  -999.2500
  206.0000     8.0901    78.8631     1.9881    -0.4711  -999.2500  -999.2500  -999.2500  -999.2500
  206.5000     8.0888    78.8671     1.9881    -0.4711  -999.2500  -999.2500  -999.2500  -999.2500
  207.0000     8.0876    80.4552     1.9822    -0.4711  -999.2500  -999.2500  2000.0000  -999.2500
  207.5000     8.0863    80.8552     1.9822    -0.4731  -999.2500  -999.2500  1404.9037  2106.3748
  208.0000     8.0851    81.2552     1.9842    -0.4731  -999.2500  -999.2500   495.3833  1219.1021
  208.5000     8.0838    81.2591     1.9881    -0.4691  -999.2500  -999.2500    15.5869   335.3624
  209.0000     8.0826    81.2631     1.9961    -0.4651  -999.2500  -999.2500    14.7468   885.0206
  209.5000     8.0814    80.0788     2.0020    -0.4631  -999.2500  -999.2500    13.6652  2120.9790
  210.0000     8.0801    78.8946     2.0040    -0.4591  -999.2500  -999.2500    13.0186  -999.2500
  210.5000     8.0789    79.2946     2.0249    -0.4511  -999.2500  -999.2500    12.5755  -999.2500
  211.0000     8.0776    78.9025     2.0468    -0.4452  -999.2500  -999.2500    12.2320  -999.2500
  211.5000     8.0764    79.3025     2.0567    -0.4352  -999.2500  -999.2500    11.9805  -999.2500
  212.0000     8.0752    79.7024     2.0627    -0.4252  -999.2500  -999.2500    13.8558  -999.2500
  212.5000     8.0739    80.4985     2.0941    -0.4073  -999.2500  -999.2500    19.0536  -999.2500
  213.0000     8.0727    80.8985     2.1254    -0.3834  -999.2500  -999.2500    25.6626  -999.2500
  213.5000     8.0714    81.2985     2.1324    -0.3635  -999.2500  -999.2500    36.0304  -999.2500
  214.0000     8.0702    81.3024     2.1373    -0.3436  -999.2500  -999.2500   104.5317  -999.2500
  214.5000     8.0690    80.9103     2.1513    -0.3117  -999.2500  -999.2500  1260.8992  -999.2500
  215.0000     8.0677    80.9142     2.1543    -0.3078  -999.2500  -999.2500  2123.7852  -999.2500
  215.5000     8.0665    80.9181     2.1602    -0.2675  -999.2500  -999.2500  2112.4697  -999.2500
  216.0000     8.0658    81.3181     2.1692    -0.2273  -999.2500  -999.2500  2101.1543  -999.2500
  216.5000     8.2063    81.7181     2.2030    -0.1724  -999.2500  -999.2500  2089.8389  -999.2500
  217.0000     8.3467    82.5141     2.2359    -0.1168  -999.2500  -999.2500  1388.3644  -999.2500
  217.5000     8.5220    86.0825     2.2607    -0.0611  -999.2500  -999.2500    77.7148  2063.1621
  218.0000     8.7457    90.0470     2.2896    -0.0055  -999.2500  -999.2500    38.7181  1885.9215
  218.5000     8.9694    93.6154     2.2747     0.0287    -4.2110     0.9642    10.4309  1543.4830
  219.0000     9.1364    97.1838     2.2518     0.0267   -10.5451     4.4964     3.6407   785.1251
  219.5000     9.4138    97.9798     2.2817     0.0028   -16.8792     5.2346     1.4696    61.6809
  220.0000    10.1468    97.9838     2.3055    -0.0032   -23.2133     6.3082     0.6141     3.4107
  220.5000    10.4440    97.9877     2.3095     0.0028   -26.4049     6.7129     0.4344     3.8358
  221.0000    10.4836    97.5956     2.3553     0.0008   -31.5564     6.9971     0.3603     5.3075
  221.5000    10.6097    96.8074     2.3782     0.0028   -34.9252     7.3947     0.2968     6.0940
  222.0000    10.7416    96.8113     2.4120     0.0028   -36.3145     8.0340     0.2712     6.2648
  222.5000    10.7616    99.1924     2.4120     0.0028   -38.1005     8.3740     0.5059     6.3960
  223.0000    10.7945    98.7995     2.4120     0.0048   -39.8866     8.5494     0.8803     6.6667
  223.5000    10.8274    98.8034     2.4091     0.0029   -43.0573     8.6087     1.4196     7.1436
  224.0000    10.8603    98.8073     2.4061     0.0009   -44.4467     8.6087     3.6914     7.4460
  224.5000    10.9010    98.8114     2.4051     0.0009   -46.2320     8.6087     5.8303     7.4460
  225.0000    10.9011    98.8154     2.4170     0.0029   -48.8094     8.5494     5.9116     7.3947
  225.5000    10.9012    98.8194     2.4180     0.0029   -49.4067     8.5494     5.9116     7.3438
  226.0000    10.9425    98.8234     2.4121     0.0029   -50.5981     8.4906     5.9527     7.2932
  226.5000    10.9838    98.8274     2.4021     0.0009   -51.7901     8.4321     6.1624     7.1931
  227.0000    11.0251    98.8314     2.4021     0.0009   -53.1794     8.3164     6.5587     7.1436
  227.5000    11.0664    98.8355     2.4091     0.0009   -53.9748     8.2023     7.0290     7.2614
  228.0000    11.1004    98.8395     2.4190     0.0009   -54.9681     8.4906     7.1766     7.5966
  228.5000    11.1005    98.8435     2.4230     0.0009   -55.3674     8.6684     7.1766     7.7342
  229.0000    11.1419    98.8482     2.4280     0.0009   -55.9647     8.6087     7.1416     7.8746
  229.5000    11.1833    97.6632     2.4310     0.0010   -56.3641     8.3740     7.0756     7.5461
  230.0000    11.2247    97.2695     2.4389     0.0049   -56.7634     8.2701     6.8821     7.4764
  230.5000    11.2661    94.8987     2.4399     0.0109   -56.7667     8.4224     6.8187     7.3392
  231.0000    11.3075    94.1106     2.4380     0.0149   -57.3640     8.4996     6.8177     7.3384
  231.5000    11.3489    92.9263     2.4380     0.0169   -58.9514     8.5770     6.8171     7.3378
  232.0000    11.3991    92.1382     2.4360     0.0169   -59.1540     8.5763     6.8166     7.3372
  232.5000    11.4388    91.7460     2.4340     0.0209   -59.7493     8.5753     6.8789     7.3363
  233.0000    11.4786    90.9579     2.4312     0.0209   -60.1487     8.5744     7.0056     7.3354
  233.5000    11.4788    90.5658     2.4283     0.0247   -60.5486     8.5733     7.0698     7.3347
  234.0000    11.4988    90.1736     2.4255     0.0284   -60.5513     8.5725     7.1343     7.3341
  234.5000    11.5385    88.1973     2.4227     0.0321   -60.5546     8.6509     7.1336     7.3335
  235.0000    11.5982    87.8052     2.4191     0.0349   -60.5585     8.7298     7.1331     7.4002
  235.5000    11.6578    87.0178     2.4171     0.0403   -60.3645     8.8908     7.1322     7.3995
  236.0000    11.6580    87.4178     2.4061     0.0369   -59.7731     8.8897     7.1314     7.3987
  236.5000    11.6978    86.2336     2.3912     0.0409   -60.1724     8.8891     7.1308     7.3981
  237.0000    11.7574    86.2375     2.3564     0.0469   -60.1758     8.8880     7.0001     7.3972
  237.5000    11.7972    86.2414     2.3235     0.0449   -60.1791     8.8871     6.9354     7.3964
  238.0000    11.8766    86.2454     2.3155     0.0389   -60.5784     8.8050     6.8710     7.3957
  238.5000    11.9362    87.4375     2.2698     0.0290   -60.7797     8.4863     6.7450     7.3272
  239.0000    12.0354    88.2335     2.2688     0.0210   -61.5750     8.2548     6.7444     7.1924
  239.5000    12.0752    89.0295     2.2787     0.0011   -62.3703     8.0296     6.7438     7.1923
  240.0000    12.0952    89.4295     2.3776    -0.0009   -63.5617     7.9553     6.7431     7.1914
