~VERSION INFORMATION
 VERS.                2.0:   CWLS LOG ASCII STANDARD - VERSION 2.0
 WRAP.                 NO:   ONE LINE PER DEPTH STEP
~WELL INFORMATION
#MNEM.UNIT      DATA TYPE    INFORMATION
#----------   ------------   ------------------------------
 STRT.F          500.0000:   START DEPTH
 STOP.F         4646.0000:   STOP DEPTH
 STEP.F            0.5000:   STEP LENGTH
 NULL.          -999.2500:   NO VALUE
 COMP.    FENIX & SCISSON:   COMPANY
 WELL. LAWRENCE NPR 3 "X" #34-10:   WELL
 FLD .                NPR:   FIELD
 LOC .      S10 T38N R78W:   LOCATION
 CNTY.            NATRONA:   COUNTY
 STAT.            WYOMING:   STATE
 CTRY. UNITED STATES OF AMERICA:   COUNTRY
 SRVC.              WELEX:   SERVICE COMPANY
 DATE.        12-OCT-1979:   LOGDATE
 API .     49025109290000:   API NUMBER
~CURVE INFORMATION
#MNEM.UNIT       API CODE    CURVE DESCRIPTION
#----------   ------------   ------------------------------
 DEPT.F                  :   
 SPR .MV     07 010 01 00:   SPONTANEOUS POTENTIAL
 SGRD.OHMM   07 220 05 00:   SHALLOW GUARD LOG RESISTIVITY
 ILD .OHMM   07 120 46 00:   DEEP INDUCTION RESISTIVITY
 ILM .OHMM   07 120 44 00:   INDUCTION LOG MEDIUM RESISTIVITY
 TEND.LBS    45 635 01 00:   TENSION FROM DENSITY LOG
 CORR.G/C3   45 356 01 00:   DENSITY CORRECTION
 RHOB.G/C3   45 350 01 00:   BULK DENSITY
 NPHI.DEC    42 890 03 00:   NEUTRON POROSITY SANDSTONE
 GRD .GAPI   45 310 01 00:   GAMMA RAY FROM DENSITY LOG
 CALD.IN     45 280 60 00:   CALIPER FROM DENSITY LOG
~PARAMETER INFORMATION
#MNEM.UNIT          VALUE    DESCRIPTION
#----------   ------------   ------------------------------
 EKB .F         5234.0000:   Kelly bushing
 EGL .F         5224.0000:   Ground level
 EDF .F            0.0000:   Drilling floor
 TD  .F         4650.0000:   Total depth
 DATE.        12-OCT-1979:   Date logged
 CLNT.            A2DTECH:   Client Code
 SL  . 2055' FNL & 1509' FWL:   Surface Location
 PD  .                 GL:   Permanent Datum
 DD  .F              4650:   Depth driller
 DL  .F              4646:   Depth logger
 BLI .F              4644:   Bottom log interval
 CS1 .IN              500:   Casing size
 CBD1.      8.625" @ 500':   Casing driller 1
 CBL1.F               502:   Casing logger 1
 BS1 .IN            7.875:   Bit size
 DFT .           CHEM/GEL:   Type fluid in hole
 DFD .                8.8:   Density
 DFV .                 62:   Viscosity
 DFPH.               11.2:   pH
 DFL .                4.5:   Fluid loss
 MSS .            MUD/PIT:   Source of sample
 RMS .OHMM           1.18:   Rm
 MST .F                60:   Rm Meas. temp.
 RMF .OHMM            .94:   Rmf
 MFST.F                60:   Rmf Meas. temp.
 RMC .OHMM           1.41:   Rmc
 MCST.F                60:   Rmc Meas. temp.
 MFSS.               MEAS:   Source Rmf.
 RMB .OHMM            .81:   Rm. at BHT
 BHT .F                87:   BHT.
 TCS .HRS               2:   Time Circ. stopped
 MRT .F                87:   Maximum recorded temp.
 LUN .               1892:   Logging unit number
 LUL .             CASPER:   Logging unit location
 ENGI.               REIN:   Recorded By
 WITN.           DINSMORE:   Witnessed by
 ORIG.           5" PRINT:   Origin of data
 UWI .     49025109290000:   Unique Well ID
 DICO. A2D TECHNOLOGIES, INC.:   Digitizing Company
 DAPD.                 10:   Feet Above Permanent Datum
 BSD1.F              4650:   Depth drilled with bit1
 MCSS.               MEAS:   Source Rmc.
 EPD .F              5224:   Elevation Permanent Datum
 LMF .                 KB:   Log Measured From
 DMF .                 KB:   Drilling Measured From
 TLI .F               500:   Top log interval
~OTHER INFORMATION
~A   DEPT      SPR         SGRD      ILD         ILM      TEND         CORR       RHOB       NPHI       GRD        CALD 
# ...
 3515.0000   -25.4510     3.6830     3.0020     3.3940  2272.4829     0.2540     2.3670     0.2120   158.6870     8.7490
 3515.5000   -25.4560     3.6270     2.9800     3.3560  2312.3120     0.2750     2.3550     0.2020   158.7190     8.7060
 3516.0000   -25.2130     3.5710     2.9580     3.3170  2301.7351     0.2850     2.3280     0.1790   156.8950     8.6600
 3516.5000   -24.9440     3.5280     2.9120     3.2780  2291.1079     0.2910     2.2980     0.1580   154.7860     8.5960
 3517.0000   -24.6750     3.5080     2.8290     3.2390  2280.4800     0.2870     2.2650     0.1590   152.6190     8.5290
 3517.5000   -24.4060     3.4890     2.7420     3.2000  2269.8530     0.2790     2.2320     0.1610   152.4600     8.5580
 3518.0000   -24.1350     3.4690     2.6540     3.1620  2259.2261     0.2630     2.1850     0.1630   156.5180     8.6410
 3518.5000   -24.0010     3.4500     2.5670     3.0930  2252.7939     0.2350     2.1370     0.1710   160.5880     8.6250
 3519.0000   -23.9260     3.4380     2.4800     2.9850  2254.3679     0.1990     2.0850     0.1790   164.6250     8.5970
 3519.5000   -23.8570     3.4730     2.3930     2.8780  2255.9419     0.1630     2.0560     0.1870   168.7060     8.5700
 3520.0000   -23.9610     3.4990     2.3560     2.6930  2257.5171     0.1690     2.1540     0.2020   169.4250     8.5420
 3520.5000   -24.0740     3.5250     2.3340     2.5130  2259.0911     0.1970     2.3080     0.2200   168.5620     8.5340
 3521.0000   -24.1860     3.5510     2.3700     2.5130  2260.6660     0.2180     2.3160     0.2370   171.2570     8.5580
 3521.5000   -24.2980     3.7870     2.4490     2.7900  2262.2400     0.2190     2.2520     0.2550   175.9660     8.5830
 3522.0000   -24.4100     4.8030     2.5760     3.0710  2263.8140     0.2210     2.2130     0.2760   176.0370     8.6070
 3522.5000   -24.5230     5.1580     2.7030     3.3520  2265.3889     0.2190     2.1760     0.2990   160.5010     8.6310
 3523.0000   -24.6350     4.8180     2.8300     3.5560  2266.9629     0.2070     2.1520     0.2990   148.7050     8.6480
 3523.5000   -24.6510     4.5160     2.9570     3.7320  2268.5381     0.1960     2.1590     0.2990   136.8590     8.6650
 3524.0000   -24.6510     4.1530     3.0840     3.8050  2270.1121     0.1960     2.1640     0.2990   135.8450     8.6830
 3524.5000   -24.6510     3.7890     3.2110     3.7470  2271.6870     0.2010     2.1190     0.2510   136.3990     8.6480
 3525.0000   -24.6510     3.6000     3.3380     3.6990  2267.9819     0.2060     2.0590     0.2090   138.8690     8.6010
 3525.5000   -24.6500     3.8720     3.4060     3.6670  2258.8730     0.2120     2.0010     0.1960   141.2500     8.5550
 3526.0000   -24.6520     4.0830     3.3750     3.8930  2249.7639     0.1970     1.9370     0.2180   142.7950     8.5080
 3526.5000   -24.5600     4.3290     3.2640     4.0580  2240.6550     0.1630     1.9180     0.2370   140.4040     8.4640
 3527.0000   -24.4320     4.1990     3.1520     4.0580  2232.2319     0.1510     1.9780     0.2570   137.5860     8.5120
 3527.5000   -24.3030     3.9840     3.0390     3.8100  2287.3459     0.1660     2.0590     0.2760   134.7980     8.5660
 3528.0000   -24.1920     3.7870     2.9270     3.6670  2347.3589     0.2300     2.2960     0.2930   136.4980     8.6210
 3528.5000   -24.0930     3.5340     2.8150     3.2330  2385.1169     0.2800     2.2870     0.2910   139.4590     8.6750
 3529.0000   -23.9950     3.5510     2.7020     2.8070  2355.9670     0.2820     2.2730     0.2880   146.2220     8.7300
 3529.5000   -23.8950     3.5710     2.5900     2.7090  2326.8181     0.2850     2.2440     0.2930   154.5330     8.7840
 3530.0000   -23.9090     3.5910     2.5360     2.7900  2297.6689     0.2760     2.2120     0.2990   162.8530     8.8150
 3530.5000   -24.0080     3.7560     2.5590     3.0460  2268.5200     0.2540     2.2250     0.2990   169.0940     8.7640
 3531.0000   -24.1090     4.4540     2.6500     3.3020  2239.3711     0.2400     2.2890     0.2990   166.8990     8.7120
 3531.5000   -24.2090     4.9710     2.7420     3.4990  2203.6289     0.2530     2.3940     0.2990   155.2140     8.7800
 3532.0000   -24.3090     4.9250     2.8340     3.6850  2210.3601     0.2460     2.3950     0.2990   143.6020     8.8760
 3532.5000   -24.4100     4.9420     2.9500     3.8120  2312.3120     0.2600     2.3900     0.2990   131.7040     8.9730
 3533.0000   -24.5100     4.9740     3.1210     3.9170  2237.7151     0.2790     2.4080     0.2990   127.5950     9.0680
 3533.5000   -24.6100     5.0060     3.2920     4.0580  2172.1721     0.2900     2.3930     0.2990   127.9100     9.0940
 3534.0000   -24.7100     5.0170     3.4620     4.0420  2188.3601     0.2760     2.3830     0.2990   129.8390     9.0210
 3534.5000   -24.8110     4.6340     3.6330     4.0180  2206.5779     0.2640     2.3910     0.2800   132.5700     8.9490
 3535.0000   -24.9110     4.3690     3.8040     3.9840  2224.7959     0.2670     2.3950     0.2100   135.6450     8.8750
 3535.5000   -25.0120     4.4510     3.8750     4.4910  2243.0139     0.2490     2.3780     0.2150   138.3990     8.8730
 3536.0000   -25.0500     4.5550     3.8750     4.4840  2233.6599     0.2290     2.3640     0.2220   140.3380     8.8830
 3536.5000   -25.0510     4.6590     3.8150     4.4750  2237.9109     0.2200     2.3470     0.2310   142.7730     8.8940
 3537.0000   -25.0490     4.7470     3.7910     4.4660  2242.1621     0.2110     2.3270     0.2530   147.7860     8.9050
 3537.5000   -24.8810     4.7030     3.7670     4.4570  2246.4131     0.2110     2.3000     0.2530   152.7530     8.9150
 3538.0000   -24.6960     4.7470     3.7430     4.4500  2250.6641     0.2090     2.2740     0.2350   154.4430     8.9190
 3538.5000   -24.5100     4.4800     3.7250     4.3530  2254.9150     0.2040     2.2510     0.2020   153.3700     8.8980
 3539.0000   -24.3260     4.2920     3.6890     4.2590  2259.1660     0.2080     2.2590     0.1470   148.2410     8.8880
 3539.5000   -24.1400     4.1720     3.6520     4.1660  2263.4170     0.2280     2.2710     0.1500   146.7470     8.8770
 3540.0000   -24.1100     4.2500     3.6160     4.0720  2267.6680     0.2460     2.2530     0.1500   146.5980     8.8660
 3540.5000   -24.2170     4.1990     3.5790     3.9840  2272.2720     0.2460     2.1930     0.1460   142.7300     8.8560
 3541.0000   -24.3260     4.1180     3.5430     3.9400  2275.2700     0.2410     2.1320     0.1430   138.7090     8.8440
 3541.5000   -24.4360     4.0880     3.5060     3.8980  2278.5400     0.2340     2.0800     0.1460   136.2410     8.8940
 3542.0000   -24.5450     4.0770     3.4700     3.8560  2281.8101     0.2160     2.0580     0.1510   137.0670     8.9640
 3542.5000   -24.6540     4.0660     3.4330     3.8140  2285.0801     0.1990     2.1040     0.1530   134.1440     9.0240
 3543.0000   -24.7630     4.0150     3.3970     3.7720  2288.3501     0.1760     2.1560     0.1470   131.0360     9.0690
 3543.5000   -24.8420     3.8600     3.3600     3.7350  2291.6201     0.1760     2.2340     0.1540   130.6920     9.1170
 3544.0000   -24.7820     3.7390     3.3240     3.6570  2291.3450     0.1850     2.3310     0.1610   131.6000     9.0480
 3544.5000   -24.7240     3.6170     3.2870     3.4360  2290.1521     0.1950     2.4250     0.1670   137.4740     8.9520
 3545.0000   -24.6620     3.4700     3.2530     3.3130  2288.9600     0.2030     2.4630     0.1760   140.7420     8.9050
 3545.5000   -24.7400     3.8060     3.2390     3.5230  2287.7671     0.1860     2.4230     0.1840   136.5390     8.9140
 3546.0000   -24.8610     4.3290     3.2260     3.7220  2286.5750     0.1790     2.4140     0.1930   130.9730     8.9240
 3546.5000   -24.9820     4.0400     3.0850     3.7700  2285.3821     0.1870     2.4040     0.2010   125.4050     8.9350
 3547.0000   -25.0140     3.7700     2.9040     3.4800  2284.1899     0.1900     2.3960     0.2250   121.9220     8.9450
 3547.5000   -24.9340     3.4780     2.7140     3.2250  2282.9971     0.1820     2.4050     0.2350   131.0340     8.9550
 3548.0000   -24.8550     3.1870     2.5140     2.8940  2281.8049     0.1740     2.4160     0.2330   140.0150     8.9660
