~VERSION INFORMATION
 VERS.                2.0:   CWLS LOG ASCII STANDARD - VERSION 2.0
 WRAP.                 NO:   ONE LINE PER DEPTH STEP
~WELL INFORMATION
#MNEM.UNIT      DATA TYPE    INFORMATION
#----------   ------------   ------------------------------
 STRT.F            0.0000:   START DEPTH
 STOP.F         5673.0000:   STOP DEPTH
 STEP.F            0.5000:   STEP LENGTH
 NULL.          -999.2500:   NO VALUE
 COMP.       FLUOR DANIEL:   COMPANY
 WELL.   FLUOR "X" #63-10:   WELL
 FLD .             NPR #3:   FIELD
 LOC .      S10 T38N R78W:   LOCATION
 CNTY.            NATRONA:   COUNTY
 STAT.            WYOMING:   STATE
 CTRY. UNITED STATES OF AMERICA:   COUNTRY
 SRVC.      WESTERN ATLAS:   SERVICE COMPANY
 DATE.        02-MAR-1996:   LOGDATE
 API .     49025227690000:   API NUMBER
~CURVE INFORMATION
#MNEM.UNIT       API CODE    CURVE DESCRIPTION
#----------   ------------   ------------------------------
 DEPT.F                  :   
 GRD .GAPI   45 310 01 00:   GAMMA RAY FROM DENSITY LOG
 TEND.LBS    45 635 01 00:   TENSION FROM DENSITY LOG
 CALD.IN     45 280 60 00:   CALIPER FROM DENSITY LOG
 ZCOR.G/C3   45 356 01 00:   DENSITY CORRECTION
 ZDEN.G/C3   45 350 01 00:   BULK DENSITY
 CNC .DEC    42 890 03 00:   COMPENSATED NEUTRON POROSITY SANDSTONE
 SPR .MV     11 010 01 00:   SPONTANEOUS POTENTIAL FROM RESISTIVITY
 RD  .OHMM   11 220 10 00:   RESISTIVITY DEEP
 RS  .OHMM   11 220 09 00:   RESISTIVITY SHALLOW
~PARAMETER INFORMATION
#MNEM.UNIT          VALUE    DESCRIPTION
#----------   ------------   ------------------------------
 EKB .F         5196.0000:   Kelly bushing
 EGL .F         5186.0000:   Ground level
 EDF .F         5195.0000:   Drilling floor
 TD  .F         5674.0000:   Total depth
 CLNT.            A2DTECH:   Client Code
 SL  . 1688' FNL & 1730' FEL:   Surface Location
 PD  .                 GL:   Permanent Datum
 EPD .F              5186:   Elevation Permanent Datum
 LMF .                 KB:   Log Measured From
 DMF .                 KB:   Drilling Measured From
 DAPD.F                10:   Feet Above Permanent Datum
 DATE.        02-MAR-1996:   Date Logged [DD-MMM-YYYY]
 DD  .F              5674:   Depth driller
 DL  .F              5674:   Depth logger
 BLI .F              5663:   Bottom log interval
 CS1 .IN            9.625:   Casing size
 CBD1.      9.625" @ 448':   Casing driller 1
 CBL1.F               448:   Casing logger 1
 BS1 .IN             8.75:   Bit size
 BSD1.F              5674:   Depth drilled with bit1
 DFT .               CHEM:   Type fluid in hole
 DFD .                9.7:   Density
 DFV .                 53:   Viscosity
 DFPH.                9.0:   pH
 DFL .                9.2:   Fluid loss
 MSS .           FLOWLINE:   Source of sample
 RMS .OHMM          0.628:   Rm
 MST .F                71:   Rm Meas. temp.
 RMF .OHMM          0.477:   Rmf
 MFST.F                71:   Rmf Meas. temp.
 MFSS.               MEAS:   Source Rmf.
 RMC .OHMM          0.779:   Rmc
 MCST.F                71:   Rmc Meas. temp.
 MCSS.               MEAS:   Source Rmc.
 RMB .OHMM          0.251:   Rm. at BHT
 BHT .F               178:   BHT.
 TCS .F               4.5:   Time Circ. stopped
 MRT .HRS             178:   Maximum recorded temp.
 LUN .            HL-6530:   Logging unit number
 LUL .             CASPER:   Logging unit location
 ENGI.      PAT RASMUSSEN:   Recorded By
 ORIG.           5" PRINT:   Origin of data
 UWI .     49025227690000:   Unique Well ID
 WITN.         LAFRENIERE:   Witnessed by
 DICO.   A2D TECHNOLOGIES:   Digitizing Company
~OTHER INFORMATION
~A  DEPTH      GRD       TEND       CALD       ZCOR       ZDEN        CNC        SPR         RD         RS
# ...
 4927.5000   115.0908    56.5926    10.2188    -0.0041     2.6922     0.1704   -90.2610    19.7935    19.1802
 4928.0000   113.2892    11.4398    10.2190    -0.0056     2.6922     0.1593   -90.2610    21.2606    21.5843
 4928.5000   108.7782   -18.6855    10.2342    -0.0071     2.6907     0.1472   -90.2610    24.3601    24.7729
 4929.0000   102.7598   -48.8106    10.2343    -0.0041     2.6929     0.1395   -90.2610    26.8382    26.7305
 4929.5000    95.8377   -71.4397    10.2495     0.0004     2.6960     0.1341   -90.2610    28.5628    27.4790
 4930.0000    94.9398   -71.6150    10.2496     0.0064     2.6982     0.1326   -90.2610    29.9804    27.4771
 4930.5000    95.5492   -64.2238    10.2498     0.0094     2.7005     0.1306   -90.2610    30.8218    28.0513
 4931.0000    94.6513   -64.3991    10.2650     0.0094     2.7012     0.1242   -90.2610    31.0359    28.2447
 4931.5000    93.7533   -63.8244    10.2651     0.0094     2.7020     0.1230   -90.2610    31.9069    29.0351
 4932.0000    93.1565   -49.6870    10.2803     0.0094     2.6929     0.1230   -90.2611    32.8024    29.8481
 4932.5000    93.1636   -34.8698    10.2955     0.0094     2.6914     0.1251   -90.2610    32.8024    30.0534
 4933.0000    96.7837   -27.5112    10.2956     0.0094     2.6914     0.1297   -90.2615    32.5762    28.8288
 4933.5000   100.7050   -27.6890    10.3109     0.0079     2.6914     0.1336   -90.2198    31.2514    27.4291
 4934.0000   103.1606   -35.3256    10.3110     0.0064     2.6899     0.1329   -90.1545    29.3645    25.2734
 4934.5000   103.4286   -35.4658    10.3111     0.0064     2.6907     0.1306   -90.0885    28.3658    25.0975
 4935.0000   102.2294   -43.1034    10.3113     0.0049     2.6929     0.1282   -90.0225    28.5628    25.4456
 4935.5000   100.7290   -35.7463    10.3115     0.0049     2.6952     0.1264   -89.9568    28.7611    25.9777
 4936.0000    98.6276   -20.9291    10.3116     0.0034     2.6982     0.1252   -89.8908    29.3645    26.7046
 4936.5000    96.8261    38.9008    10.3117     0.0034     2.7012     0.1249   -89.8877    29.9804    27.4523
 4937.0000    95.0245    37.6936    10.2968     0.0019     2.7057     0.1246   -89.9396    30.6093    28.0369
 4937.5000    93.8253     8.6002    10.2970     0.0019     2.7072     0.1264   -89.9924    30.8218    28.2192
 4938.0000    95.3384    -6.5324    10.2972     0.0019     2.7012     0.1336   -90.0452    30.3982    27.4466
 4938.5000    97.1513    -6.6727    10.2823     0.0019     2.6982     0.1417   -90.0979    29.3645    26.1471
 4939.0000    99.8678    -6.8480    10.2824     0.0019     2.6973     0.1534   -90.1505    25.5487    23.8957
 4939.5000   103.5683   -14.4845    10.2675     0.0004     2.6952     0.1567   -90.2027    23.0482    21.5384
 4940.0000   108.3142   -22.1209    10.2677    -0.0026     2.6914     0.1582   -90.2595    22.8893    20.0970
 4940.5000   111.3319   -37.2564    10.2678    -0.0086     2.6877     0.1550   -90.4893    23.8597    21.3996
 4941.0000   112.5424   -37.4290    10.2830    -0.0146     2.6847     0.1478   -90.7426    26.2868    24.2220
 4941.5000   110.1988   -30.0379    10.2832    -0.0176     2.6832     0.1394   -90.9969    29.9804    26.6843
 4942.0000   103.5189   -15.2175    10.2833    -0.0157     2.6757     0.1280   -91.2506    32.8024    27.8138
 4942.5000    99.3077   -15.3960    10.2835    -0.0041     2.6727     0.1250   -91.4543    33.9731    28.9910
 4943.0000    96.3012   -23.0324    10.2836     0.0019     2.6832     0.1241   -91.3159    34.9780    29.5967
 4943.5000    96.0057   -30.6689    10.2838     0.0049     2.7027     0.1232   -91.1830    35.9539    30.0072
 4944.0000    97.5188   -30.8096    10.2839     0.0079     2.7110     0.1202   -91.0648    36.4514    30.8474
 4944.5000    99.0305   -30.9844    10.2841     0.0049     2.7102     0.1157   -91.0637    36.6997    32.1526
 4945.0000    95.1205   -31.1246    10.2842     0.0004     2.7110     0.1130   -91.0643    37.7236    32.3743
 4945.5000    90.9107   -23.7687    10.2844     0.0004     2.7147     0.1124   -91.0649    39.5895    32.8233
 4946.0000    90.9163    22.8836    10.2845     0.0079     2.7185     0.1133   -91.0606    41.2624    33.2780
 4946.5000    91.5244    95.8559    10.2997     0.0124     2.7208     0.1154   -90.9852    40.1307    30.8365
 4947.0000    92.4538    88.2194    10.2999     0.0139     2.7177     0.1187   -90.9119    34.5997    28.7729
 4947.5000    93.9467    80.5830    10.3000     0.0124     2.7087     0.1223   -90.8392    31.9284    26.4785
 4948.0000    96.0608    57.9189    10.3002     0.0064     2.7012     0.1256   -90.7668    30.6259    25.3996
 4948.5000    99.3797    35.2899    10.3003     0.0019     2.7042     0.1304   -90.6930    29.3765    25.5743
 4949.0000   102.1366    20.1573    10.3005     0.0065     2.7117     0.1329   -90.6168    29.1700    25.7506
 4949.5000   103.3081     4.5852    10.3006     0.0169     2.7185     0.1344   -90.4914    28.9652    25.9273
 4950.0000   103.9171   -10.1433    10.3008     0.0229     2.7222     0.1362   -90.3678    29.3651    26.2865
 4950.5000   104.5259   -25.2760    10.3164     0.0251     2.7245     0.1383   -90.2439    29.7696    25.7431
 4951.0000   104.2332   -25.4162    10.3145     0.0199     2.7237     0.1443   -90.1201    28.9521    24.8636
 4951.5000   104.5452   -25.5916    10.3012     0.0139     2.7192     0.1527   -89.9962    27.5795    24.1817
 4952.0000   106.6642   -25.7318    10.3314     0.0094     2.7109     0.1593   -89.8724    26.0908    23.0353
 4952.5000   109.9860   -33.3682    10.3617     0.0079     2.7079     0.1605   -89.7484    25.0265    22.0956
 4953.0000   113.6090   -41.0048    10.3768     0.0109     2.7071     0.1569   -89.6248    25.0224    21.1936
 4953.5000   114.2224   -41.1801    10.3921     0.0139     2.7101     0.1497   -89.4993    25.9000    22.0891
 4954.0000   110.6161   -26.3277    10.3922     0.0184     2.7161     0.1377   -89.4914    27.9448    23.6687
 4954.5000   105.2029    11.0133    10.3923     0.0244     2.7288     0.1263   -89.5403    30.7862    25.5731
 4955.0000   102.1994     3.3734    10.3925     0.0167     2.7221     0.1188   -89.5906    33.6756    27.7440
 4955.5000    98.8947   -11.7909    10.3926     0.0094     2.7145     0.1128   -89.6408    34.8566    29.5230
 4956.0000    96.1945   -19.4274    10.3928     0.0064     2.7123     0.1090   -89.6910    35.3378    29.5192
 4956.5000    94.3937   -27.0640    10.3930     0.0019     2.7130     0.1090   -89.7411    35.5786    29.5152
 4957.0000    96.8140   -34.7354    10.4081    -0.0011     2.7145     0.1099   -89.7912    35.5728    30.1296
 4957.5000    98.0274   -34.8757    10.4083    -0.0041     2.7152     0.1111   -89.8415    36.3143    30.5455
 4958.0000    99.2410   -17.6162    10.4085    -0.0026     2.7160     0.1189   -89.8783    36.5629    30.9672
 4958.5000    99.5526   -10.1199    10.4086     0.0004     2.7100     0.1243   -89.9080    36.5568    30.9621
 4959.0000    99.5611   -10.1199    10.4238     0.0034     2.7122     0.1264   -89.9376    35.8000    30.5326
 4959.5000   100.1721     4.8726    10.4239     0.0079     2.7183     0.1291   -89.9672    34.8182    29.6952
 4960.0000   101.0843    66.8251    10.4241     0.0139     2.7257     0.1393   -89.9969    34.5736    28.6816
 4960.5000   102.2997    94.8276    10.4242     0.0184     2.7287     0.1454   -90.0265    34.0938    28.2828
 4961.0000   104.1154    79.8351    10.4244     0.0169     2.7279     0.1490   -90.0562    33.6199    28.4755
 4961.5000   106.2324    64.8426    10.4245     0.0079     2.7249     0.1508   -90.0858    33.8500    28.8686
 4962.0000   108.3593    57.3463    10.4247     0.0034     2.7181     0.1505   -90.1154    34.5545    29.2806
 4962.5000   109.8661    57.3463    10.4248     0.0019     2.7158     0.1499   -90.1451    35.5185    30.0847
 4963.0000   110.1758    57.3463    10.4250     0.0004     2.7263     0.1487   -90.1747    36.0088    30.9240
 4963.5000   110.1843    57.3463    10.4251     0.0004     2.7301     0.1469   -90.2044    36.2553    31.5686
