~VERSION INFORMATION
 VERS.                2.0:   CWLS LOG ASCII STANDARD - VERSION 2.0
 WRAP.                 NO:   ONE LINE PER DEPTH STEP
~WELL INFORMATION
#MNEM.UNIT      DATA TYPE    INFORMATION
#----------   ------------   ------------------------------
 STRT.F          210.0000:   START DEPTH
 STOP.F         3128.0000:   STOP DEPTH
 STEP.F            0.5000:   STEP LENGTH
 NULL.          -999.2500:   NO VALUE
 COMP.    PENIX & SCISSON:   COMPANY
 WELL. FENIX NPR 3 "A" #14-27:   WELL
 FLD .                NPR:   FIELD
 LOC .      S27 T39N R78W:   LOCATION
 CNTY.            NATRONA:   COUNTY
 STAT.            WYOMING:   STATE
 CTRY. UNITED STATES OF AMERICA:   COUNTRY
 SRVC.      DRESSER ATLAS:   SERVICE COMPANY
 DATE.        31-AUG-1977:   LOGDATE
 API .     49025104280000:   API NUMBER
~CURVE INFORMATION
#MNEM.UNIT       API CODE    CURVE DESCRIPTION
#----------   ------------   ------------------------------
 DEPT.F                  :   
 GRD .GAPI   45 310 01 00:   GAMMA RAY FROM DENSITY LOG
 CALD.IN     45 280 60 00:   CALIPER FROM DENSITY LOG
 RHOB.G/C3   45 350 01 00:   BULK DENSITY
 CORR.G/C3   45 356 01 00:   DENSITY CORRECTION
 NPHI.DEC    42 890 03 00:   NEUTRON POROSITY SANDSTONE
 SPR .MV     11 010 01 00:   SPONTANEOUS POTENTIAL
 RXO .OHMM   11 220 01 00:   FLUSHED ZONE RESISTIVITY
 LLD .OHMM   11 220 10 00:   LATEROLOG LOG DEEP
 LLS .OHMM   11 220 09 00:   LATEROLOG LOG SHALLOW
 TENR.LBS    11 635 01 00:   TENSION FROM RESISTIVITY
 TEND.LBS    45 635 01 00:   TENSION FROM DENSITY LOG
~PARAMETER INFORMATION
#MNEM.UNIT          VALUE    DESCRIPTION
#----------   ------------   ------------------------------
 EKB .F         5046.0000:   Kelly bushing
 EGL .F         5036.0000:   Ground level
 TD  .F         3111.0000:   Total depth
 DATE.        31-AUG-1977:   Date logged
 CLNT.            A2DTECH:   Client Code
 SL  . 2310' FNL & 330' FWL:   Surface Location
 PD  .                 GL:   Permanent Datum
 EPD .F              5036:   Elevation Permanent Datum
 LMF .                 KB:   Log Measured From
 DMF .                 KB:   Drilling Measured From
 DAPD.F                10:   Feet Above Permanent Datum
 DD  .F              3109:   Depth driller
 DL  .F              3111:   Depth logger
 BLI .F              3109:   Bottom log interval
 TLI .F               217:   Top log interval
 CS1 .IN             8.75:   Casing size
 CBD1.       8.75" @ 215':   Casing driller 1
 CBL1.F               217:   Casing logger 1
 BS1 .IN            7.875:   Bit size
 BSD1.F              3109:   Depth drilled with bit1
 DFT .                GEL:   Type fluid in hole
 DFD .                8.8:   Density
 DFV .                 35:   Viscosity
 DFPH.                 10:   pH
 DFL .                8.8:   Fluid loss
 MSS .                PIT:   Source of sample
 RMS .OHMM            .36:   Rm
 MST .F                67:   Rm Meas. temp.
 RMF .OHMM            .24:   Rmf
 MFST.F                67:   Rmf Meas. temp.
 RMC .OHMM            .51:   Rmc
 MCST.F                67:   Rmc Meas. temp.
 MFSS.               MEAS:   Source Rmf.
 MCSS.               CALC:   Source Rmc.
 RMB .OHMM            .20:   Rm. at BHT
 BHT .F               121:   BHT.
 TCS .HRS               5:   Time Circ. stopped
 MRT .F               121:   Maximum recorded temp.
 LUN .               6080:   Logging unit number
 LUL .              WLSTN:   Logging unit location
 ENGI.               BALL:   Recorded By
 WITN.         PETTINGILL:   Witnessed by
 ORIG.      2.5" 5" PRINT:   Origin of data
 UWI .     49025104280000:   Unique Well ID
 DICO. A2D TECHNOLOGIES, INC.:   Digitizing Company
~OTHER INFORMATION
~A   DEPT      GRD         CALD     RHOB       CORR       NPHI        SPR        RXO        LLD        LLS        TENR      TEND   
# ...
 2131.5000    98.2054     8.7923     2.4857     0.0030     0.2623   -36.4047     8.7817    10.7643    10.2194   100.0256    91.0005
 2132.0000    96.3538     8.7925     2.4798     0.0011     0.2654   -36.0091     8.7798    10.9600    10.2180    92.1678    90.8828
 2132.5000    95.1645     8.8125     2.4659    -0.0029     0.2721   -36.4112     8.7785    11.1592    10.2157    84.3730    98.7281
 2133.0000    92.7840     8.8126     2.4619    -0.0048     0.2793   -36.4151     8.7772    11.1575    10.2143    84.4467    94.8836
 2133.5000    90.0064     8.8326     2.4659    -0.0048     0.2797   -36.0208     8.7753    11.1551    10.7857    84.5203    98.4929
 2134.0000    88.4202     8.8326     2.4828     0.0012     0.2765   -36.0221     8.9349    11.3579    10.9816    84.5934    90.4116
 2134.5000    89.2166     8.8478     2.4838     0.0012     0.2706   -36.0247     8.9336    11.5643    10.9800    84.6257   102.2395
 2135.0000    90.0130     8.8629     2.4788    -0.0027     0.2638   -36.8275     8.9317    11.5634    10.9777    84.6579    90.1760
 2135.5000    90.8093     8.8781     2.4759    -0.0027     0.2642   -36.8300     8.9304    11.5609    10.9761    84.6901    90.0582
 2136.0000    91.2085     8.8933     2.4759    -0.0026     0.2658   -36.8326     8.9284    11.5584    11.1754    84.7223    93.9226
 2136.5000    90.0195     8.9129     2.4818    -0.0006     0.2662   -36.8352     8.9271    11.3488    10.9721    84.7546   101.7692
 2137.0000    88.0365     8.9270     2.4838     0.0014     0.2630   -36.8404     8.7639    11.1406    10.9697    84.7868    85.7225
 2137.5000    85.2595     8.9410     2.4888     0.0074     0.2602   -36.8442     8.6043    10.9378    10.3847    84.8190    93.5693
 2138.0000    85.2617     8.9551     2.5087     0.0114     0.2630   -36.8455     8.4469    10.5446    10.1950    84.8512    85.4867
 2138.5000    85.6610     8.9691     2.5087     0.0114     0.2654   -36.0519     8.2930     9.9806    10.0095    84.8835    89.3513
 2139.0000    85.2663     8.9832     2.5147     0.0134     0.2674   -36.0545     7.9943     9.7989     9.6493    84.9157    89.2335
 2139.5000    84.8716     8.9931     2.5187     0.0135     0.2658   -35.6591     7.9931     9.2761     8.8079    84.9479    85.1330
 2140.0000    84.4768     8.9337     2.5237     0.0155     0.2658   -35.6617     7.5659     9.2741     8.6470    84.9801    85.0151
 2140.5000    84.8761     8.8941     2.5247     0.0155     0.2685   -35.6656     7.4280     9.6170     8.6457    85.0124    88.8800
 2141.0000    82.1019     8.8546     2.5227     0.0156     0.2674   -36.0675     7.2044     9.7918     9.1294    85.0446    88.7621
 2141.5000    80.1194     8.8349     2.5167     0.0156     0.2598   -36.4707     7.2039     9.9712     9.1281    85.0768    88.6443
 2142.0000    79.3279     8.8152     2.5187     0.0156     0.2578   -36.4733     7.3347    10.3384     9.4648    85.1091    96.5867
 2142.5000    79.7272     8.8352     2.5217     0.0137     0.2578   -36.4772     7.7457    10.3364     9.6374    85.1413    92.3917
 2143.0000    79.3326     8.8353     2.5058     0.0137     0.2567   -36.4824     8.1784    10.3347     9.6353    85.1735    92.3681
 2143.5000    79.3350     8.8156     2.4939     0.0098     0.2578   -36.0844     8.3282    10.3339     9.6339    85.2057    96.1394
 2144.0000    79.3374     8.8157     2.4979     0.0138     0.2578   -36.4862     8.3258    10.1443     9.6318    85.2380    88.1256
 2144.5000    78.9429     8.7762     2.5039     0.0178     0.2586   -36.4901     8.3252     9.2579     9.4566    85.2702    91.9205
 2145.0000    78.5484     8.7763     2.5039     0.0218     0.2606   -36.4927     7.8806     9.2569     9.1162    85.3024    95.8569
 2145.5000    79.3446     8.7764     2.5009     0.0218     0.2634   -36.0973     7.5970     9.2559     8.6301    85.3346    83.7176
 2146.0000    82.1253     8.7766     2.5059     0.0258     0.2677   -36.5005     6.8089     9.0874     8.4724    85.3669    91.6377
 2146.5000    84.9058     8.7669     2.5119     0.0278     0.2685   -36.5030     6.6850     8.7602     9.1103    85.3991    83.4816
 2147.0000    86.0982     8.7572     2.5168     0.0358     0.2669   -36.5069     6.6840     9.2506     9.1096    85.4313    83.4344
 2147.5000    86.4974     8.7476     2.5168     0.0299     0.2654   -36.5095     7.1877    10.3182     9.6200    85.4635    83.2456
 2148.0000    80.9440     8.7375     2.5119     0.0260     0.2646   -36.5134     8.6222    10.6990    10.3457    85.4958    99.1108
 2148.5000    80.1527     8.7575     2.4741     0.0200     0.2650   -36.5160     8.9409    10.6975    10.5336    85.5280    90.9779
 2149.0000    80.5519     8.7576     2.4513     0.0022     0.2701   -36.9191     9.2714    10.6959    10.7250    85.5602    82.9624
 2149.5000    82.5336     8.7578     2.4423     0.0002     0.2741   -36.9216     9.4398    11.0890    10.7234    85.5924    86.7579
 2150.0000    83.7332     8.7778     2.4443     0.0003     0.2737   -36.9255     9.4384    11.0877    10.7218    85.6247    86.6336
 2150.5000    85.3321     8.8157     2.4561     0.0122     0.2705   -36.5289     9.4357    11.0858    10.9158    85.6569    84.0896
 2151.0000    86.9311     8.8184     2.4583     0.0003     0.2689   -36.5328     9.4350    11.0850    10.9142    85.6891    86.6298
 2151.5000    89.3241     8.8189     2.4553    -0.0076     0.2681   -36.5354     8.9306    10.8824    10.7149    85.7214    86.6254
 2152.0000    89.3357     8.8194     2.4593    -0.0076     0.2610   -36.1401     8.7681    10.6835    10.7133    85.7536    82.6401
 2152.5000    89.7442     8.8004     2.4584    -0.0055     0.2594   -35.7435     7.1737    10.6820    10.1413    85.7858    86.6198
 2153.0000    90.1528     8.8006     2.4594    -0.0055     0.2582   -35.3482     6.7911    10.6796    10.1398    85.8180    94.5850
 2153.5000    91.7523     8.8009     2.4723     0.0005     0.2554   -35.3508     7.0426    10.6773    10.1376    85.8503    86.6143
 2154.0000    89.7790     8.8213     2.4823     0.0065     0.2534   -34.9556     7.1706    10.6758    10.1361    85.8825    98.5622
 2154.5000    87.8056     8.8019     2.4943     0.0085     0.2566   -35.3574     8.7081    10.6734    10.5100    85.9147    90.5918
 2155.0000    87.4201     8.8223     2.5032     0.0105     0.2606   -35.3613     9.1965    10.6719    10.7009    85.9469    94.5730
 2155.5000    86.6375     8.8228     2.5092     0.0132     0.2618   -36.1621     9.9477    10.8659    10.6993    85.9792    90.5867
 2156.0000    85.4579     8.8233     2.5132     0.0166     0.2625   -36.1660     9.9470    10.8643    10.6978    86.0114    90.5844
 2156.5000    85.8664     8.8239     2.5152     0.0186     0.2645   -36.1685     9.9448    10.8619    10.6955    86.0436    86.5984
 2157.0000    87.0691     8.8047     2.5143     0.0221     0.2621   -36.1724     9.5869    10.8603    10.1251    86.0758    90.5786
 2157.5000    88.2719     8.8049     2.5093     0.0241     0.2602   -36.1763     8.9112    10.4693     9.9409    86.1081    86.5929
 2158.0000    90.2690     8.7826     2.5103     0.0241     0.2649   -35.7798     8.5911     9.9107     9.4101    86.1403    82.6085
 2158.5000    90.2807     8.7602     2.5104     0.0241     0.2712   -35.7837     8.4341     9.0454     9.0714    86.1725    86.5874
 2159.0000    90.2923     8.7470     2.5094     0.0202     0.2720   -35.3873     8.4329     9.0440     8.7456    86.2048    86.5852
 2159.5000    90.5610     8.7675     2.5015     0.0182     0.2740   -35.3912     8.1294     9.0427     8.5864    86.2370    86.5819
 2160.0000    88.3297     8.7878     2.4826     0.0162     0.2776   -35.7928     7.9815     9.0408     8.5846    86.2692    86.5791
 2160.5000    86.3552     8.8082     2.4836     0.0123     0.2811   -35.7967     7.8357     9.0388     8.5833    86.3014    89.4668
 2161.0000    85.5723     8.8087     2.4876     0.0103     0.2831   -35.7993     7.8341     9.3737     9.0635    86.3337    86.5742
 2161.5000    83.9948     8.8291     2.4926     0.0123     0.2788   -35.8032     7.8328     9.2011     9.2282    86.3659    82.5895
