~VERSION INFORMATION
 VERS.                2.0:   CWLS LOG ASCII STANDARD - VERSION 2.0
 WRAP.                 NO:   ONE LINE PER DEPTH STEP
~WELL INFORMATION
#MNEM.UNIT      DATA TYPE    INFORMATION
#----------   ------------   ------------------------------
 STRT.F          728.0000:   START DEPTH
 STOP.F         3296.0000:   STOP DEPTH
 STEP.F            0.5000:   STEP LENGTH
 NULL.          -999.2500:   NO VALUE
 COMP.    FENIX & SCISSON:   COMPANY
 WELL. FENIX TX "AX" #55-34:   WELL
 FLD . N. P. R. - WILDCAT:   FIELD
 LOC .      S34 T39N R78W:   LOCATION
 CNTY.            NATRONA:   COUNTY
 STAT.            WYOMING:   STATE
 CTRY. UNITED STATES OF AMERICA:   COUNTRY
 SRVC.       SCHLUMBERGER:   SERVICE COMPANY
 DATE.        22-JUL-1981:   LOGDATE
 API .     49025108770000:   API NUMBER
~CURVE INFORMATION
#MNEM.UNIT       API CODE    CURVE DESCRIPTION
#----------   ------------   ------------------------------
 DEPT.F                  :   
 TENS.LBS    60 635 01 00:   TENSION FROM SONIC LOG
 DT  .US/F   60 520 00 00:   DELTA TIME
 RHOB.G/C3   45 350 01 00:   BULK DENSITY
 TEND.LBS    45 635 01 00:   TENSION FROM DENSITY LOG
 CORR.G/C3   45 356 01 00:   DENSITY CORRECTION
 CALD.IN     45 280 60 00:   CALIPER FROM DENSITY LOG
 NPHI.DEC    42 890 03 00:   NEUTRON POROSITY SANDSTONE
 TENR.LBS    07 635 01 00:   TENSION FROM RESISTIVITY
 SPR .MV     07 010 01 00:   SPONTANEOUS POTENTIAL
 GRR .GAPI   07 310 01 00:   GAMMA RAY FROM RESISTIVITY
 SFL .OHMM   07 220 01 00:   SHALLOW FOCUSED LOG RESISTIVITY
 ILM .OHMM   07 120 44 00:   INDUCTION LOG MEDIUM RESISTIVITY
 ILD .OHMM   07 120 46 00:   DEEP INDUCTION RESISTIVITY
~PARAMETER INFORMATION
#MNEM.UNIT          VALUE    DESCRIPTION
#----------   ------------   ------------------------------
 EKB .F         5092.0000:   Kelly bushing
 EGL .F         5082.0000:   Ground level
 EDF .F            0.0000:   Drilling floor
 TD  .F         3170.0000:   Total depth
 DATE.        22-JUL-1981:   Date logged
 CLNT.            A2DTECH:   Client Code
 SL  . 2012' FSL & 2774' FWL:   Surface Location
 PD  .                 GL:   Permanent Datum
 EPD .F              5082:   Elevation Permanent Datum
 LMF .                 KB:   Log Measured From
 DMF .                 KB:   Drilling Measured From
 DAPD.F                10:   Feet Above Permanent Datum
 DD  .F              3170:   Depth driller
 DL  .F              3110:   Depth logger
 BLI .F              3104:   Bottom log interval
 TLI .F               753:   Top log interval
 CS1 .IN            9.625:   Casing size
 CBD1.      9.625" @ 751':   Casing driller 1
 CBL1.F               753:   Casing logger 1
 BS1 .IN            7.875:   Bit size
 BSD1.F              3170:   Depth drilled with bit1
 DFT .                FGM:   Type fluid in hole
 DFD .                  9:   Density
 DFV .                  9:   Viscosity
 DFPH.                9.8:   pH
 DFL .                8.6:   Fluid loss
 MSS .           MUD/TANK:   Source of sample
 RMS .OHMM           1.72:   Rm
 MST .F                72:   Rm Meas. temp.
 RMF .OHMM           1.17:   Rmf
 MFST.F                70:   Rmf Meas. temp.
 MFSS.               MEAS:   Source Rmf.
 RMB .OHMM           0.90:   Rm. at BHT
 BHT .F               144:   BHT.
 TCS .HRS            1215:   Time Circ. stopped
 TLAB.HRS            0400:   Time logger at bottom
 MRT .F               144:   Maximum recorded temp.
 LUN .               8035:   Logging unit number
 LUL .               CSPR:   Logging unit location
 ENGI.            PURPICH:   Recorded By
 WITN.           R. SCOTT:   Witnessed by
 ORIG.           5" PRINT:   Origin of data
 UWI .     49025108770000:   Unique Well ID
 DICO. A2D TECHNOLOGIES, INC.:   Digitizing Company
~OTHER INFORMATION
~A   DEPT     TENS         DT         RHOB      TEND      CORR       CALD         NPHI     TENR        SPR         GRR       SFL        ILM        ILD   
# ...
 1378.0000  -999.2500  -999.2500     2.5330   888.5020     0.0240     7.8270     0.2920   533.1930   -70.2300   105.3290     8.8880     7.6680     8.2520
 1378.5000  -999.2500  -999.2500     2.5320   888.1620     0.0290     7.8270     0.2910   533.2610   -70.2950   109.4430     9.0090     7.6990     8.1770
 1379.0000  -999.2500  -999.2500     2.5270   887.8210     0.0320     7.8350     0.2900   533.3300   -70.3600   114.6020     9.0450     7.7290     8.2750
 1379.5000  -999.2500  -999.2500     2.5260   887.4810     0.0310     7.8710     0.2910   533.3980   -70.4250   113.5740     8.7960     7.7590     8.3420
 1380.0000  -999.2500  -999.2500     2.5270   887.1400     0.0280     7.8640     0.2950   533.4670   -70.4900   110.6290     8.7190     7.7890     8.4080
 1380.5000  -999.2500  -999.2500     2.5180   886.8000     0.0230     7.8660     0.2990   533.5360   -70.5550   109.5300     8.9880     7.8190     8.4750
 1381.0000  -999.2500  -999.2500     2.5100   886.4590     0.0190     7.8640     0.3010   533.6040   -70.6180   112.2290     9.2290     7.8480     8.5420
 1381.5000  -999.2500  -999.2500     2.5030   886.1190     0.0150     7.8630     0.2990   533.6730   -70.5880   114.8590     9.3830     7.8780     8.5610
 1382.0000  -999.2500  -999.2500     2.5110   885.7780     0.0110     7.8630     0.2960   533.7410   -70.3500   115.4300     9.3400     7.9080     8.5090
 1382.5000  -999.2500  -999.2500     2.5290   885.4380     0.0190     7.8620     0.2860   533.8100   -70.1110   114.5020     9.1020     7.9380     8.4820
 1383.0000  -999.2500  -999.2500     2.5460   885.0970     0.0340     7.8610     0.2790   533.8780   -70.1530   113.5730     8.8810     7.9670     8.5120
 1383.5000  -999.2500  -999.2500     2.5570   884.7570     0.0380     7.8600     0.2810   533.9470   -70.2430   111.5520     8.8810     7.9970     8.6260
 1384.0000  -999.2500  -999.2500     2.5550   884.4160     0.0370     7.8590     0.2870   534.0160   -70.3340   109.1280     9.3120     8.0280     8.7390
 1384.5000  -999.2500  -999.2500     2.5530   884.0760     0.0380     7.8580     0.2980   534.0840   -70.4240   106.6740     9.6940     8.1020     8.8530
 1385.0000  -999.2500  -999.2500     2.5490   883.7360     0.0380     7.8570     0.2980   534.1530   -70.5150   104.2120     9.9140     8.1020     8.9620
 1385.5000  -999.2500  -999.2500     2.5410   883.3950     0.0380     7.8560     0.3000   534.2210   -70.6050   101.7540     9.5450     7.9730     8.8090
 1386.0000  -999.2500  -999.2500     2.5370   883.0550     0.0390     7.8550     0.3030   534.2900   -70.6960    99.5880     9.2760     7.8500     8.6280
 1386.5000  -999.2500  -999.2500     2.5380   882.7140     0.0420     7.8540     0.3060   534.3580   -70.7860   100.3050     9.0070     7.7260     8.4470
 1387.0000  -999.2500  -999.2500     2.5400   882.3740     0.0390     7.8530     0.3040   534.4270   -70.8540   102.3670     8.7390     7.6020     8.2660
 1387.5000  -999.2500  -999.2500     2.5420   882.0330     0.0300     7.8520     0.3000   534.4960   -70.8170   104.2150     8.4700     7.4780     8.0850
 1388.0000  -999.2500  -999.2500     2.5470   881.6930     0.0250     7.8510     0.2980   534.5640   -70.7830   103.3210     8.3280     7.4600     7.9550
 1388.5000  -999.2500  -999.2500     2.5460   881.3520     0.0270     7.8510     0.2910   534.6330   -70.7490   102.3820     8.2520     7.4600     7.9550
 1389.0000  -999.2500  -999.2500     2.5360   881.0120     0.0280     7.8500     0.2870   534.7010   -70.7160   102.9580     8.3280     7.4860     7.9650
 1389.5000  -999.2500  -999.2500     2.5230   880.6710     0.0290     7.8490     0.2910   534.7700   -70.6820   105.8200     8.5430     7.5130     7.9950
 1390.0000  -999.2500  -999.2500     2.5100   880.3310     0.0290     7.8480     0.2940   534.8380   -70.6480   107.8060     8.7620     7.5820     8.0240
 1390.5000  -999.2500  -999.2500     2.5050   879.9910     0.0290     7.8470     0.2980   534.9070   -70.6140   108.4520     8.9810     7.5980     8.2410
 1391.0000  -999.2500  -999.2500     2.5120   879.6500     0.0270     7.8460     0.2980   534.9760   -70.5800   107.2860     9.2970     7.5270     8.4050
 1391.5000  -999.2500  -999.2500     2.5160   879.3100     0.0250     7.8450     0.2990   535.0440   -70.5460   106.0580     9.2970     7.4480     8.2420
 1392.0000  -999.2500  -999.2500     2.5110   878.9690     0.0220     7.8440     0.2990   535.1130   -70.5120   106.6010     8.9780     7.3690     8.1190
 1392.5000  -999.2500  -999.2500     2.5110   878.6290     0.0210     7.8430     0.2920   535.1810   -70.4770   107.0170     8.7080     7.2900     7.9960
 1393.0000  -999.2500  -999.2500     2.5170   878.2880     0.0220     7.8420     0.2900   535.2500   -70.5120   106.5940     8.4370     7.2110     7.8730
 1393.5000  -999.2500  -999.2500     2.5220   877.9480     0.0240     7.8410     0.2980   535.3180   -70.5740   106.1270     8.1660     7.1320     7.7510
 1394.0000  -999.2500  -999.2500     2.5200   877.6070     0.0210     7.8400     0.3090   535.3870   -70.6380   107.1570     7.8960     7.0540     7.6280
 1394.5000  -999.2500  -999.2500     2.5140   877.2670     0.0160     7.8390     0.3080   535.4560   -70.7020   110.8130     7.7390     6.9750     7.5050
 1395.0000  -999.2500  -999.2500     2.5080   876.9260     0.0110     7.8390     0.3030   535.5240   -70.7650   112.0540     7.8830     6.9320     7.3920
 1395.5000  -999.2500  -999.2500     2.5050   876.5860     0.0090     7.8380     0.3020   535.5930   -70.8290   113.2380     8.1520     6.9590     7.4120
 1396.0000  -999.2500  -999.2500     2.5090   876.2450     0.0080     7.8370     0.3040   535.6610   -70.8920   114.4290     8.4210     6.9790     7.4340
 1396.5000  -999.2500  -999.2500     2.5160   875.9050     0.0140     7.8360     0.3170   535.7300   -70.9560   115.5640     8.5610     7.0290     7.4560
 1397.0000  -999.2500  -999.2500     2.5220   875.5650     0.0180     7.8350     0.3260   535.7980   -71.0190   115.2980     8.5610     7.0610     7.5290
 1397.5000  -999.2500  -999.2500     2.5280   875.2240     0.0240     7.8340     0.3170   535.8670   -71.0570   113.7810     8.3940     7.1260     7.5980
 1398.0000  -999.2500  -999.2500     2.5340   874.8840     0.0290     7.8330     0.3050   535.9360   -71.0640   112.3070     8.2770     7.0920     7.5730
 1398.5000  -999.2500  -999.2500     2.5370   874.5430     0.0310     7.8320     0.2990   536.0040   -71.0720   110.7960     8.1600     7.0660     7.5460
 1399.0000  -999.2500  -999.2500     2.5310   874.2030     0.0260     7.8310     0.3110   536.0730   -71.0800   111.0440     8.0440     7.0410     7.5180
 1399.5000  -999.2500  -999.2500     2.5250   873.8620     0.0210     7.8300     0.3240   536.1410   -71.0880   112.5060     7.9270     7.0150     7.4900
 1400.0000  -999.2500  -999.2500     2.5190   873.5220     0.0210     7.8290     0.3380   536.2100   -71.0970   114.4040     7.8100     6.9960     7.4600
 1400.5000  -999.2500  -999.2500     2.5260   873.1810     0.0290     7.8280     0.3390   536.2780   -71.1050   116.3000     7.6930     6.9960     7.4600
 1401.0000  -999.2500  -999.2500     2.5440   872.8410     0.0380     7.8280     0.3340   536.3470   -71.1130   116.1470     7.5980     6.9960     7.4600
 1401.5000  -999.2500  -999.2500     2.5620   872.5000     0.0470     7.8270     0.3240   536.4160   -71.1210   114.6580     7.7900     7.0170     7.4720
 1402.0000  -999.2500  -999.2500     2.5730   872.1600     0.0560     7.8270     0.3140   536.4840   -71.1290   113.0310     8.0130     7.0430     7.5000
 1402.5000  -999.2500  -999.2500     2.5660   871.8190     0.0500     7.8270     0.3050   536.5530   -71.1370   108.1970     8.2350     7.0690     7.5280
 1403.0000  -999.2500  -999.2500     2.5490   871.4790     0.0390     7.8270     0.2990   536.6210   -71.1450   104.2300     8.4580     7.0960     7.5560
 1403.5000  -999.2500  -999.2500     2.5330   871.1390     0.0280     7.8270     0.2990   536.6900   -71.1530   106.4000     8.6810     7.1220     7.5830
