~VERSION INFORMATION
 VERS.                2.0:   CWLS LOG ASCII STANDARD - VERSION 2.0
 WRAP.                 NO:   ONE LINE PER DEPTH STEP
~WELL INFORMATION
#MNEM.UNIT      DATA TYPE    INFORMATION
#----------   ------------   ------------------------------
 STRT.F          212.0000:   START DEPTH
 STOP.F         2806.0000:   STOP DEPTH
 STEP.F            0.5000:   STEP LENGTH
 NULL.          -999.2500:   NO VALUE
 COMP.    FENIX & SCISSON:   COMPANY
 WELL.    FENIX AX #12-21:   WELL
 FLD .        TEAPOT DOME:   FIELD
 LOC .      S21 T39N R78W:   LOCATION
 CNTY.            NATRONA:   COUNTY
 STAT.            WYOMING:   STATE
 CTRY. UNITED STATES OF AMERICA:   COUNTRY
 SRVC.           BIRDWELL:   SERVICE COMPANY
 DATE.        14-AUG-1973:   LOGDATE
 API .     49025106930000:   API NUMBER
~CURVE INFORMATION
#MNEM.UNIT       API CODE    CURVE DESCRIPTION
#----------   ------------   ------------------------------
 DEPT.F                  :   
 SN  .OHMM   05 040 16 00:   SHORT NORMAL 16"
 ILD .OHMM   05 120 46 00:   INDUCTION LOG DEEP RESISTIVITY
 RHOB.G/C3   45 350 01 00:   BULK DENSITY
 CORR.G/C3   45 356 01 00:   DENSITY CORRECTION
 GRD .GAPI   45 310 01 00:   GAMMA RAY FROM DENSITY LOG
 CALD.IN     45 280 60 00:   CALIPER FROM DENSITY LOG
 SPR .MV     05 010 01 00:   SPONTANEOUS POTENTIAL
~PARAMETER INFORMATION
#MNEM.UNIT          VALUE    DESCRIPTION
#----------   ------------   ------------------------------
 EKB .F         4998.0000:   Kelly bushing
 EGL .F         4988.0000:   Ground level
 EDF .F            0.0000:   Drilling floor
 EPD .F         4988.0000:   Permanent datum
 TD  .F         2809.0000:   Total depth
 DATE.        14-AUG-1973:   Date logged
 CLNT.            A2DTECH:   Client Code
 SL  . 1300' FNL & 300' FWL:   Surface Location
 PD  .                 GL:   Permanent Datum
 DD  .F              2800:   Depth driller
 DL  .F              2809:   Depth logger
 BLI .F              2803:   Bottom log interval
 TLI .F               235:   Top log interval
 CS1 .IN            8.625:   Casing size
 BS1 .IN            7.875:   Bit size
 BSD1.F              2800:   Depth drilled with bit1
 DFT .                GEL:   Type fluid in hole
 DFD .                9.7:   Density
 DFV .                 34:   Viscosity
 DFPH.                 12:   pH
 MSS .           FLOWLINE:   Source of sample
 RMS .OHMM            .15:   Rm
 MST .F                57:   Rm Meas. temp.
 RMF .OHMM            .95:   Rmf
 MFST.F                69:   Rmf Meas. temp.
 RMC .OHMM            1.5:   Rmc
 MCST.F                78:   Rmc Meas. temp.
 MFSS.               MEAS:   Source Rmf.
 RMB .OHMM            .87:   Rm. at BHT
 BHT .F               115:   BHT.
 TCS .HRS               3:   Time Circ. stopped
 MRT .F               115:   Maximum recorded temp.
 LUN .               3006:   Logging unit number
 LUL .               CASP:   Logging unit location
 ENGI.             MILLER:   Recorded By
 WITN.           MCGINLEY:   Witnessed by
 UWI .     49025106930000:   Unique Well ID
 DICO. A2D TECHNOLOGIES, INC.:   Digitizing Company
 ORIG.           5" PRINT:   Origin of data
~OTHER INFORMATION
~A   DEPT       SN        ILD       RHOB       CORR         GRD      CALD        SPR   
# ...
 1759.0000    15.4570     9.4320     2.4600     0.0760   128.6550     8.3110   -12.4080
 1759.5000    15.4430     9.3900     2.4590     0.0730   139.5490     8.3220   -12.3770
 1760.0000    15.4300     9.3480     2.4530     0.0710   139.8410     8.3330   -12.3460
 1760.5000    15.4170     9.3060     2.4480     0.0690   112.7100     8.3370   -12.3150
 1761.0000    15.4020     9.2650     2.4530     0.0710   109.5110     8.3300   -12.2830
 1761.5000    15.2830     9.2230     2.4630     0.0770   109.7730     8.3240   -12.2520
 1762.0000    14.7170     9.1810     2.4680     0.0770   105.3080     8.3170   -12.2210
 1762.5000    14.0390     9.1390     2.4630     0.0740    96.3240     8.3110   -12.1900
 1763.0000    14.0650     9.0980     2.4570     0.0660    98.5610     8.3040   -12.1590
 1763.5000    14.0980     9.0560     2.4540     0.0610   100.5670     8.2970   -12.1280
 1764.0000    14.1300     9.0140     2.4500     0.0550   101.7880     8.2910   -12.0960
 1764.5000    14.1690     8.9480     2.4300     0.0420    95.4880     8.2840   -12.0650
 1765.0000    14.0630     8.9740     2.4180     0.0400    96.7230     8.2720   -12.0340
 1765.5000    13.9110     9.0370     2.4180     0.0450    98.2340     8.2470   -12.0030
 1766.0000    14.0700     9.1000     2.4260     0.0470    98.7340     8.2220   -11.9720
 1766.5000    14.2630     9.1980     2.4240     0.0460   110.6030     8.2080   -11.9400
 1767.0000    14.5650     9.1190     2.4210     0.0490   108.9170     8.1910   -11.9090
 1767.5000    14.5060     8.9370     2.4200     0.0520   108.3890     8.1730   -11.8780
 1768.0000    14.3730     8.7560     2.4320     0.0580   109.1030     8.1690   -11.8470
 1768.5000    14.0830     8.5460     2.4490     0.0680    98.7580     8.1880   -11.8160
 1769.0000    13.5980     8.5610     2.4670     0.0750   100.1670     8.2060   -11.7850
 1769.5000    13.1130     8.5840     2.4730     0.0790   100.0270     8.2240   -11.7580
 1770.0000    12.8060     8.6070     2.4800     0.0830    98.3370     8.2430   -11.7680
 1770.5000    13.0030     8.6300     2.4920     0.0960   100.6460     8.2590   -11.7780
 1771.0000    13.3330     8.6530     2.5030     0.1120   106.3940     8.2480   -11.7880
 1771.5000    13.6680     8.6760     2.5040     0.1390   111.5380     8.2350   -11.7980
 1772.0000    13.9140     8.6990     2.5060     0.1500   109.5800     8.2230   -11.8080
 1772.5000    13.9250     8.7230     2.5070     0.1490   106.5800     8.2110   -11.8170
 1773.0000    13.9370     8.7460     2.5080     0.1420   103.5560     8.2000   -11.8270
 1773.5000    13.9480     8.7690     2.5100     0.1310   100.5370     8.1940   -11.8370
 1774.0000    13.9600     8.8660     2.5120     0.1240    97.5190     8.1880   -11.8470
 1774.5000    13.9710     8.8500     2.4930     0.0910    94.5190     8.1830   -11.8570
 1775.0000    13.9830     8.8260     2.4700     0.0560    91.4280     8.1770   -11.8670
 1775.5000    13.9940     8.8020     2.4630     0.0490    89.9140     8.1710   -11.8760
 1776.0000    14.0060     8.7790     2.4560     0.0450    89.2130     8.1650   -11.8860
 1776.5000    14.0180     8.7550     2.4530     0.0450    89.2950     8.1590   -11.8960
 1777.0000    14.0290     8.7310     2.4530     0.0460    89.3660     8.1540   -11.9060
 1777.5000    14.0380     8.7070     2.4530     0.0470    89.9070     8.1480   -11.9160
 1778.0000    13.9320     8.6840     2.4550     0.0460    93.5950     8.1430   -11.9250
 1778.5000    13.8360     8.6600     2.4570     0.0450    98.2140     8.1460   -11.9350
 1779.0000    13.7400     8.6360     2.4600     0.0440   102.9070     8.1480   -11.9450
 1779.5000    13.6440     8.5940     2.4620     0.0430   103.6720     8.1510   -11.9550
 1780.0000    13.5480     8.5370     2.4640     0.0410   103.4420     8.1540   -11.9450
 1780.5000    13.4080     8.4800     2.4560     0.0370   103.2320     8.1560   -11.9270
 1781.0000    13.4300     8.4230     2.4480     0.0450   100.9670     8.1590   -11.9090
 1781.5000    13.4680     8.3660     2.4660     0.0580    98.3040     8.1610   -11.8910
 1782.0000    13.5270     8.3080     2.4740     0.0660    96.8010     8.1640   -11.8730
 1782.5000    13.4540     8.2510     2.4750     0.0690    97.1250     8.1680   -11.8550
 1783.0000    13.2350     8.2380     2.4760     0.0670    97.4430     8.1710   -11.8370
 1783.5000    13.0160     8.2380     2.4760     0.0650    97.4280     8.1740   -11.8190
 1784.0000    12.7970     8.2380     2.4730     0.0630    96.5960     8.1770   -11.8010
 1784.5000    12.5730     8.2380     2.4690     0.0640    89.8980     8.1810   -11.7830
 1785.0000    12.5730     8.2380     2.4770     0.0760    90.0780     8.1840   -11.7640
 1785.5000    12.6870     8.2380     2.4860     0.0800    90.1340     8.1870   -11.8210
 1786.0000    12.8770     8.2380     2.4860     0.0830    90.1890     8.1900   -11.9160
 1786.5000    13.4080     8.2380     2.4860     0.0850    90.5570     8.1940   -12.0120
 1787.0000    13.3630     8.2380     2.4860     0.0870    89.7630     8.1970   -12.1080
 1787.5000    13.2860     8.2380     2.4930     0.0880    88.6360     8.2000   -12.2030
 1788.0000    13.2100     8.2380     2.4960     0.0860    87.2090     8.1930   -12.2980
 1788.5000    13.1070     8.2380     2.4960     0.0840    73.6730     8.1750   -12.3480
 1789.0000    12.9650     8.2370     2.4940     0.0820    74.8880     8.1580   -12.3350
 1789.5000    12.8240     8.2260     2.4910     0.0800    77.1440     8.1410   -12.3230
 1790.0000    12.6830     8.2140     2.4880     0.0780    82.3610     8.1230   -12.3100
 1790.5000    12.5730     8.2020     2.4860     0.0760    94.8660     8.1060   -12.2970
 1791.0000    12.5730     8.1900     2.4830     0.0700    98.3120     8.0880   -12.2840
 1791.5000    12.5730     8.1790     2.4780     0.0610   100.0020     8.0870   -12.2710
 1792.0000    12.5730     8.1670     2.4640     0.0470   102.1010     8.0900   -12.2590
 1792.5000    12.5730     8.1550     2.4570     0.0370   104.5130     8.0930   -12.2460
 1793.0000    12.5730     8.1430     2.4500     0.0290   105.3020     8.0960   -12.2330
 1793.5000    12.5730     8.1320     2.4500     0.0230   105.5250     8.0990   -12.2200
 1794.0000    12.5020     8.1200     2.4550     0.0230   104.2280     8.1020   -12.2070
 1794.5000    12.4190     8.1080     2.4520     0.0230    97.2980     8.1060   -12.1940
 1795.0000    12.3350     8.0960     2.4500     0.0230    95.7600     8.1090   -12.1810
 1795.5000    12.2520     8.0870     2.4470     0.0250    96.1480     8.1120   -12.1680
 1796.0000    12.1690     8.0880     2.4450     0.0270    96.3730     8.1150   -12.1560
 1796.5000    12.0850     8.0880     2.4480     0.0290    94.1630     8.1180   -12.1580
 1797.0000    12.0080     8.0880     2.4500     0.0290    91.9210     8.1220   -12.1760
 1797.5000    12.0400     8.0880     2.4510     0.0290    89.6820     8.1250   -12.1930
 1798.0000    12.0690     8.0880     2.4520     0.0290    89.3910     8.1270   -12.2090
 1798.5000    12.0980     8.0880     2.4520     0.0320    93.2150     8.1300   -12.2260
 1799.0000    12.1780     8.0880     2.4530     0.0350    98.5810     8.1330   -12.2430
 1799.5000    12.3810     8.0880     2.4530     0.0340   103.8960     8.1360   -12.2600
 1800.0000    12.5840     8.0880     2.4530     0.0340   104.8080     8.1390   -12.2770
 1800.5000    12.8060     8.0880     2.4490     0.0340    99.6720     8.1420   -12.2930
 1801.0000    12.6810     8.0880     2.4450     0.0330    99.3490     8.1450   -12.3100
 1801.5000    12.5430     8.0880     2.4420     0.0330    98.6540     8.1480   -12.3270
 1802.0000    12.4040     8.0880     2.4380     0.0340    97.9050     8.1500   -12.3430
 1802.5000    12.2660     8.0880     2.4470     0.0420    94.7810     8.1530   -12.2720
 1803.0000    12.1190     8.0870     2.4560     0.0470    91.0590     8.1560   -12.1240
 1803.5000    12.1190     8.0880     2.4650     0.0510    90.5930     8.1590   -11.9750
 1804.0000    12.1190     8.0730     2.4670     0.0490    90.5960     8.1620   -11.8260
