~VERSION INFORMATION
 VERS.                2.0:   CWLS LOG ASCII STANDARD - VERSION 2.0
 WRAP.                 NO:   ONE LINE PER DEPTH STEP
~WELL INFORMATION
#MNEM.UNIT      DATA TYPE    INFORMATION
#----------   ------------   ------------------------------
 STRT.F          200.0000:   START DEPTH
 STOP.F         3080.0000:   STOP DEPTH
 STEP.F            0.5000:   STEP LENGTH
 NULL.          -999.2500:   NO VALUE
 COMP.    FENIX & SCISSON:   COMPANY
 WELL. FENIX NPR 3 "AX" #55-33:   WELL
 FLD .        TEAPOT DOME:   FIELD
 LOC .      S33 T38N R78W:   LOCATION
 CNTY.            NATRONA:   COUNTY
 STAT.            WYOMING:   STATE
 CTRY. UNITED STATES OF AMERICA:   COUNTRY
 SRVC.           BIRDWELL:   SERVICE COMPANY
 DATE.        08-FEB-1978:   LOGDATE
 API .     49025105740000:   API NUMBER
~CURVE INFORMATION
#MNEM.UNIT       API CODE    CURVE DESCRIPTION
#----------   ------------   ------------------------------
 DEPT.F                  :   
 CALD.IN     45 280 60 00:   CALIPER FROM DENSITY LOG
 GRD .GAPI   45 310 01 00:   GAMMA RAY FROM DENSITY LOG
 RHOB.G/C3   45 350 01 00:   BULK DENSITY
 CORR.G/C3   45 356 01 00:   DENSITY CORRECTION
 NPOR.DEC    42 890 03 00:   ALPHA PROCESSED NEUTRON POROSITY
 SPR .MV     05 010 01 00:   SPONTANEOUS POTENTIAL
 SN  .OHMM   05 040 16 00:   SHORT NORMAL 16"
 ILD .OHMM   05 120 46 00:   DEEP INDUCTION RESISTIVITY
~PARAMETER INFORMATION
#MNEM.UNIT          VALUE    DESCRIPTION
#----------   ------------   ------------------------------
 EKB .F         5197.0000:   Kelly bushing
 EGL .F         5187.0000:   Ground level
 EDF .F            0.0000:   Drilling floor
 TD  .F         3084.0000:   Total depth
 DATE.        08-FEB-1978:   Date logged
 CLNT.            A2DTECH:   Client Code
 SL  . 2000' FSL & 2310' FEL:   Surface Location
 PD  .                 GL:   Permanent Datum
 EPD .F              5187:   Elevation Permanent Datum
 LMF .                 KB:   Log Measured From
 DMF .                 KB:   Drilling Measured From
 DAPD.F                10:   Feet Above Permanent Datum
 DD  .F              3084:   Depth driller
 DL  .F              3080:   Depth logger
 BLI .F              3074:   Bottom log interval
 TLI .F               200:   Top log interval
 CS1 .IN            8.625:   Casing size
 CBD1.      8.625" @ 229':   Casing driller 1
 CBL1.F               230:   Casing logger 1
 BS1 .IN            7.875:   Bit size
 BSD1.F              3084:   Depth drilled with bit1
 DFT .     LIGNOSULFONATE:   Type fluid in hole
 DFD .                9.2:   Density
 DFV .                 30:   Viscosity
 DFPH.                  9:   pH
 DFL .                  5:   Fluid loss
 MSS .           FLOWLINE:   Source of sample
 RMS .OHMM            1.5:   Rm
 MST .F                62:   Rm Meas. temp.
 RMF .OHMM            1.2:   Rmf
 MFST.F                66:   Rmf Meas. temp.
 RMC .OHMM            2.8:   Rmc
 MCST.F                65:   Rmc Meas. temp.
 MFSS.               MEAS:   Source Rmf.
 RMB .OHMM            .82:   Rm. at BHT
 BHT .F               114:   BHT.
 TCS .HRS               3:   Time Circ. stopped
 MRT .F               114:   Maximum recorded temp.
 LUN .               2958:   Logging unit number
 LUL .               CASP:   Logging unit location
 ENGI.            POINTER:   Recorded By
 WITN.         HARRINGTON:   Witnessed by
 ORIG.           5" PRINT:   Origin of data
 UWI .     49025105740000:   Unique Well ID
 DICO. A2D TECHNOLOGIES, INC.:   Digitizing Company
~OTHER INFORMATION
~A   DEPT       CALD      GRD       RHOB        CORR      NPOR        SPR         SN        ILD   
# ...
 2468.0000     9.6175    93.9389     2.5861     0.1130     0.2405   -47.7967     8.2609     6.4100
 2468.5000     9.5980    95.9314     2.5881     0.1251     0.2413   -47.5971     8.2616     6.4105
 2469.0000     9.4992    97.7241     2.5901     0.1271     0.2445   -47.7937     8.4157     6.5304
 2469.5000     9.4998    99.5180     2.5962     0.1272     0.2469   -47.7922     8.4940     6.5309
 2470.0000     9.7387    97.1391     2.5922     0.1272     0.2377   -47.7910     8.8131     6.8891
 2470.5000     9.4214    94.7602     2.5842     0.1213     0.2181   -47.7895     8.8138     6.8897
 2471.0000     9.3822    93.9709     2.5832     0.1213     0.2185   -47.7881     8.8145     7.0183
 2471.5000     9.3827    93.9742     2.5812     0.1214     0.2189   -47.7866     8.8152     7.0188
 2472.0000     9.4032    93.9819     2.5803     0.1234     0.2209   -47.7851     8.8159     7.0194
 2472.5000     9.4037    95.7758     2.5903     0.1295     0.2213   -47.7836     8.8166     7.0200
 2473.0000     9.9405    95.1852     2.5963     0.1315     0.2169   -47.7821     8.8173     7.0204
 2473.5000     9.4046    94.3948     2.6014     0.1316     0.2129   -47.5825     8.8180     7.0211
 2474.0000     9.4054    95.7913     2.6024     0.1337     0.2149   -47.3829     8.8186     7.0217
 2474.5000     9.3463    97.7841     2.6014     0.1317     0.2181   -47.3814     8.8193     7.0223
 2475.0000     9.3468    99.1807     2.5934     0.1297     0.2193   -47.3802     8.8200     7.0228
 2475.5000     9.3672   100.7760     2.5884     0.1278     0.2369   -47.3788     8.8207     7.0232
 2476.0000     9.4473   102.5713     2.5825     0.1278     0.2381   -47.3773     8.8214     7.0238
 2476.5000     9.6664    99.5948     2.5735     0.1279     0.2289   -47.3758     8.8221     7.0894
 2477.0000     9.2893    98.2093     2.5715     0.1300     0.2281   -47.3743     8.9045     7.0900
 2477.5000     9.2899    98.4136     2.5675     0.1320     0.2289   -47.3728     8.6626     7.0906
 2478.0000     9.3103    98.6168     2.5655     0.1341     0.2341   -47.9658     8.2739     7.0911
 2478.5000     9.3109    98.6223     2.5645     0.1321     0.2493   -48.1625     8.1987     7.0917
 2479.0000     9.3313    97.2367     2.5646     0.1322     0.2557   -48.1610     8.1243     7.0923
 2479.5000     9.3319    95.2549     2.5636     0.1322     0.2593   -48.1595     8.1999     6.9634
 2480.0000     9.3919    94.2667     2.5646     0.1302     0.2473   -47.7617     8.1255     6.6505
 2480.5000     9.4123    94.0734     2.5626     0.1303     0.2297   -47.3642     8.1261     6.5900
 2481.0000     9.4129    94.0790     2.5687     0.1324     0.2289   -47.1646     8.1268     6.5904
 2481.5000     9.4333    94.6829     2.5697     0.1384     0.2317   -46.9649     8.0530     6.5910
 2482.0000     9.4339    96.0764     2.5707     0.1405     0.2573   -46.7653     8.0537     6.5915
 2482.5000     9.5733    99.6606     2.5748     0.1385     0.2689   -46.7638     8.0543     6.5920
 2483.0000     9.3952    99.8638     2.5758     0.1386     0.2737   -46.7623     8.1294     6.5926
 2483.5000     9.3958   100.0681     2.5758     0.1366     0.2761   -46.5626     8.2052     6.5931
 2484.0000     9.4162    99.2787     2.5738     0.1306     0.2709   -46.7593     8.2815     6.6546
 2484.5000     9.4365    96.8991     2.5679     0.1267     0.2629   -46.9560     8.2822     6.6552
 2485.0000     9.4967    96.7059     2.5629     0.1207     0.2597   -47.1527     8.2828     6.6557
 2485.5000     9.5969    95.9197     2.5639     0.1208     0.2621   -47.5478     8.2076     6.6560
 2486.0000     9.3390    95.7231     2.5729     0.1088     0.2733   -47.7445     8.1331     6.6567
 2486.5000     9.3592    97.3199     2.5730     0.1109     0.2761   -47.7431     8.0593     6.6573
 2487.0000     9.3797    97.7219     2.5800     0.1149     0.2769   -47.7416     8.0600     6.7194
 2487.5000     9.2808    97.7275     2.5820     0.1170     0.2693   -47.7401     8.0606     6.7821
 2488.0000     9.3410    98.3293     2.5841     0.1170     0.2641   -47.9368     8.0612     6.7825
 2488.5000    10.2958    98.5348     2.5841     0.1171     0.2473   -47.9353     7.9881     6.6775
 2489.0000     9.7198    98.9334     2.5831     0.1191     0.2473   -47.9338     7.9886     6.5386
 2489.5000     9.3228   101.1289     2.5831     0.1192     0.2517   -47.9333     7.9161     6.4196
 2490.0000     9.3232    99.3444     2.5832     0.1212     0.2469   -47.9309     7.9167     6.4201
 2490.5000     9.2641    98.1572     2.5832     0.1233     0.2465   -47.9294     7.8449     6.4206
 2491.0000     9.2845    97.1689     2.5842     0.1233     0.2497   -47.7300     7.8455     6.4210
 2491.5000     9.2851    96.9756     2.5832     0.1234     0.2613   -47.7285     7.6326     6.3627
 2492.0000     9.3055    97.3787     2.5762     0.1234     0.2705   -47.3306     7.5633     6.3049
 2492.5000     9.3259    97.7830     2.5723     0.1215     0.2721   -47.3292     7.5639     6.3054
 2493.0000     9.3861    97.9873     2.5683     0.1215     0.2681   -47.1295     7.4953     6.3059
 2493.5000     9.8043    97.9896     2.5713     0.1236     0.2597   -46.9297     7.4959     6.1345
 2494.0000    10.5602    96.4092     2.5733     0.1316     0.2405   -46.9283     7.2925     6.1350
 2494.5000     9.5073    98.5982     2.5694     0.1337     0.2545   -46.7285     7.2263     6.0236
 2495.0000     9.4678    99.2002     2.5654     0.1338     0.2605   -46.5291     7.2268     5.7529
 2495.5000     9.7469   100.9950     2.5664     0.1378     0.2648   -46.5273     7.2273     5.7007
 2496.0000     9.4691   104.5813     2.5795     0.1539     0.2696   -46.9226     7.2279     5.7011
 2496.5000     9.5887   106.7705     2.5905     0.1600     0.2972   -46.9211     7.1623     5.7015
 2497.0000    10.0463   106.9749     2.5825     0.1580     0.2932   -46.7214     7.2959     5.7020
 2497.5000     9.2717   103.9984     2.5815     0.1380     0.2828   -46.9181     7.5006     5.7024
 2498.0000     9.2921   100.0277     2.5836     0.1100     0.2461   -47.3131     7.5705     5.7029
 2498.5000     9.2927    98.4417     2.5896     0.1101     0.2409   -47.3116     7.5711     5.7034
 2499.0000     9.2933    99.6412     2.5786     0.1081     0.2413   -47.5084     7.5717     5.8099
 2499.5000     9.3137   101.2374     2.5776     0.1102     0.2648   -47.9034     7.5722     5.9184
 2500.0000     9.2943   103.0324     2.5773     0.1142     0.2712   -48.1001     7.5728     5.9189
 2500.5000     9.3143   103.2086     2.5769     0.1162     0.2720   -47.9285     7.5735     5.9193
 2501.0000     9.3946   103.2402     2.5777     0.1183     0.2680   -47.9009     7.5735     5.9194
 2501.5000     9.4348   102.8471     2.5807     0.1224     0.2545   -47.9004     7.5739     5.9196
 2502.0000     9.4353   100.6647     2.5958     0.1264     0.2465   -47.3050     7.5742     5.9199
 2502.5000     9.4755    99.4764     2.6038     0.1284     0.2457   -46.9083     7.5746     5.9202
 2503.0000     9.5356    97.2940     2.6028     0.1265     0.2509   -47.1061     7.5750     5.8230
 2503.5000     9.6355    95.5093     2.5998     0.1125     0.2561   -46.9074     7.5753     5.8231
 2504.0000     9.6359    95.5139     2.5979     0.1065     0.2553   -46.7086     7.5757     5.8234
 2504.5000     9.4773    97.5065     2.5979     0.1046     0.2493   -46.5099     7.5760     5.8237
 2505.0000    10.0143    95.1254     2.5939     0.1026     0.2553   -46.5094     7.5763     5.8240
 2505.5000     9.3789    94.9303     2.5829     0.1026     0.2585   -46.5089     7.6467     5.7708
 2506.0000     9.8365    98.7120     2.5719     0.1007     0.2601   -46.7067     7.8609     5.7710
 2506.5000     9.3003   101.4988     2.5729     0.1007     0.2561   -46.7062     7.9339     5.8248
 2507.0000     9.2808   101.7030     2.5779     0.1068     0.2481   -46.5077     8.0816     5.9884
 2507.5000     9.4005   101.3099     2.5820     0.1048     0.2317   -47.1019     8.3080     6.1567
 2508.0000     9.5599   100.7180     2.5850     0.1068     0.2269   -47.2997     8.7797     6.5547
