~VERSION INFORMATION
 VERS.                2.0:   CWLS LOG ASCII STANDARD - VERSION 2.0
 WRAP.                 NO:   ONE LINE PER DEPTH STEP
~WELL INFORMATION
#MNEM.UNIT      DATA TYPE    INFORMATION
#----------   ------------   ------------------------------
 STRT.F            1.0000:   START DEPTH
 STOP.F         2854.0000:   STOP DEPTH
 STEP.F            0.5000:   STEP LENGTH
 NULL.          -999.2500:   NO VALUE
 COMP.          INTEX OIL:   COMPANY
 WELL. INTEX N.P.R. "AX" #42-29:   WELL
 FLD .             TEAPOT:   FIELD
 LOC .      S29 T39N R78W:   LOCATION
 CNTY.            NATRONA:   COUNTY
 STAT.            WYOMING:   STATE
 CTRY. UNITED STATES OF AMERICA:   COUNTRY
 SRVC.       SCHLUMBERGER:   SERVICE COMPANY
 DATE.        30-MAY-1986:   LOGDATE
 API .     49025095240000:   API NUMBER
~CURVE INFORMATION
#MNEM.UNIT       API CODE    CURVE DESCRIPTION
#----------   ------------   ------------------------------
 DEPT.F                  :   
 SPR .MV     05 010 01 00:   SPONTANEOUS POTENTIAL FROM RES.
 ASN .OHMM   05 041 16 00:   AMPLIFIED SHORT NORMAL 16"
 ILD .OHMM   05 120 46 00:   INDUCTION LOG DEEP
 GRD .GAPI   45 310 01 00:   GAMMA RAY FROM DENSITY LOG
 CALD.IN     45 280 60 00:   CALIPER FROM DENSITY LOG
 CORR.G/C3   45 356 01 00:   DENSITY CORRECTION
 RHOB.G/C3   45 350 01 00:   BULK DENSITY
 CALI.IN     30 280 01 00:   CALIPER FROM GAMMA RAY LOG
 GR  .GAPI   30 310 01 00:   GAMMA RAY
~PARAMETER INFORMATION
#MNEM.UNIT          VALUE    DESCRIPTION
#----------   ------------   ------------------------------
 EKB .F         5020.3000:   Kelly bushing
 EGL .F         5010.0000:   Ground level
 EDF .F            0.0000:   Drilling floor
 TD  .F         2860.0000:   Total depth
 CLNT.            A2DTECH:   Client Code
 DATE.        30-MAY-1986:   Date Logged [DD-MMM-YYYY]
 DD  .F              2860:   Depth driller
 DL  .F              2855:   Depth logger
 BLI .F              2854:   Bottom log interval
 TLI .F               164:   Top log interval
 CS1 .              8.625:   Casing size
 CBD1.      8.625" @ 167':   Casing driller 1
 CBL1.IN              164:   Casing logger 1
 BS1 .IN            7.875:   Bit size
 BSD1.F              2860:   Depth drilled with bit1
 DFT .  LIGND-SULFATE LCM:   Type fluid in hole
 DFD .                8.9:   Density
 DFV .                 33:   Viscosity
 DFPH.               11.0:   pH
 DFL .                9.2:   Fluid loss
 MSS .           FLOWLINE:   Source of sample
 RMS .OHMM           1.47:   Rm
 MST .F                55:   Rm Meas. temp.
 RMF .OHMM           1.13:   Rmf
 MFST.F                75:   Rmf Meas. temp.
 RMB .OHMM           0.78:   Rm. at BHT
 BHT .F               108:   BHT.
 TCS .HRS               3:   Time Circ. stopped
 MRT .F               108:   Maximum recorded temp.
 LUN .               3527:   Logging unit number
 LUL .               CSPR:   Logging unit location
 ENGI.            MANGOLO:   Recorded By
 WITN.             TUTTLE:   Witnessed by
 ORIG.      1" 2.5" PRINT:   Origin of data
 UWI .     49025095240000:   Unique Well ID
 DICO. A2D TECHNOLOGIES, INC.:   Digitizing Company
 PD  .                 GL:   Permanent Datum
 EPD .               5010:   Elevation Permanent Datum
 LMF .                 KB:   Log Measured From
 DMF .                 KB:   Drilling Measured From
 DAPD.              10.32:   Feet Above Permanent Datum
 MFSS.         MEAS PRESS:   Source Rmf.
~OTHER INFORMATION
~A    DEPT     SPR        ASN        ILD        GRD       CALD       CORR       RHOB        CALI        GR   
# ...
 1826.0000   -45.0651    13.4924     8.0846   143.9801     8.4460     0.0141     2.4886  -999.2500  -999.2500
 1826.5000   -44.8979    13.2725     8.0151   146.2800     8.4765     0.0135     2.4973  -999.2500  -999.2500
 1827.0000   -44.8994    12.9686     8.0181   143.5003     8.4764     0.0263     2.5023  -999.2500  -999.2500
 1827.5000   -44.9009    12.8913     8.0211   140.7219     8.4762     0.0233     2.4944  -999.2500  -999.2500
 1828.0000   -44.9025    12.8936     8.0241   140.2511     8.4761     0.0187     2.4889  -999.2500  -999.2500
 1828.5000   -44.9040    13.1272     8.1783   139.3189     8.4759     0.0126     2.4871  -999.2500  -999.2500
 1829.0000   -44.9055    13.2837     8.3324   137.4636     8.4758     0.0111     2.4906  -999.2500  -999.2500
 1829.5000   -44.9070    13.4403     8.4244   132.8390     8.4756     0.0157     2.4961  -999.2500  -999.2500
 1830.0000   -44.9086    13.5106     8.6411   127.7529     8.4826     0.0127     2.4999  -999.2500  -999.2500
 1830.5000   -44.9101    13.6649     8.7951   123.5899     8.5060     0.0096     2.5030  -999.2500  -999.2500
 1831.0000   -45.2165    13.8192     8.9492   120.3500     8.5058     0.0157     2.5060  -999.2500  -999.2500
 1831.5000   -45.2183    13.9738     8.9522   118.4947     8.5057     0.0203     2.5076  -999.2500  -999.2500
 1832.0000   -45.2198    14.1281     8.8042   117.1009     8.5055     0.0218     2.4915  -999.2500  -999.2500
 1832.5000   -45.2213    14.1303     8.8072   118.4763     8.5054     0.0157     2.4824  -999.2500  -999.2500
 1833.0000   -45.2228    14.1326     8.8102   119.8518     8.5052     0.0188     2.4826  -999.2500  -999.2500
 1833.5000   -45.2243    14.1349     8.8132   121.2272     8.5358     0.0142     2.4888  -999.2500  -999.2500
 1834.0000   -45.2258    13.9848     8.6646   123.0642     8.5356     0.0173     2.5123  -999.2500  -999.2500
 1834.5000   -45.2274    13.9874     8.6681   124.9012     8.5355     0.0264     2.5247  -999.2500  -999.2500
 1835.0000   -45.2289    13.8374     8.6711   127.1997     8.5660     0.0371     2.5358  -999.2500  -999.2500
 1835.5000   -45.2304    13.8400     8.6742   128.5751     8.5658     0.0493     2.5221  -999.2500  -999.2500
 1836.0000   -45.2319    13.8422     8.6772   129.4890     8.5657     0.0326     2.4871  -999.2500  -999.2500
 1836.5000   -45.2334    13.6925     8.6802   131.7876     8.5655     0.0082     2.4703  -999.2500  -999.2500
 1837.0000   -45.2349    13.6948     8.6832   134.0861     8.5654     0.0021     2.4627  -999.2500  -999.2500
 1837.5000   -45.5413    13.8490     8.6862   135.9231     8.5652     0.0082     2.4658  -999.2500  -999.2500
 1838.0000   -45.5428    13.6991     8.6892   143.3536     8.5651     0.0143     2.4678  -999.2500  -999.2500
 1838.5000   -45.5443    13.7016     8.6922   149.2894     8.5649     0.0082     2.4597  -999.2500  -999.2500
 1839.0000   -45.5459    13.8558     8.6952   142.7440     8.5493     0.0052     2.4612  -999.2500  -999.2500
 1839.5000   -44.9376    13.8581     8.6982   141.4249     8.5339     0.0128     2.4718  -999.2500  -999.2500
 1840.0000   -45.2440    13.8603     8.7012   142.3388     8.5337     0.0189     2.4810  -999.2500  -999.2500
 1840.5000   -45.5504    13.7106     8.7042   138.4898     8.5336     0.0174     2.4814  -999.2500  -999.2500
 1841.0000   -45.2470    13.7129     8.7072   135.7722     8.5334     0.0143     2.4749  -999.2500  -999.2500
 1841.5000   -44.6388    13.7151     8.7102   133.9046     8.5332     0.0144     2.4703  -999.2500  -999.2500
 1842.0000   -44.6403    13.7174     8.5622   132.5539     8.5149     0.0174     2.4795  -999.2500  -999.2500
 1842.5000   -44.9467    13.5676     8.4141   131.1539     8.5023     0.0220     2.4992  -999.2500  -999.2500
 1843.0000   -44.9614    13.5700     8.2659   130.6090     8.5021     0.0266     2.5205  -999.2500  -999.2500
 1843.5000   -44.6448    13.5722     8.1178   129.2029     8.5020     0.0419     2.5145  -999.2500  -999.2500
 1844.0000   -44.6464    13.4225     8.1210   127.4962     8.5018     0.0540     2.5038  -999.2500  -999.2500
 1844.5000   -44.9527    13.4248     8.1240   129.6771     8.5017     0.0447     2.4947  -999.2500  -999.2500
 1845.0000   -45.2591    13.2751     8.1270   132.2766     8.5015     0.0263     2.4932  -999.2500  -999.2500
 1845.5000   -45.2702    13.4293     8.1300   134.4893     8.5014     0.0270     2.4871  -999.2500  -999.2500
 1846.0000   -45.5670    13.4388     7.9819   134.8441     8.5012     0.0281     2.4779  -999.2500  -999.2500
 1846.5000   -45.5686    13.5859     7.9850   133.1170     8.5011     0.0144     2.4703  -999.2500  -999.2500
 1847.0000   -45.5702    13.5882     7.9880   130.8986     8.5009     0.0111     2.4764  -999.2500  -999.2500
 1847.5000   -45.5438    13.5904     7.8399   127.9849     8.5007     0.0083     2.4901  -999.2500  -999.2500
 1848.0000   -45.2682    13.4406     7.8430   127.4228     8.5006     0.0234     2.4992  -999.2500  -999.2500
 1848.5000   -45.5747    13.4245     7.8460   130.9138     8.5004     0.0396     2.4977  -999.2500  -999.2500
 1849.0000   -45.5762    13.2932     7.8490   129.7477     8.5003     0.0434     2.4901  -999.2500  -999.2500
 1849.5000   -45.5777    13.1434     7.8520   127.0986     8.5001     0.0229     2.4840  -999.2500  -999.2500
 1850.0000   -44.8517    13.1459     7.8550   126.3075     8.5000     0.0140     2.4810  -999.2500  -999.2500
 1850.5000   -45.4375    13.1482     7.8596   125.8307     8.4998     0.0096     2.4764  -999.2500  -999.2500
 1851.0000   -45.7275    13.1803     8.0121   125.3539     8.4997     0.0069     2.4702  -999.2500  -999.2500
 1851.5000   -46.3133    13.3369     8.1661   123.7817     8.4996     0.0048     2.4626  -999.2500  -999.2500
 1852.0000   -45.7157    13.4589     8.1632   121.8110     8.4994     0.0005     2.4564  -999.2500  -999.2500
 1852.5000   -45.4140    13.4613     8.0211   127.9852     8.4993    -0.0022     2.4501  -999.2500  -999.2500
 1853.0000   -45.4081    13.4635     7.8730   132.0556     8.5070    -0.0003     2.4353  -999.2500  -999.2500
 1853.5000   -45.6980    13.3135     7.8761   134.3721     8.5296     0.0023     2.4531  -999.2500  -999.2500
 1854.0000   -46.2839    13.3161     7.8791   137.1505     8.5295     0.0078     2.4693  -999.2500  -999.2500
 1854.5000   -46.5738    13.1661     7.8821   139.2585     8.5293     0.0222     2.4768  -999.2500  -999.2500
 1855.0000   -46.5679    13.1687     7.8851   140.2154     8.5292     0.0235     2.4818  -999.2500  -999.2500
 1855.5000   -46.5621    13.1710     7.8883   141.1109     8.5290     0.0283     2.4916  -999.2500  -999.2500
 1856.0000   -46.2603    13.0209     7.8913   145.9386     8.5289     0.0138     2.4772  -999.2500  -999.2500
 1856.5000   -45.6627    13.0235     8.0453   152.3651     8.5287     0.0100     2.4627  -999.2500  -999.2500
 1857.0000   -45.3610    13.0258     8.0695   159.9080     8.5286     0.0136     2.4697  -999.2500  -999.2500
 1857.5000   -45.3550    13.1801     8.2024   162.4155     8.5284     0.0177     2.4734  -999.2500  -999.2500
 1858.0000   -45.3491    13.1823     8.2054   163.6994     8.5407     0.0237     2.4514  -999.2500  -999.2500
 1858.5000   -45.3432    13.3366     8.3596   150.3041     8.5588     0.0055     2.4427  -999.2500  -999.2500
 1859.0000   -45.3373    13.3389     8.3898   142.2464     8.5586     0.0117     2.4384  -999.2500  -999.2500
 1859.5000   -45.3313    13.4932     8.5166   139.7508     8.5585     0.0177     2.4570  -999.2500  -999.2500
 1860.0000   -45.3254    13.6474     8.5498   141.5059     8.5583     0.0146     2.4658  -999.2500  -999.2500
 1860.5000   -45.3196    13.6497     8.6737   142.4198     8.5582     0.0116     2.4549  -999.2500  -999.2500
 1861.0000   -45.2879    13.7275     8.5253   145.6414     8.5428     0.0159     2.4444  -999.2500  -999.2500
 1861.5000   -45.0118    13.8840     8.4940   147.0168     8.5114     0.0201     2.4524  -999.2500  -999.2500
 1862.0000   -45.0059    13.9605     8.3803   147.0076     8.4963     0.0074     2.4551  -999.2500  -999.2500
