~VERSION INFORMATION
 VERS.                2.0:   CWLS LOG ASCII STANDARD - VERSION 2.0
 WRAP.                 NO:   ONE LINE PER DEPTH STEP
~WELL INFORMATION
#MNEM.UNIT      DATA TYPE    INFORMATION
#----------   ------------   ------------------------------
 STRT.F           10.0000:   START DEPTH
 STOP.F         4008.0000:   STOP DEPTH
 STEP.F            0.5000:   STEP LENGTH
 NULL.          -999.2500:   NO VALUE
 COMP. LAWRENCE ALLISON & ASSOC.:   COMPANY
 WELL. LAWRENCE NPR 3 "AX" #75-28:   WELL
 FLD .                NPR:   FIELD
 LOC .      S28 T39N R78W:   LOCATION
 CNTY.            NATRONA:   COUNTY
 STAT.            WYOMING:   STATE
 CTRY. UNITED STATES OF AMERICA:   COUNTRY
 SRVC.      DRESSER ATLAS:   SERVICE COMPANY
 DATE.        28-APR-1983:   LOGDATE
 API .     49025109060000:   API NUMBER
~CURVE INFORMATION
#MNEM.UNIT       API CODE    CURVE DESCRIPTION
#----------   ------------   ------------------------------
 DEPT.F                  :   
 RHOB.G/C3   45 350 01 00:   BULK DENSITY
 CORR.G/C3   45 356 01 00:   DENSITY CORRECTION
 TEND.LBS    45 635 01 00:   TENSION FROM DENSITY LOG
 NPHI.DEC    42 890 03 00:   NEUTRON POROSITY SANDSTONE
 GRR .GAPI   07 310 01 00:   GAMMA RAY FROM RESISTIVITY
 CALR.IN     07 280 01 00:   CALIPER FROM RESISTIVITY
 RFOC.OHMM   07 220 01 00:   RESISTIVITY FOCUSED LOG RES.
 RILD.OHMM   07 120 46 00:   DEEP INDUCTION RESISTIVITY
 TENR.LBS    01 635 01 00:   TENSION FROM RES.
 RILM.OHMM   07 120 44 00:   INDUCTION LOG MEDIUM RESISTIVITY
 TENS.LBS    60 635 01 00:   TENSION FROM SONIC LOG
 DT  .US/F   60 520 00 00:   DELTA TIME
 SPR .MV     07 010 01 00:   SPONTANEOUS POTENTIAL
~PARAMETER INFORMATION
#MNEM.UNIT          VALUE    DESCRIPTION
#----------   ------------   ------------------------------
 EKB .F         5068.0000:   Kelly bushing
 EGL .F         5058.0000:   Ground level
 EDF .F            0.0000:   Drilling floor
 TD  .F         4003.0000:   Total depth
 DATE.        28-APR-1983:   Date logged
 CLNT.            A2DTECH:   Client Code
 SL  . 2100' FSL & 1050' FEL:   Surface Location
 PD  .                 GL:   Permanent Datum
 EPD .F              5058:   Elevation Permanent Datum
 LMF .                 KB:   Log Measured From
 DMF .                 KB:   Drilling Measured From
 DAPD.F                10:   Feet Above Permanent Datum
 DD  .F              4000:   Depth driller
 DL  .F              4003:   Depth logger
 BLI .F              4000:   Bottom log interval
 CS1 .IN            8.625:   Casing size
 CBD1.      8.625" @ 498':   Casing driller 1
 CBL1.F               497:   Casing logger 1
 BS1 .IN            7.875:   Bit size
 BSD1.F              4000:   Depth drilled with bit1
 DFT .            KCL/GEL:   Type fluid in hole
 DFD .                  9:   Density
 DFV .                 43:   Viscosity
 DFPH.                8.5:   pH
 DFL .               12.4:   Fluid loss
 MSS .           MUD/TANK:   Source of sample
 RMS .OHMM            .45:   Rm
 MST .F                43:   Rm Meas. temp.
 RMF .OHMM            .27:   Rmf
 MFST.F                51:   Rmf Meas. temp.
 RMC .OHMM            .56:   Rmc
 MCST.F                43:   Rmc Meas. temp.
 MFSS.               MEAS:   Source Rmf.
 MCSS.               CALC:   Source Rmc.
 RMB .OHMM            .16:   Rm. at BHT
 BHT .F               121:   BHT.
 TCS .HRS               7:   Time Circ. stopped
 MRT .F               121:   Maximum recorded temp.
 LUN .               6274:   Logging unit number
 LUL .               GLTE:   Logging unit location
 ENGI.            WACDELL:   Recorded By
 WITN.             STRONG:   Witnessed by
 ORIG.           5" PRINT:   Origin of data
 UWI .     49025109060000:   Unique Well ID
 DICO. A2D TECHNOLOGIES, INC.:   Digitizing Company
~OTHER INFORMATION
~A   DEPT     RHOB       CORR       TEND       NPHI         GRR      CALR       RFOC       RILD       TENR       RILM       TENS         DT        SPR   
# ...
 3754.0000     2.5340    -0.0020   -29.5450     0.2420   102.7260     8.4860     6.3680     3.6610   -59.6190     4.4850   -47.4820    85.3590   -61.6500
 3754.5000     2.5090     0.0000   -24.7750     0.2550   114.7770     8.5100     6.3680     3.6470   -59.6190     3.9870   -47.4820    84.4350   -61.6470
 3755.0000     2.4940     0.0010   -31.6570     0.2640   126.5040     8.5330     5.6180     3.6350   -59.6190     3.5940   -47.4820    85.8710   -61.6400
 3755.5000     2.4810     0.0030   -47.2030     0.2690   132.6080     8.5390     5.0690     3.6230   -59.6190     3.7290   -47.4820    89.6020   -61.6420
 3756.0000     2.4850     0.0090   -62.7500     0.2740   131.9600     8.5290     4.5190     3.6110   -59.6190     3.7290   -47.4820    93.3320   -61.6730
 3756.5000     2.5020     0.0260   -71.9010     0.2730   127.1490     8.5130     3.9410     3.5940   -59.6190     3.7290   -47.4820    95.6460   -61.7410
 3757.0000     2.5270     0.0390   -58.8090     0.2690   121.4370     8.5040     3.9410     3.5940   -59.6190     3.7290   -47.4820    95.4200   -61.8400
 3757.5000     2.5610     0.0280   -45.7170     0.2640   116.5410     8.5060     4.1660     3.7730   -59.6190     3.8990   -47.4820    93.2050   -61.9430
 3758.0000     2.5880     0.0150   -32.6250     0.2540   112.9360     8.5110     4.1660     3.9300   -59.6190     4.1270   -47.4820    90.2450   -62.0110
 3758.5000     2.5760     0.0060   -14.7650     0.2380   111.1110     8.5130     5.3070     4.0880   -59.6190     4.3560   -47.4820    87.2850   -62.0120
 3759.0000     2.5540     0.0050   -14.7650     0.2390   111.5570     8.5110     6.2520     4.2450   -59.6190     4.5850   -47.4820    84.3250   -61.9420
 3759.5000     2.5330     0.0060   -14.7650     0.2380   113.6520     8.5090     6.0510     4.4020   -59.6190     4.8130   -47.4820    83.3290   -61.8210
 3760.0000     2.5270     0.0080   -14.7650     0.2340   115.4920     8.5090     5.8070     4.5590   -59.6190     5.0420   -47.4820    83.7970   -61.6850
 3760.5000     2.5220     0.0080   -14.7650     0.2310   115.4840     8.5100     5.8070     4.7160   -59.6190     5.1980   -48.0800    84.3390   -61.5520
 3761.0000     2.5210     0.0070   -14.7650     0.2310   114.0980     8.5100     5.8070     4.9180   -59.6190     5.1360   -48.6440    84.6890   -61.4240
 3761.5000     2.5220    -0.0070   -17.3220     0.2350   113.5720     8.5100     5.9150     4.8390   -59.6190     5.1030   -49.2090    84.9370   -61.2990
 3762.0000     2.5230    -0.0270   -21.8450     0.2440   115.5860     8.5100     5.9150     4.7280   -59.6190     4.9520   -49.7730    85.3010   -61.1790
 3762.5000     2.5310    -0.0330   -34.7850     0.2560   119.3250     8.5100     5.6020     4.6160   -59.6190     4.8360   -50.3370    86.0060   -61.0650
 3763.0000     2.5530    -0.0160   -33.1450     0.2650   122.0430     8.5100     5.3940     4.5050   -59.6190     4.7200   -50.9020    86.7110   -60.9440
 3763.5000     2.5840     0.0240   -28.4070     0.2630   121.6410     8.5100     5.1850     4.3930   -59.6190     4.6050   -51.4660    86.8180   -60.8000
 3764.0000     2.6200     0.0560   -23.6690     0.2570   118.7720     8.5100     4.9770     4.2820   -59.6190     4.4890   -52.0310    85.9330   -60.6430
 3764.5000     2.6110     0.0570   -18.9310     0.2510   116.1650     8.5100     4.8280     4.1700   -59.6190     4.3730   -52.5950    85.1230   -60.5280
 3765.0000     2.5840     0.0490    -4.7550     0.2510   116.0420     8.5100     5.3940     4.0590   -59.6190     4.2580   -53.1590    85.0240   -60.5270
 3765.5000     2.5560     0.0340   -15.0450     0.2520   118.1960     8.5100     5.1030     3.9470   -59.6190     4.1420   -53.7240    86.4460   -60.6740
 3766.0000     2.5360     0.0200   -34.9450     0.2560   120.7020     8.5100     4.9850     3.8360   -59.6190     4.0260   -54.2880    87.8140   -60.9310
 3766.5000     2.5200     0.0070   -54.8450     0.2610   122.1890     8.5100     4.8490     3.7240   -59.6190     3.9110   -54.8520    89.1820   -61.2180
 3767.0000     2.5170     0.0110   -74.7450     0.2620   123.1070     8.5100     4.7130     3.6130   -59.6190     3.7950   -55.4170    90.3430   -61.4740
 3767.5000     2.5190     0.0190   -84.8350     0.2640   124.8260     8.5100     4.5780     3.5010   -59.6190     3.6790   -55.9810    91.3310   -61.7010
 3768.0000     2.5220     0.0250   -74.8250     0.2660   127.8230     8.5100     4.4420     3.3900   -59.6190     3.5640   -56.5450    91.8840   -61.9450
 3768.5000     2.5250     0.0050   -74.8250     0.2680   130.9430     8.5100     4.3070     3.2170   -59.6190     3.4480   -57.1100    92.4370   -62.2300
 3769.0000     2.5330    -0.0010   -74.8250     0.2640   132.1100     8.5090     4.1710     3.2170   -59.6190     3.3380   -57.6740    92.9900   -62.5220
 3769.5000     2.5420     0.0050   -74.8250     0.2520   129.4590     8.5070     4.0150     3.7460   -59.6190     3.7350   -58.2390    92.7640   -62.7520
 3770.0000     2.5560     0.0190   -57.1070     0.2330   122.1420     8.5030     4.0150     4.1110   -59.6190     4.1130   -58.8030    91.2770   -62.8700
 3770.5000     2.5900     0.0320   -45.4990     0.2170   110.8630     8.4990     3.9410     4.4750   -59.6190     4.4920   -59.3670    86.6350   -62.8880
 3771.0000     2.6240     0.0430   -33.8910     0.2140    98.1720     8.4950     5.5780     4.8280   -59.6190     5.0100   -59.9320    81.9920   -62.8600
 3771.5000     2.6580     0.0420   -22.2820     0.2110    87.9130     8.4910     6.5770     4.8280   -59.6190     5.0100   -60.4960    77.3490   -62.8390
 3772.0000     2.6970     0.0160   -10.6740     0.2100    83.4820     8.4890     7.5760     4.8800   -59.6190     5.8070   -61.0600    74.3330   -62.8400
 3772.5000     2.6830    -0.0280     0.9340     0.2160    85.8190     8.4870     8.5750     4.9180   -59.6190     5.2910   -61.6250    73.1610   -62.8510
 3773.0000     2.6430    -0.0130     5.2550     0.2240    92.8920     8.4830     9.5580     4.8280   -59.6190     4.9290   -62.1890    76.3510   -62.8580
 3773.5000     2.6020     0.0260     5.2550     0.2330   101.2830     8.4750     5.4940     4.5060   -59.6190     4.5660   -62.7540    80.3270   -62.8610
 3774.0000     2.5610     0.0430    -0.2960     0.2420   108.5920     8.4700     5.4940     4.1880   -59.6190     4.2040   -63.3180    84.2700   -62.8580
 3774.5000     2.5390     0.0140   -13.6910     0.2510   114.5390     8.4750     4.2430     3.8710   -59.6190     3.8420   -63.8820    87.9190   -62.8470
 3775.0000     2.5240     0.0020   -27.0850     0.2590   120.0190     8.5000     4.0920     3.5540   -59.6190     3.4800   -64.4470    90.4070   -62.8340
 3775.5000     2.5190     0.0010   -40.4790     0.2680   125.3310     8.5420     3.9410     3.0440   -59.6190     3.0440   -65.0110    92.1490   -62.8420
 3776.0000     2.5140     0.0000   -53.8730     0.2770   129.5080     8.5880     3.7820     3.0440   -59.6190     2.9910   -65.5750    93.3920   -62.8990
 3776.5000     2.5060    -0.0120   -65.1180     0.2810   131.2870     8.6200     3.6610     2.9090   -59.6190     2.9260   -66.1400    94.4910   -63.0160
 3777.0000     2.5110    -0.0270   -66.7770     0.2770   130.5900     8.6300     3.6610     2.8120   -59.6190     2.8600   -66.0550    94.7380   -63.1810
 3777.5000     2.5140    -0.0310   -68.4350     0.2700   128.7860     8.6210     3.6610     2.7160   -59.6190     2.7950   -65.5260    94.8150   -63.3720
 3778.0000     2.5180    -0.0320   -70.0930     0.2690   127.4270     8.6030     3.6610     2.5780   -59.6190     2.7290   -64.9960    94.8920   -63.5690
 3778.5000     2.5220    -0.0330   -71.7520     0.2720   126.8360     8.5850     3.5810     2.5780   -59.6190     2.6750   -64.4670    95.5240   -63.7590
 3779.0000     2.5300    -0.0270   -73.4100     0.2790   126.2650     8.5710     3.5000     2.5980   -59.6190     2.7420   -63.9370    96.1640   -63.9160
 3779.5000     2.5410    -0.0210   -74.8250     0.2850   125.1940     8.5620     3.4000     2.6110   -59.6190     2.7990   -63.4080    96.5530   -64.0100
