~VERSION INFORMATION
 VERS.                2.0:   CWLS LOG ASCII STANDARD - VERSION 2.0
 WRAP.                 NO:   ONE LINE PER DEPTH STEP
~WELL INFORMATION
#MNEM.UNIT      DATA TYPE    INFORMATION
#----------   ------------   ------------------------------
 STRT.F          211.0000:   START DEPTH
 STOP.F         3244.0000:   STOP DEPTH
 STEP.F            0.5000:   STEP LENGTH
 NULL.          -999.2500:   NO VALUE
 COMP.    FENIX & SCISSON:   COMPANY
 WELL.  FENIX "AX" #84-15:   WELL
 FLD .  TEAPOT DOME NPR-3:   FIELD
 LOC .      S15 T38N R78W:   LOCATION
 CNTY.            NATRONA:   COUNTY
 STAT.            WYOMING:   STATE
 CTRY. UNITED STATES OF AMERICA:   COUNTRY
 SRVC.           BIRDWELL:   SERVICE COMPANY
 DATE.        17-MAR-1978:   LOGDATE
 API .     49025106050000:   API NUMBER
~CURVE INFORMATION
#MNEM.UNIT       API CODE    CURVE DESCRIPTION
#----------   ------------   ------------------------------
 DEPT.F                  :   
 SPR .MV     05 010 01 00:   SPONTANEOUS POTENTIAL
 SN  .OHMM   05 040 16 00:   SHORT NORMAL
 ILD .OHMM   05 120 46 00:   INDUCTION LOG DEEP
 CALD.IN     45 280 60 00:   CALIPER FROM DENSITY LOG
 GRD .GAPI   45 310 01 00:   GAMMA RAY FROM DENSITY LOG
 RHOB.G/C3   45 350 01 00:   BULK DENSITY
 CORR.G/C3   45 356 01 00:   DENSITY CORRECTION
~PARAMETER INFORMATION
#MNEM.UNIT          VALUE    DESCRIPTION
#----------   ------------   ------------------------------
 EKB .F         5251.0000:   Kelly bushing
 EGL .F         5241.0000:   Ground level
 TD  .F         3250.0000:   Total depth
 CLNT.            A2DTECH:   Client Code
 SL  . 359' FEL & 2310' FNL:   Surface Location
 PD  .                 GL:   Permanent Datum
 LMF .                 KB:   Log Measured From
 DMF .                 KB:   Drilling Measured From
 DATE.        17-MAR-1978:   Date Logged [DD-MMM-YYYY]
 DD  .F              3250:   Depth driller
 DL  .F              3250:   Depth logger
 BLI .F              3244:   Bottom log interval
 TLI .F               224:   Top log interval
 CS1 .IN            8.625:   Casing size
 CBD1.             8.625":   Casing driller 1
 CBL1.F               224:   Casing logger 1
 BS1 .IN            7.875:   Bit size
 BSD1.F              3250:   Depth drilled with bit1
 MSS .           FLOWLINE:   Source of sample
 RMS .OHMM            1.3:   Rm
 MST .F                70:   Rm Meas. temp.
 RMF .OHMM            1.1:   Rmf
 MFST.F                70:   Rmf Meas. temp.
 MFSS.               MEAS:   Source Rmf.
 RMC .OHMM            1.4:   Rmc
 MCST.F                70:   Rmc Meas. temp.
 RMB .OHMM           0.77:   Rm. at BHT
 BHT .F               118:   BHT.
 TCS .HRS               6:   Time Circ. stopped
 MRT .F               118:   Maximum recorded temp.
 LUN .               2958:   Logging unit number
 LUL .               CASP:   Logging unit location
 ENGI.             MILLER:   Recorded By
 WITN.           MCGINLEY:   Witnessed by
 ORIG.           5" PRINT:   Origin of data
 UWI .     49025106050000:   Unique Well ID
 DICO. A2D TECHNOLOGIES, INC.:   Digitizing Company
~OTHER INFORMATION
~A   DEPT      SPR         SN        ILD       CALD         GRD      RHOB       CORR   
# ...
 1621.5000   -32.4579     7.6067     7.7314    11.1098    86.0205     2.5543     0.0121
 1622.0000   -32.4495     7.6603     7.7343    11.1258    86.3243     2.5536     0.0122
 1622.5000   -32.4379     7.7143     7.8456    11.1287    85.9809     2.5612     0.0139
 1623.0000   -32.2790     7.8228     7.8733    11.1573    82.2965     2.5537     0.0125
 1623.5000   -32.2692     7.9329     7.9615    11.1582    80.3564     2.5515     0.0050
 1624.0000   -32.2594     7.9889     7.9644    11.1589    79.1670     2.5425     0.0019
 1624.5000   -32.2494     8.0451     7.9674    11.1599    79.0257     2.5388    -0.0009
 1625.0000   -32.2398     8.0457     7.9152    11.1457    79.1907     2.5403     0.0023
 1625.5000   -32.3794     7.9904     7.8633    11.1317    80.2535     2.5434     0.0085
 1626.0000   -32.3710     7.8261     7.8663    11.1179    81.7669     2.5592     0.0131
 1626.5000   -32.3610     7.7723     7.7924    11.1039    81.7787     2.5646     0.0147
 1627.0000   -32.5023     7.7190     7.7636    11.1048    82.5413     2.5540     0.0118
 1627.5000   -32.4925     7.7197     7.7127    11.0759    86.1567     2.5526    -0.0017
 1628.0000   -32.4830     7.7202     7.7161    11.0470    87.2196     2.5451    -0.0153
 1628.5000   -32.6242     7.7207     7.7186    11.0330    87.2314     2.5324    -0.0167
 1629.0000   -32.7647     7.7212     7.7219    11.0190    87.0931     2.5460    -0.0045
 1629.5000   -32.7549     7.7218     7.7247    11.0051    86.6442     2.5513     0.0078
 1630.0000   -32.7451     7.7223     7.7275    10.9910    85.8757     2.5513     0.0124
 1630.5000   -32.7342     7.7228     7.7305    10.9921    85.3277     2.5499     0.0110
 1631.0000   -32.7246     7.7235     7.7334    10.9780    85.3396     2.5491     0.0111
 1631.5000   -32.7157     7.7240     7.7364    10.9594    85.2012     2.5484     0.0143
 1632.0000   -32.7054     7.7784     7.7393    10.9350    85.0629     2.5530     0.0159
 1632.5000   -32.5449     7.7789     7.7429    10.9361    85.0751     2.5613     0.0160
 1633.0000   -32.5354     7.7795     7.7453    10.9369    85.0871     2.5698     0.0070
 1633.5000   -32.5256     7.7800     7.7482    10.9378    84.9482     2.5532     0.0011
 1634.0000   -32.5953     7.8348     7.7516    10.9387    85.1132     2.5351    -0.0019
 1634.5000   -32.6573     7.8354     7.7565    10.9396    86.9268     2.5472    -0.0063
 1635.0000   -32.7961     7.8359     7.7633    10.9405    86.3380     2.5375    -0.0077
 1635.5000   -32.9397     7.8364     7.7701    10.9415    84.5480     2.5322    -0.0083
 1636.0000   -33.2294     7.8916     7.7769    10.9424    84.4067     2.5398    -0.0105
 1636.5000   -33.2198     7.8375     7.7837    10.9432    85.9230     2.5391    -0.0104
 1637.0000   -33.2102     7.8355     7.7905    10.9442    89.9899     2.5361    -0.0103
 1637.5000   -33.2006     7.7843     7.7973    10.9299    90.2991     2.5377    -0.0069
 1638.0000   -33.0401     7.7849     7.8041    10.9013    87.9114     2.5438     0.0020
 1638.5000   -33.0305     7.7314     7.8108    10.8724    87.1712     2.5513     0.0075
 1639.0000   -32.8703     7.7321     7.8176    10.8284    86.5828     2.5582     0.0143
 1639.5000   -32.8605     7.7326     7.8244    10.7846    85.9940     2.5635     0.0175
 1640.0000   -32.6965     7.7331     7.8312    10.7262    86.1560     2.5680     0.0176
 1640.5000   -32.5392     7.7336     7.8380    10.6825    85.3979     2.5568     0.0116
 1641.0000   -32.5276     7.7342     7.8448    10.6536    86.1826     2.5538     0.0102
 1641.5000   -32.5179     7.7347     7.8516    10.6545    86.3416     2.5614     0.0179
 1642.0000   -32.5083     7.7892     7.8584    10.6554    84.5516     2.5660     0.0181
 1642.5000   -32.6520     7.8440     7.8652    10.6267    85.0168     2.5509     0.0120
 1643.0000   -32.7908     7.8446     7.8720    10.5829    87.1308     2.5510     0.0075
 1643.5000   -32.9320     7.9550     7.8787    10.5389    89.6951     2.5488     0.0062
 1644.0000   -32.9231     7.9555     7.8855    10.4919    90.4548     2.5443     0.0139
 1644.5000   -32.9528     7.9562     7.8923    10.4516    88.3674     2.5436     0.0216
 1645.0000   -33.0543     7.9567     7.8991    10.4531    84.4744     2.5572     0.0262
 1645.5000   -33.0445     7.9573     7.9059    10.4548    84.4865     2.5648     0.0248
 1646.0000   -33.0347     7.9578     7.9127    10.4564    84.4985     2.5656     0.0158
 1646.5000   -33.0249     7.9583     7.9195    10.4581    84.3597     2.5649     0.0099
 1647.0000   -33.0155     7.9589     7.9263    10.4598    84.3745     2.5619     0.0069
 1647.5000   -33.3052     8.0149     7.9331    10.4615    86.1881     2.5522     0.0025
 1648.0000   -33.4488     8.0155     7.9399    10.4632    86.6504     2.5424     0.0011
 1648.5000   -33.5900     8.0160     7.9466    10.4648    85.9115     2.5507     0.0012
 1649.0000   -33.2763     8.0166     7.9505    10.4665    85.3227     2.5538     0.0013
 1649.5000   -32.9651     8.0171     7.9541    10.4682    84.7339     2.5523     0.0046
 1650.0000   -32.6538     7.9345     7.9571    10.4699    85.0460     2.5569     0.0109
 1650.5000   -32.3425     7.9376     7.9597    10.4716    87.1600     2.5705     0.0183
 1651.0000   -32.3329     7.9406     7.9627    10.4732    89.1237     2.5722     0.0199
 1651.5000   -32.3233     7.9436     7.9661    10.4749    93.0395     2.5646     0.0018
 1652.0000   -32.3137     7.9467     7.9691    10.4766    95.4892     2.5526    -0.0072
 1652.5000   -32.4648     7.9501     7.9718    10.4783    89.9263     2.5442    -0.0055
 1653.0000   -32.6179     7.9527     7.9750    10.4800    88.8863     2.5488     0.0006
 1653.5000   -32.8882     7.9558     7.9779    10.4816    89.5054     2.5617     0.0083
 1654.0000   -32.8762     8.0146     7.9810    10.4834    91.9226     2.5625     0.0115
 1654.5000   -32.8666     8.0735     7.9841    10.4834    92.7258     2.5595     0.0116
 1655.0000   -32.8582     8.0764     8.0429    10.4835    90.3005     2.5678     0.0071
 1655.5000   -32.8484     8.0795     8.0465    10.4836    86.8619     2.5498     0.0042
 1656.0000   -32.8377     8.0826     8.0672    10.4837    82.9489     2.5709     0.0043
 1656.5000   -32.8281     8.0857     8.1654    10.4838    77.4332     2.5800     0.0044
 1657.0000   -32.8185     8.0888     8.1685    10.4839    76.3964     2.5785     0.0045
 1657.5000   -32.8089     8.0364     8.1141    10.4840    76.8622     2.5620     0.0031
 1658.0000   -32.7993     7.9837     8.0609    10.4841    80.4806     2.5596     0.0002
 1658.5000   -32.9443     7.9867     8.0080    10.4842    84.4173     2.5475    -0.0028
 1659.0000   -33.2484     7.9336     7.9555    10.4843    88.4344     2.5463    -0.0011
 1659.5000   -33.6730     7.9263     7.9039    10.4844    92.8398     2.5395     0.0005
 1660.0000   -33.8166     7.8850     7.8521    10.4845    94.3524     2.5441     0.0036
 1660.5000   -33.2013     7.8880     7.8551    10.4845    91.3679     2.5532     0.0037
 1661.0000   -32.8900     7.8911     7.8581    10.4846    86.5779     2.5532     0.0054
 1661.5000   -32.7296     7.8941     7.8643    10.4847    86.2887     2.5532     0.0070
 1662.0000   -32.5691     7.8971     7.9196    10.4848    86.7576     2.5533     0.0079
 1662.5000   -32.7128     7.9001     7.9221    10.4849    90.0757     2.5533     0.0087
 1663.0000   -32.7014     7.9031     7.9251    10.4850    90.0905     2.5541     0.0103
 1663.5000   -32.6916     7.9062     7.9285    10.4851    87.1023     2.5654     0.0105
 1664.0000   -32.6815     7.9097     7.9315    10.4852    87.1192     2.5647     0.0106
 1664.5000   -32.8228     7.9126     7.9342    10.4853    87.4322     2.5600     0.0107
 1665.0000   -32.8130     7.9152     7.9373    10.4854    86.4863     2.5535     0.0092
 1665.5000   -32.8032     7.9183     7.9404    10.4855    83.7117     2.5603     0.0078
 1666.0000   -32.7934     7.9215     7.8883    10.4856    83.8766     2.5626     0.0079
 1666.5000   -32.7819     7.9243     7.9181    10.4856    84.0416     2.5483     0.0081
