~VERSION INFORMATION
 VERS.                2.0:   CWLS LOG ASCII STANDARD - VERSION 2.0
 WRAP.                 NO:   ONE LINE PER DEPTH STEP
~WELL INFORMATION
#MNEM.UNIT      DATA TYPE    INFORMATION
#----------   ------------   ------------------------------
 STRT.F           27.5000:   START DEPTH
 STOP.F         5889.0000:   STOP DEPTH
 STEP.F            0.5000:   STEP LENGTH
 NULL.          -999.2500:   NO VALUE
 COMP.   LAWRENCE ALLISON:   COMPANY
 WELL. LAWRENCE "X" #25-11:   WELL
 FLD .        N.P.R NO. 3:   FIELD
 LOC .      S11 T38N R78W:   LOCATION
 CNTY.            NATRONA:   COUNTY
 STAT.            WYOMING:   STATE
 CTRY. UNITED STATES OF AMERICA:   COUNTRY
 SRVC.      DRESSER ATLAS:   SERVICE COMPANY
 DATE.        09-FEB-1983:   LOGDATE
 API .     49025109170000:   API NUMBER
~CURVE INFORMATION
#MNEM.UNIT       API CODE    CURVE DESCRIPTION
#----------   ------------   ------------------------------
 DEPT.F                  :   
 CN  .DEC    42 890 03 00:   NEUTRON POROSITY
 GRD .GAPI   45 310 01 00:   GAMMA RAY FROM DENSITY LOG
 CORR.G/C3   45 356 01 00:   DENSITY CORRECTION
 DEN .G/C3   45 350 01 00:   BULK DENSITY
 CALD.IN     45 280 60 00:   CALIPER FROM DENSITY LOG
 TEND.LBS    45 635 01 00:   TENSION FORM DENSITY LOG
 GRS .GAPI   60 310 01 00:   GAMMA RAY FROM SONIC LOG
 TENS.LBS    60 635 01 00:   TENSION FROM SONIC
 DT  .US/F   60 520 00 00:   DELTA TIME
 SPR .MV     11 010 01 00:   SPONTANEOUS POTENTIAL FROM RES.
 RD  .OHMM   11 220 10 00:   RESISTIVITY DEEP
 RS  .OHMM   11 220 09 00:   RESISTIVITY SHALLOW
 RMLL.OHMM   11 270 04 00:   MICRO LATEROLOG
 TENR.LBS    11 635 01 00:   TENSION FROM RES.
~PARAMETER INFORMATION
#MNEM.UNIT          VALUE    DESCRIPTION
#----------   ------------   ------------------------------
 EKB .F         5196.0000:   Kelly bushing
 EGL .F         5186.0000:   Ground level
 TD  .F         5883.0000:   Total depth
 CLNT.            A2DTECH:   Client Code
 SL  . 1989' FSL & 1148' FWL:   Surface Location
 PD  .                 GL:   Permanent Datum
 EPD .F              5186:   Elevation Permanent Datum
 LMF .                 KB:   Log Measured From
 DMF .                 KB:   Drilling Measured From
 DAPD.F                10:   Feet Above Permanent Datum
 DATE.        09-FEB-1983:   Date Logged [DD-MMM-YYYY]
 DD  .F              5883:   Depth driller
 DL  .F              5882:   Depth logger
 BLI .F              5871:   Bottom log interval
 TLI .F               700:   Top log interval
 CS1 .IN            9.625:   Casing size
 CBD1.      9.625" @ 701':   Casing driller 1
 CBL1.F               700:   Casing logger 1
 BS1 .IN             8.75:   Bit size
 BSD1.F              5883:   Depth drilled with bit1
 DFT .    HEC/DRISPAC/KCL:   Type fluid in hole
 DFD .                  9:   Density
 DFV .                 35:   Viscosity
 DFPH.                  8:   pH
 DFL .                6.4:   Fluid loss
 MSS .           FLOWLINE:   Source of sample
 RMS .OHMM           0.23:   Rm
 MST .F                50:   Rm Meas. temp.
 RMF .OHMM           0.17:   Rmf
 MFST.F                54:   Rmf Meas. temp.
 MFSS.               MEAS:   Source Rmf.
 BHT .F               176:   BHT.
 TCS .HRS              10:   Time Circ. stopped
 MRT .F               176:   Maximum recorded temp.
 LUN .               6274:   Logging unit number
 LUL .               GLTE:   Logging unit location
 ENGI.          TOLLEFSON:   Recorded By
 WITN.           JENNINGS:   Witnessed by
 ORIG.           5" PRINT:   Origin of data
 UWI .     49025109170000:   Unique Well ID
 DICO. A2D TECHNOLOGIES, INC.:   Digitizing Company
 RMC .OHMM           0.41:   Rmc
 MCST.F                54:   Rmc Meas. temp.
 MCSS.               MEAS:   Source Rmc.
~OTHER INFORMATION
~A  DEPTH       CN        GRD       CORR        DEN       CALD       TEND        GRS       TENS         DT        SPR         RD         RS       RMLL       TENR
# ...
 1032.0000     0.2402   125.4797     0.0943     2.4870    10.3218   -23.6550  -999.2500  -999.2500  -999.2500   161.3174     8.4390     6.7917     5.3801   -39.4725
 1032.5000     0.2396   123.9756     0.0853     2.4659    10.3195   -22.2220  -999.2500  -999.2500  -999.2500   161.5145     8.3138     6.7370     5.4534   -40.6324
 1033.0000     0.2439   123.0731     0.0567     2.4592    10.3172   -20.7835  -999.2500  -999.2500  -999.2500   161.5871     8.2483     6.6844     5.5973   -41.5789
 1033.5000     0.2500   123.3955     0.0387     2.4645    10.3149   -19.3476  -999.2500  -999.2500  -999.2500   161.5694     8.1813     6.6321     5.5518   -50.2392
 1034.0000     0.2608   124.6276     0.0422     2.4758    10.3126   -17.9117  -999.2500  -999.2500  -999.2500   161.5552     8.0608     6.5803     5.5081   -51.1671
 1034.5000     0.2677   125.2816     0.0658     2.4811    10.3103   -16.4758  -999.2500  -999.2500  -999.2500   161.3914     8.0528     6.5288     5.3895   -59.6139
 1035.0000     0.2704   126.7908     0.0749     2.4787    10.3081   -13.7450  -999.2500  -999.2500  -999.2500   161.2275     8.0449     6.5937     5.2008   -60.5264
 1035.5000     0.2680   128.0229     0.0854     2.4743    10.2769    -8.5757  -999.2500  -999.2500  -999.2500   161.2099     8.0369     6.6078     5.1231   -61.5037
 1036.0000     0.2662   128.9505     0.0885     2.4721    10.2174    -6.7840  -999.2500  -999.2500  -999.2500   161.1957     8.1527     6.6476     5.2255   -62.6298
 1036.5000     0.2717   129.2694     0.0822     2.4721    10.1711    -9.6558  -999.2500  -999.2500  -999.2500   161.0319     8.2576     6.7073     5.3299   -63.5576
 1037.0000     0.2726   128.9792     0.0749     2.4698    10.1435   -12.5277  -999.2500  -999.2500  -999.2500   160.8680     8.3531     6.7729     5.3989   -64.4857
 1037.5000     0.2717   128.0840     0.0674     2.4661    10.1442   -15.5378  -999.2500  -999.2500  -999.2500   161.0000     8.4613     6.8612     5.3922   -65.4135
 1038.0000     0.2671   127.4895     0.0629     2.4661    10.1448   -17.7410  -999.2500  -999.2500  -999.2500   160.9859     8.4507     6.8533     5.3869   -58.8228
 1038.5000     0.2579   126.8950     0.0705     2.4661    10.1604   -20.0556  -999.2500  -999.2500  -999.2500   161.1250     8.4404     6.8470     5.3816   -59.9827
 1039.0000     0.2585   125.3910     0.0750     2.4646    10.1611   -22.3702  -999.2500  -999.2500  -999.2500   161.2570     8.4332     6.7935     5.4526   -60.9105
 1039.5000     0.2609   126.3186     0.0735     2.4616    10.1616   -24.6848  -999.2500  -999.2500  -999.2500   161.5569     8.4237     6.7358     5.6377   -54.2857
 1040.0000     0.2523   128.4639     0.0645     2.4594    10.1622   -26.9995  -999.2500  -999.2500  -999.2500   161.9772     8.3573     6.6401     5.5919   -55.2631
 1040.5000     0.2465   128.1739     0.0600     2.4571    10.1628   -29.3141  -999.2500  -999.2500  -999.2500   161.6602     8.2913     6.5882     5.4715   -56.4076
 1041.0000     0.2468   125.6317     0.0555     2.4564    10.1635   -31.6287  -999.2500  -999.2500  -999.2500   160.7478     8.2241     6.5821     5.3537   -57.3357
 1041.5000     0.2480   119.6826     0.0615     2.4587    10.1640   -33.9433  -999.2500  -999.2500  -999.2500   157.1011     8.2160     6.6218     5.2749   -58.2635
 1042.0000     0.2525   118.7802     0.0690     2.4602    10.1646   -36.2580  -999.2500  -999.2500  -999.2500   135.8657     8.2669     6.6142     5.1972   -59.1916
 1042.5000     0.2540   120.0158     0.0796     2.4580    10.1652   -38.5726  -999.2500  -999.2500  -999.2500   133.9818     8.3721     6.6540     5.2645   -60.1504
 1043.0000     0.2453   121.5727     0.0793     2.4542    10.1658   -40.8872  -999.2500  -999.2500  -999.2500   142.5727     8.5453     6.7337     5.2580   -53.5286
 1043.5000     0.2408   124.0056     0.0736     2.4512    10.1664   -43.2018  -999.2500  -999.2500  -999.2500   161.2712     8.7099     6.7813     5.3261   -54.6886
 1044.0000     0.2465   124.6288     0.0631     2.4527    10.1670   -45.4183  -999.2500  -999.2500  -999.2500   161.5569     8.8817     6.8694     5.4702   -55.6164
 1044.5000     0.2514   124.3351     0.0571     2.4573    10.1676   -45.4183  -999.2500  -999.2500  -999.2500   161.3922     8.8730     6.9588     5.6596   -49.0226
 1045.0000     0.2502   123.4399     0.0495     2.4610    10.1682   -45.4183  -999.2500  -999.2500  -999.2500   161.2252     8.8030     6.9508     5.8509   -50.1857
 1045.5000     0.2457   121.0225     0.0435     2.4641    10.1688   -45.4183  -999.2500  -999.2500  -999.2500   161.2110     8.6731     6.9943     5.3777   -43.3628
 1046.0000     0.2421   119.5149     0.0601     2.4603    10.1694   -45.4183  -999.2500  -999.2500  -999.2500   161.1969     8.4260     7.0349     5.2256   -44.5228
 1046.5000     0.2436   119.2212     0.0767     2.4573    10.1700   -25.4980  -999.2500  -999.2500  -999.2500   161.1826     8.2446     6.9782     5.1844   -45.4506
 1047.0000     0.2499   119.5436     0.0737     2.4581    10.1706   -35.4582  -999.2500  -999.2500  -999.2500   161.1677     8.0671     6.8759     5.2186   -46.3911
 1047.5000     0.2554   120.4748     0.0587     2.4636    10.1712   -35.4582  -999.2500  -999.2500  -999.2500   161.1527     8.0035     6.7283     5.2464   -47.5386
 1048.0000     0.2490   120.4892     0.0451     2.4694    10.1718   -35.0487  -999.2500  -999.2500  -999.2500   161.1368     7.7772     6.5385     4.9233   -48.4664
 1048.5000     0.2454   119.8948     0.0466     2.4694    10.1724   -32.1768  -999.2500  -999.2500  -999.2500   161.1226     8.5584     6.5325     5.5714   -49.3945
 1049.0000     0.2500   118.6915     0.0421     2.4702    10.1730   -29.3050  -999.2500  -999.2500  -999.2500   161.2582     9.0998     7.1892     5.9238   -50.3223
 1049.5000     0.2515   117.7625     0.0316     2.4695    10.1736   -26.4332  -999.2500  -999.2500  -999.2500   161.3938     9.4765     7.5918     6.0005   -51.2782
 1050.0000     0.2410   117.5026     0.0482     2.4676    10.1743   -21.9788  -999.2500  -999.2500  -999.2500   161.0779     9.8804     7.7996     5.9202   -44.6594
 1050.5000     0.2392   118.7382     0.0663     2.4627    10.1742   -16.7602  -999.2500  -999.2500  -999.2500   161.5163    10.2063     7.8981     5.6259   -45.8194
 1051.0000     0.2385   121.1879     0.0678     2.4525    10.1741   -11.5417  -999.2500  -999.2500  -999.2500   161.9568    10.5561     8.0023     5.3915   -46.7474
 1051.5000     0.2356   122.4201     0.0678     2.4424    10.1740    -6.3232  -999.2500  -999.2500  -999.2500   162.2477    10.5440     8.1602     5.1657   -47.6692
 1052.0000     0.2335   122.1335     0.0701     2.4470    10.1739    -2.9412  -999.2500  -999.2500  -999.2500   162.5407    10.5342     8.3212     5.0897   -41.3164
 1052.5000     0.2341   120.0170     0.0734     2.4508    10.1738     0.1348  -999.2500  -999.2500  -999.2500   162.6870    10.6738     8.4290     5.5636   -42.2445
 1053.0000     0.2368   119.7234     0.0741     2.4508    10.1737     3.2107  -999.2500  -999.2500  -999.2500   162.8209    10.9609     8.4792     6.0817   -43.1723
 1053.5000     0.2401   121.5679     0.0711     2.4478    10.1737     4.3986  -999.2500  -999.2500  -999.2500   162.8102    11.1892     8.5318     6.6604   -44.1004
 1054.0000     0.2393   122.1947     0.0561     2.4508    10.1736     4.3846  -999.2500  -999.2500  -999.2500   162.8017    11.4049     8.5504     6.8755   -45.0375
 1054.5000     0.2413   121.9046     0.0440     2.4569    10.1735     4.3834  -999.2500  -999.2500  -999.2500   162.6435    11.5533     8.6315     6.8196   -53.4751
 1055.0000     0.2432   121.9190     0.0517     2.4622    10.1734     4.3825  -999.2500  -999.2500  -999.2500   162.4850    11.4604     8.7411     6.4457   -52.2811
 1055.5000     0.2462   122.8466     0.0653     2.4660    10.1733     4.3825  -999.2500  -999.2500  -999.2500   162.3249    11.3708     8.7325     6.1772   -51.1548
 1056.0000     0.2474   124.1198     0.0728     2.4585    10.1732     4.3825  -999.2500  -999.2500  -999.2500   162.1677    11.3599     8.8477     6.2140   -50.0285
