~VERSION INFORMATION
 VERS.                2.0:   CWLS LOG ASCII STANDARD - VERSION 2.0
 WRAP.                 NO:   ONE LINE PER DEPTH STEP
~WELL INFORMATION
#MNEM.UNIT      DATA TYPE    INFORMATION
#----------   ------------   ------------------------------
 STRT.F          200.0000:   START DEPTH
 STOP.F         3248.0000:   STOP DEPTH
 STEP.F            0.5000:   STEP LENGTH
 NULL.          -999.2500:   NO VALUE
 COMP.    FENIX & SCISSON:   COMPANY
 WELL.   FENIX "AX" #28-3:   WELL
 FLD .              NPR-3:   FIELD
 LOC .       S3 T38N R78W:   LOCATION
 CNTY.            NATRONA:   COUNTY
 STAT.            WYOMING:   STATE
 CTRY. UNITED STATES OF AMERICA:   COUNTRY
 SRVC.              WELEX:   SERVICE COMPANY
 DATE.        30-JUN-1977:   LOGDATE
 API .     49025104200000:   API NUMBER
~CURVE INFORMATION
#MNEM.UNIT       API CODE    CURVE DESCRIPTION
#----------   ------------   ------------------------------
 DEPT.F                  :   
 CALD.IN     45 280 60 00:   CALIPER FROM DENSITY LOG
 GRD .GAPI   45 310 01 00:   GAMMA RAY FROM DENSITY LOG
 RHOB.G/C3   45 350 01 00:   BULK DENSITY
 CORR.G/C3   45 356 01 00:   DENSITY CORRECTION
 SPR .MV     07 010 01 00:   SPONTANEOUS POTENTIAL
 ILD .OHMM   07 120 46 00:   DEEP INDUCTION RESISTIVITY
 ILM .OHMM   07 120 44 00:   INDUCTION LOG MEDIUM RESISTIVITY
 SGRD.OHMM   07 220 05 00:   SHALLOW SHORT GUARD RESISTIVITY
~PARAMETER INFORMATION
#MNEM.UNIT          VALUE    DESCRIPTION
#----------   ------------   ------------------------------
 EKB .F         4969.0000:   Kelly bushing
 EGL .F         4959.0000:   Ground level
 TD  .F         3250.0000:   Total depth
 CLNT.            A2DTECH:   Client Code
 SL  . 500' FSL & 800' FWL:   Surface Location
 PD  .                 GL:   Permanent Datum
 EPD .F              4959:   Elevation Permanent Datum
 LMF .                 KB:   Log Measured From
 DMF .                 KB:   Drilling Measured From
 DAPD.F                10:   Feet Above Permanent Datum
 DATE.        30-JUN-1977:   Date Logged [DD-MMM-YYYY]
 DD  .F              3250:   Depth driller
 DL  .F              3250:   Depth logger
 BLI .F              3248:   Bottom log interval
 TLI .F               200:   Top log interval
 CS1 .IN            8.625:   Casing size
 CBD1.      8.625" @ 217':   Casing driller 1
 CBL1.F               225:   Casing logger 1
 BS1 .IN            7.875:   Bit size
 BSD1.F              3250:   Depth drilled with bit1
 DFT .                KCL:   Type fluid in hole
 DFD .                8.9:   Density
 RMS .OHMM           1.76:   Rm
 MST .F                63:   Rm Meas. temp.
 TCS .HRS             2.5:   Time Circ. stopped
 MRT .F                68:   Maximum recorded temp.
 LUN .               8611:   Logging unit number
 ENGI.         G. BENTSEN:   Recorded By
 WITN.         PETTINGILL:   Witnessed by
 ORIG.         2.5" PRINT:   Origin of data
 UWI .     49025104200000:   Unique Well ID
 DICO. A2D TECHNOLOGIES, INC.:   Digitizing Company
 DFV .                 30:   Viscosity
 DFPH.                  7:   pH
 DFL .                 10:   Fluid loss
 MSS .                PIT:   Source of sample
 RMF .OHMM           1.09:   Rmf
 MFST.F                68:   Rmf Meas. temp.
 MFSS.               MEAS:   Source Rmf.
 RMC .OHMM           2.01:   Rmc
 MCST.F                68:   Rmc Meas. temp.
 MCSS.               MEAS:   Source Rmc.
 RMB .OHMM           1.01:   Rm. at BHT
 BHT .F               118:   BHT.
 LUL .             CASPER:   Logging unit location
~OTHER INFORMATION
~A   DEPT       CALD       GRD        RHOB      CORR       SPR        ILD        ILM       SGRD   
# ...
 1415.0000     8.2953   106.0836     2.5263     0.0223   -53.2377     8.6338    10.1798    11.6312
 1415.5000     8.2939   106.0659     2.5263     0.0238   -53.5276     8.5172    10.1811    11.6335
 1416.0000     8.2924   107.2530     2.5278     0.0222   -53.5773     8.4022    10.1825    11.9593
 1416.5000     8.2909   107.2353     2.5278     0.0222   -53.8125     8.2888    10.1839    11.9617
 1417.0000     8.2895   107.8694     2.5309     0.0206   -53.8068     8.2614    10.1853    11.6406
 1417.5000     8.2880   108.5538     2.5370     0.0206   -53.8016     8.1780    10.1867    11.4844
 1418.0000     8.2865   109.5918     2.5477     0.0199   -53.5015     8.1793    10.0491    11.4867
 1418.5000     8.2851   110.3002     2.5400     0.0189   -53.4963     8.1804    10.0136    11.4986
 1419.0000     8.2834   111.5121     2.5216     0.0174   -53.1962     8.1815     9.8726    11.4747
 1419.5000     8.2819   111.9484     2.5093     0.0173   -53.1910     8.1826     9.7809    11.3372
 1420.0000     8.2805   112.5331     2.5078     0.0157   -53.1858     8.1838     9.6489    11.3397
 1420.5000     8.3085   113.1178     2.5093     0.0142   -53.1797     8.1849     9.7838    11.3420
 1421.0000     8.3069   113.0964     2.5093     0.0141   -53.1747     8.1862     9.9204    11.5009
 1421.5000     8.3055   112.8022     2.5166     0.0171   -53.1696     8.1873     9.9218    11.6620
 1422.0000     8.3041   112.4578     2.5284     0.0171   -53.1646     8.1884     9.7878    11.6644
 1422.5000     8.3319   112.1136     2.5338     0.0170   -53.4545     8.1895     9.6557    11.6668
 1423.0000     8.3304   111.8193     2.5164     0.0172   -53.4495     8.1906     9.3956    11.9086
 1423.5000     8.3289   111.1955     2.5029     0.0170   -53.4444     8.1917     9.1426    12.0832
 1424.0000     8.3275   109.9730     2.5026     0.0154   -53.7345     8.1928     9.1438    12.0690
 1424.5000     8.3554   109.3528     2.5113     0.0153   -53.7293     8.3071     9.1450    11.5179
 1425.0000     8.3246   109.3351     2.5214     0.0153   -54.0193     8.3083     9.2727    11.2087
 1425.5000     8.3231   108.4199     2.5316     0.0168   -53.9878     8.4297     9.4021    11.0581
 1426.0000     8.3216   107.3769     2.5343     0.0167   -53.7139     8.5529     9.6651    11.0606
 1426.5000     8.3202   106.2700     2.5290     0.0167   -53.6543     8.6611     9.8000    11.8475
 1427.0000     8.3187   106.2523     2.5352     0.0166   -53.4086     8.7820     9.6668    13.0431
 1427.5000     8.3173   106.2346     2.5520     0.0166   -53.4034     8.7553     9.4071    12.8682
 1428.0000     8.3158   105.0120     2.5704     0.0165   -53.1032     8.6645     9.4085    12.3522
 1428.5000     8.3141   104.3411     2.5752     0.0171   -53.0981     8.6658     9.1549    12.1866
 1429.0000     8.3126   101.8636     2.5458     0.0180   -52.9685     8.6670     9.1562    11.8530
 1429.5000     8.3112    99.3101     2.5305     0.0179   -52.7928     8.6186     9.1575    11.5276
 1430.0000     8.3098    99.6184     2.5228     0.0179   -52.7876     8.4347     9.1587    11.3863
 1430.5000     8.3376   102.0352     2.5182     0.0178   -52.4875     8.4358     9.1600    11.5746
 1431.0000     8.3362   103.3977     2.5259     0.0193   -52.1863     8.4370     9.1612    11.7077
 1431.5000     8.3347   105.2369     2.5337     0.0208   -52.1813     8.4383     9.2637    11.7101
 1432.0000     8.3333   106.8755     2.5411     0.0208   -52.4720     8.4395     9.5342    11.7642
 1432.5000     8.3319   106.4307     2.5391     0.0222   -52.7618     8.5573     9.7146    11.7145
 1433.0000     8.3304   104.5803     2.5350     0.0222   -52.7561     8.5584     9.8889    11.6514
 1433.5000     8.3289   103.6586     2.5379     0.0222   -53.0465     8.6779     9.9545    11.6336
 1434.0000     8.3275   102.9880     2.5485     0.0221   -53.0410     8.6790     9.9561    11.8872
 1434.5000     8.3260   102.9699     2.5589     0.0236   -53.0360     8.8002     9.9575    12.2167
 1435.0000     8.3246   102.9518     2.5661     0.0251   -53.0310     8.9230     9.9588    11.8893
 1435.5000     8.3231   102.9304     2.5522     0.0266   -52.7308     8.9242     9.9601    11.7294
 1436.0000     8.3216   103.5181     2.5297     0.0280   -52.7257     8.9254     9.9615    11.7321
 1436.5000     8.3202   104.1024     2.5196     0.0231   -52.7205     8.9266    10.1005    11.8964
 1437.0000     8.3187   104.6845     2.5198     0.0203   -52.7153     8.9278    10.2415    12.0630
 1437.5000     8.3173   105.8717     2.5369     0.0203   -52.7102     8.9291    10.3844    12.4008
 1438.0000     8.3155   106.4578     2.5517     0.0202   -52.7050     8.9303    10.5294    12.4032
 1438.5000     8.3141   106.4386     2.5578     0.0220   -52.6999     8.9315    10.6763    12.4057
 1439.0000     8.3126   106.4209     2.5608     0.0234   -52.5850     8.9328    10.5322    12.0727
 1439.5000     8.3112   106.4032     2.5639     0.0247   -52.3945     8.9340    10.3900    11.9108
 1440.0000     8.3098   106.3855     2.5639     0.0246   -52.3894     8.9352    10.3726    12.0776
 1440.5000     8.3084   106.3422     2.5592     0.0246   -52.3842     8.9364    10.2511    12.0801
 1441.0000     8.3069   105.6968     2.5546     0.0245   -52.3791     8.9377    10.2527    12.0563
 1441.5000     8.3055   104.4488     2.5516     0.0245   -52.6689     8.9389    10.2541    11.7581
 1442.0000     8.3041   103.9036     2.5470     0.0244   -52.6628     8.9401    10.2555    11.8018
 1442.5000     8.3026   103.1578     2.5408     0.0229   -52.6578     8.8197    10.2569    11.9748
 1443.0000     8.3012   102.6627     2.5360     0.0228   -52.6528     8.8208    10.2583    12.0926
 1443.5000     8.2997   102.6446     2.5299     0.0228   -52.6477     8.8220    10.2597    12.2620
 1444.0000     8.2982   103.4297     2.5265     0.0227   -52.6427     8.8232    10.2611    12.0255
 1444.5000     8.3045   104.6415     2.5219     0.0211   -52.6376     8.8244    10.2625    11.7728
 1445.0000     8.3248   105.8533     2.5169     0.0211   -52.6326     8.7052    10.0458    11.7753
 1445.5000     8.3231   107.0654     2.5119     0.0195   -52.6276     8.7064     9.8515    11.7777
 1446.0000     8.3509   107.3735     2.5039     0.0195   -52.6224     8.7076     9.7185    11.4620
 1446.5000     8.3494   106.1506     2.4978     0.0179   -52.6173     8.7088     9.7198    11.3079
 1447.0000     8.3480   106.4839     2.4917     0.0179   -52.6121     8.7100     9.7211    11.4666
 1447.5000     8.3465   108.5208     2.4962     0.0193   -52.6069     8.8316     9.7224    11.7876
 1448.0000     8.3448   108.5031     2.5024     0.0208   -52.6018     8.8506     9.8581    11.9527
 1448.5000     8.3433   108.4854     2.5069     0.0208   -52.5966     8.9561     9.9957    12.1201
 1449.0000     8.3419   108.4677     2.5146     0.0207   -52.5914     8.9573     9.9970    11.9575
 1449.5000     8.3405   108.4500     2.5222     0.0207   -52.5863     8.9585     9.9984    11.7971
 1450.0000     8.3391   107.2274     2.5176     0.0206   -52.5811     8.9598     9.9997    11.6389
 1450.5000     8.3376   107.2097     2.5193     0.0206   -52.8709     8.9610    10.0011    11.8172
 1451.0000     8.3362   108.3969     2.5273     0.0206   -52.8658     8.9622    10.0024    12.1480
 1451.5000     8.3348   108.9816     2.5394     0.0205   -52.5656     8.9635    10.0218    12.1347
 1452.0000     8.3333   109.5663     2.5421     0.0205   -52.5595     8.9647    10.1677    11.9719
 1452.5000     8.3319   110.1510     2.5325     0.0204   -52.5544     8.9659    10.2851    11.8114
 1453.0000     8.3598   110.0824     2.5313     0.0204   -52.5494     8.9674    10.2865    11.8597
 1453.5000     8.3582   109.4367     2.5363     0.0203   -52.5443     8.9686    10.4301    12.0336
 1454.0000     8.3567   108.8930     2.5348     0.0203   -52.5393     8.9698    10.5757    12.1474
 1454.5000     8.3553   110.0802     2.5267     0.0202   -52.5343     8.9710    10.5209    12.1499
 1455.0000     8.3538   110.8134     2.5310     0.0202   -52.5292     8.9722    10.3727    11.9869
