~VERSION INFORMATION
 VERS.                2.0:   CWLS LOG ASCII STANDARD - VERSION 2.0
 WRAP.                 NO:   ONE LINE PER DEPTH STEP
~WELL INFORMATION
#MNEM.UNIT      DATA TYPE    INFORMATION
#----------   ------------   ------------------------------
 STRT.F          200.5000:   START DEPTH
 STOP.F         3164.0000:   STOP DEPTH
 STEP.F            0.5000:   STEP LENGTH
 NULL.          -999.2500:   NO VALUE
 COMP. FENIX & SCISSON U.S NAVY:   COMPANY
 WELL. FENIX & SCISSON "A" #83-4:   WELL
 FLD .              NPR-3:   FIELD
 LOC .       S4 T38N R78W:   LOCATION
 CNTY.            NATRONA:   COUNTY
 STAT.            WYOMING:   STATE
 CTRY. UNITED STATES OF AMERICA:   COUNTRY
 SRVC.       SCHLUMBERGER:   SERVICE COMPANY
 DATE.        25-MAY-1977:   LOGDATE
 API .     49025103660000:   API NUMBER
~CURVE INFORMATION
#MNEM.UNIT       API CODE    CURVE DESCRIPTION
#----------   ------------   ------------------------------
 DEPT.F                  :   
 CALD.IN     45 280 60 00:   CALIPER FROM DENSITY LOG
 GRD .GAPI   45 310 01 00:   GAMMA RAY FROM DENSITY LOG
 RHOB.G/C3   45 350 01 00:   BULK DENSITY
 CORR.G/C3   45 356 01 00:   DENSITY CORRECTION
 SPR .MV     07 010 01 00:   SPONTANEOUS POTENTIAL
 SFLU.OHMM   07 220 01 00:   SPHERICALLY FOCUSED LOG UNAVERAGED RESISTIVITY
 ILD .OHMM   07 120 46 00:   DEEP INDUCTION RESISTIVITY
 ILM .OHMM   07 120 44 00:   INDUCTION LOG MEDIUM RESISTIVITY
~PARAMETER INFORMATION
#MNEM.UNIT          VALUE    DESCRIPTION
#----------   ------------   ------------------------------
 EKB .F         5163.0000:   Kelly bushing
 EGL .F         5149.0000:   Ground level
 EDF .F            0.0000:   Drilling floor
 EPD .F            0.0000:   Permanent datum
 TD  .F         3173.0000:   Total depth
 DATE.        25-MAY-1977:   Date logged
 CLNT.            A2DTECH:   Client Code
 SL  . 1650' FNL & 330 ' FEL:   Surface Location
 PD  .                 GL:   Permanent Datum
 DAPD.F                14:   Feet Above Permanent Datum
 DD  .F              3173:   Depth driller
 DL  .F              3157:   Depth logger
 BLI .F              3165:   Bottom log interval
 TLI .F               200:   Top log interval
 CS1 .IN            8.625:   Casing size
 CBD1.      8.625" @ 204':   Casing driller 1
 CBL1.F               220:   Casing logger 1
 BS1 .IN            7.875:   Bit size
 BSD1.F              3173:   Depth drilled with bit1
 DFT .            KCL MUD:   Type fluid in hole
 DFD .                8.8:   Density
 DFV .                 37:   Viscosity
 DFPH.                7.5:   pH
 DFL .                4.4:   Fluid loss
 MSS .           FLOWLINE:   Source of sample
 RMS .OHMM            .39:   Rm
 MST .F                79:   Rm Meas. temp.
 RMF .OHMM            .31:   Rmf
 MFST.F                79:   Rmf Meas. temp.
 RMC .OHMM            .63:   Rmc
 MCST.F                79:   Rmc Meas. temp.
 MFSS.           FANN KIT:   Source Rmf.
 MCSS.           FANN KIT:   Source Rmc.
 RMB .OHMM            .27:   Rm. at BHT
 BHT .F               112:   BHT.
 TCS .HRS             2.5:   Time Circ. stopped
 MRT .F               112:   Maximum recorded temp.
 LUN .               8611:   Logging unit number
 LUL .             CASPER:   Logging unit location
 ENGI.            C. DOAK:   Recorded By
 WITN.      B. HARRINGTON:   Witnessed by
 ORIG.       2.5"5" PRINT:   Origin of data
 UWI .     49025103660000:   Unique Well ID
 DICO. A2D TECHNOLOGIES, INC.:   Digitizing Company
~OTHER INFORMATION
~A   DEPT     CALD        GRD         RHOB     CORR        SPR       SFLU        ILD        ILM   
# ...
 3116.5000     7.8730   103.2344     2.5319     0.0365   -40.0801     7.9727     5.5518     4.6336
 3117.0000     7.8729   103.2317     2.5320     0.0365   -40.0783     7.0226     5.4510     5.1639
 3117.5000     7.8729   103.2277     2.5300     0.0365   -40.0755     7.4133     5.5497     5.1631
 3118.0000     7.8728   106.3465     2.5222     0.0366   -40.0737     7.5470     5.9650     4.7154
 3118.5000     7.8727   109.4636     2.5085     0.0249   -40.0709     8.5649     6.0730     4.5472
 3119.0000     7.8727   110.2411     2.4987     0.0131   -40.0690     8.7194     5.7519     4.5465
 3119.5000     7.8726   111.0171     2.4869     0.0092   -40.0662     7.6809     5.7511     4.3050
 3120.0000     7.8726   110.2340     2.4693     0.0093   -39.6746     6.4081     5.4464     4.3825
 3120.5000     7.8725   112.5704     2.4654     0.0054   -40.0616     6.2922     5.3475     4.1501
 3121.0000     7.8724   114.1279     2.4537     0.0015   -40.0597     6.4062     5.3468     4.0020
 3121.5000     7.8724   115.6837     2.4458     0.0015   -40.0569     6.4048     5.1559     3.9293
 3122.0000     7.8723   113.3403     2.4223     0.0015   -40.0550     6.4038     5.1548     3.9294
 3122.5000     7.8723   114.8961     2.4164     0.0016   -40.0532     6.0641     4.9705     3.8581
 3123.0000     7.8722   115.6733     2.4282     0.0055   -40.0504     6.0632     4.9697     3.8575
 3123.5000     7.8721   114.8887     2.4675     0.0056   -40.0486     5.8464     4.8795     3.8566
 3124.0000     7.8721   114.1057     2.4773     0.0134   -40.0458     5.8456     4.8788     3.8561
 3124.5000     7.8720   113.3213     2.4733     0.0153   -40.0439     6.0597     5.0570     3.8552
 3125.0000     7.8720   112.5384     2.4675     0.0193   -40.0411     6.0588     5.1482     3.8547
 3125.5000     7.8719   112.5341     2.4616     0.0193   -40.0392     6.1681     5.2411     3.9245
 3126.0000     7.8718   112.5312     2.4832     0.0193   -40.0364     6.0566     5.3360     3.9236
 3126.5000     7.8718   112.5268     2.4754     0.0136   -40.0346     6.3930     5.3352     3.9230
 3127.0000     7.8717   112.5239     2.4558     0.0076   -40.0318     6.7487     5.3340     3.9938
 3127.5000     7.9117   110.9598     2.4441     0.0077   -40.0299     6.7477     5.3332     4.0652
 3128.0000     7.9116   110.9569     2.4362     0.0038   -40.0272     6.0521     5.3321     4.1388
 3128.5000     7.9115   110.9526     2.4303     0.0038   -40.0253     6.0512     5.2357     4.1382
 3129.0000     7.9115   111.7296     2.4460    -0.0001   -40.0225     6.0499     4.9588     3.9193
 3129.5000     7.9114   114.0645     2.4696    -0.0040   -40.0206     5.9405     4.8692     3.9187
 3130.0000     7.9114   114.6211     2.4755     0.0078   -40.0178     5.9392     4.8681     3.9179
 3130.5000     7.9893   112.2789     2.4775     0.0197   -40.0160     5.7273     4.9563     3.9173
 3131.0000     8.0282   109.9341     2.4716     0.0197   -40.0132     5.8306     4.9552     3.9164
 3131.5000     8.1440    99.0147     2.4756     0.0119   -40.0113     6.0446     4.9544     3.8456
 3132.0000     8.1440   101.3523     2.4795     0.0197   -40.0085     6.3804     4.9533     3.8451
 3132.5000     8.1439   105.4668     2.4893     0.0237   -40.0067     6.4959     4.8638     3.8439
 3133.0000     8.1438   107.0233     2.4913     0.0237   -40.0039     6.2636     4.6894     3.8436
 3133.5000     8.1438   109.3577     2.4854     0.0198   -40.0020     5.9318     4.5217     3.7065
 3134.0000     8.1353   109.3549     2.4659     0.0159   -39.9992     5.7201     4.2822     3.6392
 3134.5000     8.1267   114.0277     2.4482     0.0121   -39.9974     5.4167     4.2045     3.5091
 3135.0000     8.1182   114.0248     2.4522     0.0160   -39.9946     5.3188     4.2039     3.4456
 3135.5000     8.1096   116.3588     2.4541     0.0121   -39.9927     5.3176     4.4374     3.3831
 3136.0000     8.1011   117.1352     2.4561     0.0121   -39.9899     5.2215     4.5174     3.3824
 3136.5000     8.0925   118.6895     2.4228     0.0122   -39.9880     5.1267     4.3562     3.3819
 3137.0000     8.0840   118.6864     2.4208     0.0083   -39.9852     5.1259     4.2008     3.3210
 3137.5000     8.0755   120.0183     2.4326     0.0083   -40.3736     5.0329     3.9779     3.3200
 3138.0000     8.0652   118.4581     2.4385     0.0084   -39.9815     5.0322     3.9060     3.2600
 3138.5000     8.1342   114.5570     2.4542     0.0084   -39.9787     5.0311     3.8354     3.2597
 3139.0000     8.1255   114.5540     2.4248     0.0084   -39.9769     5.1222     3.8346     3.1429
 3139.5000     8.1167   115.3287     2.4131     0.0045   -39.9741     5.2149     3.7652     3.1423
 3140.0000     8.1080   120.7788     2.4190     0.0046   -39.9722     5.1203     3.7644     3.1420
 3140.5000     8.0992   119.9964     2.4563     0.0124   -39.9694     5.0277     3.7639     3.0850
 3141.0000     8.0905   119.2141     2.4582     0.0125   -39.9675     4.7610     3.8317     2.9747
 3141.5000     8.0817   117.6512     2.4543     0.0125   -39.9647     4.7603     3.9011     2.9742
 3142.0000     8.0730   116.8690     2.4308     0.0125   -39.9629     4.4270     3.9003     2.9736
 3142.5000     8.0642   116.0854     2.4152     0.0126   -39.9601     4.3469     3.8304     2.9198
 3143.0000     8.0554   116.0823     2.4152     0.0126   -39.9582     4.4253     3.8295     2.9192
 3143.5000     8.0467   118.4150     2.4113     0.0166   -40.3458     4.5055     3.7603     2.9188
 3144.0000     8.0379   117.0748     2.4015     0.0166   -39.9536     4.7558     3.6921     2.9181
 3144.5000     8.0254   110.8383     2.3936     0.0088   -40.3412     4.6698     3.5603     2.9177
 3145.0000     7.9875   103.6036     2.3799     0.0049   -39.9489     4.5851     3.5598     2.9173
 3145.5000     7.9874    91.3598     2.3760     0.0010   -39.9461     4.5022     3.4952     2.8129
 3146.0000     7.9873    15.0204     2.3741     0.0010   -39.9442     4.5015     3.4320     2.7621
 3146.5000     8.0262    13.4624     2.3780     0.0050   -40.3319     4.2627     3.4312     2.7118
 3147.0000     7.9872  -999.2500     2.3859     0.0087   -39.9395     4.2621     3.4307     2.6629
 3147.5000     7.9871  -999.2500     2.4016     0.0129   -39.9367     4.1848     3.4300     2.6625
 3148.0000     7.9870  -999.2500     2.3918     0.0129   -39.9349     4.3383     3.4295     2.6620
 3148.5000     8.0649  -999.2500     2.3899     0.0130   -39.9321     4.4972     3.3672     2.6614
 3149.0000     7.9869  -999.2500     2.3860     0.0130   -39.9302     4.1076     3.3667     2.6610
 3149.5000     7.9869  -999.2500     2.3801     0.0130   -39.9274     4.0330     3.3056     2.4744
 3150.0000     8.0257  -999.2500     2.3821     0.0131   -39.9255     3.8891     3.3051     2.4299
 3150.5000     8.0257  -999.2500     2.3919     0.0052   -39.9228     3.8883     3.2189     2.4757
 3151.0000     8.0256  -999.2500     2.3997    -0.0065   -39.9397     3.9645     3.1912     2.3890
 3151.5000     8.0256  -999.2500     2.4017    -0.0104   -39.5593     4.0400     3.1928     2.3902
 3152.0000     8.0255  -999.2500     2.4076    -0.0143   -39.1756     4.0432     3.1380     2.3492
 3152.5000     8.0254  -999.2500     2.4037    -0.0221   -39.1823     4.0453     3.1397     2.3504
 3153.0000     7.9864  -999.2500     2.3998    -0.0299   -38.8022     4.0474     3.0858     2.3101
 3153.5000     7.9864  -999.2500     2.3939    -0.0338   -38.8090     4.4341     3.0874     2.3113
 3154.0000     7.9474  -999.2500     2.3724    -0.0337   -38.4289     4.2020     3.0898     2.3131
 3154.5000     7.9473  -999.2500     2.3724    -0.0376   -35.7118     3.8405     3.0914     2.2728
 3155.0000     7.9472  -999.2500     2.3940    -0.0376   -34.9316     3.3256     3.1495     2.3584
 3155.5000     7.9472  -999.2500     2.4136    -0.0297   -31.8219     3.2676     3.1520     2.2758
 3156.0000     7.9471  -999.2500     2.4372    -0.0297   -25.9835     3.2116     3.2707     2.4046
 3156.5000     7.9471  -999.2500     2.4489    -0.0257   -20.9224     3.7815     3.3289     2.6337
