~VERSION INFORMATION
 VERS.                2.0:   CWLS LOG ASCII STANDARD - VERSION 2.0
 WRAP.                 NO:   ONE LINE PER DEPTH STEP
~WELL INFORMATION
#MNEM.UNIT      DATA TYPE    INFORMATION
#----------   ------------   ------------------------------
 STRT.F          190.0000:   START DEPTH
 STOP.F         3215.0000:   STOP DEPTH
 STEP.F            0.5000:   STEP LENGTH
 NULL.          -999.2500:   NO VALUE
 COMP.    FENIX & SCISSON:   COMPANY
 WELL.  FENIX "AX" #78-34:   WELL
 FLD . NAVAL PET. RES. NO. 3:   FIELD
 LOC .      S34 T39N R78W:   LOCATION
 CNTY.            NATRONA:   COUNTY
 STAT.            WYOMING:   STATE
 CTRY. UNITED STATES OF AMERICA:   COUNTRY
 SRVC.       SCHLUMBERGER:   SERVICE COMPANY
 DATE.        16-DEC-1980:   LOGDATE
 API .     49025108670000:   API NUMBER
~CURVE INFORMATION
#MNEM.UNIT       API CODE    CURVE DESCRIPTION
#----------   ------------   ------------------------------
 DEPT.F                  :   
 TEND.LBS    45 635 01 00:   TENSION FORM DENSITY LOG
 GRD .GAPI   45 310 01 00:   GAMMA RAY FROM DENSITY LOG
 CALD.IN     45 280 60 00:   CALIPER FROM DENSITY LOG
 CORR.G/C3   45 356 01 00:   DENSITY CORRECTION
 RHOB.G/C3   45 350 01 00:   BULK DENSITY
 SPR .MV     07 010 01 00:   SPONTANEOUS POTENTIAL
 TENR.LBS    07 635 01 00:   TENSION FROM RESISTIVITY
 ILD .OHMM   07 120 46 00:   DEEP INDUCTION RESISTIVITY
 ILM .OHMM   07 120 44 00:   INDUCTION LOG MEDIUM RESISTIVITY
 SFL .OHMM   07 220 01 00:   SHALLOW FOCUSED LOG RESISTIVITY
~PARAMETER INFORMATION
#MNEM.UNIT          VALUE    DESCRIPTION
#----------   ------------   ------------------------------
 EKB .F         5068.0000:   Kelly bushing
 EGL .F         5058.0000:   Ground level
 EDF .F            0.0000:   Drilling floor
 EPD .F            0.0000:   Permanent datum
 TD  .F         3202.0000:   Total depth
 CLNT.            A2DTECH:   Client Code
 SL  . 542' FSL & 693' FEL:   Surface Location
 PD  .                 GL:   Permanent Datum
 DAPD.F                10:   Feet Above Permanent Datum
 DATE.        16-DEC-1980:   Date Logged [DD-MMM-YYYY]
 DD  .F              3200:   Depth driller
 DL  .F              3202:   Depth logger
 BLI .F              3199:   Bottom log interval
 TLI .F               193:   Top log interval
 CS1 .IN            8.625:   Casing size
 CBD1.      8.625" @ 215':   Casing driller 1
 CBL1.F               193:   Casing logger 1
 BS1 .IN            7.875:   Bit size
 BSD1.F              3200:   Depth drilled with bit1
 DFT .               LSND:   Type fluid in hole
 DFD .                9.1:   Density
 DFV .                 35:   Viscosity
 DFPH.                  8:   pH
 DFL .                 16:   Fluid loss
 MSS .            MUD PIT:   Source of sample
 RMS .OHMM            2.9:   Rm
 MST .F                56:   Rm Meas. temp.
 RMF .OHMM            2.4:   Rmf
 MFST.F                56:   Rmf Meas. temp.
 MFSS.               MEAS:   Source Rmf.
 RMC .OHMM            2.7:   Rmc
 MCST.F                56:   Rmc Meas. temp.
 MCSS.               CALC:   Source Rmc.
 RMB .OHMM           1.35:   Rm. at BHT
 BHT .F               120:   BHT.
 TCS .HRS            2100:   Time Circ. stopped
 MRT .F               120:   Maximum recorded temp.
 LUN .               8161:   Logging unit number
 ENGI.             SITTON:   Recorded By
 WITN.              FIVAS:   Witnessed by
 ORIG.           5" PRINT:   Origin of data
 UWI .     49025108670000:   Unique Well ID
 DICO. A2D TECHNOLOGIES, INC.:   Digitizing Company
~OTHER INFORMATION
~A   DEPT     TEND         GRD      CALD       CORR       RHOB        SPR       TENR        ILD        ILM        SFL   
# ...
 1764.5000   552.2089    93.9530     8.9965     0.0268     2.5634   -45.3922   464.2392     7.1937     7.2806     8.0394
 1765.0000   552.2089    95.9439     8.9964     0.0394     2.5775   -45.3922   478.7233     7.3396     7.3849     8.2689
 1765.5000   552.2089    96.8545     9.0083     0.0348     2.5790   -45.3925   477.9479     7.3940     7.4907     8.5049
 1766.0000   572.2892    96.8537     9.0350     0.0262     2.5697   -45.3954   477.2036     7.3972     7.5973     8.5677
 1766.5000   572.2892    97.6868     9.0376     0.0091     2.5643   -45.2394   476.4438     7.4005     7.4968     8.5114
 1767.0000   572.2892    99.9847     9.0158     0.0037     2.5604   -45.0516   475.6838     7.2513     7.4481     8.3409
 1767.5000   552.2089   102.2404     9.0157    -0.0009     2.5612   -44.8038   474.7845     7.2036     7.3998     8.1731
 1768.0000   552.2089   103.7091     9.0157     0.0054     2.5685   -44.6052   474.0401     7.1083     7.2510     7.9489
 1768.5000   552.2089   101.4967     8.9940     0.0164     2.5776   -44.4172   473.2957     7.0133     7.1963     7.6330
 1769.0000   552.2089   100.8169     8.9958     0.0250     2.5760   -44.2385   472.5513     7.0165     7.1080     7.5313
 1769.5000   552.2089   100.8229     8.9962     0.0306     2.5753   -44.0221   471.8069     7.0197     7.1116     7.9097
 1770.0000   552.2089   101.0064     8.9971     0.0370     2.5729   -43.8266   471.0625     7.0228     7.0647     7.8586
 1770.5000   552.2089    98.1735     8.9964     0.0401     2.5683   -43.6842   470.3181     7.0266     7.0680     7.8078
 1771.0000   552.2089    94.1533     9.0636     0.0292     2.5621   -43.8318   484.8024     7.0297     7.0709     7.6506
 1771.5000   552.2089    92.9261     9.0691     0.0191     2.5559   -43.8294   484.0271     6.9834     7.0739     7.7071
 1772.0000   552.2089    95.7460     9.0740     0.0145     2.5512   -43.9518   483.2827     6.9869     7.0769     7.8724
 1772.5000   552.2089   100.0878     8.9879     0.0177     2.5684   -44.0846   482.5227     7.0390     7.0798     7.9857
 1773.0000   552.2089   102.4644     8.9951     0.0357     2.5824   -44.2069   481.7629     7.0421     7.0827     8.1006
 1773.5000   552.2089   100.9747     8.9975     0.0498     2.6044   -44.1993   465.6658     7.0452     7.1347     8.1606
 1774.0000   572.2892    97.4182     9.0328     0.0593     2.6104   -44.4491   464.9214     7.0483     7.1382     8.1650
 1774.5000   572.2892    95.6561     9.0699     0.0499     2.6042   -44.8121   479.5607     7.0514     7.1411     8.1113
 1775.0000   572.2892    96.2956     9.1079     0.0328     2.5731   -45.2348   478.6304     7.0546     7.1440     8.0032
 1775.5000   572.2892    98.5265     9.0890     0.0099     2.5472   -45.7499   477.8860     7.0089     7.1469     7.8966
 1776.0000   572.2892    97.5804     9.0584    -0.0001     2.5357   -45.7659   477.1416     6.9154     7.0998     7.9010
 1776.5000   572.2892    96.0505     9.0271     0.0025     2.5335   -45.6520   476.3972     6.9192     7.1034     7.9044
 1777.0000   572.2892    96.0713     8.9968     0.0253     2.5576   -45.3920   490.8814     6.8737     7.1063     7.9079
 1777.5000   572.2892    97.8219     8.9958     0.0464     2.5864   -44.9521   490.1060     6.8775     7.0602     7.9664
 1778.0000   572.2892    99.6950     8.9967     0.0652     2.5981   -44.3700   489.3616     6.8807     7.0144     8.0253
 1778.5000   572.2892    99.5355     8.9961     0.0473     2.5903   -43.8826   488.6018     6.8838     7.0180     8.0847
 1779.0000   572.2892    98.2111     9.0398     0.0396     2.5639   -43.5758   487.8419     6.8385     7.0208     7.9227
 1779.5000   572.2892    97.2017     9.0492     0.0365     2.5600   -43.4384   486.9425     6.7949     7.0236     7.8171
 1780.0000   572.2892    99.6583     9.0448     0.0397     2.5748   -43.4256   486.1981     6.7976     7.0265     7.6598
 1780.5000   572.2892   101.1978     8.9945     0.0429     2.5943   -43.2856   485.4537     6.8009     6.9809     7.5056
 1781.0000   568.1550   100.7584     8.9960     0.0446     2.6013   -43.4382   484.7094     6.8039     6.9837     7.5611
 1781.5000   562.2490    98.5680     8.9961     0.0487     2.6044   -43.7630   483.9650     6.8543     6.9865     7.6699
 1782.0000   556.3430    97.6479     8.9960     0.0517     2.6044   -43.9123   483.2206     6.8573     6.9412     7.8343
 1782.5000   554.3603    97.6466     8.9954     0.0275     2.5788   -44.0463   482.4762     6.8604     6.9441     7.9471
 1783.0000   561.5319    97.2012     8.9980     0.0104     2.5391   -44.2068   481.7320     6.9112     6.9470     8.0615
 1783.5000   568.7034    98.1214     9.0923     0.0065     2.5283   -44.4125   480.9876     6.9143     6.9986     8.0650
 1784.0000   572.2892   100.1362     9.1136     0.0129     2.5376   -44.5729   480.2432     6.9180     7.0014     7.9576
 1784.5000   572.2802   104.3572     9.1140     0.0153     2.5516   -45.0110   479.4832     6.9211     7.0042     7.7444
 1785.0000   572.2914   104.2723     9.1133     0.0122     2.5454   -45.1435   478.7234     6.9241     7.0070     7.7478
 1785.5000   572.2914   102.3466     9.0746     0.0021     2.5369   -45.2312   477.8239     6.9272     7.0099     7.8051
 1786.0000   572.2813   101.0093     8.9928     0.0147     2.5377   -45.2162   477.0795     6.8816     7.0127     7.9174
 1786.5000   572.2892   101.0981     8.9740     0.0296     2.5610   -45.3105   476.3351     6.8854     7.0155     7.9759
 1787.0000   569.1516   102.4484     8.9868     0.0359     2.5783   -45.2024   460.3933     6.8401     7.0184     7.9794
 1787.5000   562.8765   103.4999     8.9966     0.0375     2.5813   -45.1880   444.4514     6.8438     7.0213     7.9830
 1788.0000   556.6014   102.5956     8.9974     0.0329     2.5751   -45.0539   458.9045     6.8469     7.0242     7.9865
 1788.5000   554.2787   100.8786     9.0523     0.0251     2.5657   -44.9431   458.1602     6.8025     7.0271     7.9900
 1789.0000   561.4587    99.9846     9.0558     0.0140     2.5588   -44.6508   472.6443     6.8056     7.0304     7.8744
 1789.5000   568.6390   100.1679     9.0282     0.0120     2.5564   -44.4354   471.8689     6.7615     6.9361     7.6724
 1790.0000   568.6447   100.9813     8.9953     0.0191     2.5642   -44.3818   471.1245     6.7652     6.8443     7.5693
 1790.5000   561.5319   103.0339     8.9961     0.0246     2.5666   -44.1959   470.3647     6.7682     6.8471     7.7325
 1791.0000   554.3603   104.7039     8.9960     0.0270     2.5674   -44.2197   469.6048     6.7712     6.8020     7.8438
 1791.5000   552.2089   104.0119     8.9963     0.0247     2.5674   -43.8685   468.7054     6.7742     6.8055     8.0119
 1792.0000   552.2089   101.1104     8.9963     0.0224     2.5674   -43.4458   467.9611     6.7772     6.8082     8.1273
 1792.5000   552.2089    97.8803     9.0384     0.0225     2.5674   -42.9904   467.2167     6.7802     6.8583     8.0747
 1793.0000   552.2089    97.1746     9.0745     0.0241     2.5700   -42.3981   466.4723     6.7832     6.9092     7.8033
 1793.5000   572.2892    98.0603     9.0655     0.0258     2.5814   -41.6831   465.7279     6.7861     6.9599     7.6994
 1794.0000   572.2892    98.8141     8.9990     0.0297     2.5939   -40.9637   464.9835     6.8364     6.9627     7.8186
 1794.5000   572.2892    96.9967     8.9955     0.0337     2.6064   -40.8962   464.2391     6.8416     6.9656     8.0898
 1795.0000   572.2892    96.9792     8.9960     0.0345     2.5980   -42.1142   463.4949     6.8965     7.0167     8.3207
 1795.5000   572.2892    98.3686     8.9961     0.0260     2.5706   -43.9789   477.9481     6.9418     7.0195     8.4404
 1796.0000   572.2892    99.5480     8.9961     0.0167     2.5667   -45.2109   477.2037     6.9932     7.0711     8.2705
 1796.5000   572.2892    98.5487     8.9961     0.0160     2.5714   -45.9082   476.4437     6.9963     7.0739     8.1603
 1797.0000   572.2892    96.9814     8.9961     0.0199     2.5722   -46.1785   475.6839     6.9994     7.0768     8.0508
 1797.5000   572.2892    96.4263     8.9961     0.0239     2.5590   -46.1543   474.7844     7.0025     7.1288     8.1112
