~VERSION INFORMATION
 VERS.                2.0:   CWLS LOG ASCII STANDARD - VERSION 2.0
 WRAP.                 NO:   ONE LINE PER DEPTH STEP
~WELL INFORMATION
#MNEM.UNIT      DATA TYPE    INFORMATION
#----------   ------------   ------------------------------
 STRT.F          209.5000:   START DEPTH
 STOP.F         3130.0000:   STOP DEPTH
 STEP.F            0.5000:   STEP LENGTH
 NULL.          -999.2500:   NO VALUE
 COMP. FENIX & SCISSON-U.S. NAVY:   COMPANY
 WELL.   FENIX "A" #66-29:   WELL
 FLD .              NPR 3:   FIELD
 LOC .      S29 T39N R78W:   LOCATION
 CNTY.            NATRONA:   COUNTY
 STAT.            WYOMING:   STATE
 CTRY. UNITED STATES OF AMERICA:   COUNTRY
 SRVC.       SCHLUMBERGER:   SERVICE COMPANY
 DATE.        12-JUN-1977:   LOGDATE
 API .     49025103850000:   API NUMBER
~CURVE INFORMATION
#MNEM.UNIT       API CODE    CURVE DESCRIPTION
#----------   ------------   ------------------------------
 DEPT.F                  :   
 CALD.IN     45 280 60 00:   CALIPER FROM DENSITY LOG
 GRD .GAPI   45 310 01 00:   GAMMA RAY FROM DENSITY LOG
 RHOB.G/C3   45 350 01 00:   BULK DENSITY
 CORR.G/C3   45 356 01 00:   DENSITY CORRECTION
 LL8 .OHMM   07 220 08 00:   LATEROLOG-8 RES.
 ILD .OHMM   07 120 46 00:   DEEP INDUCTION RESISTIVITY
 ILM .OHMM   07 120 44 00:   INDUCTION LOG MEDIUM RESISTIVITY
 SPR .MV     07 010 01 00:   SPONTANEOUS POTENTIAL
~PARAMETER INFORMATION
#MNEM.UNIT          VALUE    DESCRIPTION
#----------   ------------   ------------------------------
 EKB .F         5058.0000:   Kelly bushing
 EGL .F         5048.0000:   Ground level
 EDF .F            0.0000:   Drilling floor
 TD  .F         3120.0000:   Total depth
 DATE.        12-JUN-1977:   Date logged
 CLNT.            A2DTECH:   Client Code
 SL  . 1650' FSL & 1650' FEL:   Surface Location
 PD  .                 GL:   Permanent Datum
 EPD .F              5048:   Elevation Permanent Datum
 LMF .                 KB:   Log Measured From
 DMF .                 KB:   Drilling Measured From
 DAPD.F                10:   Feet Above Permanent Datum
 DD  .F              3120:   Depth driller
 DL  .F              3120:   Depth logger
 BLI .F              3120:   Bottom log interval
 TLI .F               219:   Top log interval
 CS1 .IN            8.625:   Casing size
 CBD1.      8.625" @ 225':   Casing driller 1
 CBL1.F               219:   Casing logger 1
 BS1 .IN            7.875:   Bit size
 BSD1.F              3120:   Depth drilled with bit1
 DFT .            KCL MUD:   Type fluid in hole
 DFD .                8.8:   Density
 DFV .                 32:   Viscosity
 DFPH.                7.5:   pH
 DFL .                  8:   Fluid loss
 MSS .              CIRC.:   Source of sample
 RMS .OHMM           2.01:   Rm
 MST .F                72:   Rm Meas. temp.
 RMF .OHMM            1.9:   Rmf
 MFST.F                72:   Rmf Meas. temp.
 RMC .OHMM           3.02:   Rmc
 MCST.F                72:   Rmc Meas. temp.
 MFSS.               MEAS:   Source Rmf.
 MCSS.               CALC:   Source Rmc.
 RMB .OHMM           1.21:   Rm. at BHT
 BHT .F               120:   BHT.
 TCS .HRS            1400:   Time Circ. stopped
 TLAB.HRS            1730:   Time logger at bottom
 MRT .F               120:   Maximum recorded temp.
 LUN .               7711:   Logging unit number
 LUL .               CSPR:   Logging unit location
 ENGI.             SAYLER:   Recorded By
 WITN.             RHODES:   Witnessed by
 ORIG.           5" PRINT:   Origin of data
 UWI .     49025103850000:   Unique Well ID
 DICO. A2D TECHNOLOGIES, INC.:   Digitizing Company
~OTHER INFORMATION
~A   DEPT     CALD         GRD      RHOB       CORR        LL8        ILD        ILM        SPR   
# ...
 1181.5000     8.6353    97.2741     2.5263     0.0092    10.6771    10.7754    10.3877   -53.1842
 1182.0000     8.6357    96.8795     2.5234     0.0092    10.8705    10.8705    10.4795   -52.5961
 1182.5000     8.6163    96.0931     2.5214     0.0092    10.9665    10.9665    10.5720   -53.0019
 1183.0000     8.5967    97.4796     2.5244     0.0092    10.9625    10.9625    10.6654   -52.8114
 1183.5000     8.5971    99.4589     2.5254     0.0122    10.9585    10.9585    10.7596   -52.6208
 1184.0000     8.5974   101.0431     2.5214     0.0132    10.9545    10.9545    10.7557   -52.6291
 1184.5000     8.5779   102.0331     2.5224     0.0132    10.9505    10.8507    10.7517   -51.8421
 1185.0000     8.5663    99.2703     2.5234     0.0053    10.9465    10.8491    10.6498   -51.0551
 1185.5000     8.5588    97.8898     2.5254     0.0073    10.9425    10.6459    10.5488   -50.8628
 1186.0000     8.5195    96.1141     2.5314     0.0123    10.9385    10.5450    10.5450   -51.0715
 1186.5000     8.5197    95.5241     2.5334     0.0133    11.1366    10.4450    10.4450   -50.6804
 1187.0000     8.5018    94.9342     2.5364     0.0133    11.4427    10.3460    10.3460   -50.4897
 1187.5000     8.5007    94.1466     2.5469     0.0064    11.4385    10.3422    10.2479   -50.2991
 1188.0000     8.5010    93.9519     2.5444     0.0044    11.2268    10.2441    10.0582   -50.9499
 1188.5000     8.5013    94.3502     2.5405     0.0054    11.0190    10.2426     9.8720   -50.9548
 1189.0000     8.5213    95.7367     2.5375     0.0064    10.8166    10.0486     9.6892   -50.9598
 1189.5000     8.5216    97.5185     2.5300     0.0114    10.6148     9.9555     9.5099   -51.5678
 1190.0000     8.5219    99.2996     2.5435     0.0094    10.5141     9.8612     9.4190   -51.7749
 1190.5000     8.5420    99.3026     2.5495     0.0044    10.0398     9.7677     9.3297   -52.3797
 1191.0000     8.5423    99.3056     2.5594     0.0025    10.1029     9.6751     9.3263   -52.5869
 1191.5000     8.5426    99.5062     2.5634     0.0025    10.0072     9.6715     9.2379   -52.7940
 1192.0000     8.5429   100.8927     2.5605     0.0075    10.0036     9.4918     9.1503   -53.0011
 1192.5000     8.5432   102.0815     2.5555     0.0125    10.0021     9.4883     9.1470   -53.4071
 1193.0000     8.5237   103.2703     2.5515     0.0135     9.9963     9.3984     9.0603   -53.4154
 1193.5000     8.5098   103.8675     2.5496     0.0125     9.9016     9.3949     9.0569   -53.4237
 1194.0000     8.5046   104.4628     2.5456     0.0125     9.8980     9.3915     9.0536   -53.5898
 1194.5000     8.5048   101.1053     2.5396     0.0125     9.8043     9.3881     9.0503   -53.5980
 1195.0000     8.5049   100.7130     2.5397     0.0135     9.8000     9.4710     9.0470   -53.2085
 1195.5000     8.4856   100.7160     2.5456     0.0146     9.7964     9.4675     9.0437   -52.8189
 1196.0000     8.4859   101.5095     2.5566     0.0106     9.7929     9.4641     9.0404   -52.4293
 1196.5000     8.4467   100.3267     2.5566     0.0146     9.7893     9.4606     9.1209   -52.0397
 1197.0000     8.4470   100.3297     2.5417     0.0166     9.7857     9.4571     9.1169   -52.0480
 1197.5000     8.4473   100.5303     2.5308     0.0076     9.7821     9.5407     9.1136   -51.8573
 1198.0000     8.4476   100.9286     2.5268     0.0027     9.7786     9.5372     9.1102   -51.2687
 1198.5000     8.4477   101.5239     2.5388    -0.0023     9.7092     9.5337     9.1069   -51.0780
 1199.0000     8.4482   101.5269     2.5318    -0.0013     9.7064     9.5302     9.1036   -50.8872
 1199.5000     8.4485    97.7753     2.5269    -0.0013     9.9732     9.5267     9.1002   -51.0944
 1200.0000     8.4488    93.6283     2.5378     0.0027    10.1546     9.5232     9.0969   -51.1026
 1200.5000     8.5027    91.8501     2.5481     0.0018    10.1501     9.5197     9.0935   -51.6551
 1201.0000     8.5280    92.2459     2.5518     0.0057     9.9622     9.5163     9.0903   -51.9125
 1201.5000     8.5479    92.8393     2.5538     0.0107     9.9586     9.5128     9.1706   -52.1185
 1202.0000     8.5677    92.0495     2.5488     0.0187     9.9550     9.5093     9.1672   -52.8462
 1202.5000     8.6468    92.0500     2.5408     0.0187     9.8606     9.5066     9.2489   -52.9546
 1203.0000     8.6074    93.0387     2.5319     0.0087     9.8570     9.5024     9.2448   -53.0629
 1203.5000     8.6074    94.0273     2.5259    -0.0032     9.7636     9.4989     9.2421   -53.1712
 1204.0000     8.6075    94.8183     2.5398    -0.0022     9.7600     9.4955     9.2381   -53.2795
 1204.5000     8.6076    97.1903     2.5418    -0.0002     9.7323     9.4927     9.2347   -54.1507
 1205.0000     8.6077    98.5741     2.5448     0.0048     9.7288     9.4892     9.2314   -53.9573
 1205.5000     8.6077    99.5626     2.5458     0.0068     9.7252     9.4865     9.2280   -53.7653
 1206.0000     8.6078   100.3535     2.5458     0.0078     9.7217     9.4830     9.2246   -53.3745
 1206.5000     8.6079   103.1204     2.5329     0.0028     9.7181     9.4782     9.2213   -52.9836
 1207.0000     8.5930   104.3065     2.5289    -0.0002     9.7146     9.4747     9.2179   -52.5928
 1207.5000     8.5685   103.9117     2.5299     0.0048     9.7111     9.4713     9.2145   -52.0032
 1208.0000     8.5093   103.3196     2.5329     0.0118     9.7075     9.4678     9.1272   -51.8113
 1208.5000     8.5093   103.9127     2.5270     0.0048     9.7040     9.4643     9.1239   -51.4206
 1209.0000     8.4897   105.0989     2.5399     0.0108     9.7896     9.4609     9.1205   -51.0299
 1209.5000     8.4898   105.0990     2.5538     0.0198     9.8759     9.5445     9.1172   -50.8381
 1210.0000     8.4898   104.3092     2.5698     0.0257     9.9631     9.5410     9.1139   -50.6463
 1210.5000     8.4899   104.5073     2.5648     0.0218     9.9594     9.3644     9.1106   -50.8521
 1211.0000     8.4900   105.1005     2.5558     0.0148    10.0473     9.4471     9.1092   -51.0579
 1211.5000     8.4901   102.5323     2.5529     0.0118     9.9507     9.5305     9.1039   -51.6613
 1212.0000     8.4901    95.4201     2.5598     0.0108    10.0400     9.6147     9.1843   -51.8685
 1212.5000     8.4704    96.6059     2.5563     0.0168    10.0363     9.6997     9.1810   -52.0743
 1213.0000     8.4705    98.3845     2.5583     0.0158    10.1248     9.6961     9.0926   -52.4788
 1213.5000     8.4574   100.5585     2.5424     0.0118    10.1211     9.6042     9.0906   -52.6845
 1214.0000     8.4509   101.3492     2.5355     0.0148    10.0253     9.5132     9.0873   -53.2877
 1214.5000     8.4312   103.1279     2.5335     0.0158     9.9304     9.4230     9.1676   -53.4934
 1215.0000     8.4313   104.1161     2.5295     0.0148     9.8364     9.3337     9.1642   -53.6991
 1215.5000     8.4314   105.3021     2.5439     0.0178     9.7433     9.2452     9.0774   -53.9047
 1216.0000     8.4315   103.7219     2.5549     0.0178     9.6511     9.2418     9.0741   -53.9116
 1216.5000     8.4315   100.7590     2.5469     0.0129     9.6476     9.2385     9.0727   -53.7198
 1217.0000     8.4316   100.9571     2.5420     0.0099     9.6441     9.2351     9.0674   -53.5280
 1217.5000     8.4317   101.9453     2.5518     0.0059     9.6406     9.3167     9.0635   -53.3362
 1218.0000     8.4318   101.9457     2.5569     0.0129     9.6371     9.3133     9.0602   -52.9457
 1218.5000     8.4120   100.9585     2.5519     0.0119     9.6336     9.3119     9.0569   -52.5552
 1219.0000     8.4122    99.7737     2.5380     0.0089     9.7185     9.3058     9.0536   -51.7688
 1219.5000     8.4320    98.9839     2.5380     0.0049     9.7150     9.2176     9.0503   -51.3770
 1220.0000     8.4320    96.8113     2.5480     0.0049     9.7114     9.2142     8.9645   -51.1853
 1220.5000     8.4321    98.5899     2.5549     0.0069     9.5312     9.0437     8.8795   -50.7950
 1221.0000     8.4322    99.7757     2.5340     0.0119     9.4410     8.8763     8.6357   -50.6033
 1221.5000     8.4323    99.9737     2.5271     0.0159     9.2665     8.7120     8.4758   -50.6103
