~VERSION INFORMATION
 VERS.                2.0:   CWLS LOG ASCII STANDARD - VERSION 2.0
 WRAP.                 NO:   ONE LINE PER DEPTH STEP
~WELL INFORMATION
#MNEM.UNIT      DATA TYPE    INFORMATION
#----------   ------------   ------------------------------
 STRT.F          448.5000:   START DEPTH
 STOP.F         4490.5000:   STOP DEPTH
 STEP.F            0.5000:   STEP LENGTH
 NULL.          -999.2500:   NO VALUE
 COMP.  FENIX AND SCISSON:   COMPANY
 WELL. FENIX AND SCISSON NPR 3 #11-10:   WELL
 FLD .              NPR-3:   FIELD
 LOC .      S10 T38N R78W:   LOCATION
 CNTY.            NATRONA:   COUNTY
 STAT.            WYOMING:   STATE
 CTRY. UNITED STATES OF AMERICA:   COUNTRY
 SRVC.              WELEX:   SERVICE COMPANY
 DATE.        22-DEC-1978:   LOGDATE
 API .     49025107450000:   API NUMBER
~CURVE INFORMATION
#MNEM.UNIT       API CODE    CURVE DESCRIPTION
#----------   ------------   ------------------------------
 DEPT.F                  :   
 SPR .MV     07 010 01 00:   SPONTANEOUS POTENTIAL
 ILM .OHMM   07 120 44 00:   INDUCTION LOG MEDIUM
 ILD .OHMM   07 120 46 00:   DEEP RESISTIVITY
 SGRD.OHMM   07 220 01 00:   SHALLOW SHORT GUARD RESISTIVITY
 TENR.LBS    07 635 01 00:   TENSION FROM RESISTIVITY
 NPHI.DEC    42 890 03 00:   NEUTRON POROSITY SANDSTONE
 CALD.IN     45 280 60 00:   CALIPER FROM DENSITY LOG
 GRD .GAPI   45 310 01 00:   GAMMA RAY FROM DENSITY LOG
 RHOB.G/C3   45 350 01 00:   BULK DENSITY
 DRHO.G/C3   45 356 01 00:   DENSITY CORRECTION
 TEND.LBS    45 635 01 00:   TENSION FROM DENSITY
~PARAMETER INFORMATION
#MNEM.UNIT          VALUE    DESCRIPTION
#----------   ------------   ------------------------------
 EKB .F         5275.0000:   Kelly bushing
 EGL .F         5265.0000:   Ground level
 EDF .F            0.0000:   Drilling floor
 EPD .F         5265.0000:   Permanent datum
 TD  .F         4500.0000:   Total depth
 DATE.        22-DEC-1978:   Date logged
 CLNT.            A2DTECH:   Client Code
 SL  . 300' FNL & 500' FWL:   Surface Location
 DD  .F              4500:   Depth driller
 DL  .F              4481:   Depth logger
 BLI .F              4479:   Bottom log interval
 TLI .F               450:   Top log interval
 CS1 .IN            8.625:   Casing size
 CBD1.      8.625" @ 500':   Casing driller 1
 CBL1.F               473:   Casing logger 1
 BS1 .IN            7.875:   Bit size
 BSD1.F              4500:   Depth drilled with bit1
 DFT .               LSND:   Type fluid in hole
 DFD .                8.7:   Density
 DFV .                 49:   Viscosity
 DFPH.               11.0:   pH
 DFL .                7.6:   Fluid loss
 MSS .           FLOWLINE:   Source of sample
 RMS .OHMM            1.1:   Rm
 MST .F                86:   Rm Meas. temp.
 RMF .OHMM           0.73:   Rmf
 MFST.F                86:   Rmf Meas. temp.
 RMC .OHMM           1.68:   Rmc
 MCST.F                86:   Rmc Meas. temp.
 MFSS.               CALC:   Source Rmf.
 MCSS.               CALC:   Source Rmc.
 RMB .OHMM           0.72:   Rm. at BHT
 BHT .F               130:   BHT.
 TCS .HRS             3.5:   Time Circ. stopped
 MRT .F               130:   Maximum recorded temp.
 LUN .               9685:   Logging unit number
 LUL .             CASPER:   Logging unit location
 ENGI.            BENTSEN:   Recorded By
 WITN.           DINSMORE:   Witnessed by
 ORIG.           5" PRINT:   Origin of data
 UWI .     49025107450000:   Unique Well ID
 DICO. A2D TECHNOLOGIES, INC.:   Digitizing Company
~OTHER INFORMATION
~A  DEPTH      SPR        ILM        ILD       SGRD       TENR       NPHI       CALD        GRD       RHOB       DRHO       TEND
# ...
 4444.0000   -52.1778    15.6484    19.5345    22.1994  1747.5912     0.0380     8.0136   129.8213     2.5241     0.0511  2026.3750
 4444.5000   -52.1630    18.5439    20.7717    23.4916  1745.0302     0.0332     8.0151   158.9373     2.5212     0.0512  2026.6663
 4445.0000   -52.1481    20.8025    22.7541    20.3391  1733.4332     0.0319     7.9865   165.6739     2.5160     0.0514  2026.9575
 4445.5000   -52.0442    23.0071    25.4251    22.6990  1724.8494     0.0323     7.9730   162.1064     2.5131     0.0515  2027.2488
 4446.0000   -51.9704    25.2084    28.8337    47.2638  1722.2886     0.0360     7.9745   139.1373     2.5118     0.0531  2027.5399
 4446.5000   -51.9556    26.9172    32.6555    70.8254  1709.2590     0.0494     7.9760   101.6116     2.5164     0.0563  2027.8312
 4447.0000   -51.8360    27.7280    36.0998    75.3257  1690.6558     0.0641     7.9794    75.7104     2.5196     0.0591  2028.1224
 4447.5000   -51.6678    28.3732    39.7200    77.2659  1683.9952     0.0756     7.9940    67.6929     2.5197     0.0643  2028.4137
 4448.0000   -51.4997    27.7829    41.7344    61.9727  1681.5331     0.0813     7.9955    59.8990     2.5145     0.0702  2028.7050
 4448.5000   -51.4492    25.5198    43.5489    36.7307  1694.1312     0.0846     7.9935    58.3644     2.5064     0.0764  2028.9961
 4449.0000   -51.1385    23.4395    40.1240    27.1758  1706.7317  -999.2500     7.9835    57.9475     2.4990     0.0826  2029.2874
 4449.5000   -51.1242    21.2641    37.4834    21.8054  1704.2695  -999.2500     7.9760    59.0417     2.4894     0.0842  2029.5786
 4450.0000   -50.9618    18.5047    34.7752    20.8479  1708.8951  -999.2500     7.9570    62.7410     2.4805     0.0843  2029.8699
 4450.5000   -50.8603    16.0644    30.9376    25.6872  1713.7039  -999.2500     7.9533    71.2748     2.4738     0.0845  2030.1610
 4451.0000   -50.8058    14.9931    26.4146    25.1175  1718.5126  -999.2500     7.9340    79.7839     2.4604     0.0846  2030.4523
 4451.5000   -50.8963    14.2645    22.2982    21.1436  1723.3213  -999.2500     7.9323    84.3873     2.4553     0.0848  2030.7435
 4452.0000   -50.8741    13.5269    19.0617    18.8426  1734.3103  -999.2500     7.9200    87.8525     2.4554     0.0849  2031.0348
 4452.5000   -50.8519    12.4612    16.9097    17.5481  1747.4589  -999.2500     7.9003    90.2566     2.4563     0.0850  2031.3260
 4453.0000   -50.8865    11.1876    14.6392    16.9959  1763.1223  -999.2500     7.8891    92.7986     2.4594     0.0852  2031.6172
 4453.5000   -50.9555    10.0662    11.7877    16.6074  1761.2952  -999.2500     7.8928    93.9376     2.4648     0.0868  2031.9084
 4454.0000   -50.9333     9.2930     9.4167    15.6206  1758.7048  -999.2500     7.8966    94.1824     2.4702     0.0885  2032.1997
 4454.5000   -50.9839     8.5021     8.1791    12.9667  1756.4960  -999.2500     7.9003    92.1918     2.4741     0.0901  2032.4910
 4455.0000   -51.0370     7.7150     7.5074     9.9050  1754.2872  -999.2500     7.9046    65.3875     2.4734     0.0917  2032.7822
 4455.5000   -51.0148     6.9848     7.0484     8.9738  1752.0807  -999.2500     7.9081    13.5907     2.4713     0.0949  2033.0734
 4456.0000   -51.0815     6.1784     6.6666     9.4797  1749.8718  -999.2500     7.9117    10.1936     2.4797     0.0980  2033.3646
 4456.5000   -51.1185     5.6335     6.3057     8.1505  1762.7234  -999.2500     7.9152    10.0117     2.4881     0.1027  2033.6559
 4457.0000   -51.1959     5.2541     5.5088     6.3848  1760.5146  -999.2500     7.8861    10.0373     2.4950     0.1073  2034.1499
 4457.5000   -51.2222     4.9253     4.7480     5.6921  1758.2837  -999.2500     7.8578    10.0039     2.4967     0.1075  2034.8179
 4458.0000   -51.2000     4.6265     4.3181     5.4755  1756.0970  -999.2500     7.8366     9.7915     2.4908     0.1076  2035.4860
 4458.5000   -51.1778     4.4175     4.0837     5.4044  1768.9484  -999.2500     7.8358     9.5790     2.4855     0.1047  2036.1539
 4459.0000   -51.2998     4.2668     3.9574     5.4523  1766.5654  -999.2500     7.8236     9.4560     2.4820     0.1018  2036.8220
 4459.5000   -51.4265     4.1561     3.8514     5.5823  1764.3080  -999.2500     7.8243     9.3777     2.4851     0.0929  2037.4901
 4460.0000   -51.4050     4.1047     3.7687     5.7260  1762.0485  -999.2500     7.8216     9.2772     2.4875     0.0855  2038.1581
 4460.5000   -51.3836     4.0539     3.7068     5.6777  1760.1155  -999.2500     7.8018     9.2996     2.4884     0.0797  2038.8262
 4461.0000   -51.5103     4.1161     3.7118     5.4489  1772.9670  -999.2500     7.7706     9.3219     2.4878     0.0768  2039.4941
 4461.5000   -51.6370     4.2083     3.7426     5.4207  1770.7582  -999.2500     7.7474     9.3443     2.4864     0.0754  2040.1622
 4462.0000   -51.6148     4.3025     3.8527     5.5615  1783.1331  -999.2500     7.7236     9.2100     2.4843     0.0755  2040.8302
 4462.5000   -51.5941     4.4002     4.0213     5.6988  1780.8735  -999.2500     7.6910     9.1654     2.4821     0.0772  2041.4983
 4463.0000   -51.7208     4.5348     4.1972     5.8288  1778.6139  -999.2500     7.6945     8.9685     2.4793     0.0804  2042.1664
 4463.5000   -51.6993     4.7080     4.3832     6.1953  1780.6537  -999.2500     7.6830     8.9898     2.4779     0.0850  2042.8344
 4464.0000   -51.8260     4.9200     4.6141     6.5555  1789.1573  -999.2500     7.6712     9.0111     2.4780     0.0896  2043.5024
 4464.5000   -51.8000     5.1420     4.8573     6.6545  1786.8978  -999.2500     7.6589     9.0324     2.4812     0.0928  2044.1704
 4465.0000   -51.7778     5.3736     5.1131     6.7084  1789.9792  -999.2500     7.6486     9.0536     2.4843     0.0960  2044.8385
 4465.5000   -51.7556     5.6158     5.3824     6.5781  1797.4397  -999.2500     7.6529     9.2985     2.4852     0.0961  2045.5066
 4466.0000   -51.7810     5.8524     5.6521     7.0088  1795.1816  -999.2500     7.6702     9.0962     2.4838     0.0962  2046.1746
 4466.5000   -51.8593     6.0104     5.8573     9.1989  1792.9220  -999.2500  -999.2500     9.3443     2.4794     0.0948  2046.8427
 4467.0000   -51.8955     6.1052     6.0351    10.2076  1790.6625  -999.2500  -999.2500  -999.2500     2.4733     0.0860  2047.5106
 4467.5000   -51.9630     6.1772     6.1957     9.6916  1795.4663  -999.2500  -999.2500  -999.2500  -999.2500     0.0740  -999.2500
 4468.0000   -51.9408     6.1598     6.2680     8.9782  1808.6146  -999.2500  -999.2500  -999.2500  -999.2500  -999.2500  -999.2500
 4468.5000   -51.9185     6.0537     6.2626     7.8476  1814.0066  -999.2500  -999.2500  -999.2500  -999.2500  -999.2500  -999.2500
 4469.0000   -51.8963     5.8925     6.2268     7.2908  1811.7471  -999.2500  -999.2500  -999.2500  -999.2500  -999.2500  -999.2500
 4469.5000   -51.8741     5.8408     6.2076     7.2135  1809.4875  -999.2500  -999.2500  -999.2500  -999.2500  -999.2500  -999.2500
 4470.0000   -51.8518     5.8269     6.2294     7.1722  1807.2292  -999.2500  -999.2500  -999.2500  -999.2500  -999.2500  -999.2500
 4470.5000   -51.8296     5.7312     6.2242     6.8143  1804.9707  -999.2500  -999.2500  -999.2500  -999.2500  -999.2500  -999.2500
 4471.0000   -51.8074     5.7411     6.1327     7.0191  1793.2327  -999.2500  -999.2500  -999.2500  -999.2500  -999.2500  -999.2500
 4471.5000   -51.9510     5.7643     6.0384     7.5040  1785.3914  -999.2500  -999.2500  -999.2500  -999.2500  -999.2500  -999.2500
 4472.0000   -51.9350     5.7451     5.9601     7.7910  1772.9612  -999.2500  -999.2500  -999.2500  -999.2500  -999.2500  -999.2500
 4472.5000   -51.9202     5.6840     5.9432     7.9136  1765.8136  -999.2500  -999.2500  -999.2500  -999.2500  -999.2500  -999.2500
 4473.0000   -51.9055     5.6363     5.9189     7.4917  1763.5547  -999.2500  -999.2500  -999.2500  -999.2500  -999.2500  -999.2500
 4473.5000   -51.8604     5.5738     5.9166     6.6439  1761.2952  -999.2500  -999.2500  -999.2500  -999.2500  -999.2500  -999.2500
 4474.0000   -51.6938     5.5004     5.8841     6.1737  1759.0356  -999.2500  -999.2500  -999.2500  -999.2500  -999.2500  -999.2500
