~VERSION INFORMATION
 VERS.                2.0:   CWLS LOG ASCII STANDARD - VERSION 2.0
 WRAP.                 NO:   ONE LINE PER DEPTH STEP
~WELL INFORMATION
#MNEM.UNIT      DATA TYPE    INFORMATION
#----------   ------------   ------------------------------
 STRT.F            0.0000:   START DEPTH
 STOP.F         4000.0000:   STOP DEPTH
 STEP.F            0.5000:   STEP LENGTH
 NULL.          -999.2500:   NO VALUE
 COMP. LAWRENCE &  ALLISON ASSOC.:   COMPANY
 WELL. LAWRENCE NPR 3 "TX" #14-28:   WELL
 FLD .              N P R:   FIELD
 LOC .      S28 T39N R78W:   LOCATION
 CNTY.            NATRONA:   COUNTY
 STAT.            WYOMING:   STATE
 CTRY. UNITED STATES OF AMERICA:   COUNTRY
 SRVC.      DRESSER ATLAS:   SERVICE COMPANY
 DATE.        11-APR-1984:   LOGDATE
 API .     49025109710000:   API NUMBER
~CURVE INFORMATION
#MNEM.UNIT       API CODE    CURVE DESCRIPTION
#----------   ------------   ------------------------------
 DEPT.F                  :   
 RHOB.G/C3   45 350 01 00:   BULK DENSITY
 CORR.G/C3   45 356 01 00:   DENSITY CORRECTION
 TEND.LBS    45 635 01 00:   TENSION FROM DENSITY LOG
 CNC .DEC    42 890 03 00:   NEUTRON PORISITY SANDSTONE
 DT  .US/F   60 520 00 00:   DELTA TIME
 TENS.LBS    60 635 01 00:   TENSION FROM SONIC LOG
 GRR .GAPI   07 310 01 00:   GAMMA RAY FROM RESISTIVITY
 SPR .MV     07 010 01 00:   SPONTANEOUS POTENTIAL
 CALR.IN     07 280 01 00:   CALIPER FROM RESISTIVITY
 TENR.LBS    07 635 01 00:   TENSION
 RILD.OHMM   07 120 46 00:   INDUCTION LOG DEEP RESISTIVITY
 RILM.OHMM   07 120 44 00:   INDUCTION LOG MEDIUM RESISTIVITY
 RFOC.OHMM   07 220 01 00:   RESISTIVITY FOCUSED LOG RES.
~PARAMETER INFORMATION
#MNEM.UNIT          VALUE    DESCRIPTION
#----------   ------------   ------------------------------
 EKB .F         5024.0000:   Kelly bushing
 EGL .F         5014.0000:   Ground level
 TD  .F         3996.0000:   Total depth
 DATE.        11-APR-1984:   Date logged
 CLNT.            A2DTECH:   Client Code
 SL  . 250' FWL & 2100' FNL:   Surface Location
 PD  .                 GL:   Permanent Datum
 EPD .F              5014:   Elevation Permanent Datum
 LMF .                 KB:   Log Measured From
 DMF .                 KB:   Drilling Measured From
 DD  .F              3996:   Depth driller
 DL  .F              3994:   Depth logger
 BLI .F              3992:   Bottom log interval
 CS1 .IN            8.625:   Casing size
 CBD1.      8.625" @ 404':   Casing driller 1
 CBL1.F               404:   Casing logger 1
 BS1 .IN            7.875:   Bit size
 DFT .            GEL/KCL:   Type fluid in hole
 DFD .                9.1:   Density
 DFV .                 38:   Viscosity
 DFPH.                  8:   pH
 DFL .                 14:   Fluid loss
 MSS .           FLOWLINE:   Source of sample
 RMS .OHMM           .417:   Rm
 MST .F                90:   Rm Meas. temp.
 RMF .OHMM           .313:   Rmf
 MFST.F                90:   Rmf Meas. temp.
 RMC .OHMM           .521:   Rmc
 MCST.F                90:   Rmc Meas. temp.
 MFSS.               CALC:   Source Rmf.
 RMB .OHMM            .25:   Rm. at BHT
 BHT .F               150:   BHT.
 TCS .HRS               3:   Time Circ. stopped
 MRT .F               150:   Maximum recorded temp.
 LUN .               6307:   Logging unit number
 LUL .               GLTE:   Logging unit location
 ENGI.           FAHLSING:   Recorded By
 WITN.             STRONG:   Witnessed by
 ORIG.           5" PRINT:   Origin of data
 UWI .     49025109710000:   Unique Well ID
 DICO. A2D TECHNOLOGIES, INC.:   Digitizing Company
 DAPD.F                10:   Feet Above Permanent Datum
 BSD1.F              3996:   Depth drilled with bit1
 MCSS.               CALC:   Source Rmc.
~OTHER INFORMATION
~A    DEPT    RHOB       CORR       TEND        CNC         DT       TENS         GRR       SPR       CALR       TENR       RILD       RILM       RFOC   
# ...
  416.0000  -999.2500  -999.2500  -999.2500  -999.2500  -999.2500  -999.2500    97.9190   -25.7330     9.0030   -36.4610     8.0430     8.9220     7.2580
  416.5000  -999.2500  -999.2500  -999.2500  -999.2500  -999.2500  -999.2500    99.3730   -26.0210     9.0040   -36.1160     8.0040     8.9940     7.2260
  417.0000  -999.2500  -999.2500  -999.2500  -999.2500  -999.2500  -999.2500   100.8330   -26.3100     9.0050   -35.7710     7.9640     9.0700     7.1810
  417.5000  -999.2500  -999.2500  -999.2500  -999.2500  -999.2500  -999.2500   102.2900   -26.5980     9.0060   -35.4260     7.9240     9.1550     7.1350
  418.0000  -999.2500  -999.2500  -999.2500  -999.2500  -999.2500  -999.2500   103.7450   -26.8790     9.0060   -35.0810     7.8840     9.2120     7.0900
  418.5000  -999.2500  -999.2500  -999.2500  -999.2500  -999.2500  -999.2500   104.5330   -27.1880     9.0070   -34.7360     7.8450     9.1590     7.0440
  419.0000  -999.2500  -999.2500  -999.2500  -999.2500  -999.2500  -999.2500   104.5220   -27.4470     9.0080   -34.3910     7.8050     8.9920     6.9990
  419.5000  -999.2500  -999.2500  -999.2500  -999.2500  -999.2500  -999.2500   104.5660   -28.0460     9.0090   -34.0460     7.7650     8.8810     6.9540
  420.0000  -999.2500  -999.2500  -999.2500  -999.2500  -999.2500  -999.2500   102.4670   -28.8750     9.0100   -33.7010     7.7300     8.5210     6.9080
  420.5000  -999.2500  -999.2500  -999.2500  -999.2500  -999.2500  -999.2500    99.6000   -29.7170     9.0110   -33.3560     7.6660     8.1520     6.8630
  421.0000  -999.2500  -999.2500  -999.2500  -999.2500  -999.2500  -999.2500    96.8300   -30.5570     9.0110   -33.0110     7.5980     7.7820     6.8170
  421.5000  -999.2500  -999.2500  -999.2500  -999.2500  -999.2500  -999.2500   103.3100   -31.4010     9.0120   -32.6660     7.3500     7.4130     6.6730
  422.0000  -999.2500  -999.2500  -999.2500  -999.2500  -999.2500  -999.2500   106.8800   -32.0080     9.0130   -32.3210     7.0850     7.0010     6.3850
  422.5000  -999.2500  -999.2500  -999.2500  -999.2500  -999.2500  -999.2500   104.5870   -32.4280     9.0140   -31.9760     6.8190     6.5760     5.9000
  423.0000  -999.2500  -999.2500  -999.2500  -999.2500  -999.2500  -999.2500   102.3030   -32.7910     9.0150   -31.6310     6.4420     6.1510     5.4140
  423.5000  -999.2500  -999.2500  -999.2500  -999.2500  -999.2500  -999.2500   103.9300   -32.8210     9.0160   -31.2860     6.5600     5.7170     4.9280
  424.0000  -999.2500  -999.2500  -999.2500  -999.2500  -999.2500  -999.2500   105.8180   -32.8580     9.0160   -30.9410     6.7630     5.5110     4.6300
  424.5000  -999.2500  -999.2500  -999.2500  -999.2500  -999.2500  -999.2500   107.7190   -32.8960     9.0170   -30.5960     6.8690     6.2840     5.4820
  425.0000  -999.2500  -999.2500  -999.2500  -999.2500  -999.2500  -999.2500   107.6620   -32.9320     9.0180   -30.2500     7.0160     6.8060     6.0970
  425.5000  -999.2500  -999.2500  -999.2500  -999.2500  -999.2500  -999.2500   106.6010   -32.9830     9.0190   -29.9050     7.1570     6.8630     6.4580
  426.0000  -999.2500  -999.2500  -999.2500  -999.2500  -999.2500  -999.2500   105.5380   -33.3510     9.0200   -29.5600     7.2980     6.9320     6.8190
  426.5000  -999.2500  -999.2500  -999.2500  -999.2500  -999.2500  -999.2500   104.6090   -33.7300     9.0210   -29.2150     8.6390     7.6820     7.1800
  427.0000  -999.2500  -999.2500  -999.2500  -999.2500  -999.2500  -999.2500   106.8130   -34.1080     9.0210   -28.8700     9.1210     8.4050     7.4780
  427.5000  -999.2500  -999.2500  -999.2500  -999.2500  -999.2500  -999.2500   107.2700   -34.4850     9.0220   -28.5250     9.4700     8.6870     7.5560
  428.0000  -999.2500  -999.2500  -999.2500  -999.2500  -999.2500  -999.2500   106.8630   -34.8610     9.0230   -28.1800     9.7830     8.8890     7.6340
  428.5000  -999.2500  -999.2500  -999.2500  -999.2500  -999.2500  -999.2500   105.9320   -35.1440     9.0240   -27.8350    10.1410     8.9620     7.7130
  429.0000  -999.2500  -999.2500  -999.2500  -999.2500  -999.2500  -999.2500   104.9890   -35.1380     9.0250   -27.4900    10.5000     9.0450     7.7910
  429.5000  -999.2500  -999.2500  -999.2500  -999.2500  -999.2500  -999.2500   103.8740   -35.1370     9.0260   -27.1450    10.7670     9.1410     7.8690
  430.0000  -999.2500  -999.2500  -999.2500  -999.2500  -999.2500  -999.2500   103.0310   -35.1330     9.0260   -26.8000    10.8830     9.2320     7.9480
  430.5000  -999.2500  -999.2500  -999.2500  -999.2500  -999.2500  -999.2500   101.2770   -35.1890     9.0270   -26.4550    10.9920     9.3240     8.0260
  431.0000  -999.2500  -999.2500  -999.2500  -999.2500  -999.2500  -999.2500    99.5310   -35.5100     9.0280   -26.1100    11.1010     9.4150     8.1050
  431.5000  -999.2500  -999.2500  -999.2500  -999.2500  -999.2500  -999.2500    99.3330   -36.1210     9.0290   -25.7650    11.2110     9.5070     8.1770
  432.0000  -999.2500  -999.2500  -999.2500  -999.2500  -999.2500  -999.2500   100.4930   -36.7170     9.0300   -25.4490    11.3200     9.5980     8.2350
  432.5000  -999.2500  -999.2500  -999.2500  -999.2500  -999.2500  -999.2500    99.6720   -37.3090     9.0300   -25.4490    11.3770     9.6450     8.2880
  433.0000  -999.2500  -999.2500  -999.2500  -999.2500  -999.2500  -999.2500    95.5410   -37.7600     9.0310   -25.5320    11.2570     9.6450     8.3420
  433.5000  -999.2500  -999.2500  -999.2500  -999.2500  -999.2500  -999.2500    95.4380   -37.8820     9.0320   -25.6510    11.2440     9.6450     8.3950
  434.0000  -999.2500  -999.2500  -999.2500  -999.2500  -999.2500  -999.2500    97.4510   -37.7840     9.0330   -25.7710    11.2320     9.6450     8.4490
  434.5000  -999.2500  -999.2500  -999.2500  -999.2500  -999.2500  -999.2500   100.0180   -37.6880     9.0340   -25.8900    11.2200     9.6450     8.5030
  435.0000  -999.2500  -999.2500  -999.2500  -999.2500  -999.2500  -999.2500   102.5940   -37.5920     9.0350   -26.0100    11.2070     9.6450     8.5610
  435.5000  -999.2500  -999.2500  -999.2500  -999.2500  -999.2500  -999.2500   105.1750   -37.5100     9.0350   -26.1290    11.1950     9.6450     8.4980
  436.0000  -999.2500  -999.2500  -999.2500  -999.2500  -999.2500  -999.2500   107.6160   -37.7340     9.0360   -26.2490    11.1830     9.6460     8.4300
  436.5000  -999.2500  -999.2500  -999.2500  -999.2500  -999.2500  -999.2500   107.6970   -37.9700     9.0370   -26.3680    11.1700     9.5480     8.3630
  437.0000  -999.2500  -999.2500  -999.2500  -999.2500  -999.2500  -999.2500   107.7030   -38.2030     9.0380   -26.4880    11.0050     9.4450     8.2950
  437.5000  -999.2500  -999.2500  -999.2500  -999.2500  -999.2500  -999.2500   105.1720   -38.5190     9.0390   -26.6070    10.8290     9.3410     8.2270
  438.0000  -999.2500  -999.2500  -999.2500  -999.2500  -999.2500  -999.2500   101.3040   -38.8740     9.0400   -26.7270    10.6530     9.2380     8.1590
  438.5000  -999.2500  -999.2500  -999.2500  -999.2500  -999.2500  -999.2500    97.4360   -39.2310     9.0400   -26.8470    10.4770     9.1990     8.0920
  439.0000  -999.2500  -999.2500  -999.2500  -999.2500  -999.2500  -999.2500    93.9440   -39.5880     9.0410   -26.9660    10.3010     9.1810     8.0310
  439.5000  -999.2500  -999.2500  -999.2500  -999.2500  -999.2500  -999.2500    93.8130   -39.9440     9.0430   -27.0860    10.1800     9.1640     7.9700
  440.0000  -999.2500  -999.2500  -999.2500  -999.2500  -999.2500  -999.2500    97.4460   -40.3020     9.0440   -27.2050    10.1530     9.1460     7.9090
  440.5000  -999.2500  -999.2500  -999.2500  -999.2500  -999.2500  -999.2500   102.4210   -40.6630     9.0450   -27.3250    10.1260     9.1280     7.8480
  441.0000  -999.2500  -999.2500  -999.2500  -999.2500  -999.2500  -999.2500   107.3850   -41.0230     9.0470   -27.4440    10.0980     9.1100     7.8100
  441.5000  -999.2500  -999.2500  -999.2500  -999.2500  -999.2500  -999.2500   110.2260   -40.7780     9.0480   -27.5640    10.0710     9.0920     8.0370
