~VERSION INFORMATION
 VERS.                2.0:   CWLS LOG ASCII STANDARD - VERSION 2.0
 WRAP.                 NO:   ONE LINE PER DEPTH STEP
~WELL INFORMATION
#MNEM.UNIT      DATA TYPE    INFORMATION
#----------   ------------   ------------------------------
 STRT.F            0.0000:   START DEPTH
 STOP.F          619.0000:   STOP DEPTH
 STEP.F            0.5000:   STEP LENGTH
 NULL.          -999.2500:   NO VALUE
 COMP.       FLUOR DANIEL:   COMPANY
 WELL.      FLUOR X #52-3:   WELL
 FLD .                NPR:   FIELD
 LOC .       S3 T38N R78W:   LOCATION
 CNTY.            NATRONA:   COUNTY
 STAT.            WYOMING:   STATE
 CTRY. UNITED STATES OF AMERICA:   COUNTRY
 SRVC.     ATLAS WIRELINE:   SERVICE COMPANY
 DATE.        18-AUG-1994:   LOGDATE
 API .     49025226460000:   API NUMBER
~CURVE INFORMATION
#MNEM.UNIT       API CODE    CURVE DESCRIPTION
#----------   ------------   ------------------------------
 DEPT.F                  :   
 GRR .GAPI   07 310 01 00:   GAMMA RAY FROM RESISTIVITY
 TENR.LBS    07 635 01 00:   TENSION
 RILD.OHMM   07 120 46 00:   INDUCTION LOG DEEP RESISTIVITY
 RILM.OHMM   07 120 44 00:   INDUCTION LOG MEDIUM RESISTIVITY
~PARAMETER INFORMATION
#MNEM.UNIT          VALUE    DESCRIPTION
#----------   ------------   ------------------------------
 EKB .F         5131.0000:   Kelly bushing
 EGL .F         5121.0000:   Ground level
 EDF .F         5130.0000:   Drilling floor
 EPD .F         5121.0000:   Permanent datum
 TD  .F          611.0000:   Total depth
 DATE.        18-AUG-1994:   Date logged
 CLNT.            A2DTECH:   Client Code
 SL  . 699' FNL & 2048' FEL:   Surface Location
 PD  .                 GL:   Permanent Datum
 LMF .                 KB:   Log Measured From
 DMF .                 KB:   Drilling Measured From
 DAPD.F                10:   Feet Above Permanent Datum
 DD  .F               580:   Depth driller
 DL  .F               611:   Depth logger
 BLI .F               609:   Bottom log interval
 CS1 .IN            9.625:   Casing size
 CBD1.       9.625" @ 54':   Casing driller 1
 CBL1.F                56:   Casing logger 1
 BS1 .IN             8.75:   Bit size
 BSD1.F               580:   Depth drilled with bit1
 DFT .                AIR:   Type fluid in hole
 LUN .            HL 6530:   Logging unit number
 LUL .             CASPER:   Logging unit location
 WITN.        GARY STRONG:   Witnessed by
 ORIG.           5" PRINT:   Origin of data
 UWI .     49025226460000:   Unique Well ID
 DICO. A2D TECHNOLOGIES, INC.:   Digitizing Company
~OTHER INFORMATION
~A    DEPT      GRR      TENR       RILD       RILM   
# ...
  146.0000   140.7850   -45.8050     8.7370     8.8720
  146.5000   139.9980   -50.7780     8.7100     8.8220
  147.0000   138.4520   -51.6850     8.6840     8.7720
  147.5000   133.9530   -47.9550     8.6570     8.7220
  148.0000   134.7010   -44.2250     8.6300     8.6730
  148.5000   135.2530   -40.4950     8.6040     8.6320
  149.0000   135.0340   -36.7660     8.5770     8.6510
  149.5000   136.2700   -33.2660     8.5520     8.6670
  150.0000   139.4120   -37.1740     8.6220     8.6830
  150.5000   142.2770   -41.6720     8.6870     8.6990
  151.0000   139.2850   -46.1700     8.7520     8.7410
  151.5000   135.3910   -50.6690     8.8650     8.9390
  152.0000   134.1170   -52.8400     9.0630     9.1370
  152.5000   135.2760   -51.3220     9.2600     9.3350
  153.0000   137.3970   -49.8040     9.4580     9.5330
  153.5000   137.5590   -48.2860     9.6550     9.7310
  154.0000   133.1060   -46.7680     9.8530     9.9290
  154.5000   129.4690   -45.2500    10.0500    10.1260
  155.0000   132.3240   -43.7320    10.2470    10.2970
  155.5000   133.5670   -44.4790    10.4450    10.4750
  156.0000   130.5510   -45.9970    10.5950    10.6640
  156.5000   128.0600   -47.5150    10.7300    10.8530
  157.0000   128.9200   -49.0330    10.8660    10.9730
  157.5000   131.2510   -50.5510    11.1270    11.0770
  158.0000   132.0280   -52.0690    11.4130    11.3820
  158.5000   131.3610   -52.7870    11.6990    11.7190
  159.0000   128.7760   -46.7150    11.9100    12.0410
  159.5000   125.7220   -40.6430    12.0580    12.3330
  160.0000   123.6480   -34.5710    12.1750    12.6310
  160.5000   122.6730   -35.1080    12.2970    12.6600
  161.0000   121.7280   -37.4540    12.4190    12.6910
  161.5000   120.7280   -39.8000    12.5420    12.7210
  162.0000   118.6990   -42.1460    12.6310    12.7490
  162.5000   117.1930   -43.3470    12.4650    12.5810
  163.0000   117.6050   -43.3470    12.3340    12.4240
  163.5000   119.4440   -43.3470    12.2030    12.2680
  164.0000   119.7410   -43.3470    12.0610    12.1110
  164.5000   116.1980   -42.2000    11.9160    11.9550
  165.0000   113.3270   -40.7260    11.7700    11.7990
  165.5000   115.6740   -39.2510    11.6250    11.6420
  166.0000   117.0340   -37.7760    11.4800    11.4860
  166.5000   113.2390   -36.3020    11.4050    11.4050
  167.0000   111.2110   -34.8270    11.4280    11.4480
  167.5000   114.6070   -33.2660    11.4440    11.4780
  168.0000   117.9760   -38.6650    11.4600    11.5080
  168.5000   118.3660   -44.4000    11.4760    11.5370
  169.0000   118.7880   -50.1340    11.4920    11.5670
  169.5000   120.1800   -52.4720    11.5120    11.5960
  170.0000   120.5550   -50.2280    11.4690    11.6180
  170.5000   120.0050   -47.9840    11.4040    11.5140
  171.0000   119.2060   -45.7400    11.3400    11.4300
  171.5000   120.4220   -43.4960    11.2750    11.3470
  172.0000   122.6570   -41.2520    11.2100    11.2630
  172.5000   124.8370   -39.0080    11.0660    11.1660
  173.0000   127.1280   -36.7640    10.8980    11.0020
  173.5000   126.1390   -34.5200    10.7290    10.8380
  174.0000   122.6330   -32.2760    10.5600    10.6740
  174.5000   119.2290   -30.0320    10.3920    10.5090
  175.0000   118.8820   -27.7880    10.2230    10.3450
  175.5000   119.2690   -25.5430    10.1020    10.2590
  176.0000   119.8320   -23.1850    10.0850    10.2050
  176.5000   121.4560   -26.7700    10.0670    10.1510
  177.0000   122.5250   -30.5470    10.0490    10.1050
  177.5000   122.7200   -34.3230    10.0320    10.0890
  178.0000   121.2300   -38.1000    10.0140    10.0740
  178.5000   118.9860   -41.8760     9.9490    10.0590
  179.0000   116.8290   -45.6530     9.8850    10.0430
  179.5000   117.3900   -49.4300     9.8220    10.0280
  180.0000   117.8330   -53.4270     9.7590    10.0080
  180.5000   116.0830   -43.7100     9.6960     9.9610
  181.0000   112.7060   -33.3870     9.6330     9.9140
  181.5000   110.4020   -23.1850     9.5700     9.8670
  182.0000   112.3600   -25.5240     9.5070     9.8200
  182.5000   116.7040   -27.8350     9.4650     9.7730
  183.0000   120.5650   -30.1460     9.4490     9.7290
  183.5000   121.1570   -32.4570     9.4330     9.6910
  184.0000   121.5780   -34.7680     9.4170     9.6520
  184.5000   121.5720   -37.0790     9.4010     9.6140
  185.0000   121.5730   -39.3900     9.3840     9.5760
  185.5000   121.5650   -41.7010     9.3160     9.4950
  186.0000   121.5110   -44.0120     9.2460     9.3840
  186.5000   123.5550   -46.3230     9.1750     9.2730
  187.0000   125.8890   -48.6340     9.1050     9.1620
  187.5000   126.4140   -50.9450     8.9960     8.9800
  188.0000   126.4210   -53.4270     8.5220     8.6800
  188.5000   126.2620   -49.4460     8.2430     8.3810
  189.0000   125.3950   -45.1440     8.0350     8.0810
  189.5000   123.2810   -40.8430     7.8600     7.9810
  190.0000   122.2480   -36.5420     7.8260     7.9400
  190.5000   123.5240   -33.3630     7.7930     8.0060
  191.0000   124.3600   -33.7700     7.7590     8.0700
  191.5000   124.1550   -34.1770     7.7220     8.1340
  192.0000   123.7950   -34.5840     7.8130     8.1990
  192.5000   122.4280   -34.9920     7.9140     8.2630
  193.0000   121.7650   -35.3990     8.0160     8.3220
  193.5000   123.7550   -35.8060     8.1180     8.3500
  194.0000   130.3360   -36.2130     8.2190     8.3790
  194.5000   133.9930   -36.6200     8.3170     8.3950
  195.0000   131.6510   -37.0270     8.2770     8.3950
  195.5000   130.9020   -37.4340     8.2400     8.3950
  196.0000   131.8970   -37.8410     8.3450     8.3950
  196.5000   129.6420   -38.2480     8.4420     8.4830
  197.0000   126.3000   -38.6560     8.5390     8.6530
  197.5000   124.2810   -39.0630     8.6350     8.8230
  198.0000   124.2800   -39.4700     8.7320     8.9620
  198.5000   125.2800   -39.8770     8.8290     8.9760
  199.0000   128.1740   -40.2840     8.9260     8.9910
  199.5000   130.8660   -40.6910     8.9770     9.0060
  200.0000   131.6180   -41.0980     9.0060     9.0210
  200.5000   130.0920   -41.5050     9.0420     9.0420
  201.0000   127.6240   -41.9120     8.9720     8.9900
  201.5000   125.9180   -42.3200     8.8770     8.8930
  202.0000   128.8860   -42.7270     8.7830     8.7970
  202.5000   132.5280   -43.1340     8.6880     8.7010
  203.0000   132.8090   -42.8880     8.5930     8.6320
  203.5000   131.5550   -41.9240     8.4990     8.6570
  204.0000   131.0230   -40.9610     8.4610     8.6770
  204.5000   130.2000   -39.9980     8.4440     8.6970
  205.0000   128.8130   -39.0340     8.4270     8.7130
  205.5000   129.7220   -38.0710     8.4100     8.6980
  206.0000   130.8860   -37.1080     8.3950     8.6640
  206.5000   129.1300   -36.1450     8.4220     8.6310
  207.0000   128.1830   -35.1810     8.4470     8.5980
  207.5000   128.4000   -34.2180     8.4730     8.5640
  208.0000   128.6440   -33.2660     8.4420     8.5310
  208.5000   128.7050   -35.6050     8.4090     8.4970
  209.0000   127.9300   -37.9170     8.3760     8.4640
  209.5000   125.8250   -40.2280     8.3440     8.4300
  210.0000   124.1960   -42.5400     8.3120     8.3970
  210.5000   126.4920   -44.8520     8.2790     8.3640
  211.0000   131.4030   -47.1640     8.2470     8.3300
  211.5000   133.1250   -49.4760     8.1570     8.2770
  212.0000   127.4950   -51.7880     8.0530     8.1800
  212.5000   122.5220   -52.9060     7.9500     8.0840
  213.0000   123.0950   -51.1120     7.8470     7.9870
  213.5000   125.3470   -49.3190     7.7440     7.8910
  214.0000   127.6210   -47.5250     7.6400     7.7940
  214.5000   128.2910   -45.7310     7.4490     7.5400
  215.0000   128.6050   -43.9380     7.1320     7.2850
  215.5000   128.4170   -43.7940     6.8160     7.0030
  216.0000   126.6340   -44.4610     6.5000     6.6520
  216.5000   125.2820   -45.1280     6.3130     6.3480
  217.0000   126.5100   -45.7950     6.2370     6.2950
  217.5000   131.5470   -46.4610     6.2870     6.3860
  218.0000   136.4290   -47.1280     6.3370     6.5380
  218.5000   134.5540   -47.7950     6.3830     6.6900
