~VERSION INFORMATION
 VERS.                2.0:   CWLS LOG ASCII STANDARD - VERSION 2.0
 WRAP.                 NO:   ONE LINE PER DEPTH STEP
~WELL INFORMATION
#MNEM.UNIT      DATA TYPE    INFORMATION
#----------   ------------   ------------------------------
 STRT.F           15.0000:   START DEPTH
 STOP.F         3245.5000:   STOP DEPTH
 STEP.F            0.5000:   STEP LENGTH
 NULL.          -999.2500:   NO VALUE
 COMP. LAWRENCE ALLISON AND ASSOCIATES:   COMPANY
 WELL. LAWRENCE ALLISON 11 X34 #3-3:   WELL
 FLD .             NPR #3:   FIELD
 LOC .       S3 T38N R78W:   LOCATION
 CNTY.            NATRONA:   COUNTY
 STAT.            WYOMING:   STATE
 CTRY. UNITED STATES OF AMERICA:   COUNTRY
 SRVC.      DRESSER ATLAS:   SERVICE COMPANY
 DATE.        23-MAY-1985:   LOGDATE
 API .     49025110530000:   API NUMBER
~CURVE INFORMATION
#MNEM.UNIT       API CODE    CURVE DESCRIPTION
#----------   ------------   ------------------------------
 DEPT.F                  :   
 SPR .MV     07 010 01 00:   SPONTANEOUS POTENTIAL
 GRR .GAPI   07 310 01 00:   GAMMA RAY FROM RESISTIVITY
 SFL .OHMM   07 220 01 00:   SHALLOW FOCUSED LOG RES.
 ILD .OHMM   07 120 46 00:   INDUCTION LOG DEEP RESISTIVITY
 ILM .OHMM   07 120 44 00:   INDUCTION LOG MEDIUM RESISTIVITY
 TENR.LBS    07 635 01 00:   TENSION
 CALR.IN     07 280 01 00:   CALIPER FROM RESISTIVITY
 RHOB.G/C3   45 350 01 00:   BULK DENSITY
 CORR.G/C3   45 356 01 00:   DENSITY CORRECTION
 CNC .DEC    42 890 03 00:   NEUTRON POROSITY SANDSTONE
~PARAMETER INFORMATION
#MNEM.UNIT          VALUE    DESCRIPTION
#----------   ------------   ------------------------------
 EKB .F         5099.0000:   Kelly bushing
 EGL .F         5087.0000:   Ground level
 EDF .F            0.0000:   Drilling floor
 EPD .F         5087.0000:   Permanent datum
 TD  .F         3240.0000:   Total depth
 DATE.         2-MAY-1985:   Date logged
 CLNT.            A2DTECH:   Client Code
 PD  .                 GL:   Permanent Datum
 DD  .F              3239:   Depth driller
 DL  .F              3242:   Depth logger
 BLI .F              3240:   Bottom log interval
 TLI .F                15:   Top log interval
 CS1 .IN            8.625:   Casing size
 CBD1.      8.625" @ 487':   Casing driller 1
 CBL1.F               487:   Casing logger 1
 BSD1.F              3239:   Depth drilled with bit1
 DFT .            KCL GEL:   Type fluid in hole
 ENGI.      MACK. EDWARDS:   Recorded By
 WITN.         MR. STRONG:   Witnessed by
 ORIG.           5" PRINT:   Origin of data
 UWI .     49025110530000:   Unique Well ID
 DICO. A2D TECHNOLOGIES, INC.:   Digitizing Company
 DAPD.IN               12:   Feet Above Permanent Datum
 BS1 .              7.875:   Bit size
 DFD .                9.1:   Density
 DFV .                 35:   Viscosity
 DFPH.                  8:   pH
 DFL .                9.8:   Fluid loss
 MSS .           FLOWLINE:   Source of sample
 RMS .OHMM            .27:   Rm
 MST .F                68:   Rm Meas. temp.
 RMF .OHMM             .2:   Rmf
 MFST.F                68:   Rmf Meas. temp.
 MFSS.               MEAS:   Source Rmf.
 RMC .OHMM            .34:   Rmc
 MCST.F                68:   Rmc Meas. temp.
 MCSS.               CALC:   Source Rmc.
 RMB .OHMM            .15:   Rm. at BHT
 BHT .F               126:   BHT.
 TCS .HRS               3:   Time Circ. stopped
 MRT .F               126:   Maximum recorded temp.
 LUN .               6274:   Logging unit number
 LUL .               GLTE:   Logging unit location
~OTHER INFORMATION
~A   DEPT      SPR        GRR        SFL        ILD        ILM       TENR       CALR       RHOB       CORR        CNC   
# ...
 1221.0000   -72.0390    68.9948     8.1057     9.0312     7.9581   -44.6177  -999.2500  -999.2500  -999.2500  -999.2500
 1221.5000   -72.0386    70.1883     8.2566     9.1123     7.9584   -34.7360  -999.2500  -999.2500  -999.2500  -999.2500
 1222.0000   -73.2256    72.8699     8.5666     9.2203     7.9957   -34.8348  -999.2500  -999.2500  -999.2500  -999.2500
 1222.5000   -73.0252    71.9800     8.7261     9.2206     8.0332   -34.9336  -999.2500  -999.2500  -999.2500  -999.2500
 1223.0000   -73.0232    68.4113     8.7270     9.2216     8.0709   -45.0130  -999.2500  -999.2500  -999.2500  -999.2500
 1223.5000   -72.8228    66.0332     8.7277     9.1938     8.1095   -45.1118  -999.2500  -999.2500  -999.2500  -999.2500
 1224.0000   -72.8209    65.4409     8.4137     9.1660     8.1098   -75.1523  -999.2500  -999.2500  -999.2500  -999.2500
 1224.5000   -72.6205    64.8486     8.2611     9.1384     8.0756   -55.2900  -999.2500  -999.2500  -999.2500  -999.2500
 1225.0000   -72.4201    64.5557     8.2620     9.1108     8.0416   -55.4086  -999.2500  -999.2500  -999.2500  -999.2500
 1225.5000   -72.4189    64.8551     8.2629     9.0833     8.0077   -55.5074  -999.2500  -999.2500  -999.2500  -999.2500
 1226.0000   -72.4162    65.4527     8.2635     9.0559     7.9739   -25.6645  -999.2500  -999.2500  -999.2500  -999.2500
 1226.5000   -72.8110    65.7539     8.4176     9.0285     7.9403   -55.7050  -999.2500  -999.2500  -999.2500  -999.2500
 1227.0000   -72.8091    66.3521     8.5744     9.0013     7.9069   -45.8233  -999.2500  -999.2500  -999.2500  -999.2500
 1227.5000   -72.8071    66.9503     8.5753     8.9741     7.8735   -55.9026  -999.2500  -999.2500  -999.2500  -999.2500
 1228.0000   -72.8051    68.1432     8.2665     8.9470     7.8404   -56.0015  -999.2500  -999.2500  -999.2500  -999.2500
 1228.5000   -73.0012    69.3367     8.1169     8.9200     7.8240   -46.1197  -999.2500  -999.2500  -999.2500  -999.2500
 1229.0000   -72.9992    71.1254     8.1175     8.8931     7.8168   -46.2185  -999.2500  -999.2500  -999.2500  -999.2500
 1229.5000   -72.9973    74.1047     7.9705     8.8663     7.8096   -46.3174  -999.2500  -999.2500  -999.2500  -999.2500
 1230.0000   -72.9953    77.0857     7.9711     8.8395     7.8024   -56.4165  -999.2500  -999.2500  -999.2500  -999.2500
 1230.5000   -72.7949    76.4916     8.1198     8.8128     7.7953   -56.4955  -999.2500  -999.2500  -999.2500  -999.2500
 1231.0000   -72.5945    73.8159     8.1204     8.7862     7.7881   -56.5746  -999.2500  -999.2500  -999.2500  -999.2500
 1231.5000   -72.3941    70.5455     8.1213     8.7597     7.7809   -36.7321  -999.2500  -999.2500  -999.2500  -999.2500
 1232.0000   -71.9953    69.9532     8.1219     8.7413     7.7738   -36.8309  -999.2500  -999.2500  -999.2500  -999.2500
 1232.5000   -71.9934    70.8490     8.1228     8.7422     7.7666   -46.9103  -999.2500  -999.2500  -999.2500  -999.2500
 1233.0000   -71.9914    71.7449     8.2740     8.7430     7.7595   -47.0091  -999.2500  -999.2500  -999.2500  -999.2500
 1233.5000   -71.9894    71.1526     8.4284     8.7438     7.7524   -47.1079  -999.2500  -999.2500  -999.2500  -999.2500
 1234.0000   -71.9875    70.2626     8.2755     8.7446     7.7452   -57.1873  -999.2500  -999.2500  -999.2500  -999.2500
 1234.5000   -72.4463    69.9679     7.9778     8.7454     7.7381   -57.2861  -999.2500  -999.2500  -999.2500  -999.2500
 1235.0000   -72.5788    71.1614     7.9787     8.7463     7.7310   -67.3852  -999.2500  -999.2500  -999.2500  -999.2500
 1235.5000   -72.3784    70.8667     7.9792     8.7471     7.7239   -67.4840  -999.2500  -999.2500  -999.2500  -999.2500
 1236.0000   -72.3764    69.9768     8.1281     8.7479     7.7168   -67.5828  -999.2500  -999.2500  -999.2500  -999.2500
 1236.5000   -72.5729    68.7892     8.1287     8.7487     7.7097   -67.6817  -999.2500  -999.2500  -999.2500  -999.2500
 1237.0000   -72.9678    68.1969     8.1296     8.7495     7.7026   -67.7805  -999.2500  -999.2500  -999.2500  -999.2500
 1237.5000   -73.1642    67.6046     8.1302     8.7504     7.6955   -67.8793  -999.2500  -999.2500  -999.2500  -999.2500
 1238.0000   -73.3607    67.3099     8.1311     8.7512     7.6884   -67.9781  -999.2500  -999.2500  -999.2500  -999.2500
 1238.5000   -73.3603    67.6111     8.1316     8.7520     7.6814   -68.0769  -999.2500  -999.2500  -999.2500  -999.2500
 1239.0000   -73.5548    67.6140     8.1325     8.7528     7.6743   -68.1758  -999.2500  -999.2500  -999.2500  -999.2500
 1239.5000   -73.3544    67.6170     7.9850     8.7534     7.6673   -68.2746  -999.2500  -999.2500  -999.2500  -999.2500
 1240.0000   -72.9556    67.6199     7.9859     8.5950     7.6602   -68.3734  -999.2500  -999.2500  -999.2500  -999.2500
 1240.5000   -72.9536    67.0276     7.9865     8.5958     7.6532   -68.4722  -999.2500  -999.2500  -999.2500  -999.2500
 1241.0000   -72.7532    68.2211     8.1355     8.5966     7.6461   -68.5710  -999.2500  -999.2500  -999.2500  -999.2500
 1241.5000   -72.7513    69.1169     8.1361     8.5974     7.6391   -68.6698  -999.2500  -999.2500  -999.2500  -999.2500
 1242.0000   -72.1540    69.1199     8.1370     8.5982     7.6321   -78.7492  -999.2500  -999.2500  -999.2500  -999.2500
 1242.5000   -72.1517    66.4441     8.1376     8.5990     7.6251   -68.8675  -999.2500  -999.2500  -999.2500  -999.2500
 1243.0000   -72.1501    65.8518     7.8449     8.5998     7.6181   -58.9857  -999.2500  -999.2500  -999.2500  -999.2500
 1243.5000   -72.1485    67.9382     7.8455     8.6006     7.6111   -59.0846  -999.2500  -999.2500  -999.2500  -999.2500
 1244.0000   -72.1454    70.0257     7.8464     8.6014     7.6041   -59.1834  -999.2500  -999.2500  -999.2500  -999.2500
 1244.5000   -72.3426    66.4559     7.8469     8.6022     7.5971   -69.2627  -999.2500  -999.2500  -999.2500  -999.2500
 1245.0000   -72.5391    62.5897     7.9933     8.6028     7.5901   -69.3616  -999.2500  -999.2500  -999.2500  -999.2500
 1245.5000   -72.5371    63.1879     8.1422     8.6034     7.5831   -59.4996  -999.2500  -999.2500  -999.2500  -999.2500
 1246.0000   -72.7336    65.5719     8.1430     8.6044     7.5660   -79.5595  -999.2500  -999.2500  -999.2500  -999.2500
 1246.5000   -73.1289    68.2529     8.1436     8.6053     7.5666   -69.6778  -999.2500  -999.2500  -999.2500  -999.2500
 1247.0000   -73.0058    65.2802     7.9962     8.6059     7.5668   -69.7766  -999.2500  -999.2500  -999.2500  -999.2500
 1247.5000   -72.9261    64.0932     7.9968     8.6069     7.5677   -69.8754  -999.2500  -999.2500  -999.2500  -999.2500
 1248.0000   -72.7257    64.9890     7.9977     8.6075     7.5686   -79.9548  -999.2500  -999.2500  -999.2500  -999.2500
 1248.5000   -72.3269    65.5872     7.9983     8.6084     7.5699   -60.0925  -999.2500  -999.2500  -999.2500  -999.2500
 1249.0000   -72.3249    67.9706     8.1475     8.6091     7.5701   -60.1913  -999.2500  -999.2500  -999.2500  -999.2500
 1249.5000   -72.5214    70.0570     8.1481     8.6100     7.4877   -60.2901  -999.2500  -999.2500  -999.2500  -999.2500
 1250.0000   -72.9159    71.2517     8.1490     8.6106     7.4061   -60.3889  -999.2500  -999.2500  -999.2500  -999.2500
 1250.5000   -73.1123    71.2528     8.0018     8.4548     7.3254   -60.4878  -999.2500  -999.2500  -999.2500  -999.2500
 1251.0000   -73.1103    69.4706     8.0021     8.4554     7.2456   -60.5866  -999.2500  -999.2500  -999.2500  -999.2500
 1251.5000   -73.1084    67.6895     7.8569     8.3024     7.1675   -60.6854  -999.2500  -999.2500  -999.2500  -999.2500
 1252.0000   -73.1064    67.0960     7.7147     8.1515     7.0375   -60.7842  -999.2500  -999.2500  -999.2500  -999.2500
 1252.5000   -73.1045    67.9919     7.7153     8.0988     6.9101   -60.8830  -999.2500  -999.2500  -999.2500  -999.2500
 1253.0000   -73.3009    69.7806     7.4377     8.0464     6.9107   -60.9818  -999.2500  -999.2500  -999.2500  -999.2500
 1253.5000   -73.2990    71.2717     7.3031     7.9944     6.9114   -51.1001  -999.2500  -999.2500  -999.2500  -999.2500
 1254.0000   -73.2970    71.8699     7.3036     7.9427     6.9119   -71.1600  -999.2500  -999.2500  -999.2500  -999.2500
