~VERSION INFORMATION
 VERS.                2.0:   CWLS LOG ASCII STANDARD - VERSION 2.0
 WRAP.                 NO:   ONE LINE PER DEPTH STEP
~WELL INFORMATION
#MNEM.UNIT      DATA TYPE    INFORMATION
#----------   ------------   ------------------------------
 STRT.F          200.0000:   START DEPTH
 STOP.F         3060.0000:   STOP DEPTH
 STEP.F            0.5000:   STEP LENGTH
 NULL.          -999.2500:   NO VALUE
 COMP.    FENIX & SCISSON:   COMPANY
 WELL. FENIX & SCISSON NPR "AX" #81-10:   WELL
 FLD .                NPR:   FIELD
 LOC .      S10 T38N R78W:   LOCATION
 CNTY.            NATRONA:   COUNTY
 STAT.            WYOMING:   STATE
 CTRY. UNITED STATES OF AMERICA:   COUNTRY
 SRVC.              WELEX:   SERVICE COMPANY
 DATE.        28-NOV-1977:   LOGDATE
 API .     49025104400000:   API NUMBER
~CURVE INFORMATION
#MNEM.UNIT       API CODE    CURVE DESCRIPTION
#----------   ------------   ------------------------------
 DEPT.F                  :   
 CALD.IN     45 280 60 00:   CALIPER FROM DENSITY LOG
 GRD .GAPI   45 310 01 00:   GAMMA RAY FROM DENSITY LOG
 RHOB.G/C3   45 350 01 00:   BULK DENSITY
 CORR.G/C3   45 356 01 00:   DENSITY CORRECTION
 TEND.LBS    45 635 01 00:   TENSION FROM DENSITY LOG
 NPHI.DEC    42 890 03 00:   NEUTRON POROSITY SANDSTONE
 SPR .MV     07 010 01 00:   SPONTANEOUS POTENTIAL
 IL  .OHMM   07 120 00 00:   INDUCTION LOG RES.
 ASGR.OHMM   07 221 05 00:   AMPLIFIED SHALLOW GUARD
 SNP .DEC    41 890 00 00:   SIDEWALL NEUTRON POROSITY
~PARAMETER INFORMATION
#MNEM.UNIT          VALUE    DESCRIPTION
#----------   ------------   ------------------------------
 EKB .F         5147.0000:   Kelly bushing
 EGL .F         5137.0000:   Ground level
 EDF .F            0.0000:   Drilling floor
 TD  .F         3058.0000:   Total depth
 DATE.        28-NOV-1977:   Date logged
 CLNT.            A2DTECH:   Client Code
 PD  .                 GL:   Permanent Datum
 EPD .F              5137:   Elevation Permanent Datum
 LMF .                 KB:   Log Measured From
 DMF .                 KB:   Drilling Measured From
 DD  .F              3055:   Depth driller
 DL  .F              3058:   Depth logger
 BLI .F              3055:   Bottom log interval
 TLI .F               200:   Top log interval
 CS1 .IN            8.625:   Casing size
 CBD1.      8.625" @ 205':   Casing driller 1
 CBL1.F               215:   Casing logger 1
 BSD1.F              3055:   Depth drilled with bit1
 DFT .            KCL/MUD:   Type fluid in hole
 ENGI.            BENTSEN:   Recorded By
 WITN.         HARRINGTON:   Witnessed by
 ORIG.           5" PRINT:   Origin of data
 UWI .     49025104400000:   Unique Well ID
 DICO. A2D TECHNOLOGIES, INC.:   Digitizing Company
 DAPD.                 10:   Feet Above Permanent Datum
 BS1 .IN            7.875:   Bit size
 DFD .                8.9:   Density
 DFV .                 35:   Viscosity
 MSS .           FLOWLINE:   Source of sample
 RMS .OHMM            .17:   Rm
 MST .F                75:   Rm Meas. temp.
 RMF .OHMM            .12:   Rmf
 MFST.F                75:   Rmf Meas. temp.
 MFSS.               FANN:   Source Rmf.
 RMC .OHMM            .50:   Rmc
 MCST.F                75:   Rmc Meas. temp.
 MCSS.                KIT:   Source Rmc.
 RMB .OHMM           .113:   Rm. at BHT
 BHT .F               113:   BHT.
 TCS .HRS             2.5:   Time Circ. stopped
 MRT .F               113:   Maximum recorded temp.
 LUN .               9685:   Logging unit number
 LUL .             CASPER:   Logging unit location
 SL  . 601' FNL & 200' FEL:   Surface Location
~OTHER INFORMATION
~A   DEPT       CALD      GRD       RHOB       CORR        TEND        NPHI       SPR        IL       ASGR        SNP   
# ...
 2444.5000     8.8290   127.9530     2.5450     0.0030  1044.2590     0.1140   -71.4000     4.9740     6.6070     0.1570
 2445.0000     8.8290   128.9560     2.5410     0.0050  1044.5170     0.1170   -71.3840     4.9470     6.3000     0.1620
 2445.5000     8.8290   129.9630     2.5360     0.0070  1044.7760     0.1160   -71.2450     4.9190     6.0870     0.1670
 2446.0000     8.8290   130.9710     2.5320     0.0090  1045.0341     0.1130   -71.1050     4.8920     6.2880     0.1700
 2446.5000     8.8290   131.9790     2.5320     0.0100  1045.2920     0.1100   -70.9920     4.8740     6.2030     0.1710
 2447.0000     8.8290   132.9780     2.5380     0.0120  1045.5510     0.1060   -70.8870     4.8740     6.4190     0.1660
 2447.5000     8.8290   133.8990     2.5440     0.0140  1045.8090     0.1030   -70.7830     4.8740     6.7510     0.1590
 2448.0000     8.8280   134.2230     2.5500     0.0160  1046.0670     0.1010   -70.6780     4.8740     7.0040     0.1520
 2448.5000     8.8280   133.4870     2.5560     0.0150  1046.3260     0.1040   -70.5730     4.8740     6.9330     0.1500
 2449.0000     8.8280   132.7000     2.5620     0.0100  1046.5840     0.1090   -70.4690     4.8740     6.7990     0.1540
 2449.5000     8.8280   131.9190     2.5650     0.0050  1046.8420     0.1140   -70.3640     4.8740     6.6660     0.1590
 2450.0000     8.8280   131.1360     2.5590     0.0000  1047.1010     0.1190   -70.2590     4.8740     6.5320     0.1630
 2450.5000     8.8280   130.3160     2.5560    -0.0010  1047.3590     0.1150   -70.1550     4.8740     6.5300     0.1670
 2451.0000     8.8280   130.0680     2.5590     0.0010  1047.6169     0.1130   -70.0810     4.8740     6.6640     0.1680
 2451.5000     8.8280   130.0650     2.5620     0.0070  1047.8760     0.1110   -70.1460     4.8740     6.7990     0.1660
 2452.0000     8.8280   130.2250     2.5660     0.0090  1048.1340     0.1130   -70.2090     4.8740     6.9160     0.1650
 2452.5000     8.8280   130.3840     2.5660     0.0110  1048.3929     0.1120   -70.2710     4.8740     6.7760     0.1640
 2453.0000     8.8280   130.5430     2.5650     0.0120  1048.6510     0.1110   -70.3340     4.8740     6.6320     0.1640
 2453.5000     8.8280   130.7010     2.5630     0.0120  1048.9091     0.1140   -70.3960     4.8740     6.4900     0.1680
 2454.0000     8.8270   130.8600     2.5610     0.0120  1049.1680     0.1170   -70.4580     4.8740     6.3500     0.1710
 2454.5000     8.8270   131.0210     2.5590     0.0130  1049.4260     0.1200   -70.5210     4.8740     6.3040     0.1740
 2455.0000     8.8270   131.1790     2.5580     0.0100  1049.6840     0.1190   -70.5830     4.8740     6.5410     0.1780
 2455.5000     8.8270   131.6480     2.5560     0.0090  1049.9430     0.1180   -70.6450     4.8740     6.5540     0.1810
 2456.0000     8.8270   133.0130     2.5540     0.0090  1050.2010     0.1190   -70.7070     4.8740     6.4590     0.1840
 2456.5000     8.8270   134.4840     2.5530     0.0080  1050.4590     0.1230   -70.7700     4.8740     6.3330     0.1870
 2457.0000     8.8270   135.9600     2.5510     0.0070  1050.7180     0.1240   -70.8320     4.8740     6.2120     0.1890
 2457.5000     8.8270   137.4350     2.5490     0.0060  1050.9760     0.1230   -70.8940     4.8750     6.1440     0.1920
 2458.0000     8.8270   138.9110     2.5470     0.0050  1051.2340     0.1250   -70.9570     4.8330     6.0760     0.1950
 2458.5000     8.8270   140.3880     2.5460     0.0040  1051.4930     0.1270   -71.0190     4.7760     6.0050     0.1960
 2459.0000     8.8270   141.8660     2.5460     0.0040  1051.7510     0.1280   -71.0450     4.7190     5.7000     0.1960
 2459.5000     8.8270   143.3210     2.5470     0.0050  1052.0090     0.1250   -70.8230     4.6620     5.3610     0.1960
 2460.0000     8.8260   144.2810     2.5500     0.0070  1052.2679     0.1230   -70.5990     4.6050     5.1070     0.1920
 2460.5000     8.8260   142.5260     2.5540     0.0070  1052.5260     0.1220   -70.3760     4.5630     6.1500     0.1910
 2461.0000     8.8260   140.8100     2.5570     0.0080  1052.7841     0.1250   -70.1450     4.5400     6.1910     0.1950
 2461.5000     8.8260   139.1060     2.5580     0.0090  1053.0430     0.1260   -70.0520     4.5180     6.1890     0.1980
 2462.0000     8.8260   137.4080     2.5580     0.0100  1053.3010     0.1270   -70.0070     4.4950     6.1650     0.2010
 2462.5000     8.8260   136.1550     2.5570     0.0100  1053.5590     0.1290   -69.9630     4.4730     6.1410     0.2040
 2463.0000     8.8260   136.0740     2.5550     0.0140  1053.8180     0.1310   -69.9200     4.4650     6.1280     0.2060
 2463.5000     8.8260   136.0620     2.5540     0.0190  1054.0760     0.1290   -69.8760     4.4580     6.1160     0.2070
 2464.0000     8.8260   136.4550     2.5640     0.0230  1054.3340     0.1300   -69.8330     4.4510     6.1030     0.2080
 2464.5000     8.8260   137.4420     2.5730     0.0280  1054.5930     0.1320   -69.7900     4.4440     6.1200     0.2090
 2465.0000     8.8260   138.4140     2.5820     0.0330  1054.8510     0.1320   -69.7460     4.4360     6.1440     0.2090
 2465.5000     8.8250   139.3870     2.5870     0.0340  1055.1090     0.1320   -69.7030     4.4290     6.1680     0.2100
 2466.0000     8.8250   140.3570     2.5880     0.0280  1055.3680     0.1330   -69.6590     4.4220     6.1280     0.2080
 2466.5000     8.8250   140.8410     2.5840     0.0230  1055.6260     0.1300   -69.6160     4.4150     6.0290     0.2030
 2467.0000     8.8250   140.4570     2.5790     0.0180  1055.8840     0.1270   -69.5720     4.4080     5.9620     0.1990
 2467.5000     8.8250   140.0860     2.5750     0.0130  1056.1429     0.1240   -69.5290     4.4000     6.0390     0.1950
 2468.0000     8.8250   139.7150     2.5700     0.0080  1056.4010     0.1220   -69.4860     4.3930     6.0650     0.1900
 2468.5000     8.8250   139.3920     2.5650     0.0060  1056.6600     0.1220   -69.4790     4.3860     6.1430     0.1830
 2469.0000     8.8250   139.4000     2.5610     0.0110  1056.9180     0.1220   -69.2800     4.3780     6.0690     0.1740
 2469.5000     8.8250   139.0590     2.5560     0.0160  1057.1760     0.1200   -69.0610     4.3770     5.9800     0.1650
 2470.0000     8.8250   136.2780     2.5520     0.0170  1057.4351     0.1170   -68.8420     4.5030     5.9310     0.1560
 2470.5000     8.8250   133.5530     2.5470     0.0150  1057.6930     0.1130   -68.6240     4.6320     6.8480     0.1490
 2471.0000     8.8250   131.1780     2.5430     0.0120  1057.9510     0.1090   -68.4060     4.7600     7.1580     0.1480
 2471.5000     8.8240   130.2480     2.5410     0.0100  1058.2100     0.1050   -68.1870     4.8880     7.3100     0.1480
 2472.0000     8.8240   129.2780     2.5480     0.0080  1058.4680     0.1020   -67.9570     5.0170     7.5400     0.1480
 2472.5000     8.8240   128.6590     2.5540     0.0030  1058.7260     0.0990   -68.0520     5.1470     7.7530     0.1490
 2473.0000     8.8240   128.7070     2.5610     0.0060  1058.9850     0.1010   -68.2840     5.1910     7.7020     0.1490
 2473.5000     8.8240   130.1230     2.5670     0.0090  1059.2430     0.1030   -68.5200     5.2120     7.5030     0.1500
 2474.0000     8.8240   131.6370     2.5740     0.0120  1059.5010     0.1060   -68.7560     5.2320     7.2760     0.1500
 2474.5000     8.8240   133.1500     2.5800     0.0140  1059.7600     0.1080   -68.9940     5.2530     7.1760     0.1510
 2475.0000     8.8240   134.6580     2.5850     0.0170  1060.0179     0.1100   -69.0990     5.2730     7.1840     0.1510
 2475.5000     8.8240   136.1700     2.5800     0.0200  1060.2760     0.1120   -69.1250     5.2930     7.1310     0.1520
 2476.0000     8.8240   137.7420     2.5730     0.0230  1060.5350     0.1160   -69.1500     5.3140     7.2330     0.1520
 2476.5000     8.8240   138.2310     2.5670     0.0220  1060.7930     0.1190   -69.1740     5.3340     7.3330     0.1530
 2477.0000     8.8240   138.4790     2.5610     0.0200  1061.0510     0.1170   -69.1990     5.3550     7.3900     0.1530
 2477.5000     8.8230   138.7030     2.5550     0.0150  1061.3101     0.1160   -69.2230     5.3750     7.2750     0.1530
