~VERSION INFORMATION
 VERS.                2.0:   CWLS LOG ASCII STANDARD - VERSION 2.0
 WRAP.                 NO:   ONE LINE PER DEPTH STEP
~WELL INFORMATION
#MNEM.UNIT      DATA TYPE    INFORMATION
#----------   ------------   ------------------------------
 STRT.F           42.0000:   START DEPTH
 STOP.F         4542.0000:   STOP DEPTH
 STEP.F            0.5000:   STEP LENGTH
 NULL.          -999.2500:   NO VALUE
 COMP. LAWRENCE ALLISON & ASSOC.:   COMPANY
 WELL. ALLISON NPR 3 #86-27:   WELL
 FLD .                NPR:   FIELD
 LOC .      S27 T39N R78W:   LOCATION
 CNTY.            NATRONA:   COUNTY
 STAT.            WYOMING:   STATE
 CTRY. UNITED STATES OF AMERICA:   COUNTRY
 SRVC.      DRESSER ATLAS:   SERVICE COMPANY
 DATE.        20-MAR-1985:   LOGDATE
 API .     49025110190000:   API NUMBER
~CURVE INFORMATION
#MNEM.UNIT       API CODE    CURVE DESCRIPTION
#----------   ------------   ------------------------------
 DEPT.F                  :   
 CALD.IN     45 280 60 00:   CALIPER FROM DENSITY LOG
 TEND.LBS    45 635 01 00:   TENSION FROM DENSITY LOG
 CORR.G/C3   45 356 01 00:   DENSITY CORRECTION
 RHOB.G/C3   45 350 01 00:   BULK DENSITY
 CNC .DEC    42 890 03 00:   NEUTRON PORISITY SANDSTONE
 TENR.LBS    07 635 01 00:   TENSION FROM RESISTIVITY
 GRR .GAPI   07 310 01 00:   GAMMA RAY FROM RESISTIVITY
 SFL .OHMM   07 220 01 00:   SHALLOW FOCUSED LOG RESISTIVITY
 ILD .OHMM   07 120 46 00:   DEEP INDUCTION RESISTIVITY
 ILM .OHMM   07 120 44 00:   INDUCTION LOG MEDIUM RESISTIVITY
 TENS.LBS    60 635 01 00:   TENSION FROM SONIC LOG
 DT  .US/F   60 520 00 00:   DELTA TIME
 CALS.IN     60 280 50 00:   CALIPER FROM SONIC LOG
 GRS .GAPI   60 310 01 00:   GAMMA RAY FROM SONIC LOG
~PARAMETER INFORMATION
#MNEM.UNIT          VALUE    DESCRIPTION
#----------   ------------   ------------------------------
 EKB .F         5095.0000:   Kelly bushing
 EGL .F         5083.0000:   Ground level
 EDF .F            0.0000:   Drilling floor
 TD  .F         4545.0000:   Total depth
 DATE.        20-MAR-1985:   Date logged
 CLNT.            A2DTECH:   Client Code
 SL  . 292' FEL & 1975' FWL:   Surface Location
 PD  .                 GL:   Permanent Datum
 EPD .F              5083:   Elevation Permanent Datum
 LMF .                 KB:   Log Measured From
 DMF .                 KB:   Drilling Measured From
 DAPD.F                12:   Feet Above Permanent Datum
 DD  .F              4545:   Depth driller
 DL  .F              4533:   Depth logger
 BLI .F              4534:   Bottom log interval
 TLI .F              1045:   Top log interval
 CS1 .IN            8.625:   Casing size
 CBD1.     8.625" @ 1033':   Casing driller 1
 CBL1.F              1045:   Casing logger 1
 BS1 .IN            7.875:   Bit size
 BSD1.F              4545:   Depth drilled with bit1
 DFT .    GEL/KCL/STA/FLO:   Type fluid in hole
 DFD .                9.1:   Density
 DFV .                 30:   Viscosity
 DFPH.                  8:   pH
 DFL .                 12:   Fluid loss
 MSS .           MUD/TANK:   Source of sample
 RMS .OHMM            .46:   Rm
 MST .F                74:   Rm Meas. temp.
 RMF .OHMM            .37:   Rmf
 MFST.F                72:   Rmf Meas. temp.
 RMC .OHMM            .58:   Rmc
 MCST.F                74:   Rmc Meas. temp.
 MFSS.               MEAS:   Source Rmf.
 MCSS.               CALC:   Source Rmc.
 RMB .OHMM            .25:   Rm. at BHT
 BHT .F               138:   BHT.
 TCS .HRS             4.5:   Time Circ. stopped
 MRT .F               138:   Maximum recorded temp.
 LUN .            HL-6274:   Logging unit number
 LUL .           GILLETTE:   Logging unit location
 ENGI.             RAUTIO:   Recorded By
 WITN.             STRONG:   Witnessed by
 ORIG.           5" PRINT:   Origin of data
 UWI .     49025110190000:   Unique Well ID
 DICO. A2D TECHNOLOGIES, INC.:   Digitizing Company
~OTHER INFORMATION
~A   DEPT     CALD       TEND       CORR       RHOB        CNC       TENR        GRR        SFL        ILD        ILM       TENS         DT        CALS        GRS  
# ...
 4256.0000     8.3170   -44.4850     0.0170     2.5430     0.2860    10.7210    95.1010     6.1800     4.1140     4.2970  -999.2500  -999.2500  -999.2500  -999.2500
 4256.5000     8.3120   -45.8080    -0.0070     2.5630     0.2770     9.5390    92.2460     6.6550     4.3910     4.5290  -999.2500  -999.2500  -999.2500  -999.2500
 4257.0000     8.3090   -47.1320    -0.0090     2.5650     0.2700     8.3570    95.5960     6.4570     4.6850     4.7620  -999.2500  -999.2500  -999.2500  -999.2500
 4257.5000     8.3090   -48.4560     0.0010     2.5490     0.2690     7.1750    96.3010     6.2850     5.0370     4.9940  -999.2500  -999.2500  -999.2500  -999.2500
 4258.0000     8.3090   -49.7790     0.0100     2.5420     0.2710     5.9930    96.7840     6.1700     5.0280     5.1830  -999.2500  -999.2500  -999.2500  -999.2500
 4258.5000     8.3100   -51.1030     0.0130     2.5380     0.2740     4.8110    98.2440     6.1440     5.0100     5.2320  -999.2500  -999.2500  -999.2500  -999.2500
 4259.0000     8.3140   -52.4270     0.0110     2.5360     0.2760     3.6290   100.6690     6.1180     4.9920     5.1910  -999.2500  -999.2500  -999.2500  -999.2500
 4259.5000     8.3180   -53.7500     0.0100     2.5360     0.2780     2.4470   100.2210     6.0920     4.9740     5.1560  -999.2500  -999.2500  -999.2500  -999.2500
 4260.0000     8.3220   -55.0740     0.0140     2.5380     0.2800     1.2650    99.2770     6.0670     4.9560     5.0810  -999.2500  -999.2500  -999.2500  -999.2500
 4260.5000     8.3260   -56.3980     0.0220     2.5440     0.2890     0.0830   101.4530     5.7820     4.8700     4.9550  -999.2500  -999.2500  -999.2500  -999.2500
 4261.0000     8.3300   -57.7210     0.0300     2.5490     0.3080    -1.0990   104.4860     5.6140     4.7470     4.8280  -999.2500  -999.2500  -999.2500  -999.2500
 4261.5000     8.3340   -59.0450     0.0330     2.5490     0.3120    -1.0180   107.6710     5.5710     4.6230     4.7010  -999.2500  -999.2500  -999.2500  -999.2500
 4262.0000     8.3380   -60.3790     0.0330     2.5500     0.3160    -0.3090   108.0250     5.5310     4.4990     4.5740  -999.2500  -999.2500  -999.2500  -999.2500
 4262.5000     8.3420   -59.1000     0.0300     2.5500     0.3000     0.3990   104.3940     5.5310     4.3760     4.4480  -999.2500  -999.2500  -999.2500  -999.2500
 4263.0000     8.3460   -57.8100     0.0250     2.5480     0.3000     1.1070   102.3240     5.5310     4.2520     4.3210  -999.2500  -999.2500  -999.2500  -999.2500
 4263.5000     8.3500   -56.5200     0.0180     2.5410     0.3150     1.8160   103.7890     5.3680     4.1280     4.1940  -999.2500  -999.2500  -999.2500  -999.2500
 4264.0000     8.3540   -55.2310     0.0100     2.5340     0.3230     2.5240   104.9850     5.2220     4.0040     4.0670  -999.2500  -999.2500  -999.2500  -999.2500
 4264.5000     8.3580   -53.9410     0.0040     2.5240     0.3180     3.2330   106.4550     5.0750     3.8810     3.9410  -999.2500  -999.2500  -999.2500  -999.2500
 4265.0000     8.3620   -52.6510    -0.0030     2.5150     0.3170     3.9410   106.9750     4.9280     3.7570     3.8140  -999.2500  -999.2500  -999.2500  -999.2500
 4265.5000     8.3660   -51.3610    -0.0110     2.5050     0.3160     4.6500   106.8940     4.7820     3.6330     3.6870  -999.2500  -999.2500  -999.2500  -999.2500
 4266.0000     8.3700   -50.0720    -0.0070     2.5020     0.3220     5.3580   106.5340     4.6350     3.5100     3.4830  -999.2500  -999.2500  -999.2500  -999.2500
 4266.5000     8.3740   -48.7820     0.0090     2.5000     0.3250     6.0660   106.1340     4.4890     3.6210     3.5920  -999.2500  -999.2500  -999.2500  -999.2500
 4267.0000     8.3780   -47.4920     0.0110     2.4980     0.3070     6.7750   105.6420     4.4050     3.7970     3.8710  -999.2500  -999.2500  -999.2500  -999.2500
 4267.5000     8.3820   -46.2020     0.0020     2.4990     0.3000     7.4830   105.4590     4.3490     3.9730     4.1500  -999.2500  -999.2500  -999.2500  -999.2500
 4268.0000     8.3860   -44.9130    -0.0130     2.4970     0.2750     8.1920   102.5430     5.0150     4.2560     4.4290  -999.2500  -999.2500  -999.2500  -999.2500
 4268.5000     8.3900   -43.6230    -0.0170     2.5270     0.2520     8.9000    93.9000     6.0810     4.6030     4.7080  -999.2500  -999.2500  -999.2500  -999.2500
 4269.0000     8.3940   -42.3330     0.0010     2.5640     0.2570     9.6090    83.4200     7.2990     5.1370     5.1370  -999.2500  -999.2500  -999.2500  -999.2500
 4269.5000     8.3980   -41.0440     0.0020     2.6230     0.2650    10.3170    73.7860     8.0060     5.0260     5.0230  -999.2500  -999.2500  -999.2500  -999.2500
 4270.0000     8.4020   -38.2570    -0.0200     2.6650     0.2750    11.0250    70.0490     7.6190     4.7870     4.7780  -999.2500  -999.2500  -999.2500  -999.2500
 4270.5000     8.4060   -34.0650    -0.0550     2.6810     0.2880    11.7340    77.3840     6.2170     4.5470     4.5330  -999.2500  -999.2500  -999.2500  -999.2500
 4271.0000     8.4100   -29.8740    -0.0470     2.6340     0.3070    12.4420    87.2680     4.6830     4.3080     4.2870  -999.2500  -999.2500  -999.2500  -999.2500
 4271.5000     8.4140   -25.6820    -0.0200     2.5660     0.3160    13.1510    97.1210     4.4010     4.1180     4.0420  -999.2500  -999.2500  -999.2500  -999.2500
 4272.0000     8.4180   -21.4900     0.0040     2.5220     0.3200    13.8590   102.2820     4.1800     3.9650     3.7970  -999.2500  -999.2500  -999.2500  -999.2500
 4272.5000     8.4220   -21.1750     0.0150     2.5090     0.3180    14.5680   107.3460     4.1450     3.6610     3.5520  -999.2500  -999.2500  -999.2500  -999.2500
 4273.0000     8.4260   -22.1240     0.0180     2.5020     0.3160    15.2760   108.3930     4.1100     3.3340     3.3070  -999.2500  -999.2500  -999.2500  -999.2500
 4273.5000     8.4290   -23.0730     0.0100     2.5010     0.3170    15.9840   109.4750     4.0750     3.0600     3.0610  -999.2500  -999.2500  -999.2500  -999.2500
 4274.0000     8.4300   -24.0220     0.0040     2.4990     0.3200    16.6930   111.5820     4.0390     2.9720     2.9210  -999.2500  -999.2500  -999.2500  -999.2500
 4274.5000     8.4300   -24.9710    -0.0010     2.4980     0.3230    17.4010   113.9360     3.9140     2.8960     2.8130  -999.2500  -999.2500  -999.2500  -999.2500
 4275.0000     8.4300   -25.9200    -0.0020     2.5020     0.3270    18.1100   114.5090     3.7860     2.8200     2.7900  -999.2500  -999.2500  -999.2500  -999.2500
 4275.5000     8.4300   -26.8690     0.0080     2.5090     0.3220    18.0820   113.8470     3.6590     2.7900     2.7900  -999.2500  -999.2500  -999.2500  -999.2500
 4276.0000     8.4300   -27.8180     0.0180     2.5180     0.3110    17.5740   112.7070     3.4830     2.7900     2.7900  -999.2500  -999.2500  -999.2500  -999.2500
 4276.5000     8.4300   -28.7670     0.0270     2.5260     0.3120    17.0660   110.6270     3.5940     2.7900     2.7900  -999.2500  -999.2500  -999.2500  -999.2500
 4277.0000     8.4270   -29.7160    -0.0110     2.5450     0.3260    16.5580   107.8220     3.7690     2.7900     2.7900  -999.2500  -999.2500  -999.2500  -999.2500
 4277.5000     8.4170   -30.6650    -0.0520     2.5740     0.3450    16.0500   104.9880     4.0390     2.7900     2.7900  -999.2500  -999.2500  -999.2500  -999.2500
 4278.0000     8.4070   -31.6140    -0.0630     2.5950     0.3370    15.5420   104.0110     4.0200     2.8350     2.8110  -999.2500  -999.2500  -999.2500  -999.2500
 4278.5000     8.3970   -32.5630    -0.0200     2.5710     0.3140    15.0340   106.1660     3.9780     2.8880     2.8560  -999.2500  -999.2500  -999.2500  -999.2500
 4279.0000     8.3870   -33.5120     0.0120     2.5420     0.3150    14.5260   107.3810     3.9370     2.9410     2.9010  -999.2500  -999.2500  -999.2500  -999.2500
 4279.5000     8.3770   -34.4610     0.0060     2.5140     0.3170    14.0180   106.6570     3.8920     2.9930     2.9470  -999.2500  -999.2500  -999.2500  -999.2500
 4280.0000     8.3670   -35.4100     0.0010     2.5020     0.3180    13.5100   105.3810     4.0090     3.0520     2.9980  -999.2500  -999.2500  -999.2500  -999.2500
