~VERSION INFORMATION
 VERS.                2.0:   CWLS LOG ASCII STANDARD - VERSION 2.0
 WRAP.                 NO:   ONE LINE PER DEPTH STEP
~WELL INFORMATION
#MNEM.UNIT      DATA TYPE    INFORMATION
#----------   ------------   ------------------------------
 STRT.F            8.0000:   START DEPTH
 STOP.F         3021.0000:   STOP DEPTH
 STEP.F            0.5000:   STEP LENGTH
 NULL.          -999.2500:   NO VALUE
 COMP. LAWRENCE ALLISON & ASSOCIATES W:   COMPANY
 WELL. LAWRENCE ALLISON #68-28:   WELL
 FLD .              NPR 3:   FIELD
 LOC .      S28 T39N R78W:   LOCATION
 CNTY.            NATRONA:   COUNTY
 STAT.            WYOMING:   STATE
 CTRY. UNITED STATES OF AMERICA:   COUNTRY
 SRVC.      DRESSER ATLAS:   SERVICE COMPANY
 DATE.        19-DEC-1986:   LOGDATE
 API .     49025111580000:   API NUMBER
~CURVE INFORMATION
#MNEM.UNIT       API CODE    CURVE DESCRIPTION
#----------   ------------   ------------------------------
 DEPT.F                  :   
 SPR .MV     07 010 01 00:   SPONTANEOUS POTENTIAL
 TENR.LBS    07 635 01 00:   TENSION FROM RESISTIVITY
 RILD.OHMM   07 120 46 00:   DEEP INDUCTION RESISTIVITY
 RILM.OHMM   07 120 44 00:   INDUCTION LOG MEDIUM RESISTIVITY
 RFOC.OHMM   07 220 04 00:   RESISTIVITY FOCUSED LOG RES.
 CALD.IN     45 280 60 00:   CALIPER FROM DENSITY LOG
 CORR.G/C3   45 356 01 00:   DENSITY CORRECTION
 RHOB.G/C3   45 350 01 00:   BULK DENSITY
 CNC .DEC    42 890 03 00:   NEUTRON POROSITY SANDSTONE
 GRR .GAPI   07 310 01 00:   GAMMA RAY FROM RESISTIVITY
~PARAMETER INFORMATION
#MNEM.UNIT          VALUE    DESCRIPTION
#----------   ------------   ------------------------------
 EKB .F         5106.0000:   Kelly bushing
 EGL .F         5094.0000:   Ground level
 EDF .F            0.0000:   Drilling floor
 EPD .F         5094.0000:   Permanent datum
 TD  .F         3010.0000:   Total depth
 CLNT.            A2DTECH:   Client Code
 SL  . 1559'EL & 533' FSL:   Surface Location
 DATE.        19-DEC-1986:   Date Logged [DD-MMM-YYYY]
 DD  .F              3003:   Depth driller
 DL  .F              3010:   Depth logger
 BLI .F              3007:   Bottom log interval
 TLI .F                 0:   Top log interval
 CS1 .              8.625:   Casing size
 CBD1.      8.625" @ 389':   Casing driller 1
 CBL1.IN              405:   Casing logger 1
 BS1 .IN            7.875:   Bit size
 BSD1.F              3003:   Depth drilled with bit1
 DFT .        KCL POLYMER:   Type fluid in hole
 DFD .                9.0:   Density
 DFV .                 42:   Viscosity
 DFPH.                9.3:   pH
 DFL .                8.8:   Fluid loss
 MSS .           FLOWLINE:   Source of sample
 RMS .OHMM          0.484:   Rm
 MST .F                68:   Rm Meas. temp.
 RMF .OHMM          0.392:   Rmf
 MFST.F                68:   Rmf Meas. temp.
 MFSS.               MEAS:   Source Rmf.
 RMC .OHMM          0.605:   Rmc
 MCST.F                68:   Rmc Meas. temp.
 MCSS.               CALC:   Source Rmc.
 RMB .OHMM          0.269:   Rm. at BHT
 BHT .F               122:   BHT.
 TCS .HRS             3.5:   Time Circ. stopped
 MRT .F               122:   Maximum recorded temp.
 LUN .            HL-6274:   Logging unit number
 LUL .           GILLETTE:   Logging unit location
 ENGI.             RAUTIO:   Recorded By
 WITN.             STRONG:   Witnessed by
 ORIG.        2" 5" PRINT:   Origin of data
 UWI .     49025111580000:   Unique Well ID
 DICO. A2D TECHNOLOGIES, INC.:   Digitizing Company
~OTHER INFORMATION
~A    DEPT     SPR       TENR       RILD       RILM       RFOC       CALD       CORR       RHOB        CNC        GRR   
# ...
 2286.0000   -48.1807   -13.0334     4.4487     4.7021     4.8013  -999.2500  -999.2500  -999.2500  -999.2500   123.3109
 2286.5000   -47.8641   -12.5762     4.5323     4.7023     4.7354  -999.2500  -999.2500  -999.2500  -999.2500   127.8593
 2287.0000   -47.7036   -12.1189     4.6617     4.7025     4.8708  -999.2500  -999.2500  -999.2500  -999.2500   130.2961
 2287.5000   -47.8681   -11.6616     4.8620     4.8695     5.2241  -999.2500  -999.2500  -999.2500  -999.2500   131.8280
 2288.0000   -48.3173   -11.2044     5.0357     5.0777     5.7234  -999.2500  -999.2500  -999.2500  -999.2500   131.5499
 2288.5000   -48.4688   -10.7469     5.2177     5.2948     6.1036  -999.2500  -999.2500  -999.2500  -999.2500   126.4452
 2289.0000   -48.4643   -10.2896     5.3711     5.4828     6.4010  -999.2500  -999.2500  -999.2500  -999.2500   121.0389
 2289.5000   -48.4597    -9.8324     5.5565     5.6381     6.5837  -999.2500  -999.2500  -999.2500  -999.2500   115.3309
 2290.0000   -48.1431    -9.3751     5.7551     5.7977     6.5389  -999.2500  -999.2500  -999.2500  -999.2500   109.6229
 2290.5000   -47.8266    -8.9062     5.8782     5.9619     6.3604  -999.2500  -999.2500  -999.2500  -999.2500   106.5700
 2291.0000   -47.6660    -8.3461     5.8798     6.0888     6.1864  -999.2500  -999.2500  -999.2500  -999.2500   105.7484
 2291.5000   -47.3467    -7.8888     5.8814     6.0883     6.1016  -999.2500  -999.2500  -999.2500  -999.2500   108.4928
 2292.0000   -47.0118   -15.2438     5.8830     6.0042     6.1031  -999.2500  -999.2500  -999.2500  -999.2500   111.8346
 2292.5000   -46.5592   -14.7866     5.9257     5.9627     6.0619  -999.2500  -999.2500  -999.2500  -999.2500   112.4615
 2293.0000   -46.5547   -14.3293     5.8860     5.9215     6.1057  -999.2500  -999.2500  -999.2500  -999.2500   111.2784
 2293.5000   -46.5501   -21.6845     5.8468     5.9217     6.1929  -999.2500  -999.2500  -999.2500  -999.2500   111.9052
 2294.0000   -46.5456   -21.2270     5.8077     5.9219     6.2813  -999.2500  -999.2500  -999.2500  -999.2500   112.2304
 2294.5000   -46.6982   -28.5937     5.8097     5.9221     6.4155  -999.2500  -999.2500  -999.2500  -999.2500   112.8573
 2295.0000   -46.6925   -35.9375     5.8113     5.9223     6.5087  -999.2500  -999.2500  -999.2500  -999.2500   112.2775
 2295.5000   -46.5319   -35.4688     5.8128     5.9225     6.6000  -999.2500  -999.2500  -999.2500  -999.2500   111.3665
 2296.0000   -46.5170   -27.0960     5.8551     5.9228     6.6016  -999.2500  -999.2500  -999.2500  -999.2500   111.1180
 2296.5000   -46.3657   -11.0137     5.8571     5.8818     6.6030  -999.2500  -999.2500  -999.2500  -999.2500   112.6557
 2297.0000   -46.3611     5.0685     5.8176     5.8819     6.5128  -999.2500  -999.2500  -999.2500  -999.2500   114.7909
 2297.5000   -46.3566    13.3385     5.7788     5.8822     6.3347  -999.2500  -999.2500  -999.2500  -999.2500   116.9260
 2298.0000   -46.3520    13.7958     5.7003     5.8416     6.2478  -999.2500  -999.2500  -999.2500  -999.2500   117.5529
 2298.5000   -46.5046    -9.1845     5.6623     5.8418     6.1198  -999.2500  -999.2500  -999.2500  -999.2500   117.8722
 2299.0000   -46.6561   -24.4665     5.7038     5.8420     6.0782  -999.2500  -999.2500  -999.2500  -999.2500   115.7900
 2299.5000   -46.8064   -23.8947     5.7054     5.8422     6.0797  -999.2500  -999.2500  -999.2500  -999.2500   112.1936
 2300.0000   -46.8019     7.8126     5.7870     5.8534     6.0810  -999.2500  -999.2500  -999.2500  -999.2500   109.8039
 2300.5000   -46.4852    39.5312     5.8232     5.9220     6.2975  -999.2500  -999.2500  -999.2500  -999.2500   109.6382
 2301.0000   -46.0116    32.2791     5.8595     5.9905     6.4312  -999.2500  -999.2500  -999.2500  -999.2500   109.2487
 2301.5000   -45.5390    17.1113     5.9156     6.0509     6.7069  -999.2500  -999.2500  -999.2500  -999.2500   109.8742
 2302.0000   -45.2225     9.6418     5.9590     6.0937     6.9456    10.1960     0.0160     2.5278     0.2620   111.4046
 2302.5000   -45.0619   -13.2241     6.0027     6.0941     7.0438    10.1958     0.0020     2.5270     0.2465   113.5384
 2303.0000   -45.0574   -30.3302     6.0048     6.0945     7.0443    10.1956    -0.0199     2.5262     0.2477   115.0689
 2303.5000   -44.8968   -30.1385     6.0068     6.0949     6.9472    10.1955    -0.0215     2.5269     0.2514   116.2977
 2304.0000   -44.7363    -6.5477     6.0089     6.0954     6.6626    10.1953    -0.0043     2.5291     0.2551   117.5265
 2304.5000   -44.8607    32.6681     6.0109     6.0958     6.5249    10.1952     0.0098     2.5268     0.2601   118.1523
 2305.0000   -44.8511    17.1965     6.0130     6.0962     6.4348    10.1950     0.0129     2.5170     0.2617   117.8331
 2305.5000   -44.8434   -21.7127     6.0152     6.0966     6.4353    10.1792    -0.0074     2.5026     0.2623   115.7887
 2306.0000   -44.8357   -60.6219     6.0176     6.1397     6.4809    10.1791    -0.0152     2.5003     0.2664   113.6992
 2306.5000   -44.8281   -37.0312     6.0197     6.1831     6.6185    10.1789    -0.0059     2.5055     0.2707   111.6098
 2307.0000   -44.8204     2.7477     6.0217     6.1835     6.8541    10.1788    -0.0110     2.5131     0.2582   109.8220
 2307.5000   -44.8127    58.1984     6.0659     6.1839     7.2484    10.1786     0.0004     2.5184     0.2465   107.7326
 2308.0000   -44.8050    72.8421     6.0680     6.1843     7.4024    10.1629    -0.0045     2.5152     0.2433   105.6432
 2308.5000   -44.7972    33.9330     6.0701     6.1848     7.4029    10.1783    -0.0155     2.5084     0.2449   106.2687
 2309.0000   -44.7894    -4.9762     6.0721     6.0573     7.0951    10.2094    -0.0262     2.5031     0.2486   107.1958
 2309.5000   -44.6241   -28.2604     6.0315     5.9737     6.7028    10.2092    -0.0386     2.4985     0.2639   108.4246
 2310.0000   -44.6164   -51.5446     5.9505     5.8505     6.3059    10.1934    -0.0418     2.4940     0.2717   110.5584
 2310.5000   -44.4527   -51.3913     5.8703     5.7698     6.1326    10.1933    -0.0355     2.4932     0.2826   112.7007
 2311.0000   -44.2890   -51.2380     5.7508     5.6903     5.9641    10.1931    -0.0027     2.5022     0.2941   115.2113
 2311.5000   -44.2813   -51.0847     5.7128     5.6512     5.9645    10.1930     0.0269     2.5089     0.2900   118.3766
 2312.0000   -44.1176   -50.9314     5.6751     5.5734     6.0488    10.1928     0.0318     2.5142     0.2754   121.5124
 2312.5000   -44.1100   -50.7780     5.5600     5.5351     6.1343    10.1926     0.0030     2.5164     0.2704   122.4396
 2313.0000   -44.1023   -42.8122     5.5617     5.4969     5.9657    10.1925    -0.0237     2.5164     0.2784   122.1546
 2313.5000   -44.2525   -42.6562     5.5243     5.4212     5.8018    10.1923    -0.0215     2.5163     0.2801   121.2773
 2314.0000   -44.2429   -42.5000     5.4504     5.3839     5.7617    10.1922    -0.0027     2.5170     0.2769   118.2829
 2314.5000   -44.2353   -42.3140     5.4144     5.3843     5.8026    10.1920     0.0098     2.5208     0.2751   114.9868
 2315.0000   -44.3838   -34.3482     5.3418     5.3101     5.9259    10.1919     0.0066     2.5245     0.2707   111.9924
 2315.5000   -44.5320   -34.1949     5.2972     5.2369     6.0517    10.1917    -0.0059     2.5260     0.2664   110.2047
 2316.0000   -44.5242   -34.0415     5.1985     5.2009     6.0946    10.1916    -0.0121     2.5259     0.2676   109.3219
 2316.5000   -44.5166   -33.8882     5.1279     5.1292     6.0526    10.1914     0.0020     2.5274     0.2707   112.0590
 2317.0000   -44.6649   -25.9224     5.0587     5.0586     5.9691    10.1912     0.0113     2.5296     0.2692   113.8914
 2317.5000   -44.6553   -25.7691     4.9904     4.9860     5.7640    10.1911     0.0209     2.5311     0.2667   112.8883
 2318.0000   -44.6161   -25.6158     4.8888     4.9155     5.5249    10.1909     0.0222     2.5295     0.2685   111.8239
 2318.5000   -44.4839   -25.4625     4.7897     4.8186     5.2958    10.1908    -0.0027     2.5159     0.2798   115.7732
 2319.0000   -44.4762   -17.4967     4.6923     4.7193     5.1563    10.1906    -0.0090     2.5076     0.2850   119.7169
