~VERSION INFORMATION
 VERS.                2.0:   CWLS LOG ASCII STANDARD - VERSION 2.0
 WRAP.                 NO:   ONE LINE PER DEPTH STEP
~WELL INFORMATION
#MNEM.UNIT      DATA TYPE    INFORMATION
#----------   ------------   ------------------------------
 STRT.F           42.0000:   START DEPTH
 STOP.F         2778.0000:   STOP DEPTH
 STEP.F            0.5000:   STEP LENGTH
 NULL.          -999.2500:   NO VALUE
 COMP.    FENIX & SCISSON:   COMPANY
 WELL. FENIX & SCISSON SHX #56-23:   WELL
 FLD .        TEAPOT DOME:   FIELD
 LOC .      S23 T38N R78W:   LOCATION
 CNTY.            NATRONA:   COUNTY
 STAT.            WYOMING:   STATE
 CTRY. UNITED STATES OF AMERICA:   COUNTRY
 SRVC.           BIRDWELL:   SERVICE COMPANY
 DATE.        29-AUG-1979:   LOGDATE
 API .     49025107920000:   API NUMBER
~CURVE INFORMATION
#MNEM.UNIT       API CODE    CURVE DESCRIPTION
#----------   ------------   ------------------------------
 DEPT.F                  :   
 GRD .GAPI   45 310 01 00:   GAMMA RAY FROM DENSITY LOG
 CALD.IN     45 280 60 00:   CALIPER FROM DENSITY LOG
 RHOB.G/C3   45 350 01 00:   BULK DENSITY
 CORR.G/C3   45 356 01 00:   DENSITY CORRECTION
 ILD .OHMM   07 120 46 00:   DEEP INDUCTION RESISTIVITY
 SFL .OHMM   07 220 01 00:   SHALLOW FOCUSED LOG RESISTIVITY
 SPR .MV     07 010 01 00:   SPONTANEOUS POTENTIAL
~PARAMETER INFORMATION
#MNEM.UNIT          VALUE    DESCRIPTION
#----------   ------------   ------------------------------
 EKB .F         5361.0000:   Kelly bushing
 EGL .F         5351.0000:   Ground level
 EDF .F         5360.0000:   Drilling floor
 TD  .F         1465.0000:   Total depth
 DATE.        29-AUG-1979:   Date logged
 CLNT.            A2DTECH:   Client Code
 PD  .                 GL:   Permanent Datum
 EPD .F              5351:   Elevation Permanent Datum
 LMF .                 KB:   Log Measured From
 DMF .                 KB:   Drilling Measured From
 DAPD.F                 9:   Feet Above Permanent Datum
 DD  .F              1465:   Depth driller
 DL  .F              1462:   Depth logger
 BLI .F              1457:   Bottom log interval
 TLI .F                40:   Top log interval
 CBD1.F                40:   Casing driller 1
 CBL1.F                40:   Casing logger 1
 BS1 .IN            12.25:   Bit size
 BSD1.F              1465:   Depth drilled with bit1
 DFT .            GEL/MUD:   Type fluid in hole
 DFD .                9.5:   Density
 DFV .                 40:   Viscosity
 DFPH.                9.0:   pH
 DFL .                 40:   Fluid loss
 MSS .            MUD PIT:   Source of sample
 RMS .OHMM            2.6:   Rm
 MST .F                68:   Rm Meas. temp.
 RMF .OHMM            1.8:   Rmf
 MFST.F                78:   Rmf Meas. temp.
 RMC .OHMM            2.8:   Rmc
 MCST.F                76:   Rmc Meas. temp.
 MFSS.               MEAS:   Source Rmf.
 MCSS.               MEAS:   Source Rmc.
 RMB .OHMM           1.96:   Rm. at BHT
 BHT .F                90:   BHT.
 TCS .HRS               5:   Time Circ. stopped
 MRT .F                90:   Maximum recorded temp.
 LUN .               2959:   Logging unit number
 LUL .             CASPER:   Logging unit location
 ENGI.         B. ROLLINS:   Recorded By
 WITN.              AMEND:   Witnessed by
 ORIG.           5" PRINT:   Origin of data
 UWI .     49025107920000:   Unique Well ID
 DICO. A2D TECHNOLOGIES, INC.:   Digitizing Company
~OTHER INFORMATION
~A   DEPT       GRD      CALD       RHOB         CORR      ILD        SFL         SPR  
# ...
  360.5000    67.7020    13.0840     2.3930     0.2160     5.4570     4.5040   -56.3840
  361.0000    68.1310    13.0910     2.3910     0.2160     5.3990     4.4670   -56.8060
  361.5000    69.5990    13.0970     2.3840     0.2150     5.3420     4.4310   -56.9670
  362.0000    71.0970    13.1040     2.3810     0.2150     5.2840     4.3950   -56.2840
  362.5000    72.5130    13.1110     2.3810     0.2150     5.2260     4.3590   -55.6890
  363.0000    73.3240    13.1180     2.3810     0.2150     5.1860     4.3220   -55.0900
  363.5000    74.1900    13.1250     2.3810     0.2140     5.1180     4.2860   -54.6740
  364.0000    74.9000    13.1320     2.3780     0.2140     5.0500     4.2500   -54.7370
  364.5000    77.2980    13.1390     2.3690     0.2140     4.9820     4.2130   -54.9940
  365.0000    76.4980    13.1450     2.3600     0.2130     4.9150     4.1770   -54.9680
  365.5000    75.3530    13.1520     2.3620     0.2160     4.8470     4.1410   -54.8290
  366.0000    75.4780    13.1590     2.3650     0.2200     4.7790     4.1040   -54.6630
  366.5000    77.3440    13.1660     2.3640     0.2190     4.7570     4.0930   -54.7500
  367.0000    77.9210    13.1730     2.3560     0.2170     4.7570     4.0930   -55.1580
  367.5000    76.4920    13.1800     2.3530     0.2150     4.7570     4.1700   -55.5500
  368.0000    75.8410    13.1860     2.3640     0.2140     4.8480     4.2840   -55.9750
  368.5000    76.5150    13.1930     2.3800     0.2120     5.0330     4.4190   -56.1560
  369.0000    76.9520    13.2000     2.3840     0.2100     5.2260     4.5540   -55.5710
  369.5000    77.4360    13.2070     2.3850     0.2080     5.3540     4.6890   -55.2440
  370.0000    76.9220    13.2140     2.3920     0.2060     5.4840     4.8240   -54.8250
  370.5000    73.8180    13.2210     2.3980     0.2060     5.6130     4.9400   -54.6040
  371.0000    69.2280    13.2270     2.4050     0.2070     5.7420     4.9640   -55.1330
  371.5000    70.0290    13.2340     2.4130     0.2080     5.8710     5.0370   -55.6870
  372.0000    72.7940    13.2420     2.4210     0.2090     6.0000     5.1100   -56.2900
  372.5000    75.6890    13.2510     2.4270     0.2090     6.1290     5.1830   -56.8310
  373.0000    76.1570    13.2620     2.4290     0.2100     6.2580     5.2560   -57.4010
  373.5000    75.0860    13.2730     2.4310     0.2110     6.3870     5.3290   -57.0910
  374.0000    74.9190    13.2840     2.4330     0.2110     6.5160     5.4020   -56.7710
  374.5000    76.4200    13.2950     2.4290     0.2100     6.6450     5.4760   -56.0960
  375.0000    77.7760    13.3060     2.4210     0.2090     6.8010     5.5490   -55.7610
  375.5000    75.3280    13.3170     2.4170     0.2080     6.8010     5.6220   -55.5100
  376.0000    73.7900    13.3270     2.4190     0.2070     6.8010     5.6950   -55.2080
  376.5000    73.0380    13.3390     2.4200     0.2060     6.8110     5.7420   -54.9120
  377.0000    74.4170    13.3490     2.4180     0.2060     6.8200     5.7040   -54.6270
  377.5000    73.9570    13.3580     2.4150     0.2060     6.8290     5.6630   -54.6230
  378.0000    72.2250    13.3130     2.4120     0.2060     6.8370     5.6230   -54.8540
  378.5000    72.5000    13.2650     2.4090     0.2060     6.8460     5.5830   -55.0720
  379.0000    73.0640    13.2150     2.4080     0.2090     6.8550     5.5430   -55.2880
  379.5000    74.2250    13.1660     2.4120     0.2110     6.8640     5.5300   -55.5140
  380.0000    76.3680    13.1180     2.4160     0.2130     6.8730     5.5300   -55.7270
  380.5000    84.8930    13.0660     2.4200     0.2140     6.8820     5.6380   -55.9370
  381.0000    83.5450    13.0420     2.4220     0.2140     6.8910     5.6530   -56.2660
  381.5000    81.5970    13.0450     2.4190     0.2150     6.8990     5.6690   -56.5780
  382.0000    80.3910    13.0440     2.4180     0.2150     6.9090     5.6830   -56.3770
  382.5000    79.6750    13.0440     2.4230     0.2150     6.9160     5.6980   -56.2570
  383.0000    78.8870    13.0440     2.4280     0.2160     6.9260     5.7140   -56.1970
  383.5000    77.8260    13.0450     2.4320     0.2160     6.9300     5.7290   -56.2830
  384.0000    75.9950    13.0460     2.4310     0.2170     6.9920     5.7440   -56.4020
  384.5000    75.4640    13.0470     2.4300     0.2170     7.0470     5.7590   -56.5030
  385.0000    75.8260    13.0480     2.4320     0.2180     7.1020     5.7750   -56.5870
  385.5000    74.1250    13.0480     2.4380     0.2180     7.1570     5.7900   -56.1660
  386.0000    68.0250    13.0490     2.4400     0.2180     7.2120     5.8060   -55.5620
  386.5000    70.4280    13.0500     2.4390     0.2170     7.2670     5.8200   -55.3870
  387.0000    74.6230    13.0510     2.4380     0.2160     7.3320     5.8470   -55.4040
  387.5000    79.2350    13.0520     2.4370     0.2150     7.3320     5.8440   -55.4000
  388.0000    77.2990    13.0530     2.4370     0.2140     7.3320     5.8580   -55.4000
  388.5000    74.3620    13.0540     2.4340     0.2150     7.2610     5.7350   -55.4030
  389.0000    72.1270    13.0550     2.4310     0.2160     7.1690     5.7470   -55.3960
  389.5000    77.3800    13.0550     2.4280     0.2180     7.0770     5.6760   -55.4100
  390.0000    83.9950    13.0560     2.4220     0.2180     6.9860     5.6360   -55.3150
  390.5000    85.4110    13.0570     2.4180     0.2160     6.8940     5.5960   -55.1020
  391.0000    89.5920    13.0580     2.4140     0.2140     6.8020     5.5560   -55.0190
  391.5000    90.3360    13.0590     2.4100     0.2130     6.7110     5.5150   -55.3220
  392.0000    89.5930    13.0600     2.4250     0.2150     6.6190     5.4750   -55.7010
  392.5000    85.6360    13.0610     2.4390     0.2160     6.5500     5.4270   -55.4870
  393.0000    81.3470    13.0610     2.4410     0.2160     6.5410     5.4270   -54.9410
  393.5000    77.4830    13.0620     2.4440     0.2150     6.5310     5.4350   -54.3520
  394.0000    78.1880    13.0630     2.4450     0.2150     6.5210     5.4740   -54.2270
  394.5000    79.3640    13.0640     2.4480     0.2140     6.5110     5.5120   -54.7550
  395.0000    80.4730    13.0650     2.4480     0.2140     6.5010     5.5510   -55.3540
  395.5000    80.7000    13.0660     2.4470     0.2130     6.4910     5.5900   -55.9420
  396.0000    78.0250    13.0670     2.4450     0.2130     6.4810     5.6290   -56.5410
  396.5000    73.1770    13.0680     2.4420     0.2140     6.4710     5.6670   -56.5500
  397.0000    69.5470    13.0680     2.4460     0.2170     6.4610     5.7060   -55.7510
  397.5000    69.3730    13.0690     2.4570     0.2200     6.4520     5.7420   -55.3590
  398.0000    72.5750    13.0700     2.4730     0.2180     6.4410     5.7300   -55.1910
  398.5000    75.6510    13.0710     2.4660     0.2130     6.4310     5.6850   -54.9930
  399.0000    76.9860    13.0720     2.4580     0.2120     6.4280     5.6400   -54.6020
  399.5000    77.9230    13.0730     2.4480     0.2150     6.3720     5.5960   -54.2660
  400.0000    81.1840    13.0740     2.4360     0.2160     6.3040     5.5510   -53.8450
  400.5000    84.0290    13.0750     2.4300     0.2140     6.2370     5.5060   -54.0640
  401.0000    82.4210    13.0750     2.4300     0.2130     6.1690     5.4620   -54.3890
  401.5000    80.8130    13.0760     2.4300     0.2110     6.1020     5.4170   -54.7270
  402.0000    80.1800    13.0770     2.4270     0.2090     6.0340     5.3720   -55.0480
  402.5000    80.4120    13.0780     2.4170     0.2080     5.9670     5.3280   -55.3820
  403.0000    80.5740    13.0790     2.4090     0.2060     5.8990     5.2830   -55.7040
  403.5000    79.3540    13.0800     2.4080     0.2080     5.8320     5.2380   -56.0490
  404.0000    75.4430    13.0810     2.4190     0.2090     5.7640     5.1940   -56.2170
  404.5000    72.9910    13.0820     2.4240     0.2100     5.6350     5.1490   -56.1220
  405.0000    75.4160    13.0820     2.4240     0.2100     5.6350     5.1040   -55.8740
  405.5000    75.1600    13.0830     2.4240     0.2110     5.6400     5.0600   -55.6390
