~VERSION INFORMATION
 VERS.                2.0:   CWLS LOG ASCII STANDARD - VERSION 2.0
 WRAP.                 NO:   ONE LINE PER DEPTH STEP
~WELL INFORMATION
#MNEM.UNIT      DATA TYPE    INFORMATION
#----------   ------------   ------------------------------
 STRT.F          164.0000:   START DEPTH
 STOP.F         3223.5000:   STOP DEPTH
 STEP.F            0.5000:   STEP LENGTH
 NULL.          -999.2500:   NO VALUE
 COMP.    FENIX & SCISSON:   COMPANY
 WELL. FENIX & SCISSON "AX" #64-34:   WELL
 FLD . NAVAL PETROLEUM RESERVE #3:   FIELD
 LOC .      S34 T39N R78W:   LOCATION
 CNTY.            NATRONA:   COUNTY
 STAT.            WYOMING:   STATE
 CTRY. UNITED STATES OF AMERICA:   COUNTRY
 SRVC.       SCHLUMBERGER:   SERVICE COMPANY
 DATE.        30-DEC-1980:   LOGDATE
 API .     49025108660000:   API NUMBER
~CURVE INFORMATION
#MNEM.UNIT       API CODE    CURVE DESCRIPTION
#----------   ------------   ------------------------------
 DEPT.F                  :   
 GRD .GAPI   45 310 01 00:   GAMMA RAY FROM DENSITY LOG
 RHOB.G/C3   45 350 01 00:   BULK DENSITY
 CALD.IN     45 280 60 00:   CALIPER FROM DENSITY LOG
 CORR.G/C3   45 356 01 00:   DENSITY CORRECTION
 SPR .MV     07 010 01 00:   SPONTANEOUS POTENTIAL
 TENR.LBS    06 635 01 00:   TENSION FROM RESISTIVITY
 ILD .OHMM   07 120 46 00:   DEEP INDUCTION RESISTIVITY
 ILM .OHMM   07 120 44 00:   INDUCTION LOG MEDIUM RESISTIVITY
 SFL .OHMM   07 220 01 00:   SHALLOW FOCUSED LOG RESISTIVITY
~PARAMETER INFORMATION
#MNEM.UNIT          VALUE    DESCRIPTION
#----------   ------------   ------------------------------
 EKB .F         5088.0000:   Kelly bushing
 EGL .F         5078.0000:   Ground level
 TD  .F         3225.0000:   Total depth
 CLNT.            A2DTECH:   Client Code
 SL  . 3107' FSL & 3680' FWL:   Surface Location
 PD  .                 GL:   Permanent Datum
 EPD .F              5078:   Elevation Permanent Datum
 LMF .                 KB:   Log Measured From
 DMF .                 KB:   Drilling Measured From
 DAPD.F                10:   Feet Above Permanent Datum
 DATE.        30-DEC-1980:   Date Logged [DD-MMM-YYYY]
 DD  .F              3225:   Depth driller
 DL  .F              3225:   Depth logger
 BLI .F              3219:   Bottom log interval
 TLI .F               190:   Top log interval
 CS1 .IN            8.625:   Casing size
 CBD1.      8.625" @ 205':   Casing driller 1
 CBL1.F               190:   Casing logger 1
 BS1 .IN            7.875:   Bit size
 BSD1.F              3225:   Depth drilled with bit1
 DFT .              FRESH:   Type fluid in hole
 DFD .                  9:   Density
 DFV .                 46:   Viscosity
 MSS .           MUD TANK:   Source of sample
 RMS .OHMM           2.47:   Rm
 MST .F                57:   Rm Meas. temp.
 RMF .OHMM           1.45:   Rmf
 MFST.F                57:   Rmf Meas. temp.
 MFSS.               MEAS:   Source Rmf.
 RMB .OHMM            1.2:   Rm. at BHT
 BHT .F               124:   BHT.
 TCS .HRS            0400:   Time Circ. stopped
 MRT .F               124:   Maximum recorded temp.
 LUN .               8034:   Logging unit number
 LUL .               CSPR:   Logging unit location
 ENGI.             LARSON:   Recorded By
 WITN.              FIVAS:   Witnessed by
 ORIG.        2" 5" PRINT:   Origin of data
 UWI .     49025108660000:   Unique Well ID
 DICO. A2D TECHNOLOGIES, INC:   Digitizing Company
 TLAB.HRS            2030:   Time logger at bottom
~OTHER INFORMATION
~A   DEPT       GRD      RHOB       CALD       CORR        SPR       TENR        ILD        ILM        SFL   
# ...
  602.0000    70.3514     2.4542     8.7666     0.0239   -74.3683   863.3250    16.0130    15.3369    13.7151
  602.5000    72.1537     2.5022     8.7333     0.0273   -74.5616   862.9810    16.2378    15.6615    14.0039
  603.0000    72.4429     2.5387     8.6876     0.0319   -74.3211   862.6370    16.4605    15.9998    14.5254
  603.5000    71.9764     2.5580     8.6861     0.0380   -74.3515   862.2930    16.6893    16.5711    16.7452
  604.0000    67.8785     2.5703     8.6672     0.0452   -74.1091   861.9491    17.1725    17.1701    19.3294
  604.5000    66.3525     2.5968     8.6957     0.0475   -73.9340   861.6051    17.6539    17.6654    21.8352
  605.0000    67.2718     2.6060     8.7399     0.0666   -73.9179   861.2611    17.6430    17.6532    22.7860
  605.5000    68.8949     2.5960     8.8008     0.0607   -73.7712   860.9171    17.6320    17.2657    22.1248
  606.0000    71.1510     2.5277     8.8567     0.0529   -73.6463   860.5732    17.2445    16.7606    18.8557
  606.5000    73.2559     2.4494     8.8549     0.0489   -73.3620   860.2292    16.5050    15.4760    15.9745
  607.0000    74.6044     2.4184     8.8380     0.0458   -73.1248   859.8853    15.3280    13.8814    13.6238
  607.5000    75.0454     2.4137     8.8362     0.0435   -72.9268   859.5413    14.2712    12.9083    12.7603
  608.0000    75.0318     2.4354     8.8345     0.0421   -72.7116   859.1973    13.6592    12.6250    12.6608
  608.5000    74.4104     2.4400     8.8479     0.0387   -72.5266   858.8533    13.2631    12.5274    12.8367
  609.0000    73.7922     2.4462     8.8613     0.0348   -72.4947   858.5094    13.0654    12.4304    13.0149
  609.5000    73.4765     2.4524     8.8591     0.0329   -72.4955   858.1653    12.9636    12.4219    13.1936
  610.0000    74.9762     2.4555     8.8573     0.0324   -72.4766   857.8214    12.8623    12.4150    13.0908
  610.5000    74.8118     2.4586     8.8556     0.0347   -72.3137   857.4774    12.8526    12.4081    12.9887
  611.0000    73.7397     2.4617     8.8538     0.0401   -72.4739   857.1335    12.8446    12.4017    12.9807
  611.5000    72.0091     2.4701     8.8520     0.0458   -72.7014   856.7895    12.8366    12.4843    12.9723
  612.0000    70.5331     2.4950     8.8503     0.0511   -72.8058   856.4456    12.8581    12.5746    13.0583
  612.5000    71.1252     2.5105     8.8182     0.0523   -72.6915   856.1016    12.8927    12.7431    13.1446
  613.0000    71.7172     2.5128     8.8160     0.0502   -72.9260   855.7576    12.9053    12.8282    13.7148
  613.5000    72.3092     2.5050     8.8294     0.0487   -73.0806   855.4136    12.8953    12.8193    14.2095
  614.0000    72.9012     2.4957     8.8432     0.0476   -73.3142   855.0696    12.8873    12.8122    14.0943
  614.5000    73.6470     2.4724     8.8562     0.0463   -73.7666   854.7257    12.7869    12.6218    12.7355
  615.0000    74.4377     2.4520     8.8650     0.0447   -74.0323   854.3817    12.7789    12.1591    12.2771
  615.5000    75.8843     2.4204     8.8679     0.0447   -74.3470   854.0378    12.6793    11.3953    12.0939
  616.0000    76.9334     2.4166     8.8815     0.0439   -74.3916   853.6938    12.4883    11.0651    11.9996
  616.5000    74.7990     2.4243     8.8945     0.0423   -74.3722   853.3499    12.3910    10.9795    11.8206
  617.0000    74.1808     2.4274     8.8924     0.0412   -74.1139   853.0059    12.2945    11.0544    11.6440
  617.5000    74.9241     2.4297     8.8909     0.0399   -74.0110   852.6619    12.1987    11.0468    11.5516
  618.0000    76.8976     2.4429     8.8889     0.0391   -73.6705   852.3179    12.1036    11.0405    11.5444
  618.5000    78.3741     2.4727     8.8720     0.0388   -73.0189   851.9739    12.0092    11.1129    11.5379
  619.0000    79.2687     2.4831     8.8551     0.0367   -72.3933   851.6299    11.9139    11.1871    11.5304
  619.5000    80.3146     2.4754     8.8609     0.0336   -71.6196   851.2860    11.9065    11.1809    11.5229
  620.0000    80.6073     2.4676     8.8667     0.0325   -70.9280   850.9420    11.8991    11.0944    11.5140
  620.5000    79.5319     2.4474     8.8648     0.0312   -70.8558   850.5981    11.8917    11.0883    11.5069
  621.0000    78.0059     2.4428     8.8600     0.0310   -70.8572   850.2540    11.8843    11.0820    11.4997
  621.5000    76.6309     2.4459     8.8461     0.0312   -70.8549   849.9102    11.8767    11.0745    11.4926
  622.0000    77.0687     2.4404     8.8289     0.0312   -71.0216   849.5661    11.8677    11.0684    11.5687
  622.5000    76.7530     2.4332     8.8120     0.0319   -71.2340   849.2222    11.8604    11.1423    11.7292
  623.0000    76.2860     2.4303     8.8175     0.0322   -71.4473   849.0566    11.9405    11.1362    11.8067
  623.5000    75.0626     2.4303     8.8237     0.0335   -71.6602   849.0566    12.1937    11.2106    11.9688
  624.0000    73.0828     2.4303     8.8215     0.0334   -71.8730   849.0566    12.3610    11.2983    12.0498
  624.5000    72.9184     2.4302     8.8197     0.0334   -72.0859   849.0566    12.3530    11.7764    12.0404
  625.0000    73.8376     2.4318     8.8180     0.0326   -72.2988   849.0566    12.3437    11.7699    12.0330
  625.5000    75.4607     2.4403     8.8315     0.0318   -72.5111   849.0566    12.2475    11.6789    12.0236
  626.0000    76.2410     2.4599     8.8599     0.0299   -72.7212   849.0566    12.2399    11.5885    12.0162
  626.5000    75.7370     2.4581     8.8582     0.0202   -72.9533   849.0566    12.1446    11.4154    11.9233
  627.0000    73.9085     2.4480     8.8564     0.0028   -73.4696   849.0566    11.9634    11.2449    11.7446
  627.5000    72.8363     2.4395     8.8545     0.0021   -73.7394   849.0566    11.7833    11.1580    11.6530
  628.0000    72.5204     2.4402     8.8524     0.0022   -74.2166   849.0566    11.6914    10.9921    11.3965
  628.5000    72.3555     2.4449     8.8507     0.0051   -73.5095   849.0566    11.6003    10.9070    11.2249
  629.0000    72.3398     2.4503     8.8461     0.0088   -73.5210   849.0566    11.5100    10.9010    11.0409
  629.5000    72.6293     2.4534     8.8167     0.0139   -73.1071   849.0566    11.5028    10.8926    10.8142
  630.0000    73.6752     2.4557     8.7906     0.0184   -72.5995   849.0566    11.4955    10.8092    10.7299
  630.5000    74.4185     2.4456     8.7830     0.0191   -72.0224   849.0566    11.3225    10.6485    10.7232
  631.0000    75.0105     2.4458     8.7661     0.0188   -71.5939   849.0566    11.0736    10.4902    10.7163
  631.5000    75.6198     2.4556     8.7639     0.0136   -71.0400   849.0566    10.9085    10.2600    10.7093
  632.0000    76.0432     2.4602     8.7622     0.0076   -70.4945   849.0566    10.7458    10.1806    10.7807
  632.5000    74.2114     2.4626     8.7453     0.0024   -69.9460   849.0566    10.7392    10.1018    10.6950
  633.0000    73.1393     2.4649     8.7283    -0.0005   -69.6420   849.0566    10.8101    10.0223    10.6883
  633.5000    73.4320     2.4672     8.7266    -0.0005   -69.7875   849.0566    10.8017    10.1623    10.6816
  634.0000    75.2310     2.4726     8.7400    -0.0005   -69.9575   849.0566    10.7950    10.2316    10.7523
  634.5000    76.4307     2.4913     8.7534     0.0010   -70.4264   849.0566    10.8679    10.4482    10.8216
  635.0000    77.3475     2.4850     8.7668     0.0047   -70.5599   849.0566    10.8595    10.5181    10.8948
  635.5000    78.2141     2.4725     8.7494     0.0101   -71.0129   849.0566    10.9312    10.5883    10.9651
  636.0000    78.8061     2.4524     8.7325     0.0189   -71.4579   849.0566    11.0033    10.7347    11.1174
  636.5000    78.3391     2.4469     8.7156     0.0268   -71.8922   849.0566    11.0760    10.8079    11.3646
  637.0000    76.9644     2.4438     8.6684     0.0376   -72.6867   849.0566    11.4731    10.8801    11.7608
  637.5000    73.6230     2.4244     8.5757     0.0470   -73.7051   849.0566    12.0588    11.0321    12.2729
  638.0000    69.4744     2.4221     8.4511     0.0507   -74.8499   849.0566    12.9512    11.6793    12.9932
