~VERSION INFORMATION
 VERS.                2.0:   CWLS LOG ASCII STANDARD - VERSION 2.0
 WRAP.                 NO:   ONE LINE PER DEPTH STEP
~WELL INFORMATION
#MNEM.UNIT      DATA TYPE    INFORMATION
#----------   ------------   ------------------------------
 STRT.F           85.5000:   START DEPTH
 STOP.F         3267.0000:   STOP DEPTH
 STEP.F            0.5000:   STEP LENGTH
 NULL.          -999.2500:   NO VALUE
 COMP. LAWRENCE ALLISON & ASSOCIATES:   COMPANY
 WELL. LAWRENCE "X" #78-33:   WELL
 FLD .           N P R #3:   FIELD
 LOC .      S33 T39N R78W:   LOCATION
 CNTY.            NATRONA:   COUNTY
 STAT.            WYOMING:   STATE
 CTRY. UNITED STATES OF AMERICA:   COUNTRY
 SRVC.      DRESSER ATLAS:   SERVICE COMPANY
 DATE.        04-FEB-1986:   LOGDATE
 API .     49025110630000:   API NUMBER
~CURVE INFORMATION
#MNEM.UNIT       API CODE    CURVE DESCRIPTION
#----------   ------------   ------------------------------
 DEPT.F                  :   
 CNC .DEC    42 890 03 00:   NEUTRON PORISITY SANDSTONE
 DEN .G/C3   45 350 01 00:   BULK DENSITY
 DCOR.G/C3   45 356 01 00:   DENSITY CORRECTION
 TEND.LBS    45 635 01 00:   TENSION FROM DENSITY LOG
 GRR .GAPI   07 310 01 00:   GAMMA RAY FROM RESISTIVITY
 CALR.IN     07 280 01 00:   CALIPER FROM RESISTIVITY
 RILM.OHMM   07 120 44 00:   INDUCTION LOG MEDIUM RESISTIVITY
 RILD.OHMM   07 120 46 00:   DEEP INDUCTION RESISTIVITY
 RFOC.OHMM   07 220 04 00:   RESISTIVITY FOCUSED LOG RES.
 TENR.LBS    07 635 01 00:   TENSION FROM RESISTIVITY
 DT  .US/F   60 520 00 00:   DELTA TIME
 TENS.LBS    60 635 01 00:   TENSION FROM SONIC
 SPR .MV     07 010 01 00:   SPONTANEOUS POTENTIAL
~PARAMETER INFORMATION
#MNEM.UNIT          VALUE    DESCRIPTION
#----------   ------------   ------------------------------
 EKB .F            0.0000:   Kelly bushing
 EGL .F         5150.0000:   Ground level
 EDF .F         5161.0000:   Drilling floor
 TD  .F         3260.0000:   Total depth
 DATE.        04-FEB-1986:   Date logged
 CLNT.            A2DTECH:   Client Code
 SL  . 1200' FEL & 650' FEL:   Surface Location
 PD  .                 GL:   Permanent Datum
 DD  .F              3260:   Depth driller
 DL  .F              3260:   Depth logger
 BLI .F              3258:   Bottom log interval
 CS1 .IN            8.625:   Casing size
 CBD1.      8.625" @ 566':   Casing driller 1
 CBL1.F               566:   Casing logger 1
 BS1 .IN            7.875:   Bit size
 DFT .        POLYMER-KCL:   Type fluid in hole
 DFD .                9.0:   Density
 DFV .                 36:   Viscosity
 DFPH.                8.5:   pH
 DFL .                 14:   Fluid loss
 MSS .           FLOWLINE:   Source of sample
 RMS .OHMM          0.367:   Rm
 MST .F                65:   Rm Meas. temp.
 RMF .OHMM          0.275:   Rmf
 MFST.F                65:   Rmf Meas. temp.
 RMC .OHMM          0.459:   Rmc
 MCST.F                65:   Rmc Meas. temp.
 MFSS.               CALC:   Source Rmf.
 RMB .OHMM          0.227:   Rm. at BHT
 BHT .F               105:   BHT.
 TCS .HRS               6:   Time Circ. stopped
 MRT .F               105:   Maximum recorded temp.
 LUN .               6274:   Logging unit number
 LUL .           GILLETTE:   Logging unit location
 ENGI.             MILLER:   Recorded By
 WITN.             STRONG:   Witnessed by
 ORIG.           5" PRINT:   Origin of data
 UWI .     49025110630000:   Unique Well ID
 DICO. A2D TECHNOLOGIES, INC.:   Digitizing Company
 DAPD.                 11:   Feet Above Permanent Datum
 BSD1.               3260:   Depth drilled with bit1
 MCSS.               CALC:   Source Rmc.
 EPD .F              5150:   Elevation Permanent Datum
 LMF .                 KB:   Log Measured From
 DMF .                 KB:   Drilling Measured From
 TLI .                566:   Top log interval
~OTHER INFORMATION
~A   DEPT      CNC        DEN       DCOR       TEND         GRR      CALR       RILM       RILD       RFOC       TENR         DT       TENS        SPR   
# ...
 1437.5000  -999.2500  -999.2500  -999.2500  -999.2500    92.2810     9.7230     7.6360     8.4710     9.0320   -32.2920  -999.2500  -999.2500   -78.5010
 1438.0000  -999.2500  -999.2500  -999.2500  -999.2500    93.6160     9.7270     7.5630     8.3710     8.7340   -30.9170  -999.2500  -999.2500   -78.6590
 1438.5000  -999.2500  -999.2500  -999.2500  -999.2500    93.5030     9.7500     7.4990     8.2710     8.2990   -29.5420  -999.2500  -999.2500   -78.8350
 1439.0000  -999.2500  -999.2500  -999.2500  -999.2500    91.1320     9.7830     7.5240     8.2140     8.3270   -28.1670  -999.2500  -999.2500   -79.0310
 1439.5000  -999.2500  -999.2500  -999.2500  -999.2500    89.0280     9.8160     7.5450     8.1970     8.3760   -26.7920  -999.2500  -999.2500   -79.2510
 1440.0000  -999.2500  -999.2500  -999.2500  -999.2500    88.8910     9.8490     7.5690     8.1800     8.4100   -25.0000  -999.2500  -999.2500   -79.4080
 1440.5000  -999.2500  -999.2500  -999.2500  -999.2500    89.3830     9.8730     7.5010     8.1630     8.4530   -26.1130  -999.2500  -999.2500   -79.3260
 1441.0000  -999.2500  -999.2500  -999.2500  -999.2500    91.1840     9.8880     7.4260     8.1480     9.1000   -27.7100  -999.2500  -999.2500   -79.1930
 1441.5000  -999.2500  -999.2500  -999.2500  -999.2500    93.6380     9.9030     7.3510     8.1030     9.0360   -29.3060  -999.2500  -999.2500   -79.1090
 1442.0000  -999.2500  -999.2500  -999.2500  -999.2500    95.9570     9.9180     7.2950     8.0610     8.8540   -30.9030  -999.2500  -999.2500   -78.9910
 1442.5000  -999.2500  -999.2500  -999.2500  -999.2500    98.2750     9.9290     7.2330     8.0190     8.6100   -32.5000  -999.2500  -999.2500   -78.8850
 1443.0000  -999.2500  -999.2500  -999.2500  -999.2500    98.9880     9.9340     7.1840     7.9780     8.3760   -34.0970  -999.2500  -999.2500   -78.9110
 1443.5000  -999.2500  -999.2500  -999.2500  -999.2500    98.6240     9.9400     7.1350     7.9360     8.2430   -33.5670  -999.2500  -999.2500   -79.0740
 1444.0000  -999.2500  -999.2500  -999.2500  -999.2500    97.1350     9.9460     7.0960     7.8940     8.1150   -30.2670  -999.2500  -999.2500   -79.2870
 1444.5000  -999.2500  -999.2500  -999.2500  -999.2500    94.1450     9.9460     7.2320     7.8530     7.9870   -26.9670  -999.2500  -999.2500   -79.4070
 1445.0000  -999.2500  -999.2500  -999.2500  -999.2500    90.9720     9.9460     7.3430     7.9110     7.8590   -23.6670  -999.2500  -999.2500   -79.3290
 1445.5000  -999.2500  -999.2500  -999.2500  -999.2500    88.4870     9.9460     7.4540     7.9680     7.8850   -20.3670  -999.2500  -999.2500   -79.2160
 1446.0000  -999.2500  -999.2500  -999.2500  -999.2500    87.4330     9.9490     7.5110     8.0250     8.1510   -17.0670  -999.2500  -999.2500   -79.1430
 1446.5000  -999.2500  -999.2500  -999.2500  -999.2500    87.5760     9.9560     7.5320     8.0820     8.4160   -15.0000  -999.2500  -999.2500   -79.0460
 1447.0000  -999.2500  -999.2500  -999.2500  -999.2500    89.2960     9.9630     7.5520     8.1400     8.7710   -20.7600  -999.2500  -999.2500   -78.9550
 1447.5000  -999.2500  -999.2500  -999.2500  -999.2500    90.2810     9.9700     7.5690     8.1970     8.8090   -26.7000  -999.2500  -999.2500   -78.8770
 1448.0000  -999.2500  -999.2500  -999.2500  -999.2500    89.0270     9.9770     7.5420     8.1940     8.8520   -32.6400  -999.2500  -999.2500   -78.8640
 1448.5000  -999.2500  -999.2500  -999.2500  -999.2500    88.8740     9.9830     7.5200     8.1400     8.7600   -38.5800  -999.2500  -999.2500   -78.9790
 1449.0000  -999.2500  -999.2500  -999.2500  -999.2500    89.1340     9.9900     7.4990     8.0860     8.6900   -45.0000  -999.2500  -999.2500   -79.0100
 1449.5000  -999.2500  -999.2500  -999.2500  -999.2500    89.3450     9.9970     7.3490     8.0320     8.8250   -42.8420  -999.2500  -999.2500   -78.7680
 1450.0000  -999.2500  -999.2500  -999.2500  -999.2500    90.9090    10.0040     7.2140     7.9780     8.9340   -39.8330  -999.2500  -999.2500   -78.4860
 1450.5000  -999.2500  -999.2500  -999.2500  -999.2500    93.2290    10.0110     7.0800     7.9240     8.7430   -36.8240  -999.2500  -999.2500   -78.2760
 1451.0000  -999.2500  -999.2500  -999.2500  -999.2500    94.6230    10.0180     6.9450     7.8700     8.6280   -33.8150  -999.2500  -999.2500   -77.9940
 1451.5000  -999.2500  -999.2500  -999.2500  -999.2500    93.0360    10.0260     6.8960     7.7970     8.5370   -30.8060  -999.2500  -999.2500   -77.8490
 1452.0000  -999.2500  -999.2500  -999.2500  -999.2500    90.9210    10.0310     6.8870     7.7150     8.4530   -27.7970  -999.2500  -999.2500   -77.9930
 1452.5000  -999.2500  -999.2500  -999.2500  -999.2500    91.0200    10.0360     6.8770     7.6330     8.1490   -25.0000  -999.2500  -999.2500   -78.1720
 1453.0000  -999.2500  -999.2500  -999.2500  -999.2500    92.9760    10.0420     6.8680     7.5520     7.9650   -29.0920  -999.2500  -999.2500   -78.3190
 1453.5000  -999.2500  -999.2500  -999.2500  -999.2500    95.1290    10.0480     6.8580     7.4700     7.8920   -32.9150  -999.2500  -999.2500   -78.4820
 1454.0000  -999.2500  -999.2500  -999.2500  -999.2500    94.9650    10.0540     6.8490     7.3880     7.8390   -36.7380  -999.2500  -999.2500   -78.6430
 1454.5000  -999.2500  -999.2500  -999.2500  -999.2500    92.4260    10.0590     6.8400     7.3060     7.8100   -40.5620  -999.2500  -999.2500   -78.8250
 1455.0000  -999.2500  -999.2500  -999.2500  -999.2500    90.6290    10.0650     6.7910     7.2240     7.7810   -45.0000  -999.2500  -999.2500   -79.0320
 1455.5000  -999.2500  -999.2500  -999.2500  -999.2500    92.3420    10.0710     6.7450     7.1620     7.9570   -40.0940  -999.2500  -999.2500   -79.2770
 1456.0000  -999.2500  -999.2500  -999.2500  -999.2500    95.1630    10.0760     6.6980     7.2650     8.1260   -34.2470  -999.2500  -999.2500   -79.3390
 1456.5000  -999.2500  -999.2500  -999.2500  -999.2500    95.7360    10.0820     6.6530     7.3490     8.1700   -28.4000  -999.2500  -999.2500   -79.1400
 1457.0000  -999.2500  -999.2500  -999.2500  -999.2500    95.7240    10.0910     6.6890     7.4310     8.0470   -25.0000  -999.2500  -999.2500   -78.9320
 1457.5000  -999.2500  -999.2500  -999.2500  -999.2500    96.3660    10.1070     6.7250     7.3850     7.7220   -23.1090  -999.2500  -999.2500   -78.7330
 1458.0000  -999.2500  -999.2500  -999.2500  -999.2500    95.2340    10.1240     6.7600     7.3400     7.3630   -21.5560  -999.2500  -999.2500   -78.5290
 1458.5000  -999.2500  -999.2500  -999.2500  -999.2500    92.2450    10.1310     6.7960     7.2950     7.5730   -20.0030  -999.2500  -999.2500   -78.3240
 1459.0000  -999.2500  -999.2500  -999.2500  -999.2500    90.3700    10.1370     6.8310     7.3540     7.9260   -18.4500  -999.2500  -999.2500   -78.1260
 1459.5000  -999.2500  -999.2500  -999.2500  -999.2500    90.4370    10.1450     6.8670     7.4130     7.9530   -16.8970  -999.2500  -999.2500   -78.1760
 1460.0000  -999.2500  -999.2500  -999.2500  -999.2500    91.6330    10.1510     6.9030     7.4720     7.9810   -15.0000  -999.2500  -999.2500   -78.4530
 1460.5000  -999.2500  -999.2500  -999.2500  -999.2500    92.8410    10.1580     6.9190     7.5310     7.9990   -18.0750  -999.2500  -999.2500   -78.6410
 1461.0000  -999.2500  -999.2500  -999.2500  -999.2500    93.3860    10.1650     6.9360     7.5900     7.8690   -23.4000  -999.2500  -999.2500   -78.6990
 1461.5000  -999.2500  -999.2500  -999.2500  -999.2500    94.0450    10.1720     6.9530     7.6390     7.7580   -28.7250  -999.2500  -999.2500   -78.7480
 1462.0000  -999.2500  -999.2500  -999.2500  -999.2500    93.7550    10.1780     6.9670     7.4750     7.9120   -34.0500  -999.2500  -999.2500   -78.8000
 1462.5000  -999.2500  -999.2500  -999.2500  -999.2500    91.7610    10.1850     6.7240     7.3050     8.0730   -39.3750  -999.2500  -999.2500   -78.8550
 1463.0000  -999.2500  -999.2500  -999.2500  -999.2500    89.6870    10.1840     6.5150     7.1920     8.0730   -45.0000  -999.2500  -999.2500   -78.9030
