~VERSION INFORMATION
 VERS.                2.0:   CWLS LOG ASCII STANDARD - VERSION 2.0
 WRAP.                 NO:   ONE LINE PER DEPTH STEP
~WELL INFORMATION
#MNEM.UNIT      DATA TYPE    INFORMATION
#----------   ------------   ------------------------------
 STRT.F          200.0000:   START DEPTH
 STOP.F         3120.0000:   STOP DEPTH
 STEP.F            0.5000:   STEP LENGTH
 NULL.          -999.2500:   NO VALUE
 COMP.    FENIX & SCISSON:   COMPANY
 WELL. FENIX NPR 3 "AX" #83-28:   WELL
 FLD .                NPR:   FIELD
 LOC .      S28 T39N R78W:   LOCATION
 CNTY.            NATRONA:   COUNTY
 STAT.            WYOMING:   STATE
 CTRY. UNITED STATES OF AMERICA:   COUNTRY
 SRVC.              WELEX:   SERVICE COMPANY
 DATE.        29-SEP-1977:   LOGDATE
 API .     49025104240000:   API NUMBER
~CURVE INFORMATION
#MNEM.UNIT       API CODE    CURVE DESCRIPTION
#----------   ------------   ------------------------------
 DEPT.F                  :   
 CALD.IN     45 280 60 00:   CALIPER FROM DENSITY LOG
 GRD .GAPI   45 310 01 00:   GAMMA RAY FROM DENSITY LOG
 RHOB.G/C3   45 350 01 00:   BULK DENSITY
 CORR.G/C3   45 356 01 00:   DENSITY CORRECTION
 SPR .MV     07 010 01 00:   SPONTANEOUS POTENTIAL
 SGRD.MV     07 220 05 00:   SHLLOW GUARD
 ILD .OHMM   07 120 46 00:   DEEP INDUCTION RESISTIVITY
 ILM .OHMM   07 120 44 00:   INDUCTION LOG MEDIUM RESISTIVITY
~PARAMETER INFORMATION
#MNEM.UNIT          VALUE    DESCRIPTION
#----------   ------------   ------------------------------
 EKB .F         5034.0000:   Kelly bushing
 EGL .F         5024.0000:   Ground level
 TD  .F         3110.0000:   Total depth
 DATE.        29-SEP-1977:   Date logged
 CLNT.            A2DTECH:   Client Code
 SL  . 1650' FNL & 330' FEL:   Surface Location
 PD  .                 GL:   Permanent Datum
 EPD .F              5024:   Elevation Permanent Datum
 LMF .                 KB:   Log Measured From
 DMF .                 KB:   Drilling Measured From
 DAPD.F                10:   Feet Above Permanent Datum
 DD  .F              3110:   Depth driller
 DL  .F              3110:   Depth logger
 BLI .F              3108:   Bottom log interval
 TLI .F               210:   Top log interval
 CS1 .IN            8.625:   Casing size
 CBD1.      8.625" @ 201':   Casing driller 1
 CBL1.F               210:   Casing logger 1
 BS1 .IN            7.875:   Bit size
 BSD1.F              3110:   Depth drilled with bit1
 DFT .          KCL/WATER:   Type fluid in hole
 DFD .                  9:   Density
 DFV .                 40:   Viscosity
 DFPH.                 11:   pH
 DFL .                6.4:   Fluid loss
 MSS .            MUD/PIT:   Source of sample
 RMS .OHMM            .56:   Rm
 MST .F                60:   Rm Meas. temp.
 RMF .OHMM            .34:   Rmf
 MFST.F                60:   Rmf Meas. temp.
 RMC .OHMM            .61:   Rmc
 MCST.F                60:   Rmc Meas. temp.
 MFSS.               MEAS:   Source Rmf.
 MCSS.               MEAS:   Source Rmc.
 RMB .OHMM            .28:   Rm. at BHT
 BHT .F               120:   BHT.
 TCS .HRS               3:   Time Circ. stopped
 MRT .F               120:   Maximum recorded temp.
 LUN .               9685:   Logging unit number
 LUL .             CASPER:   Logging unit location
 ENGI. G. BENTSEN/T. JOYNER:   Recorded By
 WITN.         PETTINGILL:   Witnessed by
 ORIG.   1" 2.5" 5" PRINT:   Origin of data
 UWI .     49025104240000:   Unique Well ID
 DICO. A2D TECHNOLOGIES, INC.:   Digitizing Company
~OTHER INFORMATION
~A   DEPT     CALD         GRD      RHOB       CORR        SPR       SGRD        ILD        ILM   
# ...
 1941.5000     8.8520   120.7426     2.5050     0.0406   -65.1025    11.8751     9.0084     8.0645
 1942.0000     8.8524   120.7407     2.4990     0.0327   -65.0968    11.9876     9.0090     8.0657
 1942.5000     8.8529   120.7395     2.4911     0.0288   -65.0910    11.8798     9.2639     8.0677
 1943.0000     8.8533   121.5269     2.4792     0.0248   -65.0841    11.7729     9.3503     8.0691
 1943.5000     8.8537   121.5251     2.4713     0.0208   -65.0784    12.1050     9.3519     8.0706
 1944.0000     8.8541   120.7350     2.4634     0.0050   -65.0726    12.2192     9.3539     8.0720
 1944.5000     8.8545   121.5219     2.4574     0.0050   -65.6668    12.2218     9.3556     8.0728
 1945.0000     8.8549   123.8871     2.4535     0.0050   -65.6611    12.2240     9.3576     8.0743
 1945.5000     8.8554   125.4628     2.4515     0.0010   -65.6542    12.1140     9.3592     8.0766
 1946.0000     8.8558   124.6728     2.4515     0.0010   -65.6484    11.8949     9.3606     8.0036
 1946.5000     8.8562   126.2487     2.4555     0.0050   -65.6426    11.7879     9.2767     7.9319
 1947.0000     8.8566   127.0363     2.4555     0.0010   -65.6369    11.5751     9.0250     7.8611
 1947.5000     8.8570   127.0346     2.4594     0.0050   -65.6311    11.2615     8.8624     7.8619
 1948.0000     8.8575   124.6668     2.4614     0.0050   -65.6242    10.4631     8.6223     7.7200
 1948.5000     8.8579   124.6649     2.4654     0.0010   -65.6185    10.1796     8.4664     7.7208
 1949.0000     8.8583   124.6637     2.4693     0.0050   -65.8115    10.5637     8.3905     7.7225
 1949.5000     8.8587   122.2951     2.4713     0.0050   -65.8069    11.9106     8.3144     7.7236
 1950.0000     8.8591   123.0828     2.4772     0.0129   -65.8000    11.9127     8.3162     7.7744
 1950.5000     8.8799   123.8700     2.4703     0.0129   -65.7940    11.9149     8.3182     7.8256
 1951.0000     8.8798   122.2908     2.4634     0.0129   -65.7923    11.5931     8.3202     7.8764
 1951.5000     8.8401   123.8669     2.4614     0.0129   -65.7884    11.2796     8.4769     7.9274
 1952.0000     8.8794   122.2877     2.4554     0.0168   -65.7845    11.4920     8.5574     7.9788
 1952.5000     8.8004   122.2864     2.4535     0.0208   -65.7807    11.7090     8.7989     8.0306
 1953.0000     8.8397   121.4955     2.4555     0.0208   -65.7760    11.9295     8.9658     8.0826
 1953.5000     8.8396   120.7052     2.4574     0.0327   -65.7722    12.3801     9.1342     8.1350
 1954.0000     8.8788   121.4924     2.4594     0.0288   -65.7683    12.6132     9.1364     8.1878
 1954.5000     8.7998   121.4911     2.4594     0.0288   -65.7644    12.5004     9.2235     8.2409
 1955.0000     8.8391   125.4348     2.4634     0.0288   -65.7606    12.6190     9.3110     8.2943
 1955.5000     8.8390   126.2226     2.4654     0.0248   -65.7567    12.6224     9.5746     8.3383
 1956.0000     8.8783   127.7991     2.4733     0.0288   -65.7520    12.5095     9.7549     8.3403
 1956.5000     8.8782   127.7980     2.4812     0.0288   -65.7482    12.5123     9.8474     8.3418
 1957.0000     8.8386   127.0071     2.4951     0.0288   -65.7443    12.5152     9.8488     8.2680
 1957.5000     8.7595   128.5843     2.4990     0.0367   -65.7404    12.6339     9.8510     8.2691
 1958.0000     8.8778   128.5826     2.5070     0.0406   -65.7366    12.6373     9.8538     8.1959
 1958.5000     8.7592   128.5814     2.5089     0.0406   -65.7327    12.6402     9.7656     8.1219
 1959.0000     8.7591   125.4228     2.5149     0.0406   -65.7281    12.7601     9.6787     8.1238
 1959.5000     8.7589   125.4216     2.5129     0.0406   -65.7242    12.4151     9.5042     8.1253
 1960.0000     8.7983   122.2627     2.5069     0.0406   -65.7203    11.9686     9.4192     8.1287
 1960.5000     8.7981   121.4722     2.5050     0.0406   -65.7165    11.4324     9.2498     8.1306
 1961.0000     8.7980   120.6810     2.5069     0.0446   -65.7126    11.7560     9.2519     8.1321
 1961.5000     8.7979   120.6797     2.5128     0.0446   -65.7087    12.4269     9.1692     8.1339
 1962.0000     8.7977   121.4678     2.5186     0.0446   -65.7041    12.7780     9.1709     8.1358
 1962.5000     8.7976   121.4659     2.5208     0.0446   -65.7002    12.8992     9.1730     8.1381
 1963.0000     8.7974   121.4647     2.5228     0.0446   -65.2956    12.7838     9.1751     8.1400
 1963.5000     8.7972   120.6734     2.5149     0.0446   -65.2925    12.5533     9.1777     8.1422
 1964.0000     8.7971   119.8827     2.5030     0.0446   -65.4886    12.1025     9.1798     8.1441
 1964.5000     8.7970   120.6702     2.4911     0.0406   -65.8847    11.7753     9.2677     8.1452
 1965.0000     8.7968   120.6690     2.4871     0.0406   -66.4785    12.2200     9.5296     8.1482
 1965.5000     8.7967   120.6670     2.4792     0.0367   -66.6762    12.6816     9.5318     8.1494
 1966.0000     8.7966   119.8763     2.4767     0.0367   -66.8723    12.9203     9.6226     8.1509
 1966.5000     8.7964   119.8743     2.4741     0.0288   -66.8685    13.0434     9.5353     8.1535
 1967.0000     8.7568   120.6625     2.4713     0.0288   -66.8646    13.0464     9.5375     8.1554
 1967.5000     8.7567   120.6606     2.4693     0.0288   -66.8607    12.8111     9.5405     8.1581
 1968.0000     8.7565   120.6594     2.4713     0.0288   -66.8561    12.6966     9.5427     8.1592
 1968.5000     8.7564   120.6575     2.4752     0.0288   -66.8522    12.5830     9.5445     8.0128
 1969.0000     8.7562   120.6562     2.4832     0.0327   -66.8483    12.2428     9.4596     8.0143
 1969.5000     8.7561   123.0230     2.4911     0.0288   -66.8445    11.6945     9.2890     7.9431
 1970.0000     8.7560   124.6009     2.4812     0.0248   -66.8406    11.4841     9.1224     7.9449
 1970.5000     8.7558   123.8095     2.4654     0.0208   -66.8367    11.9178     9.1241     7.9467
 1971.0000     8.7557   123.8083     2.4535     0.0208   -66.8321    12.3679     9.0425     8.0225
 1971.5000     8.7556   123.8071     2.4524     0.0208   -66.8282    12.4852     8.9621     8.1724
 1972.0000     8.7553   121.4363     2.4514     0.0208   -66.8244    12.6036     9.1308     8.2499
 1972.5000     8.7552   121.4351     2.4504     0.0208   -66.8205    12.7237     9.3888     8.4838
 1973.0000     8.7551   123.8022     2.4495     0.0208   -66.8166    12.7265     9.7438     8.6439
 1973.5000     8.7550   125.3803     2.4495     0.0208   -66.8128    12.7294     9.8358     8.6455
 1974.0000     8.7153   125.3785     2.4495     0.0090   -66.8081    12.6156     9.9295     8.5686
 1974.5000     8.7151   125.3773     2.4495     0.0208   -66.8042    12.6185     9.6607     8.4142
 1975.0000     8.7150   125.3755     2.4535     0.0208   -66.6004    12.6213     9.6634     8.2629
 1975.5000     8.7149   124.5845     2.4554     0.0327   -66.5965    12.5090     9.6656     8.1887
 1976.0000     8.7147   121.4237     2.4594     0.0367   -66.9926    12.2835     9.5796     8.1155
 1976.5000     8.7541   121.4224     2.4653     0.0367   -67.3888    12.1737     9.4931     8.1181
 1977.0000     8.7539   123.7899     2.4713     0.0367   -67.9841    11.9542     9.1519     8.1200
 1977.5000     8.7538   125.3683     2.4735     0.0406   -67.9802    11.8473     8.9869     8.1219
 1978.0000     8.7142   126.9462     2.4871     0.0446   -67.9764    11.8500     8.8249     8.1237
 1978.5000     8.7140   126.9450     2.4891     0.0486   -67.9725    11.7446     8.8286     8.1256
 1979.0000     8.7139   124.5737     2.5021     0.0525   -67.9686    11.5329     8.8298     8.1279
 1979.5000     8.7137   123.7826     2.5151     0.0525   -67.9648    11.3250     8.7509     8.1297
 1980.0000     8.8321   126.1504     2.5228     0.0486   -67.9601    11.6449     8.7529     8.1316
 1980.5000     8.7134   126.1492     2.5139     0.0446   -67.9563    11.7553     8.7553     8.1335
 1981.0000     8.7528   127.7273     2.5050     0.0367   -67.9524    11.8673     8.6763     8.1354
 1981.5000     8.7526   128.5161     2.4961     0.0327   -67.9485    11.8700     8.6787     8.1373
