~VERSION INFORMATION
 VERS.                2.0:   CWLS LOG ASCII STANDARD - VERSION 2.0
 WRAP.                 NO:   ONE LINE PER DEPTH STEP
~WELL INFORMATION
#MNEM.UNIT      DATA TYPE    INFORMATION
#----------   ------------   ------------------------------
 STRT.F           11.5000:   START DEPTH
 STOP.F         1726.0000:   STOP DEPTH
 STEP.F            0.5000:   STEP LENGTH
 NULL.          -999.2500:   NO VALUE
 COMP. LAWRENCE ALLISON & ASSOC WEST:   COMPANY
 WELL. LAWRENCE NPR 3 "X" #51-26:   WELL
 FLD .                NPR:   FIELD
 LOC .      S26 T38N R78W:   LOCATION
 CNTY.            NATRONA:   COUNTY
 STAT.            WYOMING:   STATE
 CTRY. UNITED STATES OF AMERICA:   COUNTRY
 SRVC.      DRESSER ATLAS:   SERVICE COMPANY
 DATE.        13-AUG-1983:   LOGDATE
 API .     49025109270000:   API NUMBER
~CURVE INFORMATION
#MNEM.UNIT       API CODE    CURVE DESCRIPTION
#----------   ------------   ------------------------------
 DEPT.F                  :   
 CALD.IN     45 280 60 00:   CALIPER FROM DENSITY LOG
 RHOB.G/C3   45 350 01 00:   BULK DENSITY
 CORR.G/C3   45 356 01 00:   DENSITY CORRECTION
 TEND.LBS    45 635 01 00:   TENSION FROM DENSITY LOG
 GRR .GAPI   07 310 01 00:   GAMMA RAY FROM RESISTIVITY
 RILD.OHMM   07 120 46 00:   INDUCTION LOG DEEP RESISTIVITY
 RILM.OHMM   07 120 44 00:   INDUCTION LOG MEDIUM RESISTIVITY
 TENR.LBS    07 635 01 00:   TENSION
~PARAMETER INFORMATION
#MNEM.UNIT          VALUE    DESCRIPTION
#----------   ------------   ------------------------------
 EKB .F         5455.0000:   Kelly bushing
 EGL .F         5444.0000:   Ground level
 EDF .F            0.0000:   Drilling floor
 EPD .F         5444.0000:   Permanent datum
 TD  .F         1726.0000:   Total depth
 DATE.        13-AUG-1983:   Date logged
 CLNT.            A2DTECH:   Client Code
 PD  .                 GL:   Permanent Datum
 LMF .                 KB:   Log Measured From
 DMF .                 KB:   Drilling Measured From
 DAPD.F                11:   Feet Above Permanent Datum
 DD  .F              1726:   Depth driller
 DL  .F              1724:   Depth logger
 BLI .F              1718:   Bottom log interval
 CBD1.F                47:   Casing driller 1
 CBL1.F                48:   Casing logger 1
 BS1 .IN            12.25:   Bit size
 BSD1.F              1726:   Depth drilled with bit1
 DFT .           AIR/FOAM:   Type fluid in hole
 TCS .HRS               1:   Time Circ. stopped
 MRT .F                85:   Maximum recorded temp.
 LUN .               6270:   Logging unit number
 LUL .              WLSTN:   Logging unit location
 ENGI.            QUICKEL:   Recorded By
 WITN.           JENNINGS:   Witnessed by
 ORIG.           5" PRINT:   Origin of data
 UWI .     49025109270000:   Unique Well ID
 DICO. A2D TECHNOLOGIES, INC.:   Digitizing Company
~OTHER INFORMATION
~A   DEPT     CALD       RHOB       CORR       TEND         GRR      RILD       RILM       TENR   
# ...
  578.5000    13.1970     2.4160     0.0900   -71.7870   117.7840     5.5810     5.6540   -77.9420
  579.0000    13.1970     2.4110     0.0680   -71.7870   119.6920     5.5200     5.5580   -77.9100
  579.5000    13.1970     2.4070     0.0390   -71.7870   123.1100     5.4590     5.4620   -77.8790
  580.0000    13.1970     2.4070     0.0230   -73.5310   126.5410     5.3870     5.3870   -77.8470
  580.5000    13.1980     2.4100     0.0510   -76.2150   128.3000     5.5160     5.6260   -77.8160
  581.0000    13.1980     2.4100     0.0730   -78.9000   125.6590     5.6730     5.8220   -77.7850
  581.5000    13.1980     2.4100     0.0770   -81.8270   124.5820     5.8390     6.0190   -77.7530
  582.0000    13.1980     2.4130     0.0800   -80.8190   124.3680     6.0080     6.2160   -77.7220
  582.5000    13.1990     2.4170     0.0620   -79.7100   122.9500     6.1760     6.4120   -77.6900
  583.0000    13.1990     2.4180     0.0380   -78.6010   119.8730     6.3440     6.6090   -77.6590
  583.5000    13.1990     2.4140     0.0220   -77.4930   116.9310     6.5120     6.8060   -77.6280
  584.0000    13.1990     2.4070     0.0190   -76.8610   114.5540     6.6800     7.0020   -77.5960
  584.5000    13.1990     2.4000     0.0150   -77.0030   116.9640     6.8480     7.1070   -77.5650
  585.0000    13.2000     2.3920     0.0120   -77.1450   119.6570     6.9770     7.0390   -77.5330
  585.5000    13.2000     2.3870     0.0090   -77.2860   121.8100     6.9770     6.9550   -77.5020
  586.0000    13.2000     2.3830    -0.0070   -77.4280   120.9620     6.9770     6.8720   -77.4700
  586.5000    13.2000     2.3830    -0.0120   -77.5700   120.1260     6.9100     6.7890   -77.4390
  587.0000    13.2010     2.3830    -0.0080   -77.7120   120.6820     6.8140     6.7060   -77.4080
  587.5000    13.2010     2.3810    -0.0040   -77.8530   121.4390     6.7180     6.6230   -77.3760
  588.0000    13.2010     2.3740     0.0000   -77.9950   122.7550     6.6220     6.5400   -77.3450
  588.5000    13.2010     2.3670     0.0070   -78.1370   123.9640     6.5260     6.4560   -77.3130
  589.0000    13.2020     2.3730     0.0180   -78.2780   123.4680     6.4300     6.3730   -77.2820
  589.5000    13.2020     2.3800     0.0280   -78.4200   123.0600     6.3340     6.2900   -77.2500
  590.0000    13.2020     2.3860     0.0300   -78.5620   125.0280     6.2380     6.2070   -77.2190
  590.5000    13.2020     2.3930     0.0250   -78.7030   126.7800     6.1420     6.1300   -77.1880
  591.0000    13.2020     2.3910     0.0190   -78.8450   125.8240     6.0740     6.2080   -77.1560
  591.5000    13.2030     2.3870     0.0150   -78.9870   121.6370     6.1340     6.2950   -77.1250
  592.0000    13.2030     2.3840     0.0260   -79.1290   117.0480     6.1800     6.3820   -77.0930
  592.5000    13.2030     2.3730     0.0380   -79.2700   111.8140     6.2450     6.4690   -77.0620
  593.0000    13.2030     2.3680     0.0290   -79.4120   113.4160     6.2290     6.5400   -77.0300
  593.5000    13.2040     2.3640     0.0160   -79.5540   119.0930     6.2020     6.4590   -76.9990
  594.0000    13.2040     2.3650     0.0160   -79.6950   123.5990     6.1750     6.3910   -77.0630
  594.5000    13.2040     2.3670     0.0210   -79.8370   125.4420     6.1480     6.3230   -77.2550
  595.0000    13.2040     2.3700     0.0240   -79.9790   122.8360     6.1210     6.2550   -77.4470
  595.5000    13.2040     2.3740     0.0190   -80.1200   121.9910     6.0950     6.1870   -77.6390
  596.0000    13.2050     2.3790     0.0150   -80.2620   121.2710     6.0680     6.1190   -77.8310
  596.5000    13.2050     2.3830     0.0180   -80.4040   120.8200     6.0410     6.0180   -78.0230
  597.0000    13.2050     2.3910     0.0270   -80.5460   122.5260     6.0180     6.1390   -78.2150
  597.5000    13.2050     2.3990     0.0360   -80.6870   121.5020     6.0980     6.2660   -78.4080
  598.0000    13.2060     2.4050     0.0460   -80.8290   118.6700     6.2300     6.3940   -78.6000
  598.5000    13.2060     2.4030     0.0560   -80.9710   119.8380     6.3610     6.5210   -78.7920
  599.0000    13.2060     2.3990     0.0650   -81.1120   122.0160     6.4920     6.6490   -78.9840
  599.5000    13.2060     2.3950     0.0750   -81.2540   123.5900     6.6230     6.7760   -79.1760
  600.0000    13.2060     2.3910     0.0850   -81.3960   121.9450     6.7540     6.9040   -79.3680
  600.5000    13.2070     2.3860     0.0730   -81.5380   120.6010     6.8860     7.0310   -79.5600
  601.0000    13.2070     2.3870     0.0580   -81.6790   119.8140     7.0170     7.1580   -79.7520
  601.5000    13.2070     2.3940     0.0390   -81.8270   117.9430     7.1480     7.2860   -79.9440
  602.0000    13.2070     2.3990     0.0220   -70.9840   115.1640     7.2790     7.4130   -80.1360
  602.5000    13.2070     2.3940     0.0150   -59.6270   112.4410     7.4110     7.5400   -80.3280
  603.0000    13.2070     2.3790     0.0250   -48.2710   112.6020     7.5420     7.6670   -80.5210
  603.5000    13.2070     2.3640     0.0210   -39.7760   113.9570     7.6730     7.7940   -80.7130
  604.0000    13.2120     2.3530    -0.0010   -31.2580   115.4570     7.7490     7.8670   -80.9050
  604.5000    13.2240     2.3540    -0.0050   -22.7410   116.9490     7.7950     7.8570   -81.0970
  605.0000    13.2360     2.3570     0.0170   -27.1080   117.9290     7.7950     7.8340   -81.2890
  605.5000    13.2480     2.3600     0.0420   -33.4960   117.0960     7.7950     7.8110   -81.4810
  606.0000    13.2600     2.3640     0.0580   -39.8850   116.3090     7.7230     7.7740   -81.6730
  606.5000    13.2720     2.3670     0.0260   -46.2730   116.1900     7.6520     7.7010   -81.8650
  607.0000    13.2840     2.3690     0.0130   -52.6610   116.7250     7.5730     7.6280   -81.9880
  607.5000    13.2860     2.3680     0.0240   -59.0490   116.8410     7.4940     7.5550   -81.9630
  608.0000    13.2870     2.3630     0.0320   -61.8470   113.9860     7.4150     7.4820   -81.9370
  608.5000    13.2870     2.3590     0.0390   -62.1110   110.1780     7.3360     7.4090   -81.9120
  609.0000    13.2870     2.3550     0.0250   -62.3740   110.6730     7.2570     7.3360   -81.8870
  609.5000    13.2880     2.3550     0.0040   -62.6380   111.5460     7.1780     7.2640   -81.8620
  610.0000    13.2880     2.3550    -0.0150   -62.9010   113.0850     7.0990     7.1910   -81.8370
  610.5000    13.2880     2.3550    -0.0310   -63.1650   114.8260     7.0200     7.1180   -81.8110
  611.0000    13.2890     2.3600    -0.0300   -63.4280   116.9640     6.9410     7.0450   -81.7860
  611.5000    13.2890     2.3660    -0.0270   -63.6910   120.1230     6.8620     6.9770   -81.7610
  612.0000    13.2890     2.3730    -0.0230   -63.9550   118.8800     6.7820     6.9330   -81.7360
  612.5000    13.2900     2.3840    -0.0200   -64.2180   116.2670     6.7030     6.8830   -81.7100
  613.0000    13.2900     2.3950    -0.0060   -64.4820   115.0660     6.6240     6.7860   -81.6850
  613.5000    13.2900     2.3990     0.0100   -64.7450   113.6730     6.5400     6.7860   -81.6600
  614.0000    13.2900     2.4040     0.0270   -65.0080   111.4150     6.5220     6.7860   -81.6350
  614.5000    13.2910     2.4080     0.0290   -65.2720   110.6090     6.5030     6.7630   -81.6100
  615.0000    13.2910     2.4120     0.0300   -65.5350   112.5640     6.4840     6.6180   -81.5840
  615.5000    13.2910     2.4170     0.0320   -65.7990   112.8180     6.3440     6.4730   -81.5590
  616.0000    13.2920     2.4190     0.0670   -66.0620   111.9650     6.1710     6.3270   -81.5340
  616.5000    13.2920     2.4180     0.0750   -66.3260   111.0660     5.9980     6.1820   -81.5090
  617.0000    13.2920     2.4170     0.0690   -66.5890   112.2360     5.8250     6.0370   -81.4830
  617.5000    13.2930     2.4170     0.0680   -66.8520   113.9340     5.6520     5.8920   -81.4580
  618.0000    13.2930     2.4150     0.0670   -67.1160   116.4070     5.4790     5.7470   -81.4330
  618.5000    13.2930     2.4110     0.0660   -67.3790   117.6180     5.3060     5.6020   -81.4080
