~VERSION INFORMATION
 VERS.                2.0:   CWLS LOG ASCII STANDARD - VERSION 2.0
 WRAP.                 NO:   ONE LINE PER DEPTH STEP
~WELL INFORMATION
#MNEM.UNIT      DATA TYPE    INFORMATION
#----------   ------------   ------------------------------
 STRT.F           14.0000:   START DEPTH
 STOP.F         3246.0000:   STOP DEPTH
 STEP.F            0.5000:   STEP LENGTH
 NULL.          -999.2500:   NO VALUE
 COMP.   LAWRENCE ALLISON:   COMPANY
 WELL. LAWRENCE "34X" #11:   WELL
 FLD .             N.P.R.:   FIELD
 LOC .      S34 T38N R78W:   LOCATION
 CNTY.            NATRONA:   COUNTY
 STAT.            WYOMING:   STATE
 CTRY. UNITED STATES OF AMERICA:   COUNTRY
 SRVC.      DRESSER ATLAS:   SERVICE COMPANY
 DATE.        02-MAY-1985:   LOGDATE
 API .     49025110530001:   API NUMBER
~CURVE INFORMATION
#MNEM.UNIT       API CODE    CURVE DESCRIPTION
#----------   ------------   ------------------------------
 DEPT.F                  :   
 CNC .DEC    42 890 03 00:   NEUTRON POROSITY
 CALD.IN     45 280 60 00:   CALIPER FROM DENSITY LOG
 CORR.G/C3   45 356 01 00:   DENSITY CORRECTION
 RHOB.G/C3   45 350 01 00:   BULK DENSITY
 GRR .GAPI   07 310 01 00:   GAMMA RAY FROM RESISTIVITY
 SPR .MV     07 010 01 00:   SPONTANEOUS POTENTIAL FROM RES.
 TENR.LBS    06 635 01 00:   TENSION FROM RESISTIVITY
 RILD.OHMM   07 120 46 00:   DEEP INDUCTION RESISTIVITY
 RILM.OHMM   07 120 44 00:   INDUCTION LOG MEDIUM RESISTIVITY
 RFOC.OHMM   07 220 04 00:   RESISTIVITY FOCUSED LOG RES.
~PARAMETER INFORMATION
#MNEM.UNIT          VALUE    DESCRIPTION
#----------   ------------   ------------------------------
 EKB .F         5099.0000:   Kelly bushing
 TD  .F         3239.0000:   Total depth
 CLNT.            A2DTECH:   Client Code
 PD  .                 GL:   Permanent Datum
 EPD .F              5087:   Elevation Permanent Datum
 LMF .                 KB:   Log Measured From
 DMF .                 KB:   Drilling Measured From
 DAPD.F                12:   Feet Above Permanent Datum
 DATE.        02-MAY-1985:   Date Logged [DD-MMM-YYYY]
 DD  .F              3239:   Depth driller
 DL  .F              3242:   Depth logger
 BLI .F              3294:   Bottom log interval
 CS1 .IN            8.625:   Casing size
 CBD1.      8.625" @ 487':   Casing driller 1
 CBL1.F               487:   Casing logger 1
 BS1 .IN            7.875:   Bit size
 BSD1.F              3239:   Depth drilled with bit1
 DFT .            KCL GEL:   Type fluid in hole
 DFD .                9.1:   Density
 DFV .                 35:   Viscosity
 DFPH.                  8:   pH
 DFL .                9.8:   Fluid loss
 MSS .           FLOWLINE:   Source of sample
 RMS .OHMM           0.27:   Rm
 MST .F                68:   Rm Meas. temp.
 RMF .OHMM           0.20:   Rmf
 MFST.F                68:   Rmf Meas. temp.
 MFSS.               MEAS:   Source Rmf.
 RMC .OHMM           0.34:   Rmc
 MCST.F                68:   Rmc Meas. temp.
 MCSS.               CALC:   Source Rmc.
 RMB .OHMM           0.15:   Rm. at BHT
 BHT .F               126:   BHT.
 TCS .HRS               3:   Time Circ. stopped
 MRT .F               126:   Maximum recorded temp.
 LUN .               6274:   Logging unit number
 LUL .               GLTE:   Logging unit location
 ENGI.       MACK/EDWARDS:   Recorded By
 WITN.             STRONG:   Witnessed by
 ORIG.           5" PRINT:   Origin of data
 UWI .     49025110260000:   Unique Well ID
 DICO. A2D TECHNOLOGIES, INC.:   Digitizing Company
~OTHER INFORMATION
~A   DEPT      CNC       CALD       CORR       RHOB        GRR        SPR       TENR       RILD       RILM       RFOC   
# ...
 1220.0000  -999.2500  -999.2500  -999.2500  -999.2500    67.3136   -71.8813   -76.1426     9.1194     8.4748     8.1637
 1220.5000  -999.2500  -999.2500  -999.2500  -999.2500    68.9112   -71.8568   -77.6009     9.1985     8.4853     8.2885
 1221.0000  -999.2500  -999.2500  -999.2500  -999.2500    69.3876   -72.1379   -79.0589     9.2581     8.5547     8.4153
 1221.5000  -999.2500  -999.2500  -999.2500  -999.2500    70.0883   -72.7060   -72.9530     9.3328     8.5655     8.7260
 1222.0000  -999.2500  -999.2500  -999.2500  -999.2500    73.9556   -73.1306   -74.7757     9.4736     8.5785     8.9210
 1222.5000  -999.2500  -999.2500  -999.2500  -999.2500    73.0661   -73.4055   -76.2337     9.4844     8.5890     9.1202
 1223.0000  -999.2500  -999.2500  -999.2500  -999.2500    67.4888   -73.3802   -77.6921     9.4315     8.5377     8.9448
 1223.5000  -999.2500  -999.2500  -999.2500  -999.2500    65.4989   -73.3504   -79.1501     9.3740     8.4333     8.6521
 1224.0000  -999.2500  -999.2500  -999.2500  -999.2500    65.0785   -73.1762   -80.6085     9.3195     8.3273     8.4270
 1224.5000  -999.2500  -999.2500  -999.2500  -999.2500    64.8812   -73.1517   -82.0728     9.3323     8.2804     8.2650
 1225.0000  -999.2500  -999.2500  -999.2500  -999.2500    64.4619   -72.9775   -83.5855     9.2192     8.2911     8.2788
 1225.5000  -999.2500  -999.2500  -999.2500  -999.2500    64.9754   -72.9530   -85.3476     9.0970     8.3034     8.2899
 1226.0000  -999.2500  -999.2500  -999.2500  -999.2500    65.8702   -72.9281   -86.8056     9.1095     8.2538     8.3586
 1226.5000  -999.2500  -999.2500  -999.2500  -999.2500    66.5709   -72.8979   -88.2639     9.1195     8.2086     8.4278
 1227.0000  -999.2500  -999.2500  -999.2500  -999.2500    66.8232   -72.8734   -97.2863     9.0665     8.1604     8.5567
 1227.5000  -999.2500  -999.2500  -999.2500  -999.2500    67.0754   -73.0047   -98.7446     9.0757     8.1166     8.6276
 1228.0000  -999.2500  -999.2500  -999.2500  -999.2500    67.7761   -72.9741  -100.2026     9.0865     8.0149     8.3365
 1228.5000  -999.2500  -999.2500  -999.2500  -999.2500    69.6255   -72.9496   -94.0963     9.0329     7.9695     8.1310
 1229.0000  -999.2500  -999.2500  -999.2500  -999.2500    71.8750   -72.9251   -95.9194     8.9777     7.9818     8.1419
 1229.5000  -999.2500  -999.2500  -999.2500  -999.2500    74.1452   -72.7500   -97.3774     8.9296     7.9906     8.1527
 1230.0000  -999.2500  -999.2500  -999.2500  -999.2500    77.5364   -72.7203   -90.9068     8.9411     8.0015     8.1636
 1230.5000  -999.2500  -999.2500  -999.2500  -999.2500    76.2192   -72.6651   -84.8005     8.9501     8.0113     8.1745
 1231.0000  -999.2500  -999.2500  -999.2500  -999.2500    74.0050   -72.5216   -79.0589     8.9351     8.0213     8.1856
 1231.5000  -999.2500  -999.2500  -999.2500  -999.2500    71.0655   -72.3474   -80.5598     8.9086     8.0316     8.1991
 1232.0000  -999.2500  -999.2500  -999.2500  -999.2500    69.5768   -72.1732   -74.4110     8.9188     8.0435     8.2100
 1232.5000  -999.2500  -999.2500  -999.2500  -999.2500    71.6298   -72.1482   -76.2337     8.9299     8.0534     8.3934
 1233.0000  -999.2500  -999.2500  -999.2500  -999.2500    72.3304   -72.1180   -69.7631     8.9392     8.0633     8.5809
 1233.5000  -999.2500  -999.2500  -999.2500  -999.2500    71.6858   -72.0935   -71.5858     8.9496     8.0732     8.4743
 1234.0000  -999.2500  -999.2500  -999.2500  -999.2500    69.9201   -72.2187   -73.0442     8.9597     8.0832     8.1970
 1234.5000  -999.2500  -999.2500  -999.2500  -999.2500    69.9757   -72.3439   -82.0727     8.9718     7.9819     7.9839
 1235.0000  -999.2500  -999.2500  -999.2500  -999.2500    72.2253   -72.3194   -83.5854     8.9803     7.9374     8.0527
 1235.5000  -999.2500  -999.2500  -999.2500  -999.2500    70.4596   -72.5943   -85.3475     8.9916     7.9489     8.1194
 1236.0000  -999.2500  -999.2500  -999.2500  -999.2500    68.4697   -72.5689   -86.8055     9.0008     7.9014     8.1867
 1236.5000  -999.2500  -999.2500  -999.2500  -999.2500    67.3767   -72.6889   -88.2639     9.0114     7.8590     8.1977
 1237.0000  -999.2500  -999.2500  -999.2500  -999.2500    67.1794   -72.9638   -81.7933     9.0222     7.8142     8.2086
 1237.5000  -999.2500  -999.2500  -999.2500  -999.2500    66.9843   -73.2387   -83.6160     9.0338     7.7658     8.1606
 1238.0000  -999.2500  -999.2500  -999.2500  -999.2500    67.2377   -73.5136   -85.0984     9.0421     7.7266     8.1174
 1238.5000  -999.2500  -999.2500  -999.2500  -999.2500    67.4958   -73.6392   -86.8967     9.0512     7.7365     8.0722
 1239.0000  -999.2500  -999.2500  -999.2500  -999.2500    67.2926   -73.6138   -88.3551     8.9396     7.7475     8.0856
 1239.5000  -999.2500  -999.2500  -999.2500  -999.2500    67.3276   -73.5837   -81.8841     8.9103     7.7570     8.1526
 1240.0000  -999.2500  -999.2500  -999.2500  -999.2500    66.9072   -73.1101   -83.7072     8.8966     7.7662     8.2202
 1240.5000  -999.2500  -999.2500  -999.2500  -999.2500    67.1595   -72.9359   -77.2362     8.9064     7.7762     8.3459
 1241.0000  -999.2500  -999.2500  -999.2500  -999.2500    68.5605   -72.7617   -79.0589     8.7845     7.7881     8.3573
 1241.5000  -999.2500  -999.2500  -999.2500  -999.2500    69.4647   -72.5875   -80.5598     8.6818     7.7977     8.3710
 1242.0000  -999.2500  -999.2500  -999.2500  -999.2500    67.6990   -72.4132   -82.3400     8.6937     7.8073     8.2669
 1242.5000  -999.2500  -999.2500  -999.2500  -999.2500    65.9333   -72.2330   -75.8694     8.7033     7.8170     8.0520
 1243.0000  -999.2500  -999.2500  -999.2500  -999.2500    65.7301   -72.2085   -77.6920     8.7128     7.8266     8.0044
 1243.5000  -999.2500  -999.2500  -999.2500  -999.2500    67.7831   -72.1840   -79.1501     8.7228     7.8362     7.9076
 1244.0000  -999.2500  -999.2500  -999.2500  -999.2500    69.1564   -72.3153   -80.6084     8.7345     7.8462     7.9732
 1244.5000  -999.2500  -999.2500  -999.2500  -999.2500    66.0524   -72.5841   -82.0727     8.7441     7.8580     8.1048
 1245.0000  -999.2500  -999.2500  -999.2500  -999.2500    62.0446   -72.7096   -83.5854     8.7527     7.8677     8.5110
 1245.5000  -999.2500  -999.2500  -999.2500  -999.2500    63.4179   -72.8345   -85.3475     8.7777     7.9321     8.7615
 1246.0000  -999.2500  -999.2500  -999.2500  -999.2500    67.2576   -73.2530   -86.8055     8.8341     7.9419     8.4749
 1246.5000  -999.2500  -999.2500  -999.2500  -999.2500    68.4327   -73.2284   -88.2639     8.8440     7.8968     8.0849
 1247.0000  -999.2500  -999.2500  -999.2500  -999.2500    65.0444   -73.2040   -97.2862     8.8541     7.8489     7.9294
 1247.5000  -999.2500  -999.2500  -999.2500  -999.2500    63.5300   -73.0298   -91.1496     8.8658     7.7002     7.9401
 1248.0000  -999.2500  -999.2500  -999.2500  -999.2500    64.4619   -72.7059   -85.0740     8.8142     7.6060     8.0084
 1248.5000  -999.2500  -999.2500  -999.2500  -999.2500    65.8352   -72.6758   -71.4038     8.8239     7.6154     8.0748
 1249.0000  -999.2500  -999.2500  -999.2500  -999.2500    68.1054   -72.5071   -73.2265     8.5919     7.6248     8.0856
 1249.5000  -999.2500  -999.2500  -999.2500  -999.2500    71.4966   -72.9256   -74.6845     8.5414     7.6342     8.0963
 1250.0000  -999.2500  -999.2500  -999.2500  -999.2500    73.0942   -73.0570   -83.7071     8.3753     7.5909     8.0508
 1250.5000  -999.2500  -999.2500  -999.2500  -999.2500    70.8452   -73.0263   -92.7294     8.3265     7.6006     7.9511
 1251.0000  -999.2500  -999.2500  -999.2500  -999.2500    68.0102   -73.0018  -101.7521     8.2509     7.5074     7.9069
 1251.5000  -999.2500  -999.2500  -999.2500  -999.2500    67.3700   -72.9773  -103.2526     8.1730     7.2109     7.8086
 1252.0000  -999.2500  -999.2500  -999.2500  -999.2500    67.1701   -72.9521  -105.0328     8.1843     7.0205     7.7141
 1252.5000  -999.2500  -999.2500  -999.2500  -999.2500    67.4349   -73.0780  -106.4912     8.1366     7.1789     7.4617
 1253.0000  -999.2500  -999.2500  -999.2500  -999.2500    68.5884   -73.3468  -100.0202     8.0337     7.2879     7.2677
