~VERSION INFORMATION
 VERS.                2.0:   CWLS LOG ASCII STANDARD - VERSION 2.0
 WRAP.                 NO:   ONE LINE PER DEPTH STEP
~WELL INFORMATION
#MNEM.UNIT      DATA TYPE    INFORMATION
#----------   ------------   ------------------------------
 STRT.F          203.5000:   START DEPTH
 STOP.F         3126.0000:   STOP DEPTH
 STEP.F            0.5000:   STEP LENGTH
 NULL.          -999.2500:   NO VALUE
 COMP.    FENIX & SCISSON:   COMPANY
 WELL. FENIX NPR 3 "AX" #88-33:   WELL
 FLD .        TEAPOT DOME:   FIELD
 LOC .      S33 T39N R78W:   LOCATION
 CNTY.            NATRONA:   COUNTY
 STAT.            WYOMING:   STATE
 CTRY. UNITED STATES OF AMERICA:   COUNTRY
 SRVC.       SCHLUMBERGER:   SERVICE COMPANY
 DATE.        23-JAN-1978:   LOGDATE
 API .     49025105610000:   API NUMBER
~CURVE INFORMATION
#MNEM.UNIT       API CODE    CURVE DESCRIPTION
#----------   ------------   ------------------------------
 DEPT.F                  :   
 CALD.IN     45 280 60 00:   CALIPER FROM DENSITY LOG
 GRD .GAPI   45 310 01 00:   GAMMA RAY FROM DENSITY LOG
 RHOB.G/C3   45 350 01 00:   BULK DENSITY
 CORR.G/C3   45 356 01 00:   DENSITY CORRECTION
 SPR .MV     05 010 01 00:   SPONTANEOUS POTENTIAL
 SN  .OHMM   05 040 16 00:   SHORT NORMAL 16"
 ILD .OHMM   05 120 46 00:   DEEP INDUCTION RESISTIVITY
~PARAMETER INFORMATION
#MNEM.UNIT          VALUE    DESCRIPTION
#----------   ------------   ------------------------------
 EKB .F         5174.0000:   Kelly bushing
 EGL .F         5164.0000:   Ground level
 EDF .F            0.0000:   Drilling floor
 TD  .F         3115.0000:   Total depth
 DATE.        23-JAN-1978:   Date logged
 CLNT.            A2DTECH:   Client Code
 PD  .                 GL:   Permanent Datum
 EPD .F              5164:   Elevation Permanent Datum
 LMF .                 KB:   Log Measured From
 DMF .                 KB:   Drilling Measured From
 DD  .F              3115:   Depth driller
 DL  .F              3115:   Depth logger
 BLI .F              3115:   Bottom log interval
 TLI .F               210:   Top log interval
 CS1 .IN            8.625:   Casing size
 CBD1.      9.625" @ 219':   Casing driller 1
 CBL1.F               219:   Casing logger 1
 BS1 .IN            7.875:   Bit size
 BSD1.F              3115:   Depth drilled with bit1
 DFT .                GEL:   Type fluid in hole
 DFD .                8.9:   Density
 DFV .                 36:   Viscosity
 DFPH.                 10:   pH
 DFL .                7.8:   Fluid loss
 MSS .           FLOWLINE:   Source of sample
 RMS .OHMM            2.2:   Rm
 MST .F                62:   Rm Meas. temp.
 RMF .OHMM           1.94:   Rmf
 MFST.F                54:   Rmf Meas. temp.
 RMC .OHMM            3.4:   Rmc
 MCST.F                54:   Rmc Meas. temp.
 MFSS.               MEAS:   Source Rmf.
 MCSS.               MEAS:   Source Rmc.
 RMB .OHMM            1.1:   Rm. at BHT
 BHT .F               114:   BHT.
 TCS .HRS             4.5:   Time Circ. stopped
 MRT .F               114:   Maximum recorded temp.
 LUN .               2958:   Logging unit number
 LUL .             CASPER:   Logging unit location
 ENGI.           REYNOLDS:   Recorded By
 WITN.           MCGINLEY:   Witnessed by
 ORIG.           5" PRINT:   Origin of data
 UWI .     49025105610000:   Unique Well ID
 DICO. A2D TECHNOLOGIES, INC.:   Digitizing Company
 DAPD.F              5164:   Feet Above Permanent Datum
 SL  . 100' FSL & 550' FEL:   Surface Location
~OTHER INFORMATION
~A   DEPT     CALD        GRD       RHOB       CORR        SPR         SN        ILD   
# ...
 1750.5000    10.5259   100.9919     2.5624     0.0688   -40.6925     6.4850     6.6549
 1751.0000    10.5258   103.3722     2.5634     0.0708   -40.4897     6.4856     6.6597
 1751.5000    10.5257   101.9821     2.5674     0.0728   -40.4858     6.4863     6.6645
 1752.0000    10.5256   100.7907     2.5724     0.0628   -40.4820     6.4868     6.6684
 1752.5000    10.5056    99.2024     2.5664     0.0548   -40.4782     6.4874     6.6076
 1753.0000    10.5055    99.9950     2.5594     0.0548   -40.2753     6.4881     6.6083
 1753.5000    10.5054   100.7878     2.5554     0.0547   -40.2715     6.4875     6.7315
 1754.0000    10.5053   101.3819     2.5524     0.0527   -40.6658     6.6089     6.8570
 1754.5000    10.5052   102.1747     2.5484     0.0847   -41.0601     6.6707     6.9212
 1755.0000    10.5051   102.9671     2.5514     0.1622   -41.4544     6.7955     6.9860
 1755.5000    10.5050   103.7598     2.5744     0.1665   -41.4506     6.8591     7.0535
 1756.0000    10.5049   103.7590     2.6283     0.1086   -41.4484     6.9246     7.0590
 1756.5000    10.5048   103.7578     2.5793     0.0507   -41.4431     6.9253     7.0645
 1757.0000    10.5047   103.7570     2.5674     0.0227   -41.4400     6.9260     7.0701
 1757.5000    10.5046   103.7560     2.5614     0.0207   -41.4362     6.9267     7.0756
 1758.0000    10.5045   100.3818     2.5614     0.0206   -41.6315     6.9273     7.0812
 1758.5000    10.5044   100.1824     2.5603     0.0206   -41.4286     6.8644     7.0867
 1759.0000    10.5043   102.1657     2.5533     0.0226   -41.4248     6.9287     7.0923
 1759.5000    10.5042   100.9742     2.5523     0.0266   -41.4210     6.8658     7.0979
 1760.0000    10.5041   100.7748     2.5503     0.0286   -41.4173     6.8665     7.1034
 1760.5000    10.5040   101.1706     2.5473     0.0266   -41.4135     6.9308     7.1090
 1761.0000    10.5039   101.5664     2.5463     0.0325   -41.2105     6.9315     7.1146
 1761.5000    10.5038   102.3590     2.5423     0.0505   -40.8084     6.9322     7.1202
 1762.0000    10.5037   103.7469     2.5503     0.0625   -41.0038     6.9329     7.1258
 1762.5000    10.5036   105.1348     2.5683     0.0804   -40.8008     6.9336     7.0633
 1763.0000    10.5035   105.5306     2.5743     0.0844   -40.7977     6.9343     6.9986
 1763.5000    10.5034   105.7280     2.5823     0.0784   -40.7939     6.9350     6.9994
 1764.0000    10.5033   104.9332     2.5713     0.0684   -40.5909     6.9357     7.0001
 1764.5000    10.5033   101.9562     2.5703     0.0624   -40.5871     6.9364     7.0008
 1765.0000    10.5230   101.1619     2.5812     0.0604   -40.3841     6.9369     7.0016
 1765.5000    10.5427   100.9621     2.5832     0.0524   -40.5795     6.9376     7.0023
 1766.0000    10.5426   100.7629     2.5802     0.0484   -40.5757     6.9383     7.0031
 1766.5000    10.5227   100.5635     2.5762     0.0364   -40.5719     6.9390     7.0038
 1767.0000    10.5028   100.7609     2.5603     0.0224   -40.5680     6.8761     7.0046
 1767.5000    10.5027   102.3472     2.5473     0.0204   -40.7634     6.8767     7.0053
 1768.0000    10.5224   104.3297     2.5463     0.0203   -41.3573     6.8774     7.0061
 1768.5000    10.5223   103.9325     2.5433     0.0323   -41.7519     6.8781     7.0068
 1769.0000    10.5222   103.3362     2.5512     0.0503   -41.7481     6.8788     7.0077
 1769.5000    10.5221   103.1374     2.5612     0.0702   -41.7444     6.8795     7.0082
 1770.0000    10.5220   102.1437     2.5742     0.0882   -41.7413     6.8171     7.0090
 1770.5000    10.4624   101.9445     2.5712     0.0842   -41.7375     6.8809     7.0095
 1771.0000    10.3631   102.1419     2.5692     0.0941   -41.7338     6.8184     7.0189
 1771.5000    10.3431   102.5379     2.5742     0.1057   -41.7300     6.8822     7.0283
 1772.0000    10.3430   102.9334     2.5832     0.0961   -41.7262     6.8828     7.0377
 1772.5000    10.3429   105.3135     2.5832     0.0941   -41.5231     6.8835     7.0471
 1773.0000    10.3825   106.5035     2.5752     0.0941   -40.5229     6.8842     7.0565
 1773.5000    10.4023   105.3115     2.5821     0.0841   -40.5191     6.8849     7.0660
 1774.0000    10.4220   102.1359     2.5831     0.0721   -40.3160     6.9494     7.0801
 1774.5000    10.4418   100.7460     2.5801     0.0521   -40.3121     6.9501     7.0941
 1775.0000    10.4417   101.7373     2.5711     0.0441   -40.3083     6.9508     7.1082
 1775.5000    10.4416   101.3394     2.5641     0.0441   -40.3045     6.9515     7.1223
 1776.0000    10.4414   102.5289     2.5611     0.0461   -40.3014     6.9522     7.1365
 1776.5000    10.4414   102.7263     2.5581     0.0480   -40.4969     7.0173     7.1506
 1777.0000    10.4413   102.9235     2.5591     0.0500   -40.4931     7.0181     7.1648
 1777.5000    10.4411   103.7161     2.5591     0.0520   -40.4893     7.0838     7.1790
 1778.0000    10.4411   101.7312     2.5601     0.0560   -40.4854     7.1500     7.1933
 1778.5000    10.4409   101.1348     2.5631     0.0520   -40.4816     7.1507     7.2076
 1779.0000    10.4409   100.9356     2.5631     0.0539   -40.6771     7.1515     7.2219
 1779.5000    10.4407   102.5217     2.5671     0.0539   -40.6733     7.1522     7.2362
 1780.0000    10.4407   102.7191     2.5681     0.0519   -40.6695     7.0872     7.2506
 1780.5000    10.4406   102.1228     2.5671     0.0519   -41.0644     7.1536     7.2650
 1781.0000    10.4603   107.4791     2.5661     0.0459   -41.0606     7.1544     7.2794
 1781.5000    10.4602   106.8831     2.5621     0.0379   -41.2562     7.1551     7.2897
 1782.0000    10.4800   105.8902     2.5561     0.0279   -41.4518     7.0901     7.2806
 1782.5000    10.4797   107.0795     2.5521     0.0359   -41.0499     7.0908     7.2715
 1783.0000    10.4796   109.8562     2.5521     0.0379   -41.4449     7.1573     7.2623
 1783.5000    10.4795   109.8550     2.5571     0.0398   -41.6405     7.0923     7.2532
 1784.0000    10.4794   108.6635     2.5551     0.0398   -41.6367     7.0930     7.2441
 1784.5000    10.4793   106.4798     2.5531     0.0438   -41.0347     7.1593     7.2350
 1785.0000    10.4792   105.8840     2.5581     0.0518   -40.6320     7.1600     7.2948
 1785.5000    10.4791   105.8828     2.5670     0.0557   -40.6282     7.1608     7.2949
 1786.0000    10.4790   105.8818     2.5710     0.0577   -40.2255     7.1615     7.3194
 1786.5000    10.4789   106.0794     2.5740     0.0497   -40.2217     7.1622     7.3440
 1787.0000    10.4788   107.1429     2.5670     0.0457   -40.0184     7.1629     7.3656
 1787.5000    10.4787   106.7460     2.5630     0.0437   -39.8151     7.2301     7.2313
 1788.0000    10.4786   106.3492     2.5630     0.0437   -40.2102     7.4337     7.5048
 1788.5000    10.4785   106.3492     2.5660     0.0477   -40.2063     7.4345     7.5566
 1789.0000    10.4784   106.7460     2.5760     0.0457   -40.2032     7.4352     7.6088
 1789.5000    10.4783   107.0656     2.5750     0.0377   -40.3989     7.5049     7.6614
 1790.0000    10.4782   107.0650     2.5710     0.0416   -40.5945     7.5753     7.7143
 1790.5000    10.4979   105.8729     2.5650     0.0336   -40.7902     7.5065     7.7675
 1791.0000    10.4978   105.8719     2.5650     0.0296   -41.1854     7.5071     7.8212
 1791.5000    10.4977   105.2759     2.5570     0.0316   -41.3811     7.5078     7.7930
 1792.0000    10.4976   104.6798     2.5550     0.0356   -41.3773     7.5782     7.7214
 1792.5000    10.4976   103.6864     2.5530     0.0396   -41.3735     7.3721     7.6081
 1793.0000    10.4974   101.5873     2.5520     0.0395   -41.3697     7.2380     7.5122
 1793.5000    10.4973   101.7857     2.5500     0.0395   -41.1663     7.2387     7.4436
 1794.0000    10.4972   103.7698     2.5490     0.0475   -41.1625     7.1071     7.3686
 1794.5000    10.4972   104.3651     2.5520     0.0595   -40.9592     7.1078     7.2944
 1795.0000    10.4971   103.8802     2.5599     0.0734   -40.9553     7.0432     7.1094
 1795.5000    10.4970   103.8790     2.5689     0.0814   -40.7527     7.0439     7.0447
