~VERSION INFORMATION
 VERS.                2.0:   CWLS LOG ASCII STANDARD - VERSION 2.0
 WRAP.                 NO:   ONE LINE PER DEPTH STEP
~WELL INFORMATION
#MNEM.UNIT      DATA TYPE    INFORMATION
#----------   ------------   ------------------------------
 STRT.F           11.5000:   START DEPTH
 STOP.F         1726.0000:   STOP DEPTH
 STEP.F            0.5000:   STEP LENGTH
 NULL.          -999.2500:   NO VALUE
 COMP. LAWRENCE ALLISON & ASSOC WEST:   COMPANY
 WELL. LAWRENCE NPR 3 "X" #51-26:   WELL
 FLD .                NPR:   FIELD
 LOC .      S26 T38N R78W:   LOCATION
 CNTY.            NATRONA:   COUNTY
 STAT.            WYOMING:   STATE
 CTRY. UNITED STATES OF AMERICA:   COUNTRY
 SRVC.      DRESSER ATLAS:   SERVICE COMPANY
 DATE.        13-AUG-1983:   LOGDATE
 API .     49025109270000:   API NUMBER
~CURVE INFORMATION
#MNEM.UNIT       API CODE    CURVE DESCRIPTION
#----------   ------------   ------------------------------
 DEPT.F                  :   
 CALD.IN     45 280 60 00:   CALIPER FROM DENSITY LOG
 RHOB.G/C3   45 350 01 00:   BULK DENSITY
 CORR.G/C3   45 356 01 00:   DENSITY CORRECTION
 TEND.LBS    45 635 01 00:   TENSION FROM DENSITY LOG
 GRR .GAPI   07 310 01 00:   GAMMA RAY FROM RESISTIVITY
 RILD.OHMM   07 120 46 00:   INDUCTION LOG DEEP RESISTIVITY
 RILM.OHMM   07 120 44 00:   INDUCTION LOG MEDIUM RESISTIVITY
 TENR.LBS    07 635 01 00:   TENSION
~PARAMETER INFORMATION
#MNEM.UNIT          VALUE    DESCRIPTION
#----------   ------------   ------------------------------
 EKB .F         5455.0000:   Kelly bushing
 EGL .F         5444.0000:   Ground level
 EDF .F            0.0000:   Drilling floor
 EPD .F         5444.0000:   Permanent datum
 TD  .F         1726.0000:   Total depth
 DATE.        13-AUG-1983:   Date logged
 CLNT.            A2DTECH:   Client Code
 PD  .                 GL:   Permanent Datum
 LMF .                 KB:   Log Measured From
 DMF .                 KB:   Drilling Measured From
 DAPD.F                11:   Feet Above Permanent Datum
 DD  .F              1726:   Depth driller
 DL  .F              1724:   Depth logger
 BLI .F              1718:   Bottom log interval
 CBD1.F                47:   Casing driller 1
 CBL1.F                48:   Casing logger 1
 BS1 .IN            12.25:   Bit size
 BSD1.F              1726:   Depth drilled with bit1
 DFT .           AIR/FOAM:   Type fluid in hole
 TCS .HRS               1:   Time Circ. stopped
 MRT .F                85:   Maximum recorded temp.
 LUN .               6270:   Logging unit number
 LUL .              WLSTN:   Logging unit location
 ENGI.            QUICKEL:   Recorded By
 WITN.           JENNINGS:   Witnessed by
 ORIG.           5" PRINT:   Origin of data
 UWI .     49025109270000:   Unique Well ID
 DICO. A2D TECHNOLOGIES, INC.:   Digitizing Company
~OTHER INFORMATION
~A   DEPT     CALD       RHOB       CORR       TEND         GRR      RILD       RILM       TENR   
# ...
  254.5000    13.0340     2.3720     0.0030   -65.6850   136.9190     8.7890     8.8490   -76.9810
  255.0000    13.0350     2.3690    -0.0140   -65.2990   131.9740     8.7890     8.8730   -76.9810
  255.5000    13.0360     2.3760    -0.0380   -64.9130   128.5560     8.7890     8.8980   -76.9810
  256.0000    13.0370     2.3870    -0.0240   -64.5260   130.2470     8.7890     8.9220   -76.9810
  256.5000    13.0380     2.3960     0.0060   -64.1400   130.9740     8.7890     8.9530   -76.9810
  257.0000    13.0380     2.3950     0.0370   -63.7530   127.8210     8.7320     8.8630   -76.9810
  257.5000    13.0390     2.3890     0.0620   -63.3670   124.5280     8.6270     8.7400   -76.9810
  258.0000    13.0400     2.3850     0.0130   -62.9810   123.0350     8.5230     8.6170   -76.9810
  258.5000    13.0410     2.3870    -0.0210   -62.5940   128.7060     8.4180     8.4950   -76.9810
  259.0000    13.0420     2.3930     0.0070   -62.2080   130.6010     8.3130     8.3720   -76.9810
  259.5000    13.0420     2.3990     0.0360   -61.8220   131.8090     8.2080     8.2500   -76.9810
  260.0000    13.0430     2.4010     0.0550   -64.9970   135.2170     8.1030     8.1270   -76.9810
  260.5000    13.0440     2.4020     0.0570   -69.0230   138.4800     8.0880     8.0140   -76.9810
  261.0000    13.0450     2.4070     0.0520   -73.0500   139.9180     8.0880     8.2230   -76.9810
  261.5000    13.0460     2.4120     0.0480   -76.8070   138.4570     8.2770     8.4610   -76.9810
  262.0000    13.0470     2.4120     0.0450   -63.7470   135.7240     8.4880     8.6990   -76.9810
  262.5000    13.0470     2.4050     0.0710   -51.5060   133.1870     8.6980     8.9370   -76.9810
  263.0000    13.0530     2.3900     0.0950   -39.2650   135.3260     8.9090     9.1750   -76.9810
  263.5000    13.0650     2.3770     0.1080   -27.0240   138.5310     9.1190     9.4140   -76.9810
  264.0000    13.0760     2.3690     0.0770   -16.5660   131.9440     9.2050     9.5520   -76.9810
  264.5000    13.0870     2.3740     0.0520   -21.8590   123.4000     9.2050     9.6400   -76.9810
  265.0000    13.0980     2.3790     0.0280   -27.4380   117.8990     9.2900     9.6010   -76.9810
  265.5000    13.1080     2.3780     0.0280   -33.0160   120.2110     9.2900     9.5120   -76.9810
  266.0000    13.1070     2.3720     0.0290   -38.5950   123.0630     9.2730     9.4230   -76.9810
  266.5000    13.1070     2.3630     0.0270   -44.1740   121.1350     9.2540     9.3770   -76.9810
  267.0000    13.1070     2.3540     0.0230   -49.7520   118.5760     9.2340     9.3410   -76.9810
  267.5000    13.1070     2.3580     0.0270   -50.3950   117.3560     9.2140     9.3010   -76.9810
  268.0000    13.1070     2.3630     0.0310   -47.4970   120.7640     9.2050     9.2620   -76.9810
  268.5000    13.1070     2.3650     0.0280   -44.5990   123.3520     9.2380     9.2050   -76.9810
  269.0000    13.1070     2.3590     0.0190   -41.7010   124.7490     9.2670     9.2740   -76.9810
  269.5000    13.1070     2.3540     0.0090   -38.8030   122.4140     9.2970     9.4580   -76.9810
  270.0000    13.1070     2.3510    -0.0010   -35.9050   120.5520     9.3250     9.6430   -76.9810
  270.5000    13.1070     2.3490    -0.0110   -33.0070   119.0450     9.3550     9.8200   -76.9810
  271.0000    13.1070     2.3500    -0.0170   -30.1090   118.0320     9.3770     9.6500   -76.9810
  271.5000    13.1070     2.3510     0.0010   -27.2110   117.0280     9.2400     9.4480   -76.9810
  272.0000    13.1070     2.3520     0.0180   -34.6590   116.0280     9.0550     9.2470   -76.9810
  272.5000    13.1070     2.3530     0.0140   -39.7590   116.4080     8.8690     9.0450   -76.9810
  273.0000    13.1070     2.3540     0.0060   -44.8590   118.2680     8.6830     8.8430   -76.9810
  273.5000    13.1070     2.3530     0.0110   -49.9600   121.9020     8.4980     8.6410   -76.9810
  274.0000    13.1070     2.3520     0.0300   -55.0600   125.8100     8.3120     8.4390   -76.9810
  274.5000    13.1070     2.3490     0.0310   -60.1610   129.3840     8.1260     8.2910   -76.9810
  275.0000    13.1070     2.3460     0.0260   -61.7470   128.1020     8.0140     8.2270   -76.9810
  275.5000    13.1070     2.3420     0.0380   -58.8890   124.8190     8.0140     8.1630   -76.9810
  276.0000    13.1070     2.3460     0.0510   -56.2860   123.0460     8.0140     8.0880   -76.9810
  276.5000    13.1070     2.3500     0.0420   -53.6840   122.6360     8.0970     8.2010   -76.9810
  277.0000    13.1070     2.3520     0.0290   -51.0820   123.5230     8.2830     8.3770   -76.9810
  277.5000    13.1070     2.3510     0.0290   -48.4800   126.0610     8.4690     8.5540   -76.9810
  278.0000    13.1070     2.3450     0.0300   -45.8770   129.2300     8.6550     8.7300   -76.9810
  278.5000    13.1070     2.3400     0.0230   -43.2750   127.1830     8.7090     8.9530   -76.9810
  279.0000    13.1070     2.3410     0.0040   -40.6730   124.5480     8.7090     8.9450   -76.9810
  279.5000    13.1070     2.3440    -0.0040   -38.0710   123.1490     8.7090     8.9350   -76.9810
  280.0000    13.1070     2.3470     0.0110   -39.2710   124.2030     8.7090     8.9240   -76.9810
  280.5000    13.1070     2.3500     0.0240   -45.0670   125.1550     8.7090     8.9130   -76.9810
  281.0000    13.1070     2.3530     0.0060   -50.8630   124.6170     8.7090     8.9020   -76.9880
  281.5000    13.1070     2.3560    -0.0140   -56.6580   124.0190     8.7080     8.8920   -77.0190
  282.0000    13.1070     2.3610    -0.0020   -61.7230   123.3920     8.7100     8.8810   -77.0500
  282.5000    13.1070     2.3650     0.0090   -61.5290   123.7580     8.6380     8.8710   -77.0810
  283.0000    13.1070     2.3700     0.0210   -61.3340   124.5540     8.5710     8.7800   -77.1120
  283.5000    13.1070     2.3720     0.0330   -61.1390   125.4050     8.5040     8.6960   -77.1430
  284.0000    13.1070     2.3670     0.0270   -60.9450   124.5310     8.4360     8.6110   -77.1740
  284.5000    13.1070     2.3600     0.0190   -60.7500   123.0960     8.3690     8.5270   -77.2050
  285.0000    13.1070     2.3530     0.0020   -60.5550   123.6900     8.3020     8.4420   -77.2370
  285.5000    13.1070     2.3480    -0.0100   -60.3610   124.3460     8.2350     8.3570   -77.2680
  286.0000    13.1070     2.3480     0.0310   -60.1660   122.8800     8.1680     8.2390   -77.2990
  286.5000    13.1070     2.3490     0.0650   -59.9710   121.2990     8.0880     8.2700   -77.3300
  287.0000    13.1070     2.3550     0.0700   -59.7770   119.7690     8.1390     8.3450   -77.3610
  287.5000    13.1070     2.3620     0.0590   -59.5820   118.0260     8.2600     8.4200   -77.3920
  288.0000    13.1070     2.3680     0.0440   -59.3870   115.8250     8.3810     8.4950   -77.4230
  288.5000    13.1070     2.3730     0.0290   -59.1920   112.9210     8.5020     8.6090   -77.4540
  289.0000    13.1070     2.3740     0.0170   -58.9980   112.4300     8.6220     8.8220   -77.4850
  289.5000    13.1070     2.3710     0.0360   -58.8030   114.2190     8.7430     9.0350   -77.5170
  290.0000    13.1070     2.3670     0.0620   -58.6080   116.5360     8.8710     9.2490   -77.5480
  290.5000    13.1070     2.3630     0.0530   -58.4140   117.7920     9.1040     9.4620   -77.5790
  291.0000    13.1070     2.3610     0.0370   -58.2190   116.7190     9.3520     9.6750   -77.6100
  291.5000    13.1070     2.3690     0.0230   -58.0240   115.7390     9.5990     9.8880   -77.6410
  292.0000    13.1070     2.3760     0.0130   -57.8300   114.3350     9.8470    10.1010   -77.6720
  292.5000    13.1070     2.3820     0.0020   -57.6350   112.8790    10.0950    10.3150   -77.7030
  293.0000    13.1070     2.3870    -0.0070   -57.4400   111.6980    10.3790    10.4760   -77.7340
  293.5000    13.1070     2.3910    -0.0150   -57.2460   113.2140    10.3670    10.4600   -77.7660
  294.0000    13.1070     2.3920    -0.0180   -57.0510   117.0340    10.3520    10.4360   -77.7970
  294.5000    13.1070     2.3920     0.0040   -56.8560   121.6400    10.3360    10.4110   -77.8280
