~VERSION INFORMATION
 VERS.                2.0:   CWLS LOG ASCII STANDARD - VERSION 2.0
 WRAP.                 NO:   ONE LINE PER DEPTH STEP
~WELL INFORMATION
#MNEM.UNIT      DATA TYPE    INFORMATION
#----------   ------------   ------------------------------
 STRT.F          207.0000:   START DEPTH
 STOP.F         3130.0000:   STOP DEPTH
 STEP.F            0.5000:   STEP LENGTH
 NULL.          -999.2500:   NO VALUE
 COMP. FENIX & SCISSON U.S. NAVY:   COMPANY
 WELL.    FENIX "A" #61-3:   WELL
 FLD .             NPR #3:   FIELD
 LOC .       S3 T38N R78W:   LOCATION
 CNTY.            NATRONA:   COUNTY
 STAT.            WYOMING:   STATE
 CTRY. UNITED STATES OF AMERICA:   COUNTRY
 SRVC.              WELEX:   SERVICE COMPANY
 DATE.        13-MAY-1977:   LOGDATE
 API .     49025103630000:   API NUMBER
~CURVE INFORMATION
#MNEM.UNIT       API CODE    CURVE DESCRIPTION
#----------   ------------   ------------------------------
 DEPT.F                  :   
 SPR .MV     07 010 01 00:   SPONTANEOUS POTENTIAL
 SFLU.OHMM   07 220 01 00:   SPHERICALLY FOCUSED LOG UNAVERAGED RESISTIVITY
 ILD .OHMM   07 120 46 00:   INDUCTION LOG DEEP RESISTIVITY
 ILM .OHMM   07 120 44 00:   INDUCTION LOG MEDIUM RESISTIVITY
 CALD.IN     45 280 60 00:   CALIPER FROM DENSITY LOG
 GRD .GAPI   45 310 01 00:   GAMMA RAY FROM DENSITY LOG
 RHOB.G/C3   45 350 01 00:   BULK DENSITY
 CORR.G/C3   45 356 01 00:   DENSITY CORRECTION
~PARAMETER INFORMATION
#MNEM.UNIT          VALUE    DESCRIPTION
#----------   ------------   ------------------------------
 EKB .F         5109.0000:   Kelly bushing
 EGL .F         5099.0000:   Ground level
 EDF .F            0.0000:   Drilling floor
 TD  .F         3130.0000:   Total depth
 DATE.        13-MAY-1977:   Date logged
 CLNT.            A2DTECH:   Client Code
 SL  . 330' FNL & 1650' FEL:   Surface Location
 PD  .                 GL:   Permanent Datum
 EPD .F              5099:   Elevation Permanent Datum
 LMF .                 KB:   Log Measured From
 DMF .                 KB:   Drilling Measured From
 DAPD.F                10:   Feet Above Permanent Datum
 DD  .F              3126:   Depth driller
 DL  .F              3129:   Depth logger
 BLI .F              3127:   Bottom log interval
 TLI .F               210:   Top log interval
 CS1 .IN            8.625:   Casing size
 CBD1.      8.625" @ 200':   Casing driller 1
 CBL1.F               216:   Casing logger 1
 BS1 .IN            7.875:   Bit size
 BSD1.F              3126:   Depth drilled with bit1
 DFT .            KCL MUD:   Type fluid in hole
 DFD .                9.1:   Density
 DFV .                 32:   Viscosity
 DFPH.                  8:   pH
 DFL .                8.4:   Fluid loss
 MSS .           FLOWLINE:   Source of sample
 RMS .OHMM            .29:   Rm
 MST .F                68:   Rm Meas. temp.
 RMF .OHMM            .28:   Rmf
 MFST.F                68:   Rmf Meas. temp.
 RMC .OHMM            .43:   Rmc
 MCST.F                68:   Rmc Meas. temp.
 MFSS.           FANN KIT:   Source Rmf.
 MCSS.           FANN KIT:   Source Rmc.
 RMB .OHMM            .16:   Rm. at BHT
 BHT .F               123:   BHT.
 TCS .HRS             2.5:   Time Circ. stopped
 MRT .F               123:   Maximum recorded temp.
 LUN .               9685:   Logging unit number
 LUL .           BRIGHTON:   Logging unit location
 ENGI.          T. JOYNER:   Recorded By
 WITN.      B. HARRINGTON:   Witnessed by
 ORIG.           5" PRINT:   Origin of data
 UWI .     49025103630000:   Unique Well ID
 DICO. A2D TECHNOLOGIES, INC.:   Digitizing Company
~OTHER INFORMATION
~A   DEPT      SPR       SFLU        ILD        ILM       CALD        GRD       RHOB       CORR   
# ...
 2515.5000   -37.7696     7.0009     5.9329     6.4447     9.5813   116.3163     2.5218     0.0238
 2516.0000   -37.7759     7.0643     5.8775     6.4436     9.6011   119.8786     2.5198     0.0239
 2516.5000   -37.7823     7.1289     5.8225     6.4424     9.6012   118.6944     2.5198     0.0259
 2517.0000   -37.5898     7.3265     5.8215     6.4418     9.6012   117.4706     2.5178     0.0279
 2517.5000   -37.5962     7.4612     5.8209     6.3228     9.6013   117.4725     2.5178     0.0299
 2518.0000   -37.4037     7.4599     5.7660     6.2638     9.5816   117.4748     2.5179     0.0300
 2518.5000   -37.2111     7.3906     5.7654     6.2625     9.5817   117.4771     2.5164     0.0360
 2519.0000   -36.8198     7.1224     5.7646     6.1480     9.5818   117.4794     2.5159     0.0340
 2519.5000   -37.0250     6.8637     5.8702     6.3184     9.5818   117.4817     2.5179     0.0341
 2520.0000   -36.6336     6.8625     6.0334     6.5541     9.5819   118.2752     2.5239     0.0341
 2520.5000   -36.6387     6.8618     6.0881     6.7985     9.6017   118.2775     2.5279     0.0381
 2521.0000   -36.6450     6.8606     6.0871     6.8601     9.6216   116.3419     2.5319     0.0381
 2521.5000   -36.6526     6.9228     6.0862     6.4907     9.6217   116.3442     2.5339     0.0442
 2522.0000   -36.6590     6.9216     6.0292     6.2552     9.6217   117.9289     2.5299     0.0482
 2522.5000   -36.6653     6.9201     6.0284     5.9183     9.6218   118.3269     2.5199     0.0482
 2523.0000   -36.6691     6.8556     5.8634     5.8634     9.6219   118.7248     2.5160     0.0483
 2523.5000   -36.6780     6.7295     5.8085     5.8087     9.6220   119.9140     2.5100     0.0523
 2524.0000   -36.6844     6.6057     5.7016     5.6494     9.6220   119.9164     2.5040     0.0503
 2524.5000   -36.6907     6.4248     5.5457     5.5970     9.6419   119.9188     2.4940     0.0524
 2525.0000   -36.6933     6.3064     5.4942     5.5446     9.6419   119.9211     2.4900     0.0544
 2525.5000   -36.5007     6.1904     5.2945     5.4428     9.6618   119.9235     2.4820     0.0544
 2526.0000   -36.5083     6.0209     5.1496     5.3427     9.7014   120.3215     2.4780     0.0545
 2526.5000   -36.5147     5.8561     4.8723     5.2444     9.7213   120.7196     2.4572     0.0405
 2527.0000   -36.5223     5.7484     4.6526     5.1954     9.7412   121.1176     2.4572     0.0385
 2527.5000   -36.7276     5.8005     4.7381     5.2909     9.7610   121.1200     2.4732     0.0066
 2528.0000   -36.9315     5.9619     5.0057     5.7999     9.7611   121.9138     2.5194     0.0206
 2528.5000   -37.1342     6.4159     5.0517     6.4159     9.7612   122.3119     2.5481     0.0246
 2529.0000   -37.7424     6.7787     5.1444     6.0705     9.7415   122.7100     2.5481     0.0226
 2529.5000   -37.7475     6.8401     5.3361     5.7967     9.7217   122.7124     2.5501     0.0245
 2530.0000   -38.1517     6.9025     5.4344     5.7959     9.7218   123.5063     2.5501     0.0247
 2530.5000   -38.5546     6.9649     5.4836     5.7416     9.6823   123.1130     2.5521     0.0247
 2531.0000   -38.5635     6.9639     5.4829     5.6362     9.6824   125.0942     2.5541     0.0248
 2531.5000   -38.9677     6.9622     5.4819     5.5837     9.6825   122.3264     2.5541     0.0248
 2532.0000   -39.5721     6.9610     5.4307     5.5318     9.6628   121.9330     2.5542     0.0228
 2532.5000   -39.5772     6.9600     5.3802     5.4297     9.6628   121.5396     2.5542     0.0229
 2533.0000   -39.5446     6.8320     5.2331     5.4290     9.6431   120.7505     2.5542     0.0209
 2533.5000   -39.5121     6.7063     5.1365     5.4280     9.6630   121.5444     2.5522     0.0149
 2534.0000   -39.4796     6.5828     5.1356     5.4269     9.6433   121.5468     2.5424     0.0089
 2534.5000   -39.4470     6.4617     5.1351     5.4260     9.6433   121.5492     2.5354     0.0090
 2535.0000   -39.4145     6.4608     5.1342     5.4251     9.6236   120.7600     2.5374     0.0090
 2535.5000   -39.3819     6.4597     5.1332     5.4748     9.6435   121.1582     2.5404     0.0090
 2536.0000   -39.3494     6.4584     5.1797     5.5239     9.6435   121.1606     2.5424     0.0091
 2536.5000   -39.3169     6.5169     5.2267     5.6258     9.6436   118.7880     2.5384     0.0091
 2537.0000   -39.2843     6.6980     5.2739     5.7817     9.6437   118.7903     2.5375     0.0091
 2537.5000   -39.2518     6.7586     5.3708     5.9424     9.6635   118.3968     2.5365     0.0091
 2538.0000   -39.2192     7.1407     5.4697     6.1075     9.6834   118.3991     2.5365     0.0092
 2538.5000   -39.1867     7.6843     5.6217     6.2774     9.6637   116.0268     2.5425     0.0112
 2539.0000   -39.1541     7.9708     5.8850     6.5110     9.6440   114.4455     2.5445     0.0132
 2539.5000   -39.1216     8.2682     6.0487     6.8795     9.6638   114.0519     2.5485     0.0153
 2540.0000   -39.0891     8.4979     6.1599     7.2681     9.6441   113.2624     2.5515     0.0213
 2540.5000   -39.0565     8.4964     6.3308     7.5391     9.6640   114.8082     2.5525     0.0213
 2541.0000   -39.0240     8.4172     6.5067     7.5377     9.6838   114.8096     2.5526     0.0254
 2541.5000   -38.9914     8.1868     6.6265     7.5367     9.6839   116.2830     2.5496     0.0254
 2542.0000   -38.9589     8.1110     6.7483     7.3304     9.6642   117.7565     2.5486     0.0274
 2542.5000   -38.9115     8.0351     6.8097     7.1953     9.6643   119.2299     2.5486     0.0274
 2543.0000   -38.9155     8.1070     6.8711     7.1943     9.6445   120.7034     2.5496     0.0375
 2543.5000   -38.9191     8.1062     6.9334     7.1273     9.6446   122.1768     2.5546     0.0375
 2544.0000   -39.1232     8.1047     6.9322     7.0613     9.6447   123.9314     2.5556     0.0416
 2544.5000   -39.1283     8.1039     6.9315     7.0598     9.6448   124.3293     2.5606     0.0456
 2545.0000   -39.1385     8.1025     6.9298     7.1896     9.6251   124.3313     2.5616     0.0456
 2545.5000   -39.1436     8.1756     6.9286     7.3217     9.6251   123.9383     2.5667     0.0537
 2546.0000   -39.3528     8.1741     6.8640     7.3878     9.6054   123.9407     2.5717     0.0577
 2546.5000   -39.7546     8.1727     6.7378     7.1858     9.6055   123.5472     2.5727     0.0637
 2547.0000   -39.9599     8.1710     6.6139     6.9250     9.6055   122.3616     2.5687     0.0638
 2547.5000   -39.9663     8.1695     6.5525     6.8604     9.6056   121.5720     2.5637     0.0638
 2548.0000   -39.7737     8.1687     6.4318     6.8597     9.6057   121.1784     2.5605     0.0638
 2548.5000   -40.1780     8.1667     6.3137     6.8580     9.6057   121.1803     2.5625     0.0579
 2549.0000   -40.3834     8.1652     6.3124     6.8573     9.6058   121.1832     2.5645     0.0519
 2549.5000   -39.7929     8.0891     6.1964     6.8556     9.6059   121.9776     2.5585     0.0519
 2550.0000   -39.9982     7.8677     6.1390     6.8549     9.6456   122.7721     2.5586     0.0319
 2550.5000   -40.0046     7.7944     6.0816     6.9804     9.6071   122.7747     2.5618     0.0320
 2551.0000   -40.0110     7.7930     6.0806     7.2405     9.6067   122.7879     2.5666     0.0301
 2551.5000   -39.8184     7.7916     6.0793     7.3061     9.6071   122.3999     2.5766     0.0320
 2552.0000   -40.0238     7.7903     6.0787     7.2380     9.6075   122.0103     2.5747     0.0301
 2552.5000   -39.8312     7.7892     6.0776     6.9117     9.6079   121.6223     2.5707     0.0261
 2553.0000   -39.8375     7.7875     6.0768     6.7849     9.6083   121.2343     2.5767     0.0262
 2553.5000   -40.2419     7.7862     6.0751     6.7216     9.6087   121.2424     2.5867     0.0322
 2554.0000   -40.0493     7.7853     6.0747     6.7202     9.6289   121.2488     2.5928     0.0323
 2554.5000   -40.0557     7.7837     6.0730     6.7195     9.6491   121.3234     2.5868     0.0303
 2555.0000   -40.0621     7.7821     6.0719     6.7179     9.6495   121.3980     2.5748     0.0263
 2555.5000   -40.0685     7.7810     6.0709     6.7167     9.6895   121.4725     2.5688     0.0224
