~VERSION INFORMATION
 VERS.                2.0:   CWLS LOG ASCII STANDARD - VERSION 2.0
 WRAP.                 NO:   ONE LINE PER DEPTH STEP
~WELL INFORMATION
#MNEM.UNIT      DATA TYPE    INFORMATION
#----------   ------------   ------------------------------
 STRT.F          204.5000:   START DEPTH
 STOP.F         2964.0000:   STOP DEPTH
 STEP.F            0.5000:   STEP LENGTH
 NULL.          -999.2500:   NO VALUE
 COMP.    FENIX & SCISSON:   COMPANY
 WELL. FENIX NPR 3 "AX" #14-28:   WELL
 FLD .  TEAPOT DOME NPR-3:   FIELD
 LOC .      S28 T39N R78W:   LOCATION
 CNTY.            NATRONA:   COUNTY
 STAT.            WYOMING:   STATE
 CTRY. UNITED STATES OF AMERICA:   COUNTRY
 SRVC.           BIRDWELL:   SERVICE COMPANY
 DATE.        24-MAY-1978:   LOGDATE
 API .     49025106450000:   API NUMBER
~CURVE INFORMATION
#MNEM.UNIT       API CODE    CURVE DESCRIPTION
#----------   ------------   ------------------------------
 DEPT.F                  :   
 SPR .MV     05 010 01 00:   SPONTANEOUS POTENTIAL
 CORR.G/C3   45 356 01 00:   DENSITY CORRECTION
 DEN .G/C3   45 350 01 00:   DENSITY
 CALD.IN     45 280 60 00:   CALIPER FROM DENSITY LOG
 GRD .GAPI   45 310 01 00:   GAMMA RAY FROM DENSITY LOG
 SN  .OHMM   05 040 16 00:   SHORT NORMAL 16"
 ILD .OHMM   05 120 46 00:   DEEP INDUCTION RESISTIVITY
~PARAMETER INFORMATION
#MNEM.UNIT          VALUE    DESCRIPTION
#----------   ------------   ------------------------------
 EKB .F         5042.0000:   Kelly bushing
 EGL .F         5032.0000:   Ground level
 EDF .F            0.0000:   Drilling floor
 TD  .F         2957.0000:   Total depth
 DATE.        24-MAY-1978:   Date logged
 CLNT.            A2DTECH:   Client Code
 SL  . 2410' FNL & 280' FWL:   Surface Location
 PD  .                 GL:   Permanent Datum
 EPD .F              5032:   Elevation Permanent Datum
 LMF .                 KB:   Log Measured From
 DMF .                 KB:   Drilling Measured From
 DAPD.F                10:   Feet Above Permanent Datum
 DD  .F              2950:   Depth driller
 DL  .F              2957:   Depth logger
 BLI .F              2951:   Bottom log interval
 TLI .F               225:   Top log interval
 CS1 .IN            8.625:   Casing size
 CBL1.F               225:   Casing logger 1
 BS1 .IN            7.875:   Bit size
 BSD1.F              2950:   Depth drilled with bit1
 DFT .       CHEMICAL GEL:   Type fluid in hole
 DFD .                  9:   Density
 DFV .                 34:   Viscosity
 DFPH.               10.5:   pH
 DFL .                  6:   Fluid loss
 MSS .           FLOWLINE:   Source of sample
 RMS .OHMM            1.5:   Rm
 MST .F                70:   Rm Meas. temp.
 RMF .OHMM            1.1:   Rmf
 MFST.F                78:   Rmf Meas. temp.
 RMC .OHMM            2.8:   Rmc
 MCST.F                72:   Rmc Meas. temp.
 MFSS.               MEAS:   Source Rmf.
 RMB .OHMM           0.95:   Rm. at BHT
 BHT .F               110:   BHT.
 TCS .HRS               2:   Time Circ. stopped
 MRT .F               110:   Maximum recorded temp.
 LUN .               2958:   Logging unit number
 LUL .               CASP:   Logging unit location
 ENGI.             MILLER:   Recorded By
 WITN.            RHOADES:   Witnessed by
 ORIG.           5" PRINT:   Origin of data
 UWI .     49025106450000:   Unique Well ID
 DICO. A2D TECHNOLOGIES, INC.:   Digitizing Company
~OTHER INFORMATION
~A   DEPT      SPR       CORR        DEN       CALD         GRD        SN        ILD   
# ...
 2934.5000    -3.1060     0.0330     2.4920  -999.2500  -999.2500     5.3080     4.5090
 2935.0000    -3.1160     0.0350     2.4950  -999.2500  -999.2500     5.0380     4.3490
 2935.5000    -3.1270     0.0380     2.4970  -999.2500  -999.2500     4.9630     4.3210
 2936.0000    -3.1370     0.0370     2.4960  -999.2500  -999.2500     4.8930     4.2960
 2936.5000    -3.1480     0.0350     2.4950  -999.2500  -999.2500     4.8240     4.2700
 2937.0000    -3.1580     0.0340     2.4940  -999.2500  -999.2500     4.7550     4.2450
 2937.5000    -3.1690     0.0330     2.4930  -999.2500  -999.2500     4.6850     4.2190
 2938.0000    -3.1790     0.0320     2.4940  -999.2500  -999.2500     4.6160     4.1940
 2938.5000    -3.1900     0.0300     2.4960  -999.2500  -999.2500     4.5870     4.1680
 2939.0000    -3.2000     0.0320     2.4970  -999.2500  -999.2500     4.5750     4.1430
 2939.5000    -3.2110     0.0370     2.4970  -999.2500  -999.2500     4.5640     4.1150
 2940.0000    -3.2210     0.0430     2.4980  -999.2500  -999.2500     4.5520     4.0540
 2940.5000    -3.2320     0.0460     2.4990  -999.2500  -999.2500     4.5400     3.9880
 2941.0000    -3.2420     0.0440     2.5000  -999.2500  -999.2500     4.5290     3.9210
 2941.5000    -3.2530     0.0430     2.5000  -999.2500  -999.2500     4.5170     3.8550
 2942.0000    -3.2630     0.0410     2.5000  -999.2500  -999.2500     4.4210     3.8030
 2942.5000    -3.2740     0.0400     2.4980  -999.2500  -999.2500     4.2520     3.7660
 2943.0000    -3.2840     0.0390     2.4950  -999.2500  -999.2500     4.0440     3.7280
 2943.5000    -3.2950     0.0390     2.4930  -999.2500  -999.2500     4.0500     3.6900
 2944.0000    -3.3050     0.0410     2.4940  -999.2500  -999.2500     4.0640     3.6520
 2944.5000    -3.3160     0.0430     2.4960  -999.2500  -999.2500     4.0770     3.6140
 2945.0000    -3.3260     0.0450     2.4980  -999.2500  -999.2500     4.0910     3.5770
 2945.5000    -3.3370     0.0460     2.5000  -999.2500  -999.2500     4.1040     3.5520
 2946.0000    -3.3470     0.0440     2.5020  -999.2500  -999.2500     4.1150     3.5520
 2946.5000    -3.3580     0.0430     2.5040  -999.2500  -999.2500     4.0190     3.5520
 2947.0000    -3.3680     0.0420     2.5060  -999.2500  -999.2500     3.9370     3.5520
 2947.5000    -3.3790     0.0340     2.5040  -999.2500  -999.2500     3.8540     3.5520
 2948.0000    -3.3890     0.0260     2.4960  -999.2500  -999.2500     3.7610     3.5520
 2948.5000    -3.4010     0.0300     2.4880  -999.2500  -999.2500     3.7740     3.5520
 2949.0000    -3.4250     0.0350     2.4830  -999.2500  -999.2500     3.7980     3.4750
 2949.5000    -3.4500     0.0400     2.4830  -999.2500  -999.2500     3.8240     3.3970
 2950.0000    -3.4750     0.0450     2.4870  -999.2500  -999.2500     3.7330     3.3190
 2950.5000    -3.5000     0.0500     2.4840  -999.2500  -999.2500     3.6420     3.2400
 2951.0000    -3.5260     0.0500     2.4830  -999.2500  -999.2500     3.5510     3.2400
 2951.5000    -3.5510     0.0500     2.4870  -999.2500  -999.2500     3.4610     3.2400
 2952.0000    -3.5760     0.0480     2.4910  -999.2500  -999.2500     3.4200     3.2400
 2952.5000    -3.6020     0.0450     2.4960  -999.2500  -999.2500     3.4140     3.2400
 2953.0000    -3.6270     0.0420     2.4980  -999.2500  -999.2500     3.4080     3.2400
 2953.5000    -3.6520     0.0390     2.4980  -999.2500  -999.2500     3.4020     3.2400
 2954.0000    -3.6770     0.0490     2.4930  -999.2500  -999.2500     3.3960     3.2400
 2954.5000    -3.7030     0.0620     2.4860  -999.2500  -999.2500     3.3890     3.2400
 2955.0000    -3.7280     0.0750     2.4930  -999.2500  -999.2500     3.3830     3.2400
 2955.5000    -3.7530     0.0880     2.5050  -999.2500  -999.2500     3.3770     3.2400
 2956.0000    -3.7780     0.0620     2.4720  -999.2500  -999.2500     3.3710     3.2400
 2956.5000    -3.7990     0.0550     2.4760  -999.2500  -999.2500     3.3640     3.2400
 2957.0000    -3.8000     0.0950     2.5150  -999.2500  -999.2500     3.3620     3.2400
 2957.5000    -3.8000     0.0970     2.5140  -999.2500  -999.2500     3.3620     3.2400
 2958.0000    -3.8000     0.0960     2.5120  -999.2500  -999.2500     3.3620     3.2400
 2958.5000    -3.8000     0.0950     2.5080  -999.2500  -999.2500     3.3620     3.2400
 2959.0000    -3.8000     0.0940     2.5100  -999.2500  -999.2500     3.3620     3.2400
 2959.5000    -3.8000     0.0920     2.5150  -999.2500  -999.2500     3.3620     3.2400
 2960.0000    -3.8000     0.0910     2.5100  -999.2500  -999.2500     3.3620     3.2400
 2960.5000  -999.2500     0.0900     2.5050  -999.2500  -999.2500  -999.2500  -999.2500
 2961.0000  -999.2500     0.0920     2.5030  -999.2500  -999.2500  -999.2500  -999.2500
 2961.5000  -999.2500     0.0950     2.5080  -999.2500  -999.2500  -999.2500  -999.2500
 2962.0000  -999.2500     0.0970     2.5190  -999.2500  -999.2500  -999.2500  -999.2500
 2962.5000  -999.2500     0.0980     2.5300  -999.2500  -999.2500  -999.2500  -999.2500
 2963.0000  -999.2500     0.0980     2.5270  -999.2500  -999.2500  -999.2500  -999.2500
 2963.5000  -999.2500     0.1010     2.5230  -999.2500  -999.2500  -999.2500  -999.2500
 2964.0000  -999.2500     0.1020     2.5230  -999.2500  -999.2500  -999.2500  -999.2500
