~VERSION INFORMATION
 VERS.                2.0:   CWLS LOG ASCII STANDARD - VERSION 2.0
 WRAP.                 NO:   ONE LINE PER DEPTH STEP
~WELL INFORMATION
#MNEM.UNIT      DATA TYPE    INFORMATION
#----------   ------------   ------------------------------
 STRT.F          387.0000:   START DEPTH
 STOP.F         2921.0000:   STOP DEPTH
 STEP.F            0.5000:   STEP LENGTH
 NULL.          -999.2500:   NO VALUE
 COMP.    FENIX & SCISSON:   COMPANY
 WELL.  FENIX  "A" #21-28:   WELL
 FLD .          N.P.R. #3:   FIELD
 LOC .      S28 T39N R78W:   LOCATION
 CNTY.            NATRONA:   COUNTY
 STAT.            WYOMING:   STATE
 CTRY. UNITED STATES OF AMERICA:   COUNTRY
 SRVC.       SCHLUMBERGER:   SERVICE COMPANY
 DATE.        30-APR-1977:   LOGDATE
 API .     49025103550000:   API NUMBER
~CURVE INFORMATION
#MNEM.UNIT       API CODE    CURVE DESCRIPTION
#----------   ------------   ------------------------------
 DEPT.F                  :   
 SPR .MV     07 010 01 00:   SPONTANEOUS POTENTIAL
 ILD .OHMM   07 120 46 00:   DEEP INDUCTION RESISTIVITY
 ILM .OHMM   07 120 44 00:   INDUCTION LOG MEDIUM RESISTIVITY
 LL8 .OHMM   07 220 08 00:   LATEROLOG-8 RES.
 GRD .GAPI   45 310 01 00:   GAMMA RAY FROM DENSITY LOG
 CALD.IN     45 280 60 00:   CALIPER FROM DENSITY LOG
 CORR.G/C3   45 356 01 00:   DENSITY CORRECTION
 RHOB.G/C3   45 350 01 00:   BULK DENSITY
~PARAMETER INFORMATION
#MNEM.UNIT          VALUE    DESCRIPTION
#----------   ------------   ------------------------------
 EKB .F         4977.0000:   Kelly bushing
 EGL .F         4967.0000:   Ground level
 EDF .F            0.0000:   Drilling floor
 TD  .F         2922.0000:   Total depth
 CLNT.            A2DTECH:   Client Code
 SL  . 330' FNL & 990' FWL:   Surface Location
 DATE.        30-APR-1977:   Date Logged [DD-MMM-YYYY]
 DD  .F              2915:   Depth driller
 DL  .F              2922:   Depth logger
 BLI .F              2916:   Bottom log interval
 TLI .F               394:   Top log interval
 CS1 .              8.625:   Casing size
 CBD1.      8.625" @ 390':   Casing driller 1
 CBL1.IN              394:   Casing logger 1
 BS1 .IN            7.875:   Bit size
 BSD1.F              2915:   Depth drilled with bit1
 DFT .            KCL MUD:   Type fluid in hole
 DFD .                8.9:   Density
 DFV .                 87:   Viscosity
 DFPH.                8.5:   pH
 DFL .                9.6:   Fluid loss
 MSS .                PIT:   Source of sample
 RMS .OHMM           0.25:   Rm
 MST .F                70:   Rm Meas. temp.
 RMF .OHMM           0.22:   Rmf
 MFST.F                70:   Rmf Meas. temp.
 MFSS.               MEAS:   Source Rmf.
 RMC .OHMM           0.38:   Rmc
 MCST.F                70:   Rmc Meas. temp.
 MCSS.               CALC:   Source Rmc.
 RMB .OHMM           0.09:   Rm. at BHT
 BHT .F               109:   BHT.
 TCS .HRS            1800:   Time Circ. stopped
 TLAB.HRS            2200:   Time logger at bottom
 MRT .F               109:   Maximum recorded temp.
 LUN .                711:   Logging unit number
 LUL .             CASPER:   Logging unit location
 ENGI.              SYLER:   Recorded By
 WITN.         PETTINGILL:   Witnessed by
 ORIG.           5" PRINT:   Origin of data
 UWI .     49025103550000:   Unique Well ID
 DICO. A2D TECHNOLOGIES, INC.:   Digitizing Company
 PD  .                 GL:   Permanent Datum
 EPD .F              4967:   Elevation Permanent Datum
 LMF .                 KB:   Log Measured From
 DMF .                 KB:   Drilling Measured From
 DAPD.F                10:   Feet Above Permanent Datum
~OTHER INFORMATION
~A   DEPT      SPR        ILD        ILM        LL8         GRD      CALD       CORR       RHOB   
# ...
  711.0000   -20.7052     9.7970     9.5402     9.4508   111.9428     8.8244     0.0221     2.5494
  711.5000   -20.5410     9.8692     9.5435     9.4547   113.1954     8.8072     0.0229     2.5503
  712.0000   -20.5289     9.8726     9.5467     9.4586   112.8857     8.7936     0.0245     2.5473
  712.5000   -20.5167     9.8072     9.5500     9.4619   113.4007     8.7806     0.0246     2.5458
  713.0000   -20.5046     9.8105     9.6197     9.4658   115.0101     8.7839     0.0246     2.5459
  713.5000   -20.4924     9.8139     9.6231     9.4697   115.9056     8.7702     0.0230     2.5436
  714.0000   -20.3283     9.7495     9.6264     9.4082   107.2235     8.7735     0.0161     2.5282
  714.5000   -20.3161     9.7529     9.4309     9.3471   107.8672     8.7742     0.0107     2.5259
  715.0000   -20.1520     9.7563     9.3052     9.2864   108.8220     8.7726     0.0069     2.5299
  715.5000   -20.2918     9.7598     9.3084     9.2261   109.7768     8.7710     0.0040     2.5276
  716.0000   -20.2792     9.7630     9.3763     9.1662   110.5761     8.7694     0.0042     2.5207
  716.5000   -20.2671     9.7664     9.5765     9.1067   110.9034     8.7677     0.0126     2.5184
  717.0000   -20.2550     9.7698     9.7809     9.0471   109.6863     8.7661     0.0173     2.5263
  717.5000   -20.2429     9.7738     9.7843     8.9257   107.5306     8.7645     0.0220     2.5396
  718.0000   -20.2298     9.8453     9.6522     8.8059   106.1472     8.7629     0.0283     2.5490
  718.5000   -20.2177     9.8487     9.4578     8.3897   106.4853     8.7613     0.0314     2.5498
  719.0000   -20.2066     9.9206     9.3950     8.2246   105.4183     8.7597     0.0330     2.5475
  719.5000   -20.0425     9.9931     9.5301     8.8940   105.7511     8.7580     0.0315     2.5397
  720.0000   -20.0304    10.1362     9.9379     9.7932   107.6390     8.7564     0.0254     2.5368
  720.5000   -19.8663    10.3529    10.2915    10.0680   107.9717     8.7548     0.0185     2.5432
  721.0000   -19.7021    10.5011    10.5112    10.2188   108.1489     8.7532     0.0162     2.5479
  721.5000   -19.6899    10.7256    10.7356    10.5183   108.7926     8.7516     0.0240     2.5464
  722.0000   -19.6677    11.0311    10.9647    10.8119   110.3695     8.7063     0.0171     2.5449
  722.5000   -19.5137    11.1890    11.1215    11.0444   111.9464     8.7140     0.0086     2.5419
  723.0000   -19.3495    11.3492    11.2027    11.2040   113.5232     8.7215     0.0126     2.5389
  723.5000   -19.3196    11.3531    11.2844    11.3551   114.6335     8.7290     0.0173     2.5436
  724.0000   -19.1530    11.5156    11.3667    11.3715   116.0549     8.7365     0.0196     2.5460
  724.5000   -19.0091    11.5995    11.4497    11.5357   115.7655     8.7440     0.0181     2.5376
  725.0000   -18.8450    11.8474    11.6134    11.6889   115.0096     8.7515     0.0089     2.5314
  725.5000   -18.8329    12.0170    11.7794    11.7894   112.6984     8.7590     0.0113     2.5338
  726.0000   -18.6663    12.1891    12.0308    11.9443   108.5210     8.7665     0.0175     2.5393
  726.5000   -18.6542    12.1933    12.1186    12.0324   107.1430     8.7740     0.0215     2.5534
  727.0000   -18.6421    12.1975    12.1228    12.0384   106.8482     8.7815     0.0316     2.5752
  727.5000   -18.6299    12.2017    12.1270    12.0434   107.1863     8.7890     0.0363     2.5877
  728.0000   -18.4659    12.1215    12.1312    11.9652   108.1411     8.7965     0.0372     2.5707
  728.5000   -18.4538    12.1257    12.0506    11.9702   109.5625     8.8191     0.0302     2.5576
  729.0000   -18.2897    12.0461    12.0558    11.9747   112.8501     8.8530     0.0209     2.5514
  729.5000   -18.2776    11.9669    11.8941    11.7320   116.9153     8.8712     0.0156     2.5360
  730.0000   -18.1135    11.9712    11.8151    11.4171   113.0489     8.8894     0.0048     2.5283
  730.5000   -18.1014    11.8768    11.7376    11.1868   109.4936     8.9232     0.0025     2.5267
  731.0000   -18.0893    11.7326    11.5012    11.0374   106.8714     8.9259     0.0103     2.5324
  731.5000   -18.0772    11.6556    11.2686    10.8148   105.6489     8.9441     0.0150     2.5441
  732.0000   -18.0651    11.4195    11.1165    10.6704   105.2040     8.9467     0.0182     2.5449
  732.5000   -18.0529    11.1892    10.8917    10.5268   105.0700     8.9493     0.0205     2.5427
  733.0000   -18.0408    11.0379    10.5987    10.4588   105.2474     8.9520     0.0214     2.5443
  733.5000   -18.0287    10.8143    10.4565    10.3187   105.4245     8.9546     0.0165     2.5410
  734.0000   -18.0182    10.5230    10.3871    10.2517   105.7573     8.9728     0.0051     2.5268
  734.5000   -18.0061    10.4529    10.3190    10.0460   106.0902     8.9755     0.0037     2.5205
  735.0000   -17.9685    10.3125    10.1814     9.9797   107.0962     8.9782     0.0084     2.5237
  735.5000   -17.8298    10.2448    10.0440     9.9849   109.2847     8.9808     0.0124     2.5292
  736.0000   -17.8152    10.1775     9.9092     9.9890   110.3546     8.9840     0.0155     2.5339
  736.5000   -17.8051    10.1818     9.7763     9.9932   110.5319     8.9866     0.0187     2.5270
  737.0000   -17.6390    10.1853     9.7122     9.9973   110.5537     8.9892     0.0210     2.5224
  737.5000   -17.4772    10.1889     9.6485    10.0015   110.5754     9.0075     0.0219     2.5295
  738.0000   -17.4648    10.1924     9.5852    10.0752   110.2281     9.0101     0.0219     2.5319
  738.5000   -17.2987    10.1959     9.6560    10.0794   108.7570     9.0127     0.0228     2.5273
  739.0000   -17.2876    10.2704     9.7941    10.0835   107.6846     9.0153     0.0228     2.5212
  739.5000   -17.1226    10.2739     9.9341    10.0881   109.7335     9.0180     0.0213     2.5182
  740.0000   -17.1104    10.2775    10.0761    10.0212   110.6883     9.0206     0.0190     2.5182
  740.5000   -16.9464    10.2091    10.0796    10.0264   111.7986     9.0070     0.0176     2.5191
  741.0000   -16.9343    10.0719    10.0831     9.9606   112.2868     8.9946     0.0153     2.5176
  741.5000   -16.9221     9.9374    10.0866     9.8282   111.9920     8.9973     0.0146     2.5153
  742.0000   -16.9100     9.8713     9.8825     9.7644   111.0860     8.9836     0.0162     2.5146
  742.5000   -16.8979     9.7395     9.6827     9.7010   109.8635     8.9707     0.0131     2.5139
  743.0000   -16.8858     9.6755     9.4869     9.6380   108.9520     8.9577     0.0109     2.5140
  743.5000   -16.8737     9.6789     9.3596     9.6423   108.8127     8.9453     0.0101     2.5157
  744.0000   -16.8616     9.6822     9.4280     9.6460   107.7512     8.9323     0.0110     2.5181
  744.5000   -16.6975     9.6856     9.5628     9.6500   106.3677     8.9194     0.0126     2.5213
  745.0000   -16.6854     9.6889     9.7669     9.6540   107.3279     8.9064     0.0142     2.5252
  745.5000   -16.5213     9.7597     9.7702     9.6580   110.9266     8.8935     0.0142     2.5253
  746.0000   -16.5092     9.8310     9.4410     9.5952   114.9918     8.8805     0.0127     2.5160
  746.5000   -16.4971     9.8344     9.3143     9.5992   107.7040     8.8519     0.0074     2.5098
  747.0000   -16.4850     9.8378     9.5132     9.6032   106.3205     8.8389     0.0035     2.5067
  747.5000   -16.4729     9.8412     9.7162     9.7413   109.1470     8.8240     0.0013     2.4961
  748.0000   -16.4608     9.8447     9.7871     9.8131   110.8794     8.7974     0.0006     2.4970
  748.5000   -16.4487     9.8480     9.7229     9.8855   110.4345     8.7844     0.0014     2.4986
  749.0000   -16.4366     9.7833     9.5263     9.8896   110.6117     8.7721     0.0045     2.5258
  749.5000   -16.2725     9.8548     9.5296    10.0317   110.9444     8.7747     0.0077     2.5298
  750.0000   -16.2454     9.8697     9.5992    10.1057   111.4631     8.7611     0.0116     2.5283
  750.5000   -16.1373    10.2809     9.8912    10.1099   111.6796     8.7644     0.0070     2.5261
  751.0000   -16.0291    10.4280    10.1505    10.1147   111.7784     8.7647     0.0095     2.5230
