~VERSION INFORMATION
 VERS.                2.0:   CWLS LOG ASCII STANDARD - VERSION 2.0
 WRAP.                 NO:   ONE LINE PER DEPTH STEP
~WELL INFORMATION
#MNEM.UNIT      DATA TYPE    INFORMATION
#----------   ------------   ------------------------------
 STRT.F          200.0000:   START DEPTH
 STOP.F         3142.0000:   STOP DEPTH
 STEP.F            0.5000:   STEP LENGTH
 NULL.          -999.2500:   NO VALUE
 COMP.    FENIX & SCISSON:   COMPANY
 WELL.  FENIX "AX" #37-10:   WELL
 FLD .              NPR-3:   FIELD
 LOC .      S10 T38N R78W:   LOCATION
 CNTY.            NATRONA:   COUNTY
 STAT.            WYOMING:   STATE
 CTRY. UNITED STATES OF AMERICA:   COUNTRY
 SRVC.              WELEX:   SERVICE COMPANY
 DATE.        19-SEP-1977:   LOGDATE
 API .     49025104190000:   API NUMBER
~CURVE INFORMATION
#MNEM.UNIT       API CODE    CURVE DESCRIPTION
#----------   ------------   ------------------------------
 DEPT.F                  :   
 CALD.IN     45 280 60 00:   CALIPER FROM DENSITY LOG
 GRD .GAPI   45 310 01 00:   GAMMA RAY FROM DENSITY LOG
 RHOB.G/C3   45 350 01 00:   BULK DENSITY
 CORR.G/C3   45 356 01 00:   DENSITY CORRECTION
 NPHI.DEC    42 890 03 00:   NEUTRON POROSITY SANDSTONE
 SPR .MV     07 010 01 00:   SPONTANEOUS POTENTIAL
 SGRD.OHMM   07 220 05 00:   SHALLOW GUARD RESISTIVITY
 ILD .OHMM   07 120 46 00:   INDUCTION LOG DEEP RESISTIVITY
 ILM .OHMM   07 120 44 00:   INDUCTION LOG MEDIUM RESISTIVITY
 TENR.LBS    07 635 01 00:   TENSION FROM RESISTIVITY
~PARAMETER INFORMATION
#MNEM.UNIT          VALUE    DESCRIPTION
#----------   ------------   ------------------------------
 EKB .F         5221.0000:   Kelly bushing
 EGL .F         5211.0000:   Ground level
 EDF .F            0.0000:   Drilling floor
 TD  .F         3150.0000:   Total depth
 DATE.        19-SEP-1977:   Date logged
 CLNT.            A2DTECH:   Client Code
 SL  . 1190' FSL & 1750' FWL:   Surface Location
 PD  .                 GL:   Permanent Datum
 DD  .F              3150:   Depth driller
 DL  .F              3146:   Depth logger
 BLI .F              3144:   Bottom log interval
 CS1 .IN            8.625:   Casing size
 CBD1.      8.625" @ 215':   Casing driller 1
 BS1 .IN            7.875:   Bit size
 DFT .            KCL/MUD:   Type fluid in hole
 DFD .                8.9:   Density
 TCS .HRS               2:   Time Circ. stopped
 MRT .F               116:   Maximum recorded temp.
 ENGI.            C. DOAK:   Recorded By
 WITN.      B. HARRINGTON:   Witnessed by
 ORIG.           5" PRINT:   Origin of data
 UWI .     49025104190000:   Unique Well ID
 DICO. A2D TECHNOLOGIES, INC.:   Digitizing Company
 DAPD.F                10:   Feet Above Permanent Datum
 BSD1.F              3150:   Depth drilled with bit1
 EPD .F              5211:   Elevation Permanent Datum
 LMF .                 KB:   Log Measured From
 DMF .                 KB:   Drilling Measured From
 TLI .F               200:   Top log interval
 CBL1.                213:   Casing logger 1
 DFV .                 37:   Viscosity
 DFPH.                 11:   pH
 DFL .                5.8:   Fluid loss
 MSS .           MEASURED:   Source of sample
 RMS .               2.82:   Rm
 MST .                 94:   Rm Meas. temp.
 RMF .               1.61:   Rmf
 MFST.                 94:   Rmf Meas. temp.
 MFSS.               MEAS:   Source Rmf.
 RMC .               3.12:   Rmc
 MCST.                 94:   Rmc Meas. temp.
 MCSS.               MEAS:   Source Rmc.
 RMB .               2.28:   Rm. at BHT
 BHT .                116:   BHT.
 LUN .               8611:   Logging unit number
 LUL .             CASPER:   Logging unit location
~OTHER INFORMATION
~A   DEPT       CALD       GRD        RHOB      CORR      NPHI        SPR       SGRD        ILD        ILM       TENR   
# ...
 1573.5000    11.1596    60.2982     2.5566     0.0191     0.2497   -76.8841     8.4916     6.0462     6.8754  1457.4377
 1574.0000    11.1797    60.4993     2.5467     0.0191     0.2541   -76.8841     8.4919     5.9912     7.0032  1457.4303
 1574.5000    11.1998    60.5026     2.5388     0.0191     0.2570   -76.8841     9.1392     5.9913     7.2658  1457.4229
 1575.0000    11.2002    60.3083     2.5308     0.0152     0.2445   -76.8841     9.0559     5.8825     6.7509  1457.4155
 1575.5000    11.2005    60.1139     2.5249     0.0073     0.2341   -76.8841     8.4926     5.8289     6.4476  1457.4083
 1576.0000    11.1613    60.1172     2.5169     0.0053     0.2252   -76.8841     8.4152     5.8290     6.3303  1457.4009
 1576.5000    11.1221    59.7251     2.5090     0.0034     0.2208   -76.8841     8.2623     5.8292     6.5677  1457.3936
 1577.0000    11.0634    59.1353     2.5070     0.0014     0.2196   -76.8841     8.2626     5.8294     6.3892  1457.3861
 1577.5000    11.0439    58.9410     2.5051     0.0014     0.2176   -76.8841     8.2628     5.8296     6.3309  1457.3787
 1578.0000    11.0245    58.7443     2.5091     0.0035     0.2144   -76.8841     8.4937     5.9378     6.6289  1477.3358
 1578.5000    11.0644    58.2553     2.5151     0.0055     0.2123   -76.8841     8.4940     5.9927     6.8774  1457.3639
 1579.0000    11.0647    57.7662     2.5230     0.0055     0.2155   -76.8841     8.9751     5.9929     7.0053  1457.3564
 1579.5000    11.1244    57.3704     2.5270     0.0115     0.2196   -76.8841     9.4835     5.9931     7.0702  1457.3491
 1580.0000    11.2236    57.1761     2.5410     0.0155     0.2260   -77.2810     9.1419     6.1043     7.0056  1457.3417
 1580.5000    11.3228    56.9818     2.5529     0.0175     0.2324   -77.2810     8.9759     5.9934     6.8152  1457.3344
 1581.0000    11.3825    56.9852     2.5569     0.0176     0.2381   -77.2810     9.0588     5.9936     6.6300  1457.3269
 1581.5000    11.4421    56.9885     2.5530     0.0176     0.2421   -77.2810     8.8131     6.0491     6.5094  1457.3195
 1582.0000    11.4820    56.9919     2.5470     0.0137     0.2357   -77.2810     8.4956     5.9940     6.2172  1477.2758
 1582.5000    11.4823    56.9953     2.5431     0.0117     0.2309   -77.2810     8.1896     5.9393     6.2173  1457.3047
 1583.0000    11.4036    56.9987     2.5391     0.0098     0.2242   -77.2810     8.1150     5.9395     6.3329  1457.2972
 1583.5000    11.2458    57.1998     2.5371     0.0118     0.2177   -77.2810     8.1900     5.8854     6.4506  1457.2899
 1584.0000    11.1671    57.4009     2.5332     0.0118     0.2085   -77.2810     8.4965     5.9399     6.8166  1457.2825
 1584.5000    11.1278    57.6020     2.5332     0.0079     0.2049   -77.2810     8.4967     5.9401     7.0722  1477.2383
 1585.0000    11.1280    57.6040     2.5332     0.0079     0.2033   -77.2810     9.0608     5.9402     7.1376  1457.2677
 1585.5000    11.1679    57.6087     2.5332     0.0079     0.2001   -77.2810     9.4866     5.9952     7.0078  1457.2605
 1586.0000    11.2077    57.6121     2.5313     0.0080     0.2053   -77.2810     9.4868     5.9406     6.8804  1477.2159
 1586.5000    11.2279    57.6155     2.5213     0.0020     0.2130   -77.2810     9.4871     5.9955     6.8805  1457.2457
 1587.0000    11.2282    57.4212     2.5184    -0.0019     0.2170   -77.2810     8.9790     5.9957     6.8806  1457.2383
 1587.5000    11.1890    57.4246     2.5174     0.0021     0.2222   -77.2810     8.8159     6.0512     6.9445  1457.2310
 1588.0000    11.1696    57.4280     2.5164     0.0022     0.2259   -77.2810     8.4983     6.0513     6.9447  1457.2235
 1588.5000    11.1699    57.4314     2.5135     0.0022     0.2371   -77.2810     8.8977     5.9962     6.9448  1457.2161
 1589.0000    11.1702    57.6324     2.5105     0.0042     0.2388   -77.2810     8.9800     5.8873     6.9451  1477.1710
 1589.5000    11.1706    57.6358     2.5115     0.0043     0.2392   -76.8841     8.9802     5.8875     6.9452  1457.2013
 1590.0000    11.1708    57.6392     2.5165     0.0103     0.2380   -76.8841     8.9804     5.9420     6.9455  1417.2697
 1590.5000    11.1713    57.6449     2.5294     0.0143     0.2319   -76.8193     8.8986     5.8341     6.9456  1457.1865
 1591.0000    11.1914    57.6460     2.5384     0.0202     0.2235   -76.7545     8.8989     5.8880     7.0100  1457.1791
 1591.5000    11.2511    57.6480     2.5454     0.0223     0.2211   -76.6897     8.8991     5.8882     7.0102  1457.1718
 1592.0000    11.3502    57.6507     2.5494     0.0243     0.2190   -76.6250     9.0642     5.9427     7.0104  1477.1260
 1592.5000    11.4889    57.6077     2.5444     0.0263     0.2190   -76.5602     9.0645     6.0529     7.0106  1457.1569
 1593.0000    11.5686    57.5648     2.5365     0.0264     0.2230   -76.4954     9.1483     6.1089     7.0108  1457.1495
 1593.5000    11.5294    57.5218     2.5266     0.0264     0.2295   -76.4306     8.9821     6.1090     6.8833  1457.1421
 1594.0000    11.4111    57.4700     2.5127     0.0244     0.2311   -76.3658     8.9003     6.1656     6.6963  1457.1346
 1594.5000    11.3522    57.4720     2.5057     0.0225     0.2343   -76.2889     8.5014     6.3963     6.6351  1457.1273
 1595.0000    11.2735    57.4754     2.5058     0.0205     0.2352   -76.2889     8.5016     6.6357     6.6354  1457.1199
 1595.5000    11.1750    57.6764     2.5058     0.0246     0.2368   -76.2889     8.8197     6.8211     6.6355  1477.0735
 1596.0000    11.1160    58.0751     2.5058     0.0246     0.2392   -76.2889     8.3474     6.8212     6.6970  1477.0660
 1596.5000    11.0373    58.6715     2.5058     0.0269     0.2408   -76.2889     7.9004     6.8214     6.6972  1497.0193
 1597.0000    10.9784    58.4792     2.4999     0.0246     0.2448   -76.2889     8.5809     6.8216     6.7592  1477.0510
 1597.5000    10.8799    58.4805     2.4880     0.0286     0.2497   -76.2889    10.4051     6.6366     6.7593  1457.0829
 1598.0000    10.8405    58.2863     2.4780     0.0327     0.2545   -76.0905    11.4054     6.3976     6.7596  1457.0754
 1598.5000    10.8210    58.0920     2.4622     0.0327     0.2627   -75.6937     9.4065     6.1109     6.2806  1477.0284
 1599.0000    10.8016    58.0954     2.4562     0.0268     0.2711   -75.6937     9.4067     5.9999     5.7820  1477.0210
 1599.5000    10.8020    58.0988     2.4224     0.0208     0.2760   -75.4952     9.4070     5.7838     4.9005  1477.0135
 1600.0000    10.8223    57.9045     2.4056     0.0189     0.2812   -75.4952     9.0681     5.7840     3.9667  1477.0060
 1600.5000    10.8227    57.9085     2.4165     0.0114     0.2618   -75.4952     7.2819     5.7388     3.9306  1494.2084
 1601.0000    10.8628    58.1118     2.4235    -0.0029     0.2398   -75.4936     6.4579     5.5760     5.5742  1476.8090
 1601.5000    10.9028    58.5120     2.4901     0.0012     0.2286   -75.4926     7.2015     5.7319    15.3837  1476.7084
 1602.0000    10.9231    59.9005     2.5319     0.0072     0.2249   -75.6898     8.0308     5.7322    37.0312  1476.6079
 1602.5000    10.9631    60.4984     2.5438     0.0152     0.2217   -75.8876     9.3236     5.6801    20.2458  1476.5074
 1603.0000    10.9833    59.1222     2.5449     0.0172     0.2177   -76.0847     9.3238     5.7855    11.0689  1476.4270
 1603.5000    10.9841    58.3366     2.5439     0.0173     0.2133   -76.4805     8.9882     5.8391     6.4589  1476.3265
 1604.0000    11.0239    57.1557     2.5380     0.0173     0.2061   -76.8763     8.7445     5.8932     6.7010  1476.2260
 1604.5000    11.0442    57.5559     2.5330     0.0154     0.2009   -77.0739     8.7449     5.9478     6.7631  1476.1255
 1605.0000    11.0447    58.7467     2.5330     0.0134     0.2061   -77.0729     8.8259     6.0583     6.8890  1476.0250
 1605.5000    11.0649    58.1564     2.5380     0.0155     0.2089   -77.0719     8.9077     6.2853     6.8892  1475.9246
 1606.0000    11.0259    58.1574     2.5440     0.0075     0.2142   -77.4676     8.9902     6.3433     6.8265  1495.7844
 1606.5000    11.0264    58.1290     2.5450     0.0155     0.2106   -77.4666     8.9085     6.2283     6.7644  1455.7631
