~VERSION INFORMATION
 VERS.                2.0:   CWLS LOG ASCII STANDARD - VERSION 2.0
 WRAP.                 NO:   ONE LINE PER DEPTH STEP
~WELL INFORMATION
#MNEM.UNIT      DATA TYPE    INFORMATION
#----------   ------------   ------------------------------
 STRT.F            0.0000:   START DEPTH
 STOP.F         1165.5000:   STOP DEPTH
 STEP.F            0.5000:   STEP LENGTH
 NULL.          -999.2500:   NO VALUE
 COMP.   JOHN BROWN E & C:   COMPANY
 WELL. BROWN NPR 3 "X" 1 #63-14:   WELL
 FLD .                NPR:   FIELD
 LOC .      S14 T38N R78W:   LOCATION
 CNTY.            NATRONA:   COUNTY
 STAT.            WYOMING:   STATE
 CTRY. UNITED STATES OF AMERICA:   COUNTRY
 SRVC.     ATLAS WIRELINE:   SERVICE COMPANY
 DATE.        15-JAN-1992:   LOGDATE
 API .     49025224960000:   API NUMBER
~CURVE INFORMATION
#MNEM.UNIT       API CODE    CURVE DESCRIPTION
#----------   ------------   ------------------------------
 DEPT.F                  :   
 GRR .GAPI   07 310 01 00:   GAMMA RAY FROM RESISTIVITY
 RILD.OHMM   07 120 46 00:   INDUCTION LOG DEEP RESISTIVITY
 RILM.OHMM   07 120 44 00:   INDUCTION LOG MEDIUM RESISTIVITY
 TENR.LBS    07 635 01 00:   TENSION
~PARAMETER INFORMATION
#MNEM.UNIT          VALUE    DESCRIPTION
#----------   ------------   ------------------------------
 EKB .F         5270.0000:   Kelly bushing
 EGL .F         5260.0000:   Ground level
 EDF .F         5269.0000:   Drilling floor
 TD  .F         1160.0000:   Total depth
 DATE.        15-JAN-1992:   Date logged
 CLNT.            A2DTECH:   Client Code
 SL  . 1893' FNL & 1971' FEL:   Surface Location
 PD  .                 GL:   Permanent Datum
 EPD .F              5260:   Elevation Permanent Datum
 LMF .                 KB:   Log Measured From
 DMF .                 KB:   Drilling Measured From
 DAPD.F                10:   Feet Above Permanent Datum
 DD  .F              1160:   Depth driller
 DL  .F              1158:   Depth logger
 BLI .F              1150:   Bottom log interval
 CS1 .IN            9.625:   Casing size
 CBD1.       9.625" @ 50':   Casing driller 1
 CBL1.F                48:   Casing logger 1
 BS1 .IN             8.75:   Bit size
 BSD1.F              1160:   Depth drilled with bit1
 DFT .                AIR:   Type fluid in hole
 MRT .F                90:   Maximum recorded temp.
 LUN .            HL-6274:   Logging unit number
 LUL .             CASPER:   Logging unit location
 ENGI.             RAUTIO:   Recorded By
 WITN.        GARY STRONG:   Witnessed by
 ORIG.           5" PRINT:   Origin of data
 UWI .     49025224960000:   Unique Well ID
 DICO. A2D TECHNOLOGIES, INC.:   Digitizing Company
 TLI .F                 0:   Top log interval
~OTHER INFORMATION
~A    DEPT      GRR      RILD       RILM       TENR   
# ...
  949.0000    96.6730    15.0690    15.5720    64.2690
  949.5000    96.7940    14.7940    15.1350    64.7130
  950.0000    95.5240    14.5200    14.8390    65.1560
  950.5000    94.2500    14.2460    14.5420    65.6000
  951.0000    95.5690    13.9090    14.2460    66.0430
  951.5000    97.3430    13.4350    13.9290    66.4870
  952.0000   100.1170    12.9330    13.6410    66.9310
  952.5000   102.5240    12.7060    13.3310    67.1550
  953.0000   100.3160    12.4640    13.0200    66.7170
  953.5000    96.6140    12.2230    12.7100    66.2790
  954.0000    92.9600    12.0690    12.4900    65.8400
  954.5000    89.7380    11.9330    12.3360    65.4020
  955.0000    92.2370    11.7970    12.1830    64.9630
  955.5000    96.2290    11.6600    12.0290    64.5250
  956.0000    99.0830    11.5240    11.8760    64.0870
  956.5000    99.1690    11.3880    11.6460    63.6480
  957.0000    99.3020    11.2520    11.5040    63.2100
  957.5000    99.1340    11.1180    11.3610    62.7710
  958.0000    98.3520    10.9890    11.2180    62.3330
  958.5000    99.3420    10.8600    11.0760    61.8940
  959.0000   104.2420    10.7310    10.9450    61.4560
  959.5000   109.0050    10.6020    10.8410    61.0180
  960.0000   111.7270    10.4730    10.7450    60.5790
  960.5000   109.8880    10.3450    10.6490    60.1410
  961.0000   106.4240    10.2570    10.5460    59.7020
  961.5000   102.3640    10.3130    10.5460    59.2640
  962.0000   101.1670    10.3630    10.5710    58.8260
  962.5000   100.1030    10.4140    10.5940    58.3870
  963.0000    99.0520    10.4640    10.6160    57.9490
  963.5000    99.6810    10.5140    10.6390    57.5100
  964.0000   100.4500    10.6640    10.7960    57.5280
  964.5000    99.9170    10.7760    10.9920    59.6470
  965.0000    98.6990    10.9810    11.1490    61.7660
  965.5000    97.4700    11.3270    11.5910    63.8850
  966.0000    96.2330    11.6730    12.0330    66.0040
  966.5000    95.0410    12.0080    12.4620    67.6210
  967.0000    95.6450    12.1620    12.4820    68.5630
  967.5000    95.3380    12.2570    12.5130    69.5050
  968.0000    94.7630    12.3470    12.5430    70.4470
  968.5000    94.2040    12.3090    12.5740    71.3890
  969.0000    94.4450    12.2510    12.5780    72.3300
  969.5000    95.3910    11.9330    12.1920    73.2720
  970.0000    96.8060    11.4950    11.7540    74.2140
  970.5000    97.5040    11.0560    11.3160    75.1560
  971.0000    97.9540    10.7920    10.8430    76.0970
  971.5000    98.8780    10.6910    10.8430    77.0390
  972.0000    99.7840    10.6330    10.8170    76.4410
  972.5000   100.1790    10.5520    10.7660    74.8520
  973.0000    98.7680    10.4710    10.7160    73.2630
  973.5000    96.9310    10.3890    10.6660    71.6740
  974.0000    95.8680    10.3080    10.6220    70.0840
  974.5000    98.1920    10.2270    10.5840    68.4950
  975.0000   101.2840    10.1580    10.5460    67.3960
  975.5000   101.3330    10.1380    10.5080    68.2800
  976.0000    98.4780    10.1180    10.4700    69.1650
  976.5000    95.5530    10.0980    10.4420    70.0490
  977.0000    94.7670    10.0790    10.4100    70.9330
  977.5000    97.3320    10.0590    10.3780    71.8180
  978.0000    99.7430    10.0390    10.3470    72.7020
  978.5000   100.1710    10.0190    10.3150    73.5870
  979.0000   100.5170     9.9990    10.2840    74.4710
  979.5000   100.8600     9.9790    10.2520    75.3560
  980.0000   101.9260     9.9600    10.2210    76.2400
  980.5000   103.3900     9.9400    10.1890    77.1250
  981.0000   104.8790     9.9200    10.1580    78.0090
  981.5000   105.4990     9.9000    10.1260    78.8940
  982.0000   105.6400     9.8830    10.0950    79.7780
  982.5000   105.7740     9.9030    10.0680    80.6620
  983.0000   105.8400     9.9210    10.1640    81.5470
  983.5000   106.7890     9.9380    10.2480    82.4310
  984.0000   109.0510     9.9560    10.3310    83.3160
  984.5000   109.2540     9.9740    10.4150    84.2000
  985.0000   106.4320     9.9910    10.4490    85.0850
  985.5000   103.8850    10.0090    10.4490    85.9690
  986.0000   104.3320    10.0260    10.4490    86.8540
  986.5000   105.4580    10.0440    10.4490    88.7860
  987.0000   107.3760    10.0620    10.4490    92.1320
  987.5000   109.2900    10.0680    10.4490    95.4780
  988.0000   111.2180    10.1320    10.4470    98.8230
  988.5000   112.5620    10.2080    10.4440   102.1690
  989.0000   109.3860    10.2830    10.5520   105.5150
  989.5000   106.2940    10.3520    10.5500   108.8610
  990.0000   106.6420    10.2410    10.3120   112.2060
  990.5000   109.4300    10.0800    10.1550   115.5520
  991.0000   111.8490     9.9200     9.9980   118.8980
  991.5000   112.9760     9.7590     9.8410   122.2440
  992.0000   112.5140     9.5990     9.6830   125.5900
  992.5000   113.4310     9.4380     9.5900   128.9350
  993.0000   115.9170     9.2780     9.5490   132.2810
  993.5000   116.4250     9.1760     9.5230   135.6270
  994.0000   113.1070     9.5440     9.7590   126.5530
  994.5000   109.4150     9.7850    10.1620    96.8870
  995.0000   107.9900     9.8830    10.1340    67.2210
  995.5000   107.5930     9.8570    10.1000    68.6740
  996.0000   108.5680     9.8350    10.0650    70.1270
  996.5000   110.9490     9.8130    10.0310    71.5800
  997.0000   113.3040     9.7910     9.9960    73.0330
  997.5000   115.5330     9.7690     9.9610    74.4860
  998.0000   114.6490     9.7480     9.9270    75.9390
  998.5000   112.9580     9.7260     9.8920    77.2910
  999.0000   111.2290     9.6990     9.8580    77.6350
  999.5000   112.3040     9.7060     9.8230    77.9560
 1000.0000   114.5880     9.5090     9.7720    78.2770
 1000.5000   116.5870     9.3320     9.5680    78.5980
 1001.0000   115.8290     9.1760     9.3480    78.9200
 1001.5000   117.1700     9.1560     9.2620    79.2410
 1002.0000   117.2050     9.1180     9.2620    79.5620
 1002.5000   116.8460     9.0790     9.2620    79.8840
 1003.0000   116.8100     9.0410     9.2620    80.2050
 1003.5000   117.0750     9.0020     9.2620    80.5260
 1004.0000   117.3430     8.9640     9.1920    80.8480
 1004.5000   118.1110     8.9240     9.0680    81.1690
 1005.0000   119.3350     8.6970     8.9430    81.4900
 1005.5000   119.2020     8.5090     8.8420    81.8110
 1006.0000   119.5680     8.3220     8.6600    82.1330
 1006.5000   121.1670     8.1340     8.4300    82.4540
 1007.0000   122.8760     7.9470     8.2000    82.7750
 1007.5000   124.7510     7.7490     7.9700    83.0970
 1008.0000   124.0760     7.3440     7.6770    83.4180
 1008.5000   122.7340     6.9390     7.2990    83.7390
 1009.0000   121.3090     6.5340     6.8650    84.0610
 1009.5000   122.6020     6.0340     6.2560    84.3820
 1010.0000   126.6050     5.4830     5.6480    84.7030
 1010.5000   131.6280     4.9320     5.0390    85.0240
 1011.0000   138.9850     4.3810     4.7500    85.3460
 1011.5000   144.6880     4.0570     4.6620    85.6670
 1012.0000   146.9580     4.2320     4.6620    85.9880
 1012.5000   146.9960     4.4880     4.8130    86.3100
 1013.0000   144.9370     4.7440     5.0110    86.6310
 1013.5000   136.8660     5.0210     5.3830    86.9520
 1014.0000   128.9910     5.5330     5.9980    87.2740
 1014.5000   125.0770     6.0900     6.6140    87.7900
 1015.0000   127.1380     6.6480     7.1430    88.3800
 1015.5000   127.7510     7.2050     7.4800    88.9700
 1016.0000   126.3700     7.5370     7.7540    89.5610
 1016.5000   125.2350     7.7940     8.0280    90.1510
 1017.0000   128.0630     8.0500     8.3010    90.7410
 1017.5000   130.9970     8.2690     8.5200    91.3310
 1018.0000   133.9150     8.4250     8.6700    91.9210
 1018.5000   134.1450     8.5820     8.8230    92.5120
 1019.0000   133.1820     8.7390     8.9760    93.1020
 1019.5000   132.2610     8.8950     9.1300    93.6920
 1020.0000   130.4170     9.0520     9.2830    94.2820
 1020.5000   128.1690     9.2080     9.4360    94.8720
 1021.0000   125.9070     9.3650     9.5730    95.4620
 1021.5000   124.6770     9.5220     9.6890    96.0530
