~VERSION INFORMATION
 VERS.                2.0:   CWLS LOG ASCII STANDARD - VERSION 2.0
 WRAP.                 NO:   ONE LINE PER DEPTH STEP
~WELL INFORMATION
#MNEM.UNIT      DATA TYPE    INFORMATION
#----------   ------------   ------------------------------
 STRT.F          590.0000:   START DEPTH
 STOP.F         3123.0000:   STOP DEPTH
 STEP.F            0.5000:   STEP LENGTH
 NULL.          -999.2500:   NO VALUE
 COMP.         U. S. NAVY:   COMPANY
 WELL. U.S. NPR 3 "A" #402-33:   WELL
 FLD .             TEAPOT:   FIELD
 LOC .      S33 T39N R78W:   LOCATION
 CNTY.            NATRONA:   COUNTY
 STAT.            WYOMING:   STATE
 CTRY. UNITED STATES OF AMERICA:   COUNTRY
 SRVC.         MCCULLOUGH:   SERVICE COMPANY
 DATE.        23-OCT-1967:   LOGDATE
 API .     49025104460000:   API NUMBER
~CURVE INFORMATION
#MNEM.UNIT       API CODE    CURVE DESCRIPTION
#----------   ------------   ------------------------------
 DEPT.F                  :   
 GRN .GAPI   35 310 01 00:   GAMMA RAY FROM NEUTRON
 NEUT.NAPI   35 330 01 00:   NEUTRON
~PARAMETER INFORMATION
#MNEM.UNIT          VALUE    DESCRIPTION
#----------   ------------   ------------------------------
 EKB .F            0.0000:   Kelly bushing
 EGL .F         5160.5000:   Ground level
 EDF .F         5162.0000:   Drilling floor
 TD  .F         3123.5000:   Total depth
 CLNT.            A2DTECH:   Client Code
 PD  .                 GL:   Permanent Datum
 EPD .F            5160.5:   Elevation Permanent Datum
 LMF .                 DF:   Log Measured From
 DMF .                 DF:   Drilling Measured From
 DAPD.F               1.5:   Feet Above Permanent Datum
 DATE.        23-OCT-1967:   Date Logged [DD-MMM-YYYY]
 DL  .F            3123.5:   Depth logger
 BLI .F              3122:   Bottom log interval
 TLI .F               600:   Top log interval
 CS1 .IN           5.1875:   Casing size
 DFT .              WATER:   Type fluid in hole
 TCS .HRS             4.5:   Time Circ. stopped
 ENGI.         COWLTHORPE:   Recorded By
 WITN.           THOMASON:   Witnessed by
 ORIG.         2.5" PRINT:   Origin of data
 UWI .     49025104460000:   Unique Well ID
 DICO. A2D TECHNOLOGIES, INC.:   Digitizing Company
 LUN .               1498:   Logging unit number
~OTHER INFORMATION
~A   DEPT       GRN      NEUT   
# ...
 2534.0000    31.8073   562.5533
 2534.5000    33.8907   581.0720
 2535.0000    37.6416   600.9744
 2535.5000    41.8094   558.5712
 2536.0000    37.2226   539.7935
 2536.5000    37.6385   564.6224
 2537.0000    38.4713   585.7032
 2537.5000    38.4702   603.1931
 2538.0000    39.3029   567.1802
 2538.5000    40.7610   553.0898
 2539.0000    38.8840   593.8875
 2539.5000    34.9226   593.3920
 2540.0000    36.3806   547.7751
 2540.5000    35.7543   555.1642
 2541.0000    34.2942   582.2574
 2541.5000    34.5964   631.5178
 2542.0000    38.4839   614.2766
 2542.5000    41.3920   643.8328
 2543.0000    39.5010   558.9097
 2543.5000    39.2915   527.5245
 2544.0000    38.8156   520.6819
 2544.5000    37.3426   526.7253
 2545.0000    34.5610   555.3413
 2545.5000    30.5329   579.7944
 2546.0000    35.8238   557.6272
 2546.5000    37.5302   575.2618
 2547.0000    40.1624   604.4246
 2547.5000    39.2480   561.5623
 2548.0000    37.7174   545.3121
 2548.5000    31.6063   572.8673
 2549.0000    30.9426   599.4985
 2549.5000    35.5925   561.2999
 2550.0000    36.4988   524.7870
 2550.5000    38.1735   539.8080
 2551.0000    38.4423   561.3035
 2551.5000    35.0313   578.7412
 2552.0000    33.4375   583.1124
 2552.5000    34.0965   612.7181
 2553.0000    36.4090   637.3659
 2553.5000    39.0289   597.6913
 2554.0000    38.8795   571.1896
 2554.5000    36.7887   577.3945
 2555.0000    39.0172   588.1672
 2555.5000    34.7561   582.7820
 2556.0000    30.4501   609.3773
 2556.5000    31.6693   629.5162
 2557.0000    32.0015   574.8683
 2557.5000    30.0908   577.3314
 2558.0000    28.2138   587.1834
 2558.5000    26.9705   574.8683
 2559.0000    28.0033   555.1642
 2559.5000    31.7542   537.9231
 2560.0000    35.0882   557.6272
 2560.5000    34.8787   577.3314
 2561.0000    34.2524   565.0163
 2561.5000    34.8767   532.9971
 2562.0000    38.8360   582.2574
 2562.5000    35.9168   594.1620
 2563.0000    34.4567   567.4793
 2563.5000    36.7485   557.6272
 2564.0000    37.5104   572.4053
 2564.5000    31.7439   566.8447
 2565.0000    31.4366   577.3314
 2565.5000    32.5756   579.7944
 2566.0000    30.9070   597.0355
 2566.5000    30.6961   633.9808
 2567.0000    32.8039   633.5731
 2567.5000    36.6226   596.2922
 2568.0000    39.2405   537.3979
 2568.5000    37.9888   550.2916
 2569.0000    37.4146   606.8876
 2569.5000    34.0455   565.0163
 2570.0000    30.8987   575.8521
 2570.5000    32.7255   567.4793
 2571.0000    34.3040   587.1834
 2571.5000    35.0645   535.7078
 2572.0000    35.2719   505.9038
 2572.5000    34.8682   543.0823
 2573.0000    34.2275   522.5207
 2573.5000    32.9371   527.1820
 2574.0000    31.5158   563.3986
 2574.5000    33.3907   565.0163
 2575.0000    32.4864   550.2382
 2575.5000    33.1435   567.9165
 2576.0000    35.9393   577.3314
 2576.5000    36.9301   518.2189
 2577.0000    34.5861   558.5430
 2577.5000    36.2470   567.3943
 2578.0000    36.8519   563.0152
 2578.5000    33.0320   556.1989
 2579.0000    28.5957   580.9409
 2579.5000    26.9130   617.0023
 2580.0000    29.8484   613.4637
 2580.5000    32.2650   569.1553
 2581.0000    35.6116   557.6272
 2581.5000    36.4178   547.8188
 2582.0000    36.0845   567.4793
 2582.5000    35.8750   567.4793
 2583.0000    35.4571   547.7751
 2583.5000    35.2476   520.6819
 2584.0000    35.4550   540.3861
 2584.5000    35.2456   587.1834
 2585.0000    34.4108   599.7449
 2585.5000    33.5760   579.7944
 2586.0000    33.1581   540.0557
 2586.5000    32.3233   547.7751
 2587.0000    31.0716   535.4601
 2587.5000    31.6959   537.9231
 2588.0000    32.5287   574.8683
 2588.5000    36.4879   557.6272
 2589.0000    39.4051   528.0710
 2589.5000    43.3644   525.6080
 2590.0000    41.9043   577.3314
 2590.5000    38.9851   606.8876
 2591.0000    38.3587   621.6657
 2591.5000    33.3551   560.0902
 2592.0000    34.2093   550.2382
 2592.5000    37.3484   557.6272
 2593.0000    38.1462   547.7751
 2593.5000    34.9119   555.7040
 2594.0000    33.3500   581.9465
 2594.5000    34.3912   656.1479
 2595.0000    31.8055   655.4921
 2595.5000    33.8111   644.7816
 2596.0000    38.4924   623.6133
 2596.5000    36.1823   604.4246
 2597.0000    35.6365   606.8876
 2597.5000    35.6355   612.9612
 2598.0000    35.8430   643.9349
 2598.5000    35.7280   668.4630
 2599.0000    34.7626   655.4258
 2599.5000    32.9466   653.6849
 2600.0000    31.0448   695.5562
 2600.5000    34.6121   687.7222
 2601.0000    36.6951   632.7711
 2601.5000    35.5756   626.5917
 2602.0000    33.7405   668.1982
 2602.5000    33.3322   645.8188
 2603.0000    33.3017   650.3646
 2603.5000    31.0373   656.1794
 2604.0000    33.1067   633.0871
 2604.5000    36.3557   655.9178
 2605.0000    35.7430   660.0892
 2605.5000    34.3682   609.6485
 2606.0000    36.3303   561.5264
 2606.5000    36.8674   560.1847
 2607.0000    36.6579   610.0457
 2607.5000    35.4484   662.7168
 2608.0000    29.4521   604.1606
 2608.5000    29.1510   589.9443
 2609.0000    31.4428   595.9855
 2609.5000    33.2243   632.6439
 2610.0000    34.7758   668.4630
 2610.5000    33.7326   656.1479
 2611.0000    34.1484   586.2631
 2611.5000    33.6593   641.3698
 2612.0000    30.4276   631.5178
 2612.5000    32.7887   648.7589
 2613.0000    35.8118   624.1287
 2613.5000    34.0461   604.4246
 2614.0000    32.4745   606.8876
 2614.5000    31.2795   616.7396
 2615.0000    28.3036   626.5917
 2615.5000    31.1757   683.2411
 2616.0000    33.5127   697.9199
 2616.5000    32.1482   670.9260
 2617.0000    31.8431   637.4125
 2617.5000    33.9263   653.6849
 2618.0000    33.9252   640.9101
 2618.5000    34.1326   666.0000
 2619.0000    34.4324   683.2411
 2619.5000    35.4383   661.0740
 2620.0000    37.9788   629.0547
 2620.5000    39.5936   666.0000
 2621.0000    43.2947   638.9068
 2621.5000    41.2103   631.5178
 2622.0000    39.7532   567.4793
 2622.5000    37.6039   597.0355
 2623.0000    33.7367   619.2026
 2623.5000    36.2668   646.2958
 2624.0000    37.5479   658.6110
 2624.5000    36.0256   693.0932
 2625.0000    34.7444   678.3151
 2625.5000    35.7011   621.6657
 2626.0000    35.1590   629.0547
 2626.5000    34.3242   571.7103
 2627.0000    35.9907   565.0163
 2627.5000    38.0741   637.4319
 2628.0000    38.6345   606.0932
 2628.5000    34.7369   599.4985
 2629.0000    34.9445   614.5381
 2629.5000    35.7771   619.4978
 2630.0000    36.6098   621.6657
 2630.5000    37.4425   571.9815
 2631.0000    36.8162   545.3121
 2631.5000    34.9392   556.8692
 2632.0000    34.5212   577.3314
 2632.5000    32.4358   559.5986
 2633.0000    36.8120   553.0620
 2633.5000    37.8459   522.4820
 2634.0000    32.4327   498.5148
 2634.5000    32.1419   494.8021
 2635.0000    36.5994   484.2307
 2635.5000    39.5166   468.9586
 2636.0000    36.5974   492.5726
 2636.5000    36.8048   498.5148
 2637.0000    38.2628   466.4956
 2637.5000    39.0955   501.8053
 2638.0000    38.2607   513.2929
 2638.5000    37.8216   494.2790
 2639.0000    40.9684   488.6627
 2639.5000    41.1758   490.5663
 2640.0000    40.9663   517.7205
 2640.5000    41.1737   543.7065
 2641.0000    41.5896   523.8666
 2641.5000    42.4223   522.7381
 2642.0000    43.2550   541.0764
 2642.5000    40.5443   523.1450
 2643.0000    37.6195   527.9717
 2643.5000    33.8492   539.2018
 2644.0000    32.4120   511.8751
 2644.5000    32.6194   502.3583
 2645.0000    32.1707   513.2929
 2645.5000    30.6897   490.4355
 2646.0000    29.4897   526.0149
 2646.5000    31.9899   554.8400
 2647.0000    32.2581   602.6372
 2647.5000    34.2807   584.7204
 2648.0000    31.3700   578.8411
 2648.5000    32.6221   557.6272
 2649.0000    35.2607   532.9971
 2649.5000    37.0832   547.7751
 2650.0000    38.2359   569.9423
 2650.5000    37.7067   624.1287
 2651.0000    35.9507   614.2766
 2651.5000    34.2724   606.8876
 2652.0000    35.6552   606.8876
 2652.5000    35.7294   604.4246
 2653.0000    36.6003   540.3861
 2653.5000    37.3949   542.8491
 2654.0000    39.5949   584.7204
 2654.5000    41.4661   597.0355
 2655.0000    41.3237   601.9615
