~VERSION INFORMATION
 VERS.                2.0:   CWLS LOG ASCII STANDARD - VERSION 2.0
 WRAP.                 NO:   ONE LINE PER DEPTH STEP
~WELL INFORMATION
#MNEM.UNIT      DATA TYPE    INFORMATION
#----------   ------------   ------------------------------
 STRT.F          200.0000:   START DEPTH
 STOP.F         3060.0000:   STOP DEPTH
 STEP.F            0.5000:   STEP LENGTH
 NULL.          -999.2500:   NO VALUE
 COMP.    FENIX & SCISSON:   COMPANY
 WELL. FENIX NPR 3 "AX" #58-21:   WELL
 FLD .      NPR - WILDCAT:   FIELD
 LOC .      S21 T39N R78W:   LOCATION
 CNTY.            NATRONA:   COUNTY
 STAT.            WYOMING:   STATE
 CTRY. UNITED STATES OF AMERICA:   COUNTRY
 SRVC.              WELEX:   SERVICE COMPANY
 DATE.        12-JUN-1977:   LOGDATE
 API .     49025103790000:   API NUMBER
~CURVE INFORMATION
#MNEM.UNIT       API CODE    CURVE DESCRIPTION
#----------   ------------   ------------------------------
 DEPT.F                  :   
 CALD.IN     45 280 60 00:   CALIPER FROM DENSITY LOG
 GRD .GAPI   45 310 01 00:   GAMMA RAY FROM DENSITY LOG
 CORR.G/C3   45 356 01 00:   DENSITY CORRECTION
 RHOB.G/C3   45 350 01 00:   BULK DENSITY
 SPR .MV     07 010 01 00:   SPONTANEOUS POTENTIAL
 ILD .OHMM   07 120 46 00:   DEEP INDUCTION RESISTIVITY
 GURD.OHMM   07 220 05 00:   GUARD LOG RESISTIVITY
 ILM .OHMM   07 120 44 00:   INDUCTION LOG MEDIUM RESISTIVITY
 DT  .US/F   60 520 00 00:   DELTA TIME
 SPHI.DEC    60 890 00 00:   SONIC POROSITY
~PARAMETER INFORMATION
#MNEM.UNIT          VALUE    DESCRIPTION
#----------   ------------   ------------------------------
 EKB .F         5016.0000:   Kelly bushing
 EGL .F         5006.0000:   Ground level
 EDF .F            0.0000:   Drilling floor
 EPD .F            0.0000:   Permanent datum
 TD  .F         3062.0000:   Total depth
 DATE.        12-JUN-1977:   Date logged
 CLNT.            A2DTECH:   Client Code
 SL  . 280' FSL & 2160' FEL:   Surface Location
 PD  .                 GL:   Permanent Datum
 DD  .F              3060:   Depth driller
 DL  .F              3062:   Depth logger
 BLI .F              3060:   Bottom log interval
 TLI .F              2450:   Top log interval
 CS1 .IN            8.625:   Casing size
 CBD1.      8.625" @ 200':   Casing driller 1
 CBL1.F               218:   Casing logger 1
 BS1 .IN            7.875:   Bit size
 BSD1.F              3060:   Depth drilled with bit1
 DFT .            KCL/MUD:   Type fluid in hole
 DFD .                8.7:   Density
 DFV .                 33:   Viscosity
 DFPH.                7.5:   pH
 DFL .                 36:   Fluid loss
 MSS .           FLOWLINE:   Source of sample
 TCS .HRS             4.5:   Time Circ. stopped
 MRT .F               110:   Maximum recorded temp.
 LUN .               8611:   Logging unit number
 LUL .           GILLETTE:   Logging unit location
 ENGI.            C. DOAK:   Recorded By
 WITN.            RHOADES:   Witnessed by
 ORIG.           5" PRINT:   Origin of data
 UWI .     49025103790000:   Unique Well ID
 DICO. A2D TECHNOLOGIES, INC.:   Digitizing Company
 DAPD.                 10:   Feet Above Permanent Datum
 RMS .OHMM            1.3:   Rm
 MST .F                84:   Rm Meas. temp.
 RMF .OHMM            .52:   Rmf
 MFST.F                84:   Rmf Meas. temp.
 MFSS.               FANN:   Source Rmf.
 RMC .OHMM           1.43:   Rmc
 MCST.F                84:   Rmc Meas. temp.
 MCSS.                KIT:   Source Rmc.
 RMB .OHMM            .99:   Rm. at BHT
 BHT .F               110:   BHT.
~OTHER INFORMATION
~A   DEPT     CALD         GRD      CORR       RHOB        SPR        ILD       GURD        ILM         DT       SPHI   
# ...
  602.0000     9.3060    94.4880     0.0040     2.4740   -61.4880     9.2090    11.4030    10.7750  -999.2500  -999.2500
  602.5000     9.3050    95.2540    -0.0010     2.4590   -61.5220     9.1710    11.4030    10.7630  -999.2500  -999.2500
  603.0000     9.3040    95.5080    -0.0060     2.4470   -61.5560     9.1420    11.4030    10.7490  -999.2500  -999.2500
  603.5000     9.3030    95.8340    -0.0090     2.4360   -61.5900     9.1500    11.4030    10.7350  -999.2500  -999.2500
  604.0000     9.3020    96.2270    -0.0050     2.4400   -61.6240     9.1560    11.4030    10.7210  -999.2500  -999.2500
  604.5000     9.3010    98.0190    -0.0040     2.4460   -61.6590     9.1630    11.4030    10.7070  -999.2500  -999.2500
  605.0000     9.3000    99.8180    -0.0020     2.4530   -61.6930     9.1690    11.4030    10.6930  -999.2500  -999.2500
  605.5000     9.2990    99.8490    -0.0010     2.4590   -61.7270     9.1760    11.4030    10.6790  -999.2500  -999.2500
  606.0000     9.2980    99.7060     0.0010     2.4670   -61.7610     9.1830    11.4030    10.6650  -999.2500  -999.2500
  606.5000     9.2960    99.4830     0.0030     2.4680   -61.7950     9.1900    11.4030    10.6510  -999.2500  -999.2500
  607.0000     9.2950    99.2920     0.0040     2.4720   -61.8290     9.1960    11.4040    10.6370  -999.2500  -999.2500
  607.5000     9.2940    99.4690     0.0060     2.4750   -61.8640     9.2030    11.4030    10.6230  -999.2500  -999.2500
  608.0000     9.2930   100.2020     0.0080     2.4780   -61.8980     9.2090    11.3990    10.6090  -999.2500  -999.2500
  608.5000     9.2920   100.9150     0.0090     2.4810   -61.9320     9.2160    11.3460    10.5950  -999.2500  -999.2500
  609.0000     9.2910   101.5980     0.0130     2.4830   -61.9660     9.2230    11.3010    10.5810  -999.2500  -999.2500
  609.5000     9.2900   102.3080     0.0140     2.4810   -62.0000     9.2290    11.2530    10.5670  -999.2500  -999.2500
  610.0000     9.2890   103.2380     0.0140     2.4770   -62.0350     9.2360    11.2070    10.5530  -999.2500  -999.2500
  610.5000     9.2880   103.9830     0.0140     2.4750   -62.0690     9.2430    11.1590    10.5390  -999.2500  -999.2500
  611.0000     9.2870   103.0230     0.0140     2.4720   -62.1030     9.2490    11.1130    10.5250  -999.2500  -999.2500
  611.5000     9.2860   102.1670     0.0140     2.4780   -62.1370     9.2560    11.0650    10.5110  -999.2500  -999.2500
  612.0000     9.2850   101.2740     0.0140     2.4840   -62.1710     9.2630    11.0180    10.4980  -999.2500  -999.2500
  612.5000     9.2840   100.3290     0.0140     2.4860   -62.2050     9.2690    10.9900    10.4840  -999.2500  -999.2500
  613.0000     9.2830    99.9660     0.0140     2.4810   -62.2400     9.2760    10.9910    10.4700  -999.2500  -999.2500
  613.5000     9.2820    99.5390     0.0140     2.4770   -62.2740     9.2830    10.9920    10.4560  -999.2500  -999.2500
  614.0000     9.2810    98.9200     0.0140     2.4740   -62.3080     9.2890    10.9920    10.4420  -999.2500  -999.2500
  614.5000     9.2800    98.3590     0.0180     2.4810   -62.3420     9.2960    10.9910    10.4290  -999.2500  -999.2500
  615.0000     9.2780    97.6690     0.0220     2.4880   -62.3760     9.3020    10.9890    10.4150  -999.2500  -999.2500
  615.5000     9.2770    97.6400     0.0250     2.4940   -62.4110     9.3090    10.9880    10.3990  -999.2500  -999.2500
  616.0000     9.2760    97.6980     0.0290     2.4980   -62.4450     9.3130    11.0720    10.4500  -999.2500  -999.2500
  616.5000     9.2750    98.7160     0.0260     2.4900   -62.4790     9.3320    11.2120    10.5370  -999.2500  -999.2500
  617.0000     9.2740    99.5340     0.0220     2.4830   -62.5130     9.3470    11.3520    10.6240  -999.2500  -999.2500
  617.5000     9.2730   100.4570     0.0180     2.4750   -62.5470     9.3640    11.4930    10.7110  -999.2500  -999.2500
  618.0000     9.2720   100.8990     0.0180     2.4700   -62.5820     9.3800    11.6330    10.7980  -999.2500  -999.2500
  618.5000     9.2710   101.0320     0.0200     2.4770   -62.6150     9.3960    11.7730    10.8840  -999.2500  -999.2500
  619.0000     9.2700   101.1860     0.0240     2.4860   -62.6460     9.4120    11.9120    10.9700  -999.2500  -999.2500
  619.5000     9.2690   101.3360     0.0290     2.4950   -62.6360     9.4280    12.0520    11.0570  -999.2500  -999.2500
  620.0000     9.2680   101.5130     0.0330     2.5040   -62.6250     9.4440    12.1910    11.1430  -999.2500  -999.2500
  620.5000     9.2670   101.4370     0.0370     2.5140   -62.6130     9.4610    12.2750    11.1950  -999.2500  -999.2500
  621.0000     9.2660   101.0240     0.0380     2.5130   -62.6020     9.4770    11.9980    11.1950  -999.2500  -999.2500
  621.5000     9.2650   100.6390     0.0320     2.5060   -62.5900     9.4930    11.8310    11.1950  -999.2500  -999.2500
  622.0000     9.2640   100.2000     0.0250     2.4960   -62.5790     9.5090    11.9000    11.1950  -999.2500  -999.2500
  622.5000     9.2630   100.1500     0.0180     2.4820   -62.5680     9.5250    11.9690    11.1950  -999.2500  -999.2500
  623.0000     9.2610   100.6500     0.0110     2.4690   -62.5560     9.5410    12.0510    11.1950  -999.2500  -999.2500
  623.5000     9.2610   101.0920     0.0070     2.4570   -62.5450     9.5580    12.0510    11.1950  -999.2500  -999.2500
  624.0000     9.2610   101.5510     0.0030     2.4480   -62.5330     9.5740    12.0510    11.1080  -999.2500  -999.2500
  624.5000     9.2610   102.0110     0.0010     2.4420   -62.5220     9.5900    12.1410    10.9630  -999.2500  -999.2500
  625.0000     9.2610   102.3690    -0.0010     2.4370   -62.5100     9.6060    12.3640    10.8190  -999.2500  -999.2500
  625.5000     9.2610   102.3690    -0.0040     2.4310   -62.4990     9.6230    12.5880    10.6740  -999.2500  -999.2500
  626.0000     9.2610   102.3630    -0.0060     2.4240   -62.4870     9.6370    12.8110    10.5290  -999.2500  -999.2500
  626.5000     9.2610   102.4240    -0.0050     2.4250   -62.4760     9.6570    13.0350    10.3840  -999.2500  -999.2500
  627.0000     9.2610   101.8390    -0.0010     2.4370   -62.4650     9.6610    13.3370    10.2100  -999.2500  -999.2500
  627.5000     9.2610   100.7800     0.0020     2.4460   -62.4530     9.7850    13.4600    10.3840  -999.2500  -999.2500
  628.0000     9.2610    99.8040     0.0050     2.4580   -62.4420     9.9410    13.3920    10.6000  -999.2500  -999.2500
  628.5000     9.2610    98.8130     0.0090     2.4570   -62.4300    10.0960    13.3240    10.8170  -999.2500  -999.2500
  629.0000     9.2610    97.8220     0.0120     2.4500   -62.4190    10.2520    13.2570    10.9910  -999.2500  -999.2500
  629.5000     9.2610    96.8620     0.0150     2.4530   -62.4070    10.4070    13.1890    10.7900  -999.2500  -999.2500
  630.0000     9.2610    95.7550     0.0180     2.4620   -62.3960    10.5930    13.1210    10.7090  -999.2500  -999.2500
  630.5000     9.2610    95.5570     0.0180     2.4720   -62.3840    10.4770    13.0540    10.6280  -999.2500  -999.2500
  631.0000     9.2610    96.9120     0.0170     2.4750   -62.3730    10.3310    12.9730    10.5460  -999.2500  -999.2500
  631.5000     9.2610    97.6530     0.0150     2.4680   -62.3620    10.1850    12.8490    10.4650  -999.2500  -999.2500
  632.0000     9.2610    96.7630     0.0130     2.4630   -62.3500    10.0400    12.5410    10.4000  -999.2500  -999.2500
  632.5000     9.2610    96.0080     0.0120     2.4570   -62.3390     9.8940    12.2320    10.5770  -999.2500  -999.2500
  633.0000     9.2610    95.1400     0.0100     2.4510   -62.3270     9.7490    11.9240    10.7250  -999.2500  -999.2500
  633.5000     9.2610    94.3100     0.0080     2.4450   -62.3160     9.4850    11.6150    10.8730  -999.2500  -999.2500
  634.0000     9.2610    93.8500     0.0060     2.4450   -62.3040     9.3120    11.6520    10.9910  -999.2500  -999.2500
  634.5000     9.2610    94.6090     0.0050     2.4500   -62.2930     9.3120    11.7120    10.9910  -999.2500  -999.2500
  635.0000     9.2610    95.4920     0.0030     2.4460   -62.2810     9.3120    11.7730    10.9910  -999.2500  -999.2500
