~VERSION INFORMATION
 VERS.                2.0:   CWLS LOG ASCII STANDARD - VERSION 2.0
 WRAP.                 NO:   ONE LINE PER DEPTH STEP
~WELL INFORMATION
#MNEM.UNIT      DATA TYPE    INFORMATION
#----------   ------------   ------------------------------
 STRT.F          164.0000:   START DEPTH
 STOP.F         3223.5000:   STOP DEPTH
 STEP.F            0.5000:   STEP LENGTH
 NULL.          -999.2500:   NO VALUE
 COMP.    FENIX & SCISSON:   COMPANY
 WELL. FENIX & SCISSON "AX" #64-34:   WELL
 FLD . NAVAL PETROLEUM RESERVE #3:   FIELD
 LOC .      S34 T39N R78W:   LOCATION
 CNTY.            NATRONA:   COUNTY
 STAT.            WYOMING:   STATE
 CTRY. UNITED STATES OF AMERICA:   COUNTRY
 SRVC.       SCHLUMBERGER:   SERVICE COMPANY
 DATE.        30-DEC-1980:   LOGDATE
 API .     49025108660000:   API NUMBER
~CURVE INFORMATION
#MNEM.UNIT       API CODE    CURVE DESCRIPTION
#----------   ------------   ------------------------------
 DEPT.F                  :   
 GRD .GAPI   45 310 01 00:   GAMMA RAY FROM DENSITY LOG
 RHOB.G/C3   45 350 01 00:   BULK DENSITY
 CALD.IN     45 280 60 00:   CALIPER FROM DENSITY LOG
 CORR.G/C3   45 356 01 00:   DENSITY CORRECTION
 SPR .MV     07 010 01 00:   SPONTANEOUS POTENTIAL
 TENR.LBS    06 635 01 00:   TENSION FROM RESISTIVITY
 ILD .OHMM   07 120 46 00:   DEEP INDUCTION RESISTIVITY
 ILM .OHMM   07 120 44 00:   INDUCTION LOG MEDIUM RESISTIVITY
 SFL .OHMM   07 220 01 00:   SHALLOW FOCUSED LOG RESISTIVITY
~PARAMETER INFORMATION
#MNEM.UNIT          VALUE    DESCRIPTION
#----------   ------------   ------------------------------
 EKB .F         5088.0000:   Kelly bushing
 EGL .F         5078.0000:   Ground level
 TD  .F         3225.0000:   Total depth
 CLNT.            A2DTECH:   Client Code
 SL  . 3107' FSL & 3680' FWL:   Surface Location
 PD  .                 GL:   Permanent Datum
 EPD .F              5078:   Elevation Permanent Datum
 LMF .                 KB:   Log Measured From
 DMF .                 KB:   Drilling Measured From
 DAPD.F                10:   Feet Above Permanent Datum
 DATE.        30-DEC-1980:   Date Logged [DD-MMM-YYYY]
 DD  .F              3225:   Depth driller
 DL  .F              3225:   Depth logger
 BLI .F              3219:   Bottom log interval
 TLI .F               190:   Top log interval
 CS1 .IN            8.625:   Casing size
 CBD1.      8.625" @ 205':   Casing driller 1
 CBL1.F               190:   Casing logger 1
 BS1 .IN            7.875:   Bit size
 BSD1.F              3225:   Depth drilled with bit1
 DFT .              FRESH:   Type fluid in hole
 DFD .                  9:   Density
 DFV .                 46:   Viscosity
 MSS .           MUD TANK:   Source of sample
 RMS .OHMM           2.47:   Rm
 MST .F                57:   Rm Meas. temp.
 RMF .OHMM           1.45:   Rmf
 MFST.F                57:   Rmf Meas. temp.
 MFSS.               MEAS:   Source Rmf.
 RMB .OHMM            1.2:   Rm. at BHT
 BHT .F               124:   BHT.
 TCS .HRS            0400:   Time Circ. stopped
 MRT .F               124:   Maximum recorded temp.
 LUN .               8034:   Logging unit number
 LUL .               CSPR:   Logging unit location
 ENGI.             LARSON:   Recorded By
 WITN.              FIVAS:   Witnessed by
 ORIG.        2" 5" PRINT:   Origin of data
 UWI .     49025108660000:   Unique Well ID
 DICO. A2D TECHNOLOGIES, INC:   Digitizing Company
 TLAB.HRS            2030:   Time logger at bottom
~OTHER INFORMATION
~A   DEPT       GRD      RHOB       CALD       CORR        SPR       TENR        ILD        ILM        SFL   
# ...
  784.5000    94.2796     2.5106     9.1529     0.0527   -68.2334   924.5618     7.6352     7.7179     7.6744
  785.0000    95.6732     2.5322     9.1515     0.0526   -68.7977   922.8512     7.5758     7.6572     7.6140
  785.5000    97.5787     2.5477     9.1710     0.0519   -69.1022   921.1404     7.5711     7.6529     7.5508
  786.0000    97.8715     2.5485     9.1789     0.0519   -69.3975   919.4298     7.5664     7.5938     7.4397
  786.5000    97.7072     2.5400     9.1771     0.0519   -69.6957   917.7191     7.3990     7.4809     7.3812
  787.0000    99.0526     2.5330     9.1757     0.0519   -69.9994   916.0084     7.3413     7.4230     7.2705
  787.5000   101.3592     2.5213     9.1742     0.0519   -69.9031   914.2977     7.2319     7.3117     7.2655
  788.0000   103.2626     2.5236     9.1424     0.0511   -69.7365   912.5870     7.1755     7.2552     7.2605
  788.5000   102.4900     2.5314     9.1104     0.0510   -69.5692   911.5081     7.1711     7.2512     7.3080
  789.0000   102.6315     2.5393     9.0938     0.0510   -69.4033   910.8124     7.1665     7.3525     7.4090
  789.5000   103.6743     2.5476     9.0923     0.0510   -69.2261   910.1147     7.2129     7.4552     7.6743
  790.0000   103.0257     2.5491     9.0909     0.0403   -68.7642   909.4169     7.3141     7.5665     7.9504
  790.5000   100.1655     2.5305     9.1046     0.0299   -68.2655   908.7186     7.3613     7.6099     7.7192
  791.0000    98.0346     2.5088     9.1028     0.0299   -67.7667   908.0205     7.4100     7.5500     7.5476
  791.5000    98.3274     2.5121     9.1013     0.0319   -67.2730   907.3223     7.4588     7.4378     7.5424
  792.0000   101.3369     2.5243     9.0999     0.0330   -67.0164   906.6240     7.4531     7.3803     7.5917
  792.5000   101.7778     2.5328     9.0984     0.0338   -67.1363   905.9258     7.3950     7.4296     7.6414
  793.0000   101.1564     2.5452     9.1046     0.0350   -67.2511   905.2275     7.3904     7.5334     7.6361
  793.5000   100.6928     2.5521     9.1258     0.0362   -67.3672   904.5293     7.3859     7.5282     7.7417
  794.0000   102.0382     2.5513     9.1543     0.0384   -67.4828   903.8311     7.3812     7.5241     7.7923
  794.5000   102.7816     2.5335     9.1529     0.0400   -67.5985   903.1329     7.3227     7.5199     7.7856
  795.0000   103.5300     2.5312     9.1817     0.0425   -67.7141   902.4346     7.2656     7.4046     7.7803
  795.5000   104.8704     2.5366     9.1803     0.0478   -67.8297   901.7364     7.0550     7.0895     7.7191
  796.0000   106.0677     2.5559     9.1896     0.0839   -67.9448   901.0381     6.8999     6.7368     7.5357
  796.5000   107.4163     2.5559     9.2077     0.1292   -68.1427   900.3400     6.6997     6.4946     7.0179
  797.0000   107.8605     2.5303     9.2059     0.1497   -68.4027   899.6417     6.3532     6.2161     6.3400
  797.5000   106.6185     2.4582     9.1741     0.1353   -68.6630   898.9435     5.9624     5.9481     6.0239
  798.0000    98.5996     2.3830     9.1121     0.0916   -68.9236   898.2452     5.7067     5.8182     5.9337
  798.5000    95.7122     2.3876     9.0168     0.0797   -69.1852   897.5470     5.5813     5.8571     5.9725
  799.0000    96.3043     2.4442     8.9119     0.0388   -69.4433   896.8488     5.6997     5.9389     6.0978
  799.5000    97.8042     2.5008     8.8953     0.0093   -69.5619   896.1506     6.0030     6.0655     6.3172
  800.0000   100.5144     2.5566     8.8790     0.0109   -69.2342   895.4523     6.3868     6.4222     7.2357
  800.5000   100.4982     2.5612     8.8924     0.0534   -68.9222   894.7541     6.8712     6.6782     7.5326
  801.0000   101.0936     2.5488     8.8909     0.0464   -68.6103   894.0558     7.3161     7.1478     7.9408
  801.5000   102.1363     2.5271     8.9198     0.0367   -68.2986   893.3576     7.6354     7.4597     8.0527
  802.0000   104.3927     2.5139     8.9180     0.0259   -67.9869   892.6594     7.6878     7.6187     8.1065
  802.5000   103.1694     2.5340     8.9165     0.0234   -67.6751   891.9561     7.7946     7.7240     8.1597
  803.0000   101.0352     2.5573     8.9302     0.0296   -67.3630   891.2676     7.9039     7.9468     8.2745
  803.5000    99.5093     2.5503     8.9288     0.0378   -67.0510   891.7954     8.0821     8.1738     8.6330
  804.0000    98.5886     2.5286     8.9415     0.0425   -66.7424   893.1732     8.3045     8.3479     9.1403
  804.5000    98.5757     2.5223     8.9395     0.0452   -66.6531   894.5385     8.2994     8.3431     9.3362
  805.0000    99.7730     2.5347     8.9379     0.0480   -66.8635   895.9039     8.2954     8.2776     9.1962
  805.5000   102.3286     2.5425     8.9362     0.0508   -67.0704   897.2693     8.2914     8.2730     9.1251
  806.0000   101.5410     2.5360     8.9342     0.0498   -67.2786   898.6346     8.3473     8.3886     9.1200
  806.5000   100.3161     2.5266     8.9329     0.0470   -67.3825   900.0000     8.4036     8.5059     9.1138
  807.0000    98.4861     2.5274     8.9310     0.0424   -67.3823   901.3654     8.3985     8.5010     9.1088
  807.5000    96.5048     2.5312     8.9294     0.0396   -67.3819   902.7307     8.3944     8.3735     9.1708
  808.0000    94.0636     2.5312     8.9278     0.0380   -67.3751   904.0961     8.3904     8.4294     9.2988
  808.5000    92.9960     2.5272     8.9262     0.0372   -67.6912   905.4615     8.3863     8.4869     9.4955
  809.0000    93.8855     2.5280     8.9245     0.0372   -68.0969   906.8268     8.3822     8.5436     9.7018
  809.5000    95.8376     2.5341     8.9226     0.0372   -68.5052   908.1922     8.3772     8.5997     9.6910
  810.0000    99.6052     2.5411     8.9212     0.0374   -68.9110   909.5576     8.3731     8.5947     9.1430
  810.5000   102.9189     2.5496     8.9194     0.0395   -69.2305   910.9230     8.4295     8.5888     9.0072
  811.0000   103.8447     2.5573     8.9179     0.0436   -69.2236   912.2883     8.4874     8.5840     8.9375
  811.5000   102.2602     2.5565     8.9162     0.0555   -69.2231   913.6537     8.5437     8.5793     8.8396
  812.0000    98.0303     2.5611     8.9142     0.0590   -69.2233   915.0190     8.4782     8.5129     8.7316
  812.5000    95.1413     2.5696     8.9126     0.0587   -69.2250   916.3844     8.3519     8.3863     8.5439
  813.0000    95.5806     2.5711     8.9110     0.0573   -69.2196   917.7499     8.1108     8.2023     8.5270
  813.5000    96.9275     2.5602     8.9094     0.0550   -68.8253   919.1152     7.8202     7.9635     8.4124
  814.0000    99.4884     2.5408     8.9170     0.0536   -68.3884   920.4806     7.7603     7.8451     8.4077
  814.5000    99.3189     2.5252     8.9365     0.0518   -67.9520   921.8459     7.7566     7.7285     8.4031
  815.0000    99.4556     2.5156     8.9348     0.0456   -67.5161   923.2113     7.7528     7.7242     8.3983
  815.5000    99.7436     2.5166     8.9546     0.0345   -67.0792   924.5767     7.7481     7.7199     8.3926
  816.0000   101.0869     2.5197     8.9618     0.0292   -66.6344   925.9421     7.7444     7.7157     8.3880
  816.5000   102.8878     2.5165     8.9602     0.0292   -66.6762   927.3074     7.7406     7.7103     8.3231
  817.0000   105.8989     2.5134     8.9734     0.0315   -66.8146   928.6728     7.7369     7.7618     8.3185
  817.5000   109.0613     2.5103     8.9720     0.0362   -66.9532   930.0381     7.7331     7.7575     8.3139
  818.0000   109.0467     2.5070     8.9854     0.0423   -67.0354   931.4035     7.7294     7.8104     8.3694
  818.5000   107.1597     2.4962     8.9838     0.0400   -67.1069   932.7689     7.7255     7.8050     8.4253
  819.0000   104.7779     2.4915     8.9819     0.0260   -67.1784   932.1875     7.7309     7.8007     8.5417
  819.5000   102.3427     2.4931     8.9958     0.0198   -67.2493   931.3745     7.7740     7.7953     8.6609
  820.0000   100.5127     2.5077     9.0094     0.0189   -67.3207   930.5615     7.7693     7.7350     8.8453
  820.5000    99.8929     2.5108     9.0074     0.0244   -67.4499   929.7486     7.7098     7.6752     9.0337
