~VERSION INFORMATION
 VERS.                2.0:   CWLS LOG ASCII STANDARD - VERSION 2.0
 WRAP.                 NO:   ONE LINE PER DEPTH STEP
~WELL INFORMATION
#MNEM.UNIT      DATA TYPE    INFORMATION
#----------   ------------   ------------------------------
 STRT.F            0.0000:   START DEPTH
 STOP.F         4022.0000:   STOP DEPTH
 STEP.F            0.5000:   STEP LENGTH
 NULL.          -999.2500:   NO VALUE
 COMP. LAWRENCE - ALLISON:   COMPANY
 WELL. LAWRENCE NPR 3 "MX" #58-10:   WELL
 FLD .                MPR:   FIELD
 LOC .      S10 T38N R78W:   LOCATION
 CNTY.            NATRONA:   COUNTY
 STAT.            WYOMING:   STATE
 CTRY. UNITED STATES OF AMERICA:   COUNTRY
 SRVC.      DRESSER ATLAS:   SERVICE COMPANY
 DATE.        12-FEB-1984:   LOGDATE
 API .     49025109610000:   API NUMBER
~CURVE INFORMATION
#MNEM.UNIT       API CODE    CURVE DESCRIPTION
#----------   ------------   ------------------------------
 DEPT.F                  :   
 GRR .GAPI   07 310 01 00:   GAMMA RAY FROM RESISTIVITY
 SPR .MV     07 010 01 00:   SPONTANEOUS POTENTIAL
 TENR.LBS    07 635 01 00:   TENSION FROM RESISTIVITY
 ILD .OHMM   07 120 46 00:   DEEP INDUCTION RESISTIVITY
 ILM .OHMM   07 120 44 00:   INDUCTION LOG MEDIUM RESISTIVITY
 SFL .OHMM   07 220 01 00:   SHALLOW FOCUSED LOG RESISTIVITY
 DT  .US/F   60 520 00 00:   DELTA TIME
 TENS.LBS    60 635 01 00:   TENSION FROM SONIC LOG
 CNC .DEC    42 890 03 00:   NEUTRON PORISITY SANDSTONE
 CALD.IN     45 280 60 00:   CALIPER FROM DENSITY LOG
 RHOB.G/C3   45 350 01 00:   BULK DENSITY
 CORR.G/C3   45 356 01 00:   DENSITY CORRECTION
 TEND.LBS    45 635 01 00:   TENSION FROM DENSITY LOG
~PARAMETER INFORMATION
#MNEM.UNIT          VALUE    DESCRIPTION
#----------   ------------   ------------------------------
 EKB .F         5218.0000:   Kelly bushing
 EGL .F         5208.0000:   Ground level
 EDF .F         5217.0000:   Drilling floor
 TD  .F         4014.0000:   Total depth
 DATE.        12-FEB-1984:   Date logged
 CLNT.            A2DTECH:   Client Code
 SL  . 500' FSL & 2150' FEL:   Surface Location
 PD  .                 GL:   Permanent Datum
 EPD .F              5208:   Elevation Permanent Datum
 LMF .                 KB:   Log Measured From
 DMF .                 KB:   Drilling Measured From
 DD  .F              4014:   Depth driller
 DL  .F              4011:   Depth logger
 BLI .F              4009:   Bottom log interval
 CS1 .IN            8.625:   Casing size
 CBD1.      8.625" @ 526':   Casing driller 1
 CBL1.F               525:   Casing logger 1
 BS1 .IN            7.875:   Bit size
 DFT .            GEL/KCL:   Type fluid in hole
 DFD .                8.9:   Density
 DFV .                 48:   Viscosity
 DFPH.                  8:   pH
 DFL .                1.3:   Fluid loss
 MSS .           MUD/TANK:   Source of sample
 RMS .OHMM           .556:   Rm
 MST .F                61:   Rm Meas. temp.
 RMF .OHMM           .423:   Rmf
 MFST.F                61:   Rmf Meas. temp.
 RMC .OHMM           .662:   Rmc
 MCST.F                61:   Rmc Meas. temp.
 MFSS.           MUD/TANK:   Source Rmf.
 RMB .OHMM            .80:   Rm. at BHT
 BHT .F               119:   BHT.
 TCS .HRS               5:   Time Circ. stopped
 MRT .F               119:   Maximum recorded temp.
 LUN .               6302:   Logging unit number
 ENGI.              GETTY:   Recorded By
 ORIG.           5" PRINT:   Origin of data
 UWI .     49025109610000:   Unique Well ID
 DICO. A2D TECHNOLOGIES, INC.:   Digitizing Company
 TLI .F                 0:   Top log interval
~OTHER INFORMATION
~A    DEPT      GRR       SPR       TENR        ILD        ILM        SFL         DT       TENS        CNC       CALD       RHOB       CORR       TEND   
# ...
  520.0000    60.0130  -999.2500  -999.2500  -999.2500  -999.2500  -999.2500  -999.2500  -999.2500     0.2880  -999.2500  -999.2500  -999.2500  -999.2500
  520.5000    59.7490  -999.2500  -999.2500  -999.2500  -999.2500  -999.2500  -999.2500  -999.2500     0.3230  -999.2500  -999.2500  -999.2500  -999.2500
  521.0000    59.3390  -999.2500  -999.2500  -999.2500  -999.2500  -999.2500  -999.2500  -999.2500     0.3650  -999.2500  -999.2500  -999.2500  -999.2500
  521.5000    58.6590  -999.2500  -999.2500  -999.2500  -999.2500  -999.2500  -999.2500  -999.2500     0.3610  -999.2500  -999.2500  -999.2500  -999.2500
  522.0000    57.6310  -999.2500  -999.2500  -999.2500  -999.2500  -999.2500  -999.2500  -999.2500     0.3610  -999.2500  -999.2500  -999.2500  -999.2500
  522.5000    53.5510  -999.2500  -999.2500  -999.2500  -999.2500  -999.2500  -999.2500  -999.2500     0.3240  -999.2500  -999.2500  -999.2500  -999.2500
  523.0000    49.1150  -999.2500  -999.2500  -999.2500  -999.2500  -999.2500  -999.2500  -999.2500     0.3380  -999.2500  -999.2500  -999.2500  -999.2500
  523.5000    48.0380  -999.2500  -999.2500  -999.2500  -999.2500  -999.2500  -999.2500  -999.2500     0.3700  -999.2500  -999.2500  -999.2500  -999.2500
  524.0000    53.4480  -999.2500  -999.2500  -999.2500  1919.0389  -999.2500  -999.2500  -999.2500     0.3990  -999.2500  -999.2500  -999.2500  -999.2500
  524.5000    67.9950  -999.2500  -104.5140    50.0770    24.9430     2.4450  -999.2500  -999.2500     0.3780     9.2790     2.2540     0.1860  -115.4040
  525.0000    68.2300  -999.2500  -103.0810     4.3750     3.2760     4.3150  -999.2500  -999.2500     0.3590     9.2870     2.2420     0.1710   -95.4640
  525.5000    66.8230   -37.0240  -101.6490     1.7660     3.1780     4.0100  -999.2500  -999.2500     0.3360     9.2960     2.2310     0.1560   -75.8350
  526.0000    67.5070   -40.2900  -100.2160     1.6610     3.6550     4.0360  -999.2500  -999.2500     0.3150     9.2970     2.1290     0.1600   -49.6080
  526.5000    72.1900   -42.8330   -99.1410     2.0060     4.2370     4.4770  -999.2500  -999.2500     0.3000     9.4720     2.1320     0.1700   -60.1080
  527.0000    76.5790   -44.4700   -97.7080     3.1020     4.6710     5.1050  -999.2500  -999.2500     0.3090    10.0860     2.0310     0.1800   -74.1070
  527.5000    76.4300   -45.9910   -96.2750     4.6080     5.1850     5.6580  -999.2500  -999.2500     0.3260    10.5240     2.0050     0.1890   -88.1060
  528.0000    73.9990   -49.2500   -95.4640     5.5060     6.5500     6.0920  -999.2500  -999.2500     0.3390    10.9610     2.0220     0.2020  -102.1060
  528.5000    75.6810   -53.5130   -95.4640     6.0000     7.6200     5.8970  -999.2500  -999.2500     0.3260    11.4330     2.0430     0.0390  -116.1050
  529.0000    81.6810   -58.3240   -95.4640     6.0620     8.0250     6.0190  -999.2500  -999.2500     0.3090    11.8050     2.1650    -0.0700  -125.3740
  529.5000    86.1510   -63.5720   -95.4640     6.0620     8.6030     6.2930  -999.2500  -999.2500     0.3010    11.8990     2.3050    -0.0930  -121.6370
  530.0000    83.7100   -68.8910   -95.4640     6.0800     9.1820     6.5660  -999.2500  -999.2500     0.3000    11.8330     2.3950     0.0330  -117.6830
  530.5000    75.4520   -73.2590   -95.4640     6.1020     9.9530     6.7890  -999.2500  -999.2500     0.2980    11.4460     2.4140     0.1980  -113.7280
  531.0000    74.1250   -74.8850   -95.4640     6.2750     9.0180     6.8670  -999.2500  -999.2500     0.2960    11.0590     2.2840     0.2990  -109.7740
  531.5000    75.9490   -74.6580   -95.4640     7.0860     8.1650     6.8930  -999.2500  -999.2500     0.2910    10.8830     2.1650     0.3090  -105.8200
  532.0000    77.7430   -67.6790   -95.4640     9.7670     7.7670     6.8930  -999.2500  -999.2500     0.2890    10.7150     2.0750     0.3010  -101.8650
  532.5000    77.5780   -51.7670   -95.4640    11.1220     7.8390     6.8930  -999.2500  -999.2500     0.2910    10.5490     2.0370     0.2750   -97.9110
  533.0000    78.0860   -35.2210   -95.4640    11.5280     9.0290     6.8930  -999.2500  -999.2500     0.2830    10.3920     2.0510     0.2240   -93.9560
  533.5000    79.6690   -25.3850   -95.4640    11.2750    10.1480     6.8460  -999.2500  -999.2500     0.2740    10.1150     2.0760     0.1120   -90.0020
  534.0000    81.2710   -22.9870   -95.4640    10.7690     9.4220     6.8300  -999.2500  -999.2500     0.2720     9.8400     2.2180    -0.0270   -86.0480
  534.5000    82.3180   -22.0170   -95.4640    10.2550     9.4460     7.2310  -999.2500  -999.2500     0.2680     9.8190     2.3640    -0.0130   -82.0930
  535.0000    82.4200   -22.5740   -95.4640     9.6820     9.4700     7.5940  -999.2500  -999.2500     0.2580     9.8150     2.4400     0.0130   -78.1390
  535.5000    82.5720   -23.1540   -95.4640     9.6680     9.5060     7.8390  -999.2500  -999.2500     0.2460     9.8160     2.4700     0.0400   -74.1850
  536.0000    81.6520   -23.7490   -97.8750     9.5940     9.4790     7.5560  -999.2500  -999.2500     0.2310     9.8180     2.4740     0.0570   -70.2300
  536.5000    79.3010   -23.4750  -102.4340    10.2080     9.4280     7.6820  -999.2500  -999.2500     0.2260     9.8210     2.4750     0.0490   -66.2760
  537.0000    78.3090   -24.3400  -106.9930    10.4920     9.3770     7.8160  -999.2500  -999.2500     0.2370     9.8230     2.4750     0.0370   -68.3180
  537.5000    79.9220   -24.9780  -111.5520    10.6250     9.3170     7.9840  -999.2500  -999.2500     0.2450     9.8250     2.4720     0.0250   -71.7020
  538.0000    83.0630   -25.6450  -116.1110    10.7110     9.2100     7.8810  -999.2500  -999.2500     0.2520     9.8270     2.4590     0.0130   -75.0850
  538.5000    85.7120   -27.3420  -120.6700    10.5260     9.0410     7.6950  -999.2500  -999.2500     0.2520     9.8290     2.4550     0.0010   -78.4680
  539.0000    86.1770   -29.0050  -125.3740    10.3310     8.8060     7.5080  -999.2500  -999.2500     0.2490     9.8310     2.4540     0.0010   -81.8510
  539.5000    86.9520   -30.5980  -118.4380    10.1370     8.5700     7.3220  -999.2500  -999.2500     0.2470     9.8330     2.4560     0.0150   -85.2340
  540.0000    88.0140   -32.5670  -111.2730     9.9430     8.3340     7.1360  -999.2500  -999.2500     0.2450     9.8360     2.4560     0.0280   -88.6170
  540.5000    87.2350   -34.4570  -104.1090     9.6000     8.0060     6.9200  -999.2500  -999.2500     0.2460     9.8400     2.4540     0.0350   -92.0010
  541.0000    83.6250   -36.3340   -96.9450     9.1500     7.6520     6.6570  -999.2500  -999.2500     0.2500     9.8440     2.4530     0.0380   -95.3840
  541.5000    82.2470   -38.9200  -115.4040     8.7000     7.2980     6.3940  -999.2500  -999.2500     0.2550     9.8480     2.4530     0.0330   -98.7670
  542.0000    84.3140   -41.7670  -115.4040     8.2510     6.9870     6.1740  -999.2500  -999.2500     0.2590     9.8520     2.4530     0.0320  -102.1500
  542.5000    86.7330   -44.6290  -115.4040     7.9100     6.7430     5.9120  -999.2500  -999.2500     0.2610     9.8560     2.4480     0.0330  -105.4340
  543.0000    90.9530   -47.5040  -115.4040     7.1550     6.4980     5.7260  -999.2500  -999.2500     0.2640     9.8600     2.4400     0.0320  -105.4340
  543.5000    93.1850   -50.5810  -115.4040     6.0380     6.1700     5.5240  -999.2500  -999.2500     0.2660     9.8640     2.4310     0.0240  -105.4340
  544.0000    91.9270   -53.6240  -115.4040     4.9530     5.2510     5.2690  -999.2500  -999.2500     0.2700     9.8680     2.4070     0.0190  -105.4340
  544.5000    85.3020   -55.0160  -115.4040     4.2890     4.0980     5.0130  -999.2500  -999.2500     0.2870     9.8720     2.3780     0.0130  -105.4340
  545.0000    86.1880   -55.8950  -115.4040     3.6430     3.5950     4.7180  -999.2500  -999.2500     0.3040     9.8930     2.3310     0.0080  -105.4340
  545.5000    86.8610   -56.5100  -115.4040     2.9970     3.0920     4.3150  -999.2500  -999.2500     0.3230     9.9280     2.2690     0.0090  -105.4340
