~VERSION INFORMATION
 VERS.                2.0:   CWLS LOG ASCII STANDARD - VERSION 2.0
 WRAP.                 NO:   ONE LINE PER DEPTH STEP
~WELL INFORMATION
#MNEM.UNIT      DATA TYPE    INFORMATION
#----------   ------------   ------------------------------
 STRT.F           48.0000:   START DEPTH
 STOP.F         3235.5000:   STOP DEPTH
 STEP.F            0.5000:   STEP LENGTH
 NULL.          -999.2500:   NO VALUE
 COMP.    TESORO PEROLEUM:   COMPANY
 WELL. TESORO P46 T 28 N.P.R. #3-28:   WELL
 FLD .        TEAPOT DOME:   FIELD
 LOC .      S28 T39N R78W:   LOCATION
 CNTY.            NATRONA:   COUNTY
 STAT.            WYOMING:   STATE
 CTRY. UNITED STATES OF AMERICA:   COUNTRY
 SRVC.      DRESSER ATLAS:   SERVICE COMPANY
 DATE.        17-SEP-1975:   LOGDATE
 API .     49025102530000:   API NUMBER
~CURVE INFORMATION
#MNEM.UNIT       API CODE    CURVE DESCRIPTION
#----------   ------------   ------------------------------
 DEPT.F                  :   
 CALD.IN     45 280 60 00:   CALIPER FROM DENSITY LOG
 RHOB.G/C3   45 350 01 00:   BULK DENSITY
 CORR.G/C3   45 356 01 00:   DENSITY CORRECTION
 TEND.LBS    45 635 01 00:   TENSION FORM DENSITY LOG
 NPHI.DEC    42 890 03 00:   NEUTRON POROSITY SANDSTONE
 SPR .MV     07 010 01 00:   SPONTANEOUS POTENTIAL
 ILD .OHMM   07 120 46 00:   DEEP INDUCTION RESISTIVITY
 ILM .OHMM   07 120 44 00:   INDUCTION LOG MEDIUM RESISTIVITY
 SFL .OHMM   07 220 01 00:   SHALLOW FOCUSED LOG RESISTIVITY
 GRD .GAPI   45 310 01 00:   GAMMA RAY FROM DENSITY LOG
~PARAMETER INFORMATION
#MNEM.UNIT          VALUE    DESCRIPTION
#----------   ------------   ------------------------------
 EKB .F         5088.0000:   Kelly bushing
 EGL .F         5075.0000:   Ground level
 TD  .F         3218.0000:   Total depth
 CLNT.            A2DTECH:   Client Code
 SL  . 2310' FWL & 1650' FSL:   Surface Location
 PD  .                 GL:   Permanent Datum
 EPD .F              5075:   Elevation Permanent Datum
 LMF .                 KB:   Log Measured From
 DMF .                 KB:   Drilling Measured From
 DAPD.F                13:   Feet Above Permanent Datum
 DATE.        17-SEP-1975:   Date Logged [DD-MMM-YYYY]
 DD  .F              3218:   Depth driller
 DL  .F              3217:   Depth logger
 BLI .F              3215:   Bottom log interval
 TLI .F               395:   Top log interval
 CS1 .IN            8.625:   Casing size
 CBD1.      8.625" @ 393':   Casing driller 1
 CBL1.F               395:   Casing logger 1
 BS1 .IN            7.875:   Bit size
 BSD1.F              3218:   Depth drilled with bit1
 DFT .           CHEM GEL:   Type fluid in hole
 DFD .                9.5:   Density
 DFV .                 60:   Viscosity
 DFPH.                9.5:   pH
 DFL .                 11:   Fluid loss
 MSS .           FLOWLINE:   Source of sample
 RMS .OHMM           0.55:   Rm
 MST .F                60:   Rm Meas. temp.
 RMF .OHMM           0.48:   Rmf
 MFST.F                62:   Rmf Meas. temp.
 MFSS.               MEAS:   Source Rmf.
 RMC .OHMM            1.6:   Rmc
 MCST.F                62:   Rmc Meas. temp.
 MCSS.               MEAS:   Source Rmc.
 RMB .OHMM            0.3:   Rm. at BHT
 BHT .F               112:   BHT.
 TCS .HRS               5:   Time Circ. stopped
 MRT .F               112:   Maximum recorded temp.
 LUN .               6008:   Logging unit number
 LUL .              GLTTE:   Logging unit location
 ENGI.            MILHOAN:   Recorded By
 WITN.               WOLF:   Witnessed by
 ORIG.           5" PRINT:   Origin of data
 UWI .     49025102530000:   Unique Well ID
 DICO. A2DTECHNOLOGIES,INC.:   Digitizing Company
~OTHER INFORMATION
~A   DEPT     CALD       RHOB       CORR       TEND       NPHI         SPR         ILD        ILM        SFL      GRD   
# ...
  282.5000  -999.2500  -999.2500  -999.2500  -999.2500     0.3069   -23.4658     6.6700     7.4306     8.2251    50.1083
  283.0000  -999.2500  -999.2500  -999.2500  -999.2500     0.3123   -23.4577     6.6266     7.3843     8.1730    50.1316
  283.5000  -999.2500  -999.2500  -999.2500  -999.2500     0.3011   -23.4495     6.5387     7.3913     8.1781    49.9157
  284.0000  -999.2500  -999.2500  -999.2500  -999.2500     0.2944   -23.4400     6.4079     7.4167     8.1833    49.4548
  284.5000  -999.2500  -999.2500  -999.2500  -999.2500     0.2932   -23.4321     6.3671     7.4545     8.2468    49.0055
  285.0000  -999.2500  -999.2500  -999.2500  -999.2500     0.2901   -23.4250     6.4158     7.5126     8.3097    47.8330
  285.5000  -999.2500  -999.2500  -999.2500  -999.2500     0.2880   -23.4161     6.6065     7.5711     8.3731    48.5852
  286.0000  -999.2500  -999.2500  -999.2500  -999.2500     0.2864   -23.5568     6.8417     7.6302     8.4370    48.3205
  286.5000  -999.2500  -999.2500  -999.2500  -999.2500     0.2840   -23.5488     6.9423     7.6897     8.5014    47.6636
  287.0000  -999.2500  -999.2500  -999.2500  -999.2500     0.2802   -23.3922     6.9465     7.7509     8.5066    48.4101
  287.5000  -999.2500  -999.2500  -999.2500  -999.2500     0.2767   -23.3841     6.9013     7.8112     8.5715    48.6726
  288.0000  -999.2500  -999.2500  -999.2500  -999.2500     0.2775   -23.3743     6.9066     7.8721     8.5768    48.4508
  288.5000  -999.2500  -999.2500  -999.2500  -999.2500     0.2856   -23.2178     6.9109     7.8780     8.5821    48.0016
  289.0000  -999.2500  -999.2500  -999.2500  -999.2500     0.2901   -23.0612     6.8659     7.8840     8.5198    46.8290
  289.5000  -999.2500  -999.2500  -999.2500  -999.2500     0.2976   -23.0532     6.8712     7.8899     8.3570    46.6129
  290.0000  -999.2500  -999.2500  -999.2500  -999.2500     0.2949   -23.0453     6.8275     7.8959     8.3622    46.8759
  290.5000  -999.2500  -999.2500  -999.2500  -999.2500     0.2903   -23.0373     6.8318     7.9019     8.3673    46.9046
  291.0000  -999.2500  -999.2500  -999.2500  -999.2500     0.2928   -23.0293     6.7883     7.9078     8.3724    47.6454
  291.5000  -999.2500  -999.2500  -999.2500  -999.2500     0.3017   -23.0214     6.7935     7.8407     8.3776    47.9078
  292.0000  -999.2500  -999.2500  -999.2500  -999.2500     0.2998   -23.1620     6.7493     7.8096     8.3827    47.9310
  292.5000  -999.2500  -999.2500  -999.2500  -999.2500     0.3016   -23.1538     6.7064     7.8157     8.3292    47.9543
  293.0000  -999.2500  -999.2500  -999.2500  -999.2500     0.3058   -23.2946     6.6174     7.7683     8.2188    48.9342
  293.5000  -999.2500  -999.2500  -999.2500  -999.2500     0.3109   -23.4353     6.5306     7.7742     8.1098    50.8708
  294.0000  -999.2500  -999.2500  -999.2500  -999.2500     0.3196   -23.7245     6.4891     7.7258     8.0021    51.8507
  294.5000  -999.2500  -999.2500  -999.2500  -999.2500     0.3162   -23.8651     6.4477     7.6762     7.9513    52.1136
  295.0000  -999.2500  -999.2500  -999.2500  -999.2500     0.3043   -24.0057     6.4293     7.5765     7.9574    52.3813
  295.5000  -999.2500  -999.2500  -999.2500  -999.2500     0.2912   -23.9958     6.4109     7.4768     7.9056    52.4046
  296.0000  -999.2500  -999.2500  -999.2500  -999.2500     0.2797   -23.9878     6.3700     7.3784     7.9111    52.4278
  296.5000  -999.2500  -999.2500  -999.2500  -999.2500     0.2812   -23.9798     6.4196     7.3839     7.9165    52.2061
  297.0000  -999.2500  -999.2500  -999.2500  -999.2500     0.2802   -23.9718     6.3779     7.3895     7.9214    51.5177
  297.5000  -999.2500  -999.2500  -999.2500  -999.2500     0.2766   -24.1125     6.4275     7.3951     7.9816    50.3452
  298.0000  -999.2500  -999.2500  -999.2500  -999.2500     0.2735   -24.1025     6.4315     7.4007     7.9867    50.1285
  298.5000  -999.2500  -999.2500  -999.2500  -999.2500     0.2828   -24.2451     6.4805     7.4113     8.0477    49.7945
  299.0000  -999.2500  -999.2500  -999.2500  -999.2500     0.2846   -24.2352     6.4845     7.4733     8.1661    49.9372
  299.5000  -999.2500  -999.2500  -999.2500  -999.2500     0.2782   -24.2272     6.4885     7.5764     8.2872    51.1615
  300.0000  -999.2500  -999.2500  -999.2500  -999.2500     0.2830   -24.0707     6.5839     7.7431     8.5274    52.3806
  300.5000  -999.2500  -999.2500  -999.2500  -999.2500     0.2824   -23.7655     6.7843     8.0252     8.8360    52.4038
  301.0000  -999.2500  -999.2500  -999.2500  -999.2500     0.2793   -23.4604     7.0702     8.3175     9.2195    52.1821
  301.5000  -999.2500  -999.2500  -999.2500  -999.2500     0.2733   -23.1552     7.2750     8.7400     9.6197    51.4846
  302.0000  -999.2500  -999.2500  -999.2500  -999.2500     0.2675   -22.9866     7.4859     8.6835     9.9674    49.8064
  302.5000  -999.2500  -999.2500  -999.2500  -999.2500     0.2793   -22.8401     7.6491     8.6909    10.2558    49.3741
  303.0000  -999.2500  -999.2500  -999.2500  -999.2500     0.2826   -22.8322     7.7616     8.6968    10.4060    49.4002
  303.5000  -999.2500  -999.2500  -999.2500  -999.2500     0.2852   -22.9748     7.8756     8.6420    10.4119    50.3778
  304.0000  -999.2500  -999.2500  -999.2500  -999.2500     0.2943   -23.1154     7.9914     8.6494    10.3452    51.8338
  304.5000  -999.2500  -999.2500  -999.2500  -999.2500     0.2897   -23.0693     7.9963     8.6553    10.2004    51.8547
  305.0000  -999.2500  -999.2500  -999.2500  -999.2500     0.2843   -23.0281     8.0573     8.6612    10.0714    51.3921
  305.5000  -999.2500  -999.2500  -999.2500  -999.2500     0.2812   -22.9962     8.0680     8.7280    10.0069    51.1791
  306.0000  -999.2500  -999.2500  -999.2500  -999.2500     0.2782   -22.6831     8.1820     8.7340     9.9429    49.5259
  306.5000  -999.2500  -999.2500  -999.2500  -999.2500     0.2834   -22.5179     8.2444     8.7399     9.9499    50.0489
  307.0000  -999.2500  -999.2500  -999.2500  -999.2500     0.2842   -22.3917     8.2495     8.7459    10.0253    50.2906
  307.5000  -999.2500  -999.2500  -999.2500  -999.2500     0.2784   -22.3886     8.3124     8.8134    10.3153    50.3115
  308.0000  -999.2500  -999.2500  -999.2500  -999.2500     0.2742   -22.3855     8.4346     8.8194    10.7631    49.6150
  308.5000  -999.2500  -999.2500  -999.2500  -999.2500     0.2793   -22.3824     8.4990     8.8256    11.4010    47.7226
  309.0000  -999.2500  -999.2500  -999.2500  -999.2500     0.2796   -22.3792     8.5042     8.8329    11.8844    48.2219
  309.5000  -999.2500  -999.2500  -999.2500  -999.2500     0.2823   -22.5255     8.5094     8.7758    11.1663    48.9603
  310.0000  -999.2500  -999.2500  -999.2500  -999.2500     0.2819   -22.5216     8.3964     8.7832    10.3460    49.2204
  310.5000  -999.2500  -999.2500  -999.2500  -999.2500     0.2740   -22.5185     8.3374     8.7892    10.0651    48.2847
  311.0000  -999.2500  -999.2500  -999.2500  -999.2500     0.2744   -22.5154     8.1763     8.7324    10.0722    48.0665
  311.5000  -999.2500  -999.2500  -999.2500  -999.2500     0.2776   -22.5122     8.0677     8.6773    10.1485    49.0494
  312.0000  -999.2500  -999.2500  -999.2500  -999.2500     0.2857   -22.6577     8.0152     8.5639    10.0835    48.8259
  312.5000  -999.2500  -999.2500  -999.2500  -999.2500     0.2845   -22.8024     7.9089     8.5100     9.8762    48.8521
  313.0000  -999.2500  -999.2500  -999.2500  -999.2500     0.2842   -22.7993     7.8598     8.5159     9.5474    48.8730
  313.5000  -999.2500  -999.2500  -999.2500  -999.2500     0.2848   -22.9448     7.8646     8.5219     9.4202    48.4157
  314.0000  -999.2500  -999.2500  -999.2500  -999.2500     0.2929   -22.9417     7.8135     8.5288     9.5582    47.9530
  314.5000  -999.2500  -999.2500  -999.2500  -999.2500     0.3118   -23.0879     7.8195     8.5347     9.8347    47.7393
  315.0000  -999.2500  -999.2500  -999.2500  -999.2500     0.3180   -23.2334     7.7698     8.4794     9.9788    47.0435
  315.5000  -999.2500  -999.2500  -999.2500  -999.2500     0.3308   -23.5267     7.7204     8.4274     9.9844    46.8253
