~VERSION INFORMATION
 VERS.                2.0:   CWLS LOG ASCII STANDARD - VERSION 2.0
 WRAP.                 NO:   ONE LINE PER DEPTH STEP
~WELL INFORMATION
#MNEM.UNIT      DATA TYPE    INFORMATION
#----------   ------------   ------------------------------
 STRT.F          634.0000:   START DEPTH
 STOP.F         3464.0000:   STOP DEPTH
 STEP.F            0.5000:   STEP LENGTH
 NULL.          -999.2500:   NO VALUE
 COMP. LAWRENCE-ALLISON & ASSOCIATES W:   COMPANY
 WELL. LAWRENCE "TX" #44-27:   WELL
 FLD .   NAVAL RESERVE #3:   FIELD
 LOC .      S27 T39N R78W:   LOCATION
 CNTY.            NATRONA:   COUNTY
 STAT.            WYOMING:   STATE
 CTRY. UNITED STATES OF AMERICA:   COUNTRY
 SRVC.       SCHLUMBERGER:   SERVICE COMPANY
 DATE.        13-MAR-1982:   LOGDATE
 API .     49025108870000:   API NUMBER
~CURVE INFORMATION
#MNEM.UNIT       API CODE    CURVE DESCRIPTION
#----------   ------------   ------------------------------
 DEPT.F                  :   
 TENR.LBS    07 635 01 00:   TENSION FROM RESISTIVITY
 ILD .OHMM   07 120 46 00:   DEEP INDUCTION RESISTIVITY
 ILM .OHMM   07 120 44 00:   INDUCTION LOG MEDIUM RESISTIVITY
 SFLU.OHMM   07 220 01 00:   SPHERICALLY FOCUSED LOG UNAVERAGED RESISTIVITY
 SPR .MV     07 010 01 00:   SPONTANEOUS POTENTIAL
 TENN.LBS    42 635 01 00:   TENSION FROM COMPENSATE NEUTRON
 CALD.IN     45 280 60 00:   CALIPER FROM DENSITY LOG
 GRD .GAPI   45 310 01 00:   GAMMA RAY FROM DENSITY LOG
 RHOB.G/C3   45 350 01 00:   BULK DENSITY
 DRHO.G/C3   45 356 01 00:   DENSITY CORRECTION
 NPHI.DEC    42 890 03 00:   NEUTRON POROSITY SANDSTONE
~PARAMETER INFORMATION
#MNEM.UNIT          VALUE    DESCRIPTION
#----------   ------------   ------------------------------
 EKB .F         5049.0000:   Kelly bushing
 EGL .F         5039.0000:   Ground level
 EDF .F            0.0000:   Drilling floor
 EPD .F            0.0000:   Permanent datum
 TD  .F         3440.0000:   Total depth
 DATE.        13-MAR-1982:   Date logged
 CLNT.            A2DTECH:   Client Code
 PD  .                 GL:   Permanent Datum
 DD  .F              3440:   Depth driller
 DL  .F              3439:   Depth logger
 BLI .F              3433:   Bottom log interval
 CS1 .IN            9.625:   Casing size
 CBD1.      9.625" @ 650':   Casing driller 1
 CBL1.F               647:   Casing logger 1
 BS1 .IN            7.875:   Bit size
 DFT .                GEL:   Type fluid in hole
 DFD .                9.3:   Density
 DFV .                 48:   Viscosity
 DFPH.                 10:   pH
 DFL .                  8:   Fluid loss
 MSS .                PIT:   Source of sample
 RMS .OHMM           1.82:   Rm
 MST .F                67:   Rm Meas. temp.
 RMF .OHMM           1.32:   Rmf
 MFST.F                67:   Rmf Meas. temp.
 MFSS.               MEAS:   Source Rmf.
 RMB .OHMM           1.09:   Rm. at BHT
 BHT .F               112:   BHT.
 TCS .HRS            1300:   Time Circ. stopped
 MRT .F               112:   Maximum recorded temp.
 LUN .               8039:   Logging unit number
 LUL .               CSPR:   Logging unit location
 ENGI.   WAGNER/CONOSENTI:   Recorded By
 WITN.           JENNINGS:   Witnessed by
 ORIG.           5" PRINT:   Origin of data
 UWI .     49025108870000:   Unique Well ID
 DICO. A2D TECHNOLOGIES, INC.:   Digitizing Company
 DAPD.                 10:   Feet Above Permanent Datum
 BSD1.F              3440:   Depth drilled with bit1
 TLI .F               647:   Top log interval
 TLAB.HRS            1800:   Time logger at bottom
~OTHER INFORMATION
~A   DEPT     TENR        ILD        ILM       SFLU        SPR       TENN       CALD         GRD      RHOB       DRHO       NPHI   
# ...
 2311.5000  1178.5950     6.7570     6.0660     7.3880   -27.0910  1645.8390     9.6240   107.1540     2.4660     0.0000     0.2950
 2312.0000  1178.3160     6.5520     5.9870     7.4480   -27.1990  1645.1281     9.6240   104.1240     2.4680     0.0050     0.2940
 2312.5000  1178.0360     6.3680     5.9090     7.5140   -27.3080  1644.4160     9.6230   100.7410     2.4650     0.0100     0.2880
 2313.0000  1177.7570     6.3150     5.8300     7.4130   -27.4160  1643.7050     9.6230    97.4410     2.4570     0.0070     0.2890
 2313.5000  1177.4771     6.2670     5.7510     7.3010   -27.5250  1642.9930     9.6220    94.9260     2.4490     0.0040     0.2980
 2314.0000  1177.1970     6.2190     5.6730     7.1890   -27.6330  1642.2820     9.6220    93.1040     2.4410     0.0010     0.3020
 2314.5000  1176.9180     6.1380     5.5940     7.0190   -27.7390  1641.5699     9.6210    94.2860     2.4380     0.0030     0.3060
 2315.0000  1176.6379     6.1220     5.5150     6.7120   -27.8330  1640.8590     9.6200    95.3420     2.4480     0.0140     0.3100
 2315.5000  1176.3590     6.0990     5.3970     6.4060   -28.0310  1640.1470     9.6200    95.9940     2.4580     0.0250     0.3120
 2316.0000  1176.0790     6.0760     5.4310     6.2520   -28.2340  1639.4360     9.6190    96.6250     2.4660     0.0320     0.3110
 2316.5000  1175.8000     6.0520     5.4980     6.6820   -28.4390  1638.7240     9.6180    97.2990     2.4550     0.0290     0.3080
 2317.0000  1175.5200     6.0270     5.5990     7.0130   -28.6020  1638.0129     9.6180    96.4960     2.4450     0.0220     0.3080
 2317.5000  1175.2410     5.8910     5.5250     7.3770   -27.9640  1637.3020     9.6170    94.6460     2.4380     0.0150     0.3090
 2318.0000  1174.9611     5.7400     5.3780     7.2290   -27.3110  1636.2710     9.6170    91.0960     2.4440     0.0080     0.3070
 2318.5000  1174.6810     5.5890     5.2300     6.9330   -26.6550  1634.8380     9.6160    87.5950     2.4530     0.0040     0.2970
 2319.0000  1174.4020     5.4380     5.0820     6.6070   -26.4510  1633.4050     9.6150    86.0840     2.4620     0.0090     0.2880
 2319.5000  1174.1219     5.2870     4.9340     6.3320   -26.4950  1631.9720     9.6150    85.7940     2.4630     0.0140     0.2870
 2320.0000  1173.8430     5.1360     4.7870     6.0270   -26.5420  1630.5380     9.6140    86.5840     2.4590     0.0150     0.2890
 2320.5000  1173.5630     4.9930     4.6390     5.7220   -26.5900  1629.1050     9.6130    87.8850     2.4590     0.0160     0.2900
 2321.0000  1173.2841     4.8580     4.4910     5.4170   -26.6300  1627.6720     9.6130    91.5830     2.4610     0.0170     0.2940
 2321.5000  1173.0040     4.7230     4.3290     5.1120   -26.6900  1626.2390     9.6120    95.2510     2.4590     0.0180     0.3020
 2322.0000  1172.7250     4.5740     4.0960     4.8070   -26.7490  1624.8060     9.6120    96.9790     2.4630     0.0180     0.3060
 2322.5000  1172.4449     4.5320     4.2740     4.5320   -26.8090  1623.3730     9.6110    96.9450     2.4730     0.0180     0.3090
 2323.0000  1172.1650     4.7700     4.5280     4.5740   -26.8620  1621.9399     9.6100    95.1150     2.4830     0.0180     0.3130
 2323.5000  1171.8860     4.9860     4.7820     5.2020   -27.0840  1620.5060     9.6100    93.3040     2.4880     0.0130     0.3060
 2324.0000  1171.6060     5.2030     5.0610     6.3870   -27.3040  1619.0730     9.6090    92.2420     2.4830     0.0070     0.2990
 2324.5000  1171.3270     5.3970     5.0610     7.7040   -27.5230  1617.6400     9.6090    92.0570     2.4770     0.0020     0.2920
 2325.0000  1171.0470     5.3720     5.0610     8.6250   -27.7420  1616.2070     9.6080    90.6400     2.4700     0.0010     0.2820
 2325.5000  1170.7679     5.3480     5.0610     8.1500   -27.9620  1614.7740     9.6070    87.8780     2.4740     0.0010     0.2720
 2326.0000  1170.4880     5.2500     5.0610     7.3500   -28.1890  1613.3409     9.6070    85.1400     2.4790     0.0080     0.2630
 2326.5000  1170.2090     5.0030     4.7690     6.5500   -28.0490  1611.9080     9.6060    83.4970     2.4830     0.0150     0.2570
 2327.0000  1169.9290     4.7790     4.5040     5.6980   -27.8330  1610.4740     9.6050    85.4760     2.4840     0.0230     0.2630
 2327.5000  1169.6490     4.5540     4.2390     4.8230   -27.6130  1609.0410     9.6050    88.1470     2.4770     0.0300     0.2690
 2328.0000  1169.3700     4.3300     3.9740     4.0460   -27.3930  1607.6080     9.6040    90.8160     2.4710     0.0350     0.2810
 2328.5000  1169.0900     4.1720     3.8060     3.7710   -27.1740  1606.1750     9.6030    93.5080     2.4650     0.0320     0.2990
 2329.0000  1168.8110     4.1900     3.8370     3.8910   -26.9540  1604.7419     9.6010    94.4160     2.4680     0.0280     0.3170
 2329.5000  1168.5310     4.2060     3.8820     4.3250   -26.6920  1603.3090     9.5990    94.4550     2.4740     0.0200     0.3320
 2330.0000  1168.2520     4.2210     3.9270     5.2140   -26.3570  1601.8760     9.5970    95.4850     2.4760     0.0120     0.3040
 2330.5000  1167.9720     4.2370     3.9720     6.1020   -26.0220  1600.4430     9.5950    96.6030     2.4630     0.0080     0.3090
 2331.0000  1167.6650     4.2530     4.0220     6.6680   -25.6900  1599.0090     9.5920    99.6290     2.4530     0.0050     0.3080
 2331.5000  1168.6730     4.2690     4.0420     6.2620   -25.3790  1597.5760     9.5900   100.9940     2.4460     0.0060     0.2960
 2332.0000  1169.7930     4.2840     4.0700     5.4610   -25.2450  1600.5310     9.5880    98.9740     2.4460     0.0130     0.2980
 2332.5000  1170.9139     4.2980     4.0980     4.7450   -25.1050  1604.9250     9.5860    96.5800     2.4550     0.0200     0.3010
 2333.0000  1172.0341     4.3160     4.1260     4.9140   -25.2290  1609.3199     9.5840    97.8220     2.4630     0.0210     0.3050
 2333.5000  1173.1550     4.3290     4.2620     5.1080   -25.8470  1613.7140     9.5820   100.4720     2.4650     0.0180     0.3080
 2334.0000  1174.2750     4.5460     4.4440     4.9630   -26.4560  1618.1080     9.5800   103.1160     2.4530     0.0110     0.3110
 2334.5000  1175.3960     4.7440     4.6260     4.7020   -27.0670  1622.5020     9.5780   105.8340     2.4440     0.0060     0.3260
 2335.0000  1176.5160     4.9420     4.8090     5.3370   -27.6870  1626.8970     9.5750   106.4460     2.4490     0.0070     0.3270
 2335.5000  1177.6360     5.1400     4.9910     5.9710   -27.8850  1631.2910     9.5730   105.5650     2.4600     0.0150     0.3270
 2336.0000  1178.7570     5.3380     5.1550     7.6710   -27.9720  1635.6851     9.5710   104.5800     2.4660     0.0230     0.3260
 2336.5000  1179.8770     5.5060     5.1720     8.3530   -28.0600  1640.0790     9.5690   103.3480     2.4630     0.0310     0.3170
 2337.0000  1180.9980     5.5220     5.1880     8.5460   -28.1600  1644.4740     9.5670   101.0610     2.4610     0.0270     0.3090
 2337.5000  1182.1180     5.5380     5.2030     7.7130   -28.2610  1648.8680     9.5640    98.9800     2.4630     0.0220     0.3040
 2338.0000  1183.2380     5.5550     5.2190     6.7870   -28.3620  1653.2620     9.5950    97.2240     2.4770     0.0180     0.2980
 2338.5000  1184.3590     5.5710     5.2350     6.1380   -28.4210  1656.4470     9.6290    96.4470     2.4900     0.0180     0.2960
 2339.0000  1185.4790     5.5880     5.2500     6.1270   -28.0480  1655.0031     9.6850    95.6380     2.5030     0.0240     0.2930
 2339.5000  1186.6000     5.5990     5.2660     6.1150   -27.6480  1653.5601     9.7050    94.1730     2.5170     0.0290     0.2880
 2340.0000  1187.7200     5.5990     5.2810     6.1030   -27.2460  1652.1160     9.7040    92.3760     2.5130     0.0250     0.2910
 2340.5000  1188.8409     5.5990     5.2990     6.0910   -26.8000  1650.6730     9.7050    90.5740     2.5060     0.0190     0.2980
 2341.0000  1189.9611     5.5990     5.2920     6.0820   -26.4960  1649.2290     9.7050    88.7820     2.4990     0.0130     0.3040
 2341.5000  1191.0811     5.5990     5.2840     6.5430   -26.3170  1647.7860     9.7050    87.4350     2.4920     0.0140     0.3080
