~VERSION INFORMATION
 VERS.                2.0:   CWLS LOG ASCII STANDARD - VERSION 2.0
 WRAP.                 NO:   ONE LINE PER DEPTH STEP
~WELL INFORMATION
#MNEM.UNIT      DATA TYPE    INFORMATION
#----------   ------------   ------------------------------
 STRT.F          200.0000:   START DEPTH
 STOP.F         3120.0000:   STOP DEPTH
 STEP.F            0.5000:   STEP LENGTH
 NULL.          -999.2500:   NO VALUE
 COMP.    FENIX & SCISSON:   COMPANY
 WELL. FENIX NPR 3 "AX" #83-28:   WELL
 FLD .                NPR:   FIELD
 LOC .      S28 T39N R78W:   LOCATION
 CNTY.            NATRONA:   COUNTY
 STAT.            WYOMING:   STATE
 CTRY. UNITED STATES OF AMERICA:   COUNTRY
 SRVC.              WELEX:   SERVICE COMPANY
 DATE.        29-SEP-1977:   LOGDATE
 API .     49025104240000:   API NUMBER
~CURVE INFORMATION
#MNEM.UNIT       API CODE    CURVE DESCRIPTION
#----------   ------------   ------------------------------
 DEPT.F                  :   
 CALD.IN     45 280 60 00:   CALIPER FROM DENSITY LOG
 GRD .GAPI   45 310 01 00:   GAMMA RAY FROM DENSITY LOG
 RHOB.G/C3   45 350 01 00:   BULK DENSITY
 CORR.G/C3   45 356 01 00:   DENSITY CORRECTION
 SPR .MV     07 010 01 00:   SPONTANEOUS POTENTIAL
 SGRD.MV     07 220 05 00:   SHLLOW GUARD
 ILD .OHMM   07 120 46 00:   DEEP INDUCTION RESISTIVITY
 ILM .OHMM   07 120 44 00:   INDUCTION LOG MEDIUM RESISTIVITY
~PARAMETER INFORMATION
#MNEM.UNIT          VALUE    DESCRIPTION
#----------   ------------   ------------------------------
 EKB .F         5034.0000:   Kelly bushing
 EGL .F         5024.0000:   Ground level
 TD  .F         3110.0000:   Total depth
 DATE.        29-SEP-1977:   Date logged
 CLNT.            A2DTECH:   Client Code
 SL  . 1650' FNL & 330' FEL:   Surface Location
 PD  .                 GL:   Permanent Datum
 EPD .F              5024:   Elevation Permanent Datum
 LMF .                 KB:   Log Measured From
 DMF .                 KB:   Drilling Measured From
 DAPD.F                10:   Feet Above Permanent Datum
 DD  .F              3110:   Depth driller
 DL  .F              3110:   Depth logger
 BLI .F              3108:   Bottom log interval
 TLI .F               210:   Top log interval
 CS1 .IN            8.625:   Casing size
 CBD1.      8.625" @ 201':   Casing driller 1
 CBL1.F               210:   Casing logger 1
 BS1 .IN            7.875:   Bit size
 BSD1.F              3110:   Depth drilled with bit1
 DFT .          KCL/WATER:   Type fluid in hole
 DFD .                  9:   Density
 DFV .                 40:   Viscosity
 DFPH.                 11:   pH
 DFL .                6.4:   Fluid loss
 MSS .            MUD/PIT:   Source of sample
 RMS .OHMM            .56:   Rm
 MST .F                60:   Rm Meas. temp.
 RMF .OHMM            .34:   Rmf
 MFST.F                60:   Rmf Meas. temp.
 RMC .OHMM            .61:   Rmc
 MCST.F                60:   Rmc Meas. temp.
 MFSS.               MEAS:   Source Rmf.
 MCSS.               MEAS:   Source Rmc.
 RMB .OHMM            .28:   Rm. at BHT
 BHT .F               120:   BHT.
 TCS .HRS               3:   Time Circ. stopped
 MRT .F               120:   Maximum recorded temp.
 LUN .               9685:   Logging unit number
 LUL .             CASPER:   Logging unit location
 ENGI. G. BENTSEN/T. JOYNER:   Recorded By
 WITN.         PETTINGILL:   Witnessed by
 ORIG.   1" 2.5" 5" PRINT:   Origin of data
 UWI .     49025104240000:   Unique Well ID
 DICO. A2D TECHNOLOGIES, INC.:   Digitizing Company
~OTHER INFORMATION
~A   DEPT     CALD         GRD      RHOB       CORR        SPR       SGRD        ILD        ILM   
# ...
 1536.5000     9.9177    97.3743     2.5123     0.0361   -67.7624     7.2326     7.0357     7.9013
 1537.0000     9.9178    97.3759     2.5083     0.0361   -67.7566     7.2345     7.0375     7.9008
 1537.5000     9.8583    96.5859     2.5024     0.0282   -67.7508     7.3032     7.0393     7.9002
 1538.0000     9.8585    94.2102     2.5004     0.0282   -67.7450     7.3051     7.0410     7.8997
 1538.5000     9.8586    95.0051     2.4984     0.0282   -67.7381     7.3745     7.0428     7.8992
 1539.0000     9.8191    95.0068     2.4984     0.0282   -67.7323     7.3764     7.0446     7.8986
 1539.5000     9.8174    95.8017     2.4984     0.0282   -67.7265     7.3786     7.0467     7.8981
 1540.0000     9.8157    94.2186     2.4984     0.0282   -67.7207     7.3805     7.0485     7.8976
 1540.5000     9.8141    92.6364     2.5004     0.0361   -67.7149     7.3823     7.0503     7.8970
 1541.0000     9.8124    93.4305     2.5084     0.0361   -67.7090     7.3165     7.0521     7.8965
 1541.5000     9.8107    94.2254     2.5143     0.0401   -67.7021     7.3861     7.0539     7.8960
 1542.0000     9.8091    94.2271     2.5183     0.0441   -67.6963     7.3202     7.0557     7.8954
 1542.5000     9.8074    92.6450     2.5183     0.0441   -67.6905     7.3224     7.0578     7.8949
 1543.0000     9.8058    91.8544     2.5222     0.0441   -67.6847     7.3242     7.0596     7.8944
 1543.5000     9.8041    96.6107     2.5223     0.0441   -67.6789     7.3261     7.0614     7.8938
 1544.0000     9.8024    97.4046     2.5262     0.0441   -67.6731     7.3279     7.0632     7.8933
 1544.5000     9.8008    98.1993     2.5282     0.0441   -67.8638     7.3298     7.0649     7.8928
 1545.0000     9.7991    98.2009     2.5302     0.0441   -67.8603     7.3316     7.0667     7.8923
 1545.5000     9.7974    97.4111     2.5322     0.0441   -67.8557     7.4017     7.0689     7.8943
 1546.0000     9.7958    97.4127     2.5362     0.0441   -67.8487     7.4720     7.0707     7.8955
 1546.5000     9.7941    97.4152     2.5381     0.0441   -67.8441     7.5430     7.0724     8.0454
 1547.0000     9.7925    95.0403     2.5421     0.0520   -68.0394     7.5449     7.0742     8.0474
 1547.5000     9.7908    96.6271     2.5461     0.0520   -68.2301     7.4776     7.0760     8.0494
 1548.0000     9.7891    94.2524     2.5540     0.0520   -68.2255     7.4799     7.0782     8.0519
 1548.5000     9.7875    91.8785     2.5481     0.0560   -68.4197     7.5510     7.0800     8.0539
 1549.0000     9.7858    91.8802     2.5461     0.0521   -68.6127     7.5536     6.9526     8.0559
 1549.5000     9.7842    91.8828     2.5441     0.0481   -68.6069     7.5544     6.9536     8.0579
 1550.0000     9.7822    92.6766     2.5362     0.0481   -68.6034     7.5559     6.9557     8.0599
 1550.5000     9.7823    92.6792     2.5362     0.0441   -68.3016     7.5585     7.0035     8.0623
 1551.0000     9.7824    91.8889     2.5342     0.0441   -68.1939     7.5612     7.0243     8.0648
 1551.5000     9.7825    91.8915     2.5322     0.0402   -67.9886     7.5646     7.0262     8.0671
 1552.0000     9.6838    92.6852     2.5303     0.0442   -67.9855     7.4274     7.0285     8.0693
 1552.5000     9.6840    96.6478     2.5283     0.0402   -67.9817     7.3614     7.0305     8.0720
 1553.0000     9.6841    95.0654     2.5243     0.0402   -67.9741     7.3631     7.0328     8.0743
 1553.5000     9.7238    96.6519     2.5243     0.0402   -67.9726     7.3647     7.0348     8.0766
 1554.0000     9.6843    94.2777     2.5283     0.0402   -67.9688     7.3680     7.0367     8.0788
 1554.5000     9.7240    94.2802     2.5303     0.0442   -67.9650     7.3704     7.0390     8.0816
 1555.0000     9.7242    96.6577     2.5343     0.0481   -67.9604     7.3725     7.0410     8.0838
 1555.5000     9.7639    96.6601     2.5343     0.0521   -67.9566     7.3737     7.0429     8.0861
 1556.0000     9.7640    94.2861     2.5283     0.0482   -67.9536     7.3762     7.0449     8.0884
 1556.5000     9.7641    93.4967     2.5263     0.0482   -67.9498     7.4473     7.0472     8.0911
 1557.0000     9.7643    93.4984     2.5244     0.0442   -67.9452     7.4494     7.0492     8.0934
 1557.5000     9.7644    93.5010     2.5264     0.0442   -67.9407     7.4515     7.0511     8.0956
 1558.0000     9.8833    93.5027     2.5264     0.0442   -67.9376     7.4527     7.0531     8.0979
 1558.5000     9.8834    93.5052     2.5264     0.0442   -67.9331     7.4560     7.0554     8.1006
 1559.0000     9.8836    96.6741     2.5264     0.0442   -67.9293     7.4581     7.0574     8.1029
 1559.5000     9.8836    96.6766     2.5244     0.0482   -67.9247     7.4602     7.0593     8.1052
 1560.0000     9.9234    96.6782     2.5224     0.0522   -67.9202     7.4622     7.0613     8.1075
 1560.5000     9.9235    95.0972     2.5224     0.0522   -67.9164     7.4639     7.0636     8.1102
 1561.0000     9.9236    94.3072     2.5244     0.0601   -67.9126     7.4664     7.0656     8.1125
 1561.5000     9.9237    96.6848     2.5264     0.0601   -67.9080     7.4685     7.0675     8.1148
 1562.0000     9.9635    97.4782     2.5264     0.0601   -67.9042     7.4710     7.0695     8.1170
 1562.5000     9.9635    97.4806     2.5224     0.0522   -67.9004     7.6124     7.0719     8.1198
 1563.0000     9.9637    97.4823     2.5165     0.0482   -67.8966     7.6846     7.0738     8.1220
 1563.5000     9.9638    97.4847     2.5106     0.0443   -67.8920     7.7579     7.0758     8.1243
 1564.0000     9.9243    97.4864     2.5046     0.0403   -67.8882     7.7596     7.0777     8.1266
 1564.5000     9.9245    97.4888     2.5066     0.0403   -67.8844     7.7622     7.0801     8.1294
 1565.0000     9.9246    98.2821     2.5086     0.0403   -67.8806     7.7648     7.0820     8.1316
 1565.5000     9.9247    97.4920     2.5185     0.0403   -67.8761     7.7666     7.0840     8.1339
 1566.0000     9.9248    97.4945     2.5264     0.0443   -67.8723     7.7701     7.0860     8.3652
 1566.5000     9.9249    97.4961     2.5304     0.0443   -67.8685     7.7718     7.0883     8.3666
 1567.0000     9.9251    97.4986     2.5324     0.0403   -67.8647     7.7735     7.0903     8.2922
 1567.5000     9.9252    97.5002     2.5264     0.0364   -67.8601     7.7757     7.0923     8.2945
 1568.0000     9.8857    96.7112     2.5245     0.0324   -67.8563     7.7774     7.0942     8.3746
 1568.5000     9.9254    96.7128     2.5225     0.0285   -68.2525     7.7809     7.0966     8.3770
 1569.0000     9.9256    97.5068     2.5166     0.0324   -68.4502     7.7121     7.0985     8.3025
 1569.5000     9.9257    97.5084     2.5225     0.0364   -68.6441     7.6435     7.1005     8.2286
 1570.0000     9.8862    98.3023     2.5284     0.0522   -68.6403     7.5747     7.1025     8.0069
 1570.5000     9.9259    98.3039     2.5324     0.0523   -68.6373     7.3714     7.1048     7.8625
 1571.0000     9.8865    98.3064     2.5364     0.0562   -68.6335     7.3735     7.1068     7.8651
 1571.5000     9.9261    98.3080     2.5423     0.0562   -68.6282     7.3755     7.1088     7.8660
 1572.0000     9.9263    98.3104     2.5423     0.0523   -68.2259     7.3772     7.1108     7.8709
 1572.5000     9.8868    98.3120     2.5503     0.0523   -68.2229     7.3788     7.1131     7.8722
 1573.0000     9.8870    97.5231     2.5503     0.0523   -68.2188     7.3808     7.1151     7.8744
 1573.5000     9.8870    99.1074     2.5503     0.0523   -68.2147     7.3841     7.1171     7.8766
 1574.0000     9.7685    99.1098     2.5483     0.0483   -68.2106     7.3854     7.1194     7.8792
 1574.5000     9.7290    99.9028     2.5483     0.0444   -68.2065     7.3883     7.1874     8.0272
 1575.0000     9.6896    98.3226     2.5483     0.0444   -68.2024     7.3903     7.1894     8.0299
 1575.5000     9.6897    98.3242     2.5463     0.0483   -68.1983     7.3928     7.1914     8.0326
 1576.0000     9.6899    97.5353     2.5463     0.0444   -68.1942     7.3953     7.1938     8.0353
 1576.5000     9.6900    95.1632     2.5424     0.0444   -68.1902     7.3973     7.1958     7.8907
