~VERSION INFORMATION
 VERS.                2.0:   CWLS LOG ASCII STANDARD - VERSION 2.0
 WRAP.                 NO:   ONE LINE PER DEPTH STEP
~WELL INFORMATION
#MNEM.UNIT      DATA TYPE    INFORMATION
#----------   ------------   ------------------------------
 STRT.F           11.5000:   START DEPTH
 STOP.F         1726.0000:   STOP DEPTH
 STEP.F            0.5000:   STEP LENGTH
 NULL.          -999.2500:   NO VALUE
 COMP. LAWRENCE ALLISON & ASSOC WEST:   COMPANY
 WELL. LAWRENCE NPR 3 "X" #51-26:   WELL
 FLD .                NPR:   FIELD
 LOC .      S26 T38N R78W:   LOCATION
 CNTY.            NATRONA:   COUNTY
 STAT.            WYOMING:   STATE
 CTRY. UNITED STATES OF AMERICA:   COUNTRY
 SRVC.      DRESSER ATLAS:   SERVICE COMPANY
 DATE.        13-AUG-1983:   LOGDATE
 API .     49025109270000:   API NUMBER
~CURVE INFORMATION
#MNEM.UNIT       API CODE    CURVE DESCRIPTION
#----------   ------------   ------------------------------
 DEPT.F                  :   
 CALD.IN     45 280 60 00:   CALIPER FROM DENSITY LOG
 RHOB.G/C3   45 350 01 00:   BULK DENSITY
 CORR.G/C3   45 356 01 00:   DENSITY CORRECTION
 TEND.LBS    45 635 01 00:   TENSION FROM DENSITY LOG
 GRR .GAPI   07 310 01 00:   GAMMA RAY FROM RESISTIVITY
 RILD.OHMM   07 120 46 00:   INDUCTION LOG DEEP RESISTIVITY
 RILM.OHMM   07 120 44 00:   INDUCTION LOG MEDIUM RESISTIVITY
 TENR.LBS    07 635 01 00:   TENSION
~PARAMETER INFORMATION
#MNEM.UNIT          VALUE    DESCRIPTION
#----------   ------------   ------------------------------
 EKB .F         5455.0000:   Kelly bushing
 EGL .F         5444.0000:   Ground level
 EDF .F            0.0000:   Drilling floor
 EPD .F         5444.0000:   Permanent datum
 TD  .F         1726.0000:   Total depth
 DATE.        13-AUG-1983:   Date logged
 CLNT.            A2DTECH:   Client Code
 PD  .                 GL:   Permanent Datum
 LMF .                 KB:   Log Measured From
 DMF .                 KB:   Drilling Measured From
 DAPD.F                11:   Feet Above Permanent Datum
 DD  .F              1726:   Depth driller
 DL  .F              1724:   Depth logger
 BLI .F              1718:   Bottom log interval
 CBD1.F                47:   Casing driller 1
 CBL1.F                48:   Casing logger 1
 BS1 .IN            12.25:   Bit size
 BSD1.F              1726:   Depth drilled with bit1
 DFT .           AIR/FOAM:   Type fluid in hole
 TCS .HRS               1:   Time Circ. stopped
 MRT .F                85:   Maximum recorded temp.
 LUN .               6270:   Logging unit number
 LUL .              WLSTN:   Logging unit location
 ENGI.            QUICKEL:   Recorded By
 WITN.           JENNINGS:   Witnessed by
 ORIG.           5" PRINT:   Origin of data
 UWI .     49025109270000:   Unique Well ID
 DICO. A2D TECHNOLOGIES, INC.:   Digitizing Company
~OTHER INFORMATION
~A   DEPT     CALD       RHOB       CORR       TEND         GRR      RILD       RILM       TENR   
# ...
  821.5000    13.1700     2.4760     0.1100   -74.7640   114.2380     6.0080     6.1010   -73.2420
  822.0000    13.1680     2.4670     0.0980   -73.9740   117.9490     6.0460     6.1770   -73.2250
  822.5000    13.1650     2.4650     0.0850   -73.1850   120.8680     6.0830     6.2530   -73.2090
  823.0000    13.1630     2.4630     0.0880   -72.3960   119.9140     6.1210     6.3630   -73.1930
  823.5000    13.1610     2.4600     0.0930   -71.6060   116.6870     6.2790     6.5400   -73.1770
  824.0000    13.1580     2.4560     0.0980   -70.8170   113.9840     6.4780     6.7170   -73.1600
  824.5000    13.1560     2.4530     0.0950   -70.0280   116.4720     6.6770     6.8950   -73.1440
  825.0000    13.1530     2.4530     0.0790   -69.2380   120.3270     6.8760     7.0720   -73.1280
  825.5000    13.1510     2.4550     0.0600   -68.4490   124.0630     7.0750     7.3760   -73.1120
  826.0000    13.1490     2.4650     0.0740   -67.6600   121.0510     7.2740     7.7100   -73.0960
  826.5000    13.1460     2.4800     0.0920   -66.8710   116.6390     7.4730     8.0450   -73.0790
  827.0000    13.1440     2.4940     0.0970   -63.5830   112.1530     7.6720     8.2980   -73.0630
  827.5000    13.1420     2.4930     0.0890   -59.9180   107.6040     7.8710     8.4710   -73.0470
  828.0000    13.1390     2.4780     0.0790   -56.2540   106.6730     8.0140     8.4330   -73.0310
  828.5000    13.1370     2.4600     0.0640   -52.5890   110.5650     7.9390     8.2970   -73.0140
  829.0000    13.1350     2.4420     0.0480   -54.7030   115.3090     7.8810     8.1620   -72.9980
  829.5000    13.1320     2.4380     0.0540   -58.6500   120.0000     7.8220     8.0270   -72.9820
  830.0000    13.1300     2.4430     0.0630   -62.5970   123.0070     7.7080     7.8910   -72.9660
  830.5000    13.1280     2.4480     0.0610   -66.5430   123.2370     7.5460     7.7560   -72.9500
  831.0000    13.1320     2.4530     0.0610   -70.4900   122.1420     7.3740     7.7230   -72.9330
  831.5000    13.1380     2.4600     0.0680   -69.2630   119.9660     7.4850     7.7390   -72.9170
  832.0000    13.1440     2.4670     0.0750   -63.9560   116.0970     7.6280     7.7820   -72.9010
  832.5000    13.1500     2.4700     0.0820   -58.6480   111.3520     7.7720     7.8250   -72.8850
  833.0000    13.1550     2.4720     0.0890   -53.3410   109.9530     7.9400     7.8670   -72.8680
  833.5000    13.1610     2.4820     0.0790   -48.0340   110.0260     7.7560     7.8420   -72.8520
  834.0000    13.1670     2.4950     0.0660   -42.7260   107.5600     7.4970     7.8120   -72.8360
  834.5000    13.1730     2.5100     0.0520   -45.2070   109.0530     7.3070     7.7810   -72.8200
  835.0000    13.1790     2.5060     0.0530   -49.6300   112.1310     7.3550     7.7510   -72.8040
  835.5000    13.1840     2.4980     0.0660   -54.0520   115.2060     7.3930     7.7230   -72.7870
  836.0000    13.1870     2.4900     0.0760   -58.4750   115.7360     7.4320     7.6250   -72.7710
  836.5000    13.1870     2.4830     0.0570   -62.8980   116.9460     7.4430     7.4840   -72.7550
  837.0000    13.1870     2.4920     0.0520   -66.8630   119.3880     7.2970     7.3430   -72.7390
  837.5000    13.1870     2.5040     0.0800   -67.6290   121.7990     7.1860     7.2550   -72.7220
  838.0000    13.1870     2.5180     0.1040   -68.3940   122.6700     7.0750     7.1590   -72.7060
  838.5000    13.1870     2.5080     0.0920   -69.1600   123.3750     6.9640     7.0620   -72.6900
  839.0000    13.1870     2.4950     0.0790   -69.9260   125.9420     6.8530     6.9660   -72.6740
  839.5000    13.1870     2.4950     0.0840   -70.6920   127.0750     6.7420     6.8700   -72.6580
  840.0000    13.1870     2.5030     0.0980   -71.4570   127.3020     6.6310     6.7740   -72.6410
  840.5000    13.1870     2.5000     0.1110   -72.2230   126.3170     6.5200     6.6780   -72.6250
  841.0000    13.1870     2.4960     0.1040   -72.9890   125.2910     6.4100     6.5820   -72.6090
  841.5000    13.1870     2.4910     0.1070   -73.7550   121.4460     6.2990     6.4860   -72.5930
  842.0000    13.1870     2.4840     0.1170   -74.5200   117.2680     6.1300     6.3900   -72.5760
  842.5000    13.1870     2.4780     0.1260   -75.2860   114.5030     6.1830     6.3030   -72.5600
  843.0000    13.1870     2.4710     0.1120   -76.0520   118.1570     6.2920     6.4920   -72.5440
  843.5000    13.1870     2.4640     0.0980   -76.8070   119.4990     6.4020     6.6810   -72.5280
  844.0000    13.1870     2.4710     0.0850   -71.0290   118.0690     6.5110     6.8710   -72.5120
  844.5000    13.1870     2.4810     0.0710   -65.3280   113.7410     6.5710     7.0600   -72.4950
  845.0000    13.1870     2.4900     0.0570   -59.6270   109.2210     6.6300     7.1070   -72.4790
  845.5000    13.1870     2.4870     0.0430   -57.7990   104.6750     6.6880     7.1070   -72.4630
  846.0000    13.1870     2.4780     0.0480   -59.9820   102.7440     6.7240     6.8830   -72.4470
  846.5000    13.1870     2.4700     0.0590   -62.1660   107.9730     6.7240     6.6530   -72.4300
  847.0000    13.1870     2.4650     0.0700   -64.3490   112.4830     6.5040     6.4230   -72.4140
  847.5000    13.1870     2.4660     0.0740   -66.5320   116.8740     6.2840     6.1930   -72.3980
  848.0000    13.1870     2.4650     0.0780   -68.7150   121.0570     6.0640     5.9620   -72.3820
  848.5000    13.1870     2.4600     0.0810   -70.8980   124.3210     5.8450     5.7320   -72.3660
  849.0000    13.1870     2.4540     0.0850   -73.0820   125.1730     5.6250     5.5020   -72.3490
  849.5000    13.1870     2.4490     0.0840   -75.2650   125.7020     5.4050     5.3290   -72.3330
  850.0000    13.1870     2.4430     0.0780   -76.2520   123.1050     5.3100     5.2980   -72.3170
  850.5000    13.1870     2.4380     0.0720   -74.3590   119.9860     5.2540     5.2680   -72.3010
  851.0000    13.1870     2.4400     0.0660   -72.4660   118.5940     5.1970     5.2370   -72.2840
  851.5000    13.1870     2.4440     0.0680   -70.5730   117.5690     5.1410     5.2070   -72.2680
  852.0000    13.1870     2.4490     0.0730   -68.6800   117.3490     5.0850     5.1760   -72.2520
  852.5000    13.1870     2.4530     0.0770   -66.7870   117.7450     5.0490     5.1460   -72.2360
  853.0000    13.1870     2.4530     0.0800   -64.8940   118.1450     5.0520     5.1150   -72.2200
  853.5000    13.1870     2.4540     0.0840   -63.0010   118.6390     5.0550     5.0970   -72.2030
  854.0000    13.1870     2.4560     0.0870   -61.1080   119.5460     5.0580     5.1100   -72.1870
  854.5000    13.1870     2.4620     0.0840   -59.2160   120.4160     5.0600     5.1190   -72.1710
  855.0000    13.1870     2.4690     0.0810   -57.3230   119.9700     5.0630     5.1290   -72.1550
  855.5000    13.1870     2.4740     0.0800   -55.4300   119.4600     5.0660     5.1390   -72.1380
  856.0000    13.1870     2.4710     0.0810   -53.5370   118.8110     5.0680     5.1480   -72.1220
  856.5000    13.1870     2.4610     0.0790   -51.6440   117.6190     5.0710     5.1580   -72.1060
  857.0000    13.1870     2.4500     0.0730   -49.7510   116.7920     5.0740     5.1680   -72.0900
  857.5000    13.1870     2.4470     0.0700   -47.8580   117.6720     5.0760     5.1770   -72.0740
  858.0000    13.1870     2.4510     0.0790   -46.9540   121.7720     5.0790     5.1870   -72.0570
  858.5000    13.1870     2.4540     0.1100   -47.6540   123.5690     5.0820     5.1970   -72.0410
  859.0000    13.1870     2.4370     0.1300   -48.3540   122.3620     5.0840     5.2060   -72.0250
  859.5000    13.1870     2.4190     0.0980   -49.0540   119.8340     5.0870     5.2160   -72.0090
  860.0000    13.1870     2.4040     0.0720   -49.7540   118.9280     5.0900     5.2250   -71.9930
  860.5000    13.1870     2.4140     0.0460   -50.4540   121.3870     5.0930     5.2350   -71.9760
  861.0000    13.1870     2.4300     0.0290   -51.1540   124.2200     5.0930     5.3110   -71.9780
  861.5000    13.1870     2.4450     0.0430   -51.8540   126.8790     5.1500     5.4400   -72.0100
