~VERSION INFORMATION
 VERS.                2.0:   CWLS LOG ASCII STANDARD - VERSION 2.0
 WRAP.                 NO:   ONE LINE PER DEPTH STEP
~WELL INFORMATION
#MNEM.UNIT      DATA TYPE    INFORMATION
#----------   ------------   ------------------------------
 STRT.F          200.0000:   START DEPTH
 STOP.F         3060.0000:   STOP DEPTH
 STEP.F            0.5000:   STEP LENGTH
 NULL.          -999.2500:   NO VALUE
 COMP.    FENIX & SCISSON:   COMPANY
 WELL. FENIX & SCISSON NPR "AX" #81-10:   WELL
 FLD .                NPR:   FIELD
 LOC .      S10 T38N R78W:   LOCATION
 CNTY.            NATRONA:   COUNTY
 STAT.            WYOMING:   STATE
 CTRY. UNITED STATES OF AMERICA:   COUNTRY
 SRVC.              WELEX:   SERVICE COMPANY
 DATE.        28-NOV-1977:   LOGDATE
 API .     49025104400000:   API NUMBER
~CURVE INFORMATION
#MNEM.UNIT       API CODE    CURVE DESCRIPTION
#----------   ------------   ------------------------------
 DEPT.F                  :   
 CALD.IN     45 280 60 00:   CALIPER FROM DENSITY LOG
 GRD .GAPI   45 310 01 00:   GAMMA RAY FROM DENSITY LOG
 RHOB.G/C3   45 350 01 00:   BULK DENSITY
 CORR.G/C3   45 356 01 00:   DENSITY CORRECTION
 TEND.LBS    45 635 01 00:   TENSION FROM DENSITY LOG
 NPHI.DEC    42 890 03 00:   NEUTRON POROSITY SANDSTONE
 SPR .MV     07 010 01 00:   SPONTANEOUS POTENTIAL
 IL  .OHMM   07 120 00 00:   INDUCTION LOG RES.
 ASGR.OHMM   07 221 05 00:   AMPLIFIED SHALLOW GUARD
 SNP .DEC    41 890 00 00:   SIDEWALL NEUTRON POROSITY
~PARAMETER INFORMATION
#MNEM.UNIT          VALUE    DESCRIPTION
#----------   ------------   ------------------------------
 EKB .F         5147.0000:   Kelly bushing
 EGL .F         5137.0000:   Ground level
 EDF .F            0.0000:   Drilling floor
 TD  .F         3058.0000:   Total depth
 DATE.        28-NOV-1977:   Date logged
 CLNT.            A2DTECH:   Client Code
 PD  .                 GL:   Permanent Datum
 EPD .F              5137:   Elevation Permanent Datum
 LMF .                 KB:   Log Measured From
 DMF .                 KB:   Drilling Measured From
 DD  .F              3055:   Depth driller
 DL  .F              3058:   Depth logger
 BLI .F              3055:   Bottom log interval
 TLI .F               200:   Top log interval
 CS1 .IN            8.625:   Casing size
 CBD1.      8.625" @ 205':   Casing driller 1
 CBL1.F               215:   Casing logger 1
 BSD1.F              3055:   Depth drilled with bit1
 DFT .            KCL/MUD:   Type fluid in hole
 ENGI.            BENTSEN:   Recorded By
 WITN.         HARRINGTON:   Witnessed by
 ORIG.           5" PRINT:   Origin of data
 UWI .     49025104400000:   Unique Well ID
 DICO. A2D TECHNOLOGIES, INC.:   Digitizing Company
 DAPD.                 10:   Feet Above Permanent Datum
 BS1 .IN            7.875:   Bit size
 DFD .                8.9:   Density
 DFV .                 35:   Viscosity
 MSS .           FLOWLINE:   Source of sample
 RMS .OHMM            .17:   Rm
 MST .F                75:   Rm Meas. temp.
 RMF .OHMM            .12:   Rmf
 MFST.F                75:   Rmf Meas. temp.
 MFSS.               FANN:   Source Rmf.
 RMC .OHMM            .50:   Rmc
 MCST.F                75:   Rmc Meas. temp.
 MCSS.                KIT:   Source Rmc.
 RMB .OHMM           .113:   Rm. at BHT
 BHT .F               113:   BHT.
 TCS .HRS             2.5:   Time Circ. stopped
 MRT .F               113:   Maximum recorded temp.
 LUN .               9685:   Logging unit number
 LUL .             CASPER:   Logging unit location
 SL  . 601' FNL & 200' FEL:   Surface Location
~OTHER INFORMATION
~A   DEPT       CALD      GRD       RHOB       CORR        TEND        NPHI       SPR        IL       ASGR        SNP   
# ...
  568.5000     9.2110   110.1290     2.4710     0.0050   953.6210     0.1410   -81.8580     6.8870     7.3910     0.2360
  569.0000     9.2100   110.4640     2.4830     0.0090   953.6570     0.1420   -82.1130     6.7130     7.3120     0.2370
  569.5000     9.2080   110.8000     2.4950     0.0130   953.6940     0.1410   -82.3660     6.5370     7.4200     0.2390
  570.0000     9.2070   111.1360     2.5060     0.0170   953.7300     0.1400   -82.6180     6.3600     7.5420     0.2380
  570.5000     9.2060   111.4730     2.5170     0.0210   953.7670     0.1400   -82.8700     6.1830     7.6160     0.2310
  571.0000     9.2050   111.8090     2.5210     0.0260   953.8030     0.1440   -83.1220     6.0060     7.6080     0.2320
  571.5000     9.2040   112.1450     2.5140     0.0270   953.8400     0.1460   -83.3740     5.8290     7.5480     0.2350
  572.0000     9.2030   112.4810     2.5040     0.0210   953.8770     0.1470   -83.6260     5.6530     7.5100     0.2390
  572.5000     9.2020   112.8170     2.4950     0.0110   953.9130     0.1480   -83.8780     5.4770     7.1030     0.2440
  573.0000     9.2010   113.1530     2.4860     0.0090   953.9500     0.1500   -83.9560     5.3920     7.2600     0.2500
  573.5000     9.1990   113.4990     2.4770     0.0080   953.9860     0.1510   -83.8870     5.4230     7.3650     0.2550
  574.0000     9.1980   113.5090     2.4690     0.0070   954.0230     0.1520   -83.8140     5.4530     7.1810     0.2610
  574.5000     9.1970   113.3560     2.4680     0.0070   954.0590     0.1520   -83.8530     5.4840     7.1260     0.2630
  575.0000     9.1960   113.2000     2.4670     0.0070   954.0960     0.1510   -83.9270     5.5150     7.1280     0.2570
  575.5000     9.1950   113.0410     2.4670     0.0070   954.1320     0.1490   -84.0030     5.5460     7.0820     0.2470
  576.0000     9.1940   113.0740     2.4720     0.0070   954.1690     0.1440   -84.0790     5.5770     7.0780     0.2360
  576.5000     9.1930   113.3650     2.4790     0.0070   954.2060     0.1370   -84.1550     5.6080     6.9110     0.2230
  577.0000     9.1920   113.6480     2.4850     0.0060   954.2420     0.1310   -84.2300     5.6390     6.8210     0.2090
  577.5000     9.1900   113.9260     2.4910     0.0080   954.2790     0.1270   -84.3070     5.6710     6.8570     0.2010
  578.0000     9.1890   114.1760     2.4970     0.0110   954.3150     0.1280   -84.3850     5.7010     7.0940     0.2050
  578.5000     9.1880   113.5040     2.5040     0.0140   954.3520     0.1310   -84.3230     5.7320     6.9360     0.2090
  579.0000     9.1870   112.1520     2.5100     0.0170   954.3880     0.1320   -84.2420     5.7670     7.0540     0.2130
  579.5000     9.1860   110.8030     2.5160     0.0190   954.4250     0.1340   -84.1590     5.8680     7.0660     0.2170
  580.0000     9.1850   109.4530     2.5230     0.0220   954.4610     0.1360   -84.0770     6.1980     6.9090     0.2200
  580.5000     9.1840   108.2480     2.5290     0.0250   954.4980     0.1370   -83.9950     6.5170     6.9730     0.2200
  581.0000     9.1830   108.0680     2.5350     0.0280   954.5340     0.1360   -83.9130     6.6680     7.1620     0.2200
  581.5000     9.1810   107.8660     2.5420     0.0300   954.5710     0.1360   -83.8310     6.6400     7.3130     0.2220
  582.0000     9.1800   108.8670     2.5430     0.0330   954.6080     0.1390   -83.7480     6.6130     7.3870     0.2330
  582.5000     9.1790   110.3430     2.5410     0.0360   954.6440     0.1440   -83.6670     6.5840     7.1260     0.2440
  583.0000     9.1780   109.9400     2.5330     0.0390   954.6810     0.1490   -83.5970     6.5560     7.2520     0.2500
  583.5000     9.1770   109.3650     2.5250     0.0390   954.7170     0.1510   -83.6220     6.5280     7.0930     0.2590
  584.0000     9.1760   109.6980     2.5170     0.0330   954.7540     0.1490   -83.6460     6.5000     7.1800     0.2560
  584.5000     9.1830   110.3540     2.5090     0.0270   954.7900     0.1470   -83.6700     6.4790     7.0880     0.2500
  585.0000     9.1930   110.9800     2.5010     0.0210   954.8270     0.1460   -83.6940     6.3640     7.1030     0.2450
  585.5000     9.2030   110.8150     2.4930     0.0150   954.8630     0.1430   -83.7180     6.2450     7.0470     0.2400
  586.0000     9.2130   110.4160     2.4860     0.0090   954.9000     0.1390   -83.7420     6.1260     7.1270     0.2370
  586.5000     9.2230   110.0200     2.4780     0.0030   954.9370     0.1390   -83.7660     6.0020     7.0510     0.2340
  587.0000     9.2330   109.6230     2.4710    -0.0010   954.9730     0.1390   -83.7910     6.1020     7.1460     0.2320
  587.5000     9.2430   109.2460     2.4630     0.0010   955.0100     0.1390   -83.7760     6.2570     7.3950     0.2330
  588.0000     9.2530   109.5730     2.4560     0.0020   955.0460     0.1390   -83.7470     6.4160     7.5210     0.2380
  588.5000     9.2630   110.2660     2.4490     0.0040   955.0830     0.1430   -83.7170     6.5780     7.6140     0.2450
  589.0000     9.2730   110.6110     2.4520     0.0060   955.1190     0.1470   -83.6870     6.4950     7.4330     0.2520
  589.5000     9.2830   110.6160     2.4610     0.0070   955.1560     0.1500   -83.6580     6.3750     7.5160     0.2570
  590.0000     9.2930   110.4400     2.4700     0.0090   955.1920     0.1490   -83.6280     6.2540     7.4700     0.2560
  590.5000     9.3030   110.1930     2.4800     0.0100   955.2290     0.1480   -83.5980     6.1340     7.3650     0.2590
  591.0000     9.3140   109.9450     2.4800     0.0120   955.2660     0.1480   -83.5690     6.0120     7.3980     0.2780
  591.5000     9.3240   109.6970     2.4790     0.0140   955.3020     0.1510   -83.5390     5.8910     7.3160     0.2980
  592.0000     9.3340   109.4490     2.4780     0.0150   955.3390     0.1510   -83.5090     5.7890     7.3100     0.3060
  592.5000     9.3440   109.2010     2.4830     0.0170   955.3750     0.1510   -83.4800     5.9840     7.0020     0.3100
  593.0000     9.3540   108.9530     2.4870     0.0180   955.4120     0.1500   -83.4500     6.1820     7.0630     0.3140
  593.5000     9.3640   108.7060     2.4920     0.0170   955.4480     0.1490   -83.4200     6.3770     7.2510     0.3150
  594.0000     9.3750   108.4620     2.4930     0.0150   955.4850     0.1470   -83.3910     6.5720     7.3900     0.3160
  594.5000     9.3290   108.2030     2.4920     0.0140   955.5210     0.1450   -83.3610     6.7660     7.2960     0.3170
  595.0000     9.2610   107.4870     2.4900     0.0120   955.5580     0.1420   -83.3310     6.9340     7.2120     0.3170
  595.5000     9.1920   106.7980     2.4890     0.0110   955.5950     0.1400   -83.3020     7.0620     7.1870     0.3170
  596.0000     9.1240   106.1130     2.4880     0.0120   955.6310     0.1410   -83.2720     7.1900     7.5020     0.3170
  596.5000     9.0550   105.4290     2.4910     0.0140   955.6680     0.1420   -83.2420     7.3170     7.5730     0.3180
  597.0000     8.9970   104.7490     2.4940     0.0150   955.7040     0.1420   -83.2130     7.4440     7.5530     0.3180
  597.5000     9.0460   104.2550     2.4970     0.0170   955.7410     0.1410   -83.1830     7.5710     7.6560     0.3180
  598.0000     9.0940   104.2710     2.5000     0.0190   955.7770     0.1420   -83.1530     7.6980     7.6340     0.3220
  598.5000     9.1420   104.6370     2.4990     0.0200   955.8140     0.1450   -83.1240     7.8250     7.4880     0.3260
  599.0000     9.1750   105.0470     2.4990     0.0190   955.8500     0.1480   -83.0940     7.9530     7.5810     0.3300
  599.5000     9.1720   105.4590     2.4980     0.0180   955.8870     0.1490   -83.0640     8.0850     7.8080     0.3340
  600.0000     9.1690   105.8700     2.4970     0.0160   955.9230     0.1490   -83.0340     8.1200     7.6020     0.3350
  600.5000     9.1660   106.2820     2.4970     0.0140   955.9600     0.1480   -83.0040     8.1520     7.6410     0.3350
  601.0000     9.1630   106.6930     2.4960     0.0130   955.9970     0.1460   -83.0910     8.1840     7.5340     0.3310
  601.5000     9.1600   107.1040     2.4950     0.0160   956.0330     0.1450   -83.1900     8.2160     7.5270     0.3260
