~VERSION INFORMATION
 VERS.                2.0:   CWLS LOG ASCII STANDARD - VERSION 2.0
 WRAP.                 NO:   ONE LINE PER DEPTH STEP
~WELL INFORMATION
#MNEM.UNIT      DATA TYPE    INFORMATION
#----------   ------------   ------------------------------
 STRT.F          545.0000:   START DEPTH
 STOP.F         3193.0000:   STOP DEPTH
 STEP.F            0.5000:   STEP LENGTH
 NULL.          -999.2500:   NO VALUE
 COMP. FENIX & SCISSON-U.S. NAVY:   COMPANY
 WELL.   FENIX "A" #47-34:   WELL
 FLD .          N.P.R. #3:   FIELD
 LOC .      S34 T39N R78W:   LOCATION
 CNTY.            NATRONA:   COUNTY
 STAT.            WYOMING:   STATE
 CTRY. UNITED STATES OF AMERICA:   COUNTRY
 SRVC.       SCHLUMBERGER:   SERVICE COMPANY
 DATE.        26-MAR-1977:   LOGDATE
 API .     49025103260000:   API NUMBER
~CURVE INFORMATION
#MNEM.UNIT       API CODE    CURVE DESCRIPTION
#----------   ------------   ------------------------------
 DEPT.F                  :   
 SPR .MV     07 010 01 00:   SPONTANEOUS POTENTIAL FROM RES.
 ILM .OHMM   07 120 44 00:   INDUCTION LOG MEDIUM RESISTIVITY
 ILD .OHMM   07 120 46 00:   DEEP INDUCTION RESISTIVITY
 LL8 .OHMM   07 220 08 00:   LATEROLOG-8 RES.
 CALD.IN     45 280 60 00:   CALIPER FROM DENSITY LOG
 GRD .GAPI   45 310 01 00:   GAMMA RAY FROM DENSITY LOG
 RHOB.G/C3   45 350 01 00:   BULK DENSITY
 CORR.G/C3   45 356 01 00:   DENSITY CORRECTION
~PARAMETER INFORMATION
#MNEM.UNIT          VALUE    DESCRIPTION
#----------   ------------   ------------------------------
 EKB .F         5144.0000:   Kelly bushing
 EGL .F         5132.0000:   Ground level
 TD  .F         3194.0000:   Total depth
 CLNT.            A2DTECH:   Client Code
 SL  . 2310' FWL & 990' FSL:   Surface Location
 PD  .                 GL:   Permanent Datum
 EPD .F              5132:   Elevation Permanent Datum
 LMF .                 KB:   Log Measured From
 DMF .                 KB:   Drilling Measured From
 DAPD.F                12:   Feet Above Permanent Datum
 DATE.        26-MAR-1977:   Date Logged [DD-MMM-YYYY]
 DD  .F              3188:   Depth driller
 DL  .F              3194:   Depth logger
 BLI .F              3188:   Bottom log interval
 TLI .F               564:   Top log interval
 CS1 .IN            8.625:   Casing size
 CBD1.      8.625" @ 570':   Casing driller 1
 CBL1.F               564:   Casing logger 1
 BS1 .IN            7.875:   Bit size
 BSD1.F              3188:   Depth drilled with bit1
 DFT .                KCL:   Type fluid in hole
 DFD .                9.2:   Density
 DFV .                 30:   Viscosity
 DFL .                9.2:   Fluid loss
 MSS .                PIT:   Source of sample
 RMS .OHMM          0.354:   Rm
 MST .F                70:   Rm Meas. temp.
 RMF .OHMM          0.326:   Rmf
 MFST.F                70:   Rmf Meas. temp.
 MFSS.               MEAS:   Source Rmf.
 RMC .OHMM          0.531:   Rmc
 MCST.F                70:   Rmc Meas. temp.
 MCSS.               CALC:   Source Rmc.
 RMB .OHMM          0.205:   Rm. at BHT
 BHT .F               121:   BHT.
 TLAB.HRS            1900:   Time logger at bottom
 MRT .F               121:   Maximum recorded temp.
 LUN .               5642:   Logging unit number
 LUL .               CSPR:   Logging unit location
 ENGI.             MARTIN:   Recorded By
 WITN.         PETTINGILL:   Witnessed by
 ORIG.           5" PRINT:   Origin of data
 UWI .     49025103260000:   Unique Well ID
 DICO. A2D TECHNOLOGIES, INC.:   Digitizing Company
~OTHER INFORMATION
~A   DEPT      SPR        ILM        ILD        LL8       CALD         GRD      RHOB       CORR   
# ...
  707.0000   -42.1629     8.6803     8.2957    10.6632     8.2000   122.9775     2.5056     0.0321
  707.5000   -42.1902     8.6258     8.3018    10.3114     8.2020   127.3176     2.5252     0.0329
  708.0000   -42.3744     8.5734     8.1376    10.1748     8.2040   128.5326     2.5291     0.0315
  708.5000   -42.3280     8.5213     8.0876    10.1808     8.2060   129.3013     2.5157     0.0246
  709.0000   -42.3813     8.4695     8.0951    10.3273     8.2079   129.9211     2.5023     0.0223
  709.5000   -42.2749     8.4181     8.1011    10.3322     8.2099   130.9873     2.4979     0.0263
  710.0000   -40.9837     8.3686     8.1071    10.3371     8.2119   131.9048     2.5077     0.0272
  710.5000   -40.5786     8.3808     8.1131    10.3420     8.2139   129.9709     2.5176     0.0211
  711.0000   -40.8124     8.4137     8.0617    10.3942     8.2159   125.2636     2.5319     0.0344
  711.5000   -41.4816     8.4467     8.0692    10.2583     8.2179   123.5025     2.5305     0.0407
  712.0000   -41.9115     8.4796     8.0751    10.1246     8.2199   123.0745     2.5230     0.0354
  712.5000   -42.3573     8.5125     8.1372    10.1314     8.2219   125.0398     2.5128     0.0324
  713.0000   -41.9767     8.5455     8.0871     9.9992     8.2233   124.7667     2.5046     0.0325
  713.5000   -40.8453     8.5784     8.0945    10.0076     8.2233   123.0056     2.4987     0.0326
  714.0000   -40.5722     8.6114     8.1005    10.0144     8.2233   118.5659     2.5063     0.0327
  714.5000   -40.5716     8.6443     8.1065    10.1604     8.2233   118.4417     2.5117     0.0297
  715.0000   -40.7629     8.7781     8.1682    10.3800     8.2233   118.9633     2.5050     0.0244
  715.5000   -41.0313     8.7847     8.2884    10.9014     8.2233   121.9196     2.5021     0.0221
  716.0000   -41.6190     8.7912     8.4099    11.0604     8.2233   124.3251     2.5148     0.0246
  716.5000   -41.6644     8.9201     8.5922    10.9160     8.2233   125.3914     2.5203     0.0347
  717.0000   -41.5689     9.0510     8.6583    10.8482     8.2233   125.1183     2.5077     0.0397
  717.5000   -41.6567     9.3115     8.7867    10.7808     8.2233   124.2501     2.4936     0.0272
  718.0000   -41.8029     9.4481     8.9154    11.2462     8.2233   123.0842     2.4854     0.0211
  718.5000   -41.7908     9.5867     8.9220    10.9472     8.2233   122.8085     2.4990     0.0282
  719.0000   -41.5585     9.5938     8.9281    10.6544     8.2233   123.7589     2.5081     0.0321
  719.5000   -41.5780     9.6011     8.9347    10.5882     8.2233   124.6460     2.5044     0.0245
  720.0000   -42.1736     9.5419     8.9414    10.9693     8.2233   123.1886     2.4978     0.0199
  720.5000   -41.9626     9.5507     8.9482    11.1293     8.2233   123.5108     2.4964     0.0216
  721.0000   -41.5900     9.5578     9.0182    10.9085     8.2233   124.8747     2.5131     0.0279
  721.5000   -40.7003     9.5640     9.0874    10.6921     8.2233   126.0897     2.5199     0.0427
  722.0000   -40.5300     9.6384     9.2206    10.6996     8.2233   126.8584     2.5050     0.0351
  722.5000   -40.9163     9.6455     9.2913    10.9323     8.2233   125.2460     2.5059     0.0460
  723.0000   -40.7412     9.6523     9.4275    11.2460     8.2233   122.2848     2.5120     0.0422
  723.5000   -39.2730     9.6890     9.4998    11.4287     8.2233   122.1702     2.5244     0.0501
  724.0000   -38.9036     9.7341     9.5727    11.0285     8.2233   122.6474     2.5369     0.0564
  724.5000   -39.0620     9.7414     9.6462    11.1142     8.2233   122.8207     2.5235     0.0387
  725.0000   -38.8261     9.8202     9.6536    11.5921     8.2233   121.8037     2.5139     0.0178
  725.5000   -38.4577     9.8933     9.5279    12.0073     8.2233   120.1913     2.5072     0.0115
  726.0000   -38.4012     9.9007     9.4694    11.8420     8.2227   116.6445     2.4974     0.0041
  726.5000   -38.5769     9.9757     9.4781    11.5100     8.2219   114.1384     2.4812     0.0018
  727.0000   -38.8869     9.9841     9.4181    11.0749     8.2210   115.2056     2.4933     0.0043
  727.5000   -38.5911    10.0608     9.3620    10.7081     8.2202   119.3230     2.4822     0.0083
  728.0000   -38.1488    10.0683     9.4338    11.7195     8.2194   120.7607     2.4845     0.0138
  728.5000   -37.7569    10.0758     9.5062    11.3314     8.2185   118.4043     2.4989     0.0216
  729.0000   -36.8741    10.0832     9.5823    11.1065     8.2177   120.3696     2.5102     0.0327
  729.5000   -35.4974    10.2312     9.7303    11.2685     8.2168   122.3287     2.5231     0.0490
  730.0000   -35.7069    10.3100     9.8638    11.9165     8.2160   123.2461     2.5329     0.0576
  730.5000   -36.1840    10.4629    10.0083    12.0904     8.2151   122.8242     2.5225     0.0345
  731.0000   -35.5052    10.6164    10.1550    12.0152     8.2143   121.5095     2.5189     0.0284
  731.5000   -35.4313    10.6242    10.2329    12.0253     8.2134   119.4435     2.5333     0.0315
  732.0000   -36.7863    10.7242    10.3828    12.1167     8.2126   118.1171     2.5401     0.0317
  732.5000   -38.8120    10.8629    10.4625    12.2934     8.2118   117.4166     2.5147     0.0271
  733.0000   -40.1729    10.9463    10.4702    12.6462     8.2109   116.9948     2.5065     0.0218
  733.5000   -40.5618    11.1069    10.5506    12.8306     8.2101   117.4719     2.5209     0.0258
  734.0000   -40.7797    11.2698    10.5587    12.3182     8.2092   118.0856     2.5360     0.0352
  734.5000   -40.8859    11.1231    10.4954    12.0738     8.2084   116.1818     2.5586     0.0446
  735.0000   -40.4733    10.9788    10.5032    12.0820     8.2075   116.1558     2.5647     0.0516
  735.5000   -40.3786    10.9890    10.5109    12.1862     8.2067   117.2726     2.5409     0.0316
  736.0000   -40.3735    10.9972    10.4444    12.4391     8.2058   118.0413     2.5297     0.0387
  736.5000   -40.5640    11.0054    10.3802    12.5337     8.2050   114.2029     2.5253     0.0349
  737.0000   -41.2871    11.0135    10.2454    12.5421     8.2041   111.6978     2.5269     0.0249
  737.5000   -41.9645    11.0981    10.2549    12.0412     8.2033   110.6745     2.5330     0.0126
  738.0000   -41.6347    11.2261    10.2625    11.2455     8.2025   113.2350     2.5286     0.0161
  738.5000   -41.2576    11.3474    10.2703    10.7946     8.2016   115.3429     2.5212     0.0260
  739.0000   -40.8809    11.3558    10.2796    11.9001     8.2008   115.5102     2.5233     0.0315
  739.5000   -40.8741    11.4622    10.3584    13.3033     8.1999   113.3088     2.5447     0.0394
  740.0000   -40.7303    11.5311    10.4379    13.2960     8.1991   114.2262     2.5591     0.0464
  740.5000   -40.5534    11.6330    10.5180    12.9541     8.1982   116.0365     2.5524     0.0504
  741.0000   -40.2486    11.7109    10.5987    12.8736     8.1974   113.6863     2.5375     0.0304
  741.5000   -39.6921    11.8827    10.6800    12.7936     8.1965   111.0323     2.5158     0.0212
  742.0000   -40.3244    12.0570    10.8365    12.8044     8.1957   112.5449     2.5332     0.0414
  742.5000   -41.4949    12.0659    10.9954    12.9911     8.1949   114.5040     2.5484     0.0493
  743.0000   -42.6321    12.1586    11.1567    12.9999     8.1940   115.4215     2.5529     0.0509
  743.5000   -43.1887    12.1677    11.2426    13.1895     8.1932   112.1723     2.5425     0.0464
  744.0000   -42.5409    12.2611    11.2525    13.5680     8.1923   109.0718     2.5591     0.0449
  744.5000   -41.7820    12.2702    11.2608    14.0542     8.1915   109.5506     2.5495     0.0497
  745.0000   -41.1638    12.3645    11.2691    13.9666     8.1906   110.1637     2.5518     0.0544
  745.5000   -40.7798    12.4597    11.1978    13.7843     8.1898   110.6398     2.5557     0.0611
  746.0000   -41.1813    12.4710    11.0524    13.6067     8.1889   110.8132     2.5483     0.0585
  746.5000   -41.8573    12.5645    10.9109    13.4291     8.1881   110.5340     2.5387     0.0439
  747.0000   -42.1885    12.1491    10.6951    13.4382     8.1873   110.5668     2.5275     0.0176
