~VERSION INFORMATION
 VERS.                2.0:   CWLS LOG ASCII STANDARD - VERSION 2.0
 WRAP.                 NO:   ONE LINE PER DEPTH STEP
~WELL INFORMATION
#MNEM.UNIT      DATA TYPE    INFORMATION
#----------   ------------   ------------------------------
 STRT.F            0.5000:   START DEPTH
 STOP.F         1380.0000:   STOP DEPTH
 STEP.F            0.5000:   STEP LENGTH
 NULL.          -999.2500:   NO VALUE
 COMP.       FLUOR DANIEL:   COMPANY
 WELL. FLUOR 84 "X" #1-14:   WELL
 FLD .          N.P.R. #3:   FIELD
 LOC .      S14 T38N R78W:   LOCATION
 CNTY.            NATRONA:   COUNTY
 STAT.            WYOMING:   STATE
 CTRY. UNITED STATES OF AMERICA:   COUNTRY
 SRVC.     ATLAS WIRELINE:   SERVICE COMPANY
 DATE.        24-AUG-1994:   LOGDATE
 API .     49025226370000:   API NUMBER
~CURVE INFORMATION
#MNEM.UNIT       API CODE    CURVE DESCRIPTION
#----------   ------------   ------------------------------
 DEPT.F                  :   
 GRR .GAPI   07 310 01 00:   GAMMA RAY FROM RESISTIVITY
 RILD.OHMM   07 120 46 00:   INDUCTION LOG DEEP RESISTIVITY
 RILM.OHMM   07 120 44 00:   INDUCTION LOG MEDIUM RESISTIVITY
 TENR.LBS    07 635 01 00:   TENSION FROM RESISTIVITY
~PARAMETER INFORMATION
#MNEM.UNIT          VALUE    DESCRIPTION
#----------   ------------   ------------------------------
 EKB .F         5326.0000:   Kelly bushing
 EGL .F         5316.0000:   Ground level
 EDF .F         5325.0000:   Drilling floor
 TD  .F         1368.0000:   Total depth
 CLNT.            A2DTECH:   Client Code
 PD  .                 GL:   Permanent Datum
 EPD .F              5316:   Elevation Permanent Datum
 LMF .                 KB:   Log Measured From
 DMF .                 KB:   Drilling Measured From
 DAPD.F                10:   Feet Above Permanent Datum
 DATE.        24-AUG-1994:   Date Logged [DD-MMM-YYYY]
 DD  .F              1368:   Depth driller
 DL  .F              1364:   Depth logger
 BLI .F              1356:   Bottom log interval
 TLI .F                 0:   Top log interval
 CS1 .IN            9.625:   Casing size
 CBD1.       9.625" @ 56':   Casing driller 1
 CBL1.F                56:   Casing logger 1
 BS1 .IN             8.75:   Bit size
 BSD1.F              1368:   Depth drilled with bit1
 DFT .                AIR:   Type fluid in hole
 LUN .            HL 6530:   Logging unit number
 LUL .             CASPER:   Logging unit location
 WITN.        GARY STRONG:   Witnessed by
 ORIG.         2.5" PRINT:   Origin of data
 UWI .     49025226370000:   Unique Well ID
 DICO. A2D TECHNOLOGIES, INC.:   Digitizing Company
 SL  . 2551' FNL & 575' FEL:   Surface Location
~OTHER INFORMATION
~A    DEPT      GRR      RILD       RILM       TENR   
# ...
  803.5000   132.9341     6.1386     6.0674   -53.3929
  804.0000   134.1317     6.2604     6.0657   -52.9527
  804.5000   134.1317     6.3441     6.0641   -52.5125
  805.0000   131.1377     6.4301     6.0624   -52.0723
  805.5000   128.1437     6.3390     6.0607   -36.7512
  806.0000   129.3413     6.3364     6.0591   -51.1920
  806.5000   134.1477     6.2471     5.8615   -50.7441
  807.0000   134.1077     6.2445     5.6983   -65.1925
  807.5000   132.2955     6.0722     5.5741   -64.7321
  808.0000   131.7365     5.9046     5.5725   -64.2857
  808.5000   132.9341     5.7417     5.5710   -63.8393
  809.0000   132.3353     5.6608     5.5695   -63.3928
  809.5000   131.5291     5.5810     5.6119   -62.9465
  810.0000   129.9401     5.6562     5.7218   -62.5000
  810.5000   129.3413     5.6538     5.8796   -62.0536
  811.0000   129.4930     5.6515     5.9595   -61.6072
  811.5000   130.1078     5.6492     5.9579   -61.1607
  812.0000   132.2876     5.6469     5.9563   -60.7143
  812.5000   138.1239     5.6445     5.9547   -60.2679
  813.0000   138.3233     5.6422     5.8716   -59.8214
  813.5000   136.0638     5.6399     5.7106   -59.3750
  814.0000   133.6367     5.6375     5.6310   -58.9285
  814.5000   132.9341     5.6511     5.7075   -58.4821
  815.0000   136.1675     5.7296     5.7060   -58.0357
  815.5000   138.0199     5.8091     5.8637   -57.5893
  816.0000   137.4132     5.8898     6.1940   -57.1429
  816.5000   133.7483     6.0278     6.4534   -56.6087
  817.0000   131.9919     6.1385     6.6336   -56.1686
  817.5000   131.7365     6.3102     6.8151   -55.7284
  818.0000   131.7365     6.5391     6.8131   -55.2882
  818.5000   129.3413     6.6272     6.8113   -54.8480
  819.0000   124.5509     6.6245     6.7963   -69.3452
  819.5000   119.1617     6.5761     6.5321   -68.8485
  820.0000   124.5509     6.5283     6.4234   -68.4084
  820.5000   129.3413     6.4753     6.2446   -67.9682
  821.0000   132.3353     6.3455     6.1550   -67.5280
  821.5000   134.7305     6.1699     6.0076   -67.0878
  822.0000   136.5269     5.9996     5.9796   -66.6476
  822.5000   136.5269     5.9972     5.8938   -66.2074
  823.0000   137.1257     5.9947     5.8396   -65.7672
  823.5000   137.7245     5.9923     5.8380   -65.3270
  824.0000   142.5150     5.9899     5.9533   -64.8809
  824.5000   143.1138     6.0706     6.2460   -64.4345
  825.0000   137.7245     6.2377     6.6496   -78.8874
  825.5000   129.2134     6.4985     7.0777   -78.4226
  826.0000   119.5694     6.6775     7.3230   -77.9762
  826.5000   115.5689     6.7674     7.3653   -77.5298
  827.0000   118.7544     6.8587     7.3629   -77.0833
  827.5000   127.4252     7.0475     7.3609   -76.6369
  828.0000   133.1258     7.0446     7.1590   -76.1905
  828.5000   135.3293     6.9411     6.8675   -75.7440
  829.0000   134.6027     6.8404     6.6792   -75.2976
  829.5000   134.1317     6.6396     6.4960   -74.8512
  830.0000   133.5329     6.4511     6.3179   -74.4048
  830.5000   133.5329     6.1958     6.1446   -73.9584
  831.0000   134.1317     6.0223     5.9761   -73.5119
  831.5000   136.1834     5.9531     5.9745   -73.0655
  832.0000   141.7645     5.9506     5.8912   -72.6190
  832.5000   142.5150     5.9482     5.8896   -72.1726
  833.0000   142.0040     5.9457     5.9696   -71.7262
  833.5000   139.9039     5.9433     6.3076   -71.2798
  834.0000   136.5746     6.0545     6.6647   -70.8333
  834.5000   131.7205     6.2238     6.8518   -70.3036
  835.0000   128.7025     6.3978     7.0344   -69.8634
  835.5000   126.2753     6.5767     6.9239   -69.4232
  836.0000   124.1996     6.6680     6.8245   -69.0476
  836.5000   123.3533     6.7118     6.7266   -68.5429
  837.0000   123.3533     6.7090     6.6300   -68.1027
  837.5000   128.1437     6.7062     6.5461   -67.6625
  838.0000   134.7305     6.7029     6.4659   -67.2223
  838.5000   134.1317     6.5180     6.3487   -66.7821
  839.0000   130.5389     6.3381     6.2868   -66.3419
  839.5000   129.8044     6.2488     6.2851   -65.9017
  840.0000   130.5389     6.2462     6.2833   -65.4615
  840.5000   132.3353     6.2437     6.2816   -65.0213
  841.0000   133.5329     6.3278     6.2799   -64.5811
  841.5000   134.1317     6.3252     6.2781   -64.1369
  842.0000   133.5329     6.3226     6.2764   -63.6905
  842.5000   131.7365     6.2335     6.2747   -63.2440
  843.0000   128.7425     6.0615     6.2730   -62.7976
  843.5000   126.3473     5.9760     6.2712   -62.3512
  844.0000   128.7661     5.8918     6.2695   -61.9048
  844.5000   132.3593     5.8894     6.2675   -61.4583
  845.0000   133.5329     5.8453     6.2658   -61.0119
  845.5000   130.4829     5.8040     6.2641   -60.5655
  846.0000   129.3413     5.8016     6.2624   -60.1191
  846.5000   133.8843     5.7992     6.2607   -59.6726
  847.0000   138.0361     5.8091     6.2590   -59.2262
  847.5000   140.7186     5.8750     6.2573   -58.7798
  848.0000   140.8543     5.8724     6.1701   -58.3333
  848.5000   141.3174     5.8898     6.0841   -57.8869
  849.0000   141.3174     5.9493     6.0824   -57.4405
  849.5000   141.1338     6.0295     6.0808   -56.9940
  850.0000   138.3234     6.0545     6.2488   -56.5476
  850.5000   135.0656     6.1385     6.3337   -56.1012
  851.0000   125.9241     6.1905     6.3320   -55.6548
  851.5000   122.4032     6.1874     6.3381   -55.2083
  852.0000   125.0780     6.1849     6.4163   -54.6768
  852.5000   128.9419     6.1823     6.3267   -54.2366
  853.0000   134.1157     6.3102     6.3250   -53.7964
  853.5000   138.9702     6.3499     6.3232   -53.3562
  854.0000   143.1696     6.3473     6.3215   -52.9160
  854.5000   144.2237     6.3441     6.3198   -52.4758
  855.0000   141.3174     6.3415     6.3443   -52.0356
  855.5000   137.7245     6.3390     6.4041   -51.5955
  856.0000   135.3293     6.4247     6.4340   -51.1552
  856.5000   134.1317     6.6013     6.5794   -50.7151
  857.0000   133.9562     6.6902     6.7072   -50.2749
  857.5000   139.5210     6.7803     6.7589   -49.8347
  858.0000   142.5150     6.8719     6.8508   -49.3945
  858.5000   142.5150     6.8689     6.8489   -48.9543
  859.0000   140.7186     6.9616     6.8470   -48.5119
  859.5000   140.1198     6.9585     6.8451   -48.0655
  860.0000   140.7186     6.9557     6.8428   -47.6190
  860.5000   136.5269     6.9529     6.8410   -47.1726
  861.0000   134.1317     6.9500     6.8391   -46.7262
  861.5000   137.1257     6.9472     6.8373   -46.2798
  862.0000   143.7126     6.9443     6.9304   -45.8334
  862.5000   147.3054     6.9495     7.1217   -45.3869
  863.0000   145.4770     7.0460     7.3186   -44.9405
  863.5000   142.5150     7.2430     7.5208   -44.4940
  864.0000   142.5628     7.4636     7.6230   -44.0476
  864.5000   143.1138     7.7600     7.7267   -43.6012
  865.0000   143.1138     7.8427     7.9401   -43.1547
  865.5000   142.1317     7.8391     7.9380   -42.7083
  866.0000   137.9883     7.8358     8.1574   -42.2619
  866.5000   133.6209     7.8326     8.1552   -41.8155
  867.0000   129.6527     7.9769     8.3806   -41.3691
  867.5000   128.1437     8.3585     8.5003   -40.9226
  868.0000   131.9122     8.7852     8.8599   -40.4762
  868.5000   131.1614     8.9756     9.0948   -40.0298
  869.0000   125.9083     9.0965     9.2184   -39.5833
  869.5000   122.5309     9.0301     9.0791   -39.0500
  870.0000   121.5569     8.8704     8.9384   -38.6097
  870.5000   124.9740     8.7908     8.8379   -38.1696
  871.0000   130.4269     8.7258     8.8041   -37.7294
  871.5000   134.9939     8.5900     8.6777   -37.2892
  872.0000   136.8304     8.4689     8.5908   -36.8490
  872.5000   136.4872     8.3495     8.5474   -36.4088
  873.0000   133.4609     8.3461     8.4687   -35.9686
  873.5000   129.8361     8.2285     8.4664   -35.5284
  874.0000   129.1098     8.2251     8.4640   -35.0883
  874.5000   132.3353     8.2218     8.4617   -34.6480
  875.0000   138.3233     8.2184     8.4594   -34.2079
  875.5000   139.5210     8.3291     8.4570   -33.7676
  876.0000   139.5210     8.3257     8.3900   -33.3275
