~VERSION INFORMATION
 VERS.                2.0:   CWLS LOG ASCII STANDARD - VERSION 2.0
 WRAP.                 NO:   ONE LINE PER DEPTH STEP
~WELL INFORMATION
#MNEM.UNIT      DATA TYPE    INFORMATION
#----------   ------------   ------------------------------
 STRT.F         2299.0000:   START DEPTH
 STOP.F         3387.5000:   STOP DEPTH
 STEP.F            0.5000:   STEP LENGTH
 NULL.          -999.2500:   NO VALUE
 COMP. LAWRENCE ALLISON AND ASSOCIATES:   COMPANY
 WELL. 		  62-AX-3:   WELL
 FLD .                NPR:   FIELD
 LOC .       S3 T38N R78W:   LOCATION
 CNTY.            NATRONA:   COUNTY
 STAT.            WYOMING:   STATE
 CTRY. UNITED STATES OF AMERICA:   COUNTRY
 SRVC.      DRESSER ATLAS:   SERVICE COMPANY
 DATE.        14-JUN-1985:   LOGDATE
 API .     49025110330000:   API NUMBER
~CURVE INFORMATION
#MNEM.UNIT       API CODE    CURVE DESCRIPTION
#----------   ------------   ------------------------------
 DEPT.F                  :   
 NPHI.DEC    42 890 01 00:   NEUTRON POROSITY
 TEND.LBS    45 635 01 00:   TENSION
 RHOB.G/C3   45 350 01 00:   BULK DENSITY
 CORR.DEC    45 356 01 00:   CORRECTION
~PARAMETER INFORMATION
#MNEM.UNIT          VALUE    DESCRIPTION
#----------   ------------   ------------------------------
 EKB .F         5160.0000:   Kelly bushing
 EGL .F         5148.0000:   Ground level
 EDF .F            0.0000:   Drilling floor
 EPD .F         5148.0000:   Permanent datum
 TD  .F         3380.0000:   Total depth
 DATE.        14-JUN-1985:   Date logged
 CLNT.            A2DTECH:   Client Code
 PD  .                 GL:   Permanent Datum
 LMF .                 KB:   Log Measured From
 DMF .                 KB:   Drilling Measured From
 DL  .F              3380:   Depth logger
 BLI .F              3378:   Bottom log interval
 CS1 .IN            8.625:   Casing size
 CBD1.      8.625" @ 603':   Casing driller 1
 DFT .        KCL POLYMER:   Type fluid in hole
 ENGI.               MACK:   Recorded By
 WITN.             STRONG:   Witnessed by
 ORIG.       2.5"5" PRINT:   Origin of data
 UWI .     49025110330000:   Unique Well ID
 DICO. A2D TECHNOLOGIES, INC.:   Digitizing Company
 DAPD.F                12:   Feet Above Permanent Datum
 BS1 .IN            7.875:   Bit size
 DFD .                8.9:   Density
 DFV .                 46:   Viscosity
 DFPH.                8.5:   pH
 DFL .                9.6:   Fluid loss
 MSS .           FLOWLINE:   Source of sample
 RMS .OHMM           0.38:   Rm
 MST .F                74:   Rm Meas. temp.
 RMF .OHMM           0.29:   Rmf
 MFST.F                74:   Rmf Meas. temp.
 MFSS.               MEAS:   Source Rmf.
 RMC .OHMM           0.23:   Rmc
 MCST.F               120:   Rmc Meas. temp.
 MCSS.               MEAS:   Source Rmc.
 RMB .OHMM           0.23:   Rm. at BHT
 BHT .F               120:   BHT.
 TCS .                  8:   Time Circ. stopped
 MRT .                122:   Maximum recorded temp.
 LUN .            HL-6274:   Logging unit number
 LUL .               GLTE:   Logging unit location
~OTHER INFORMATION
~A     DEPTH         CORR         NPHI         RHOB         TEND
# ...
   2361.0000      -0.0010       0.2943       2.4710       0.2202
   2361.5000       0.0020       0.2946       2.4760       0.2255
   2362.0000       0.0050       0.2855       2.4820       0.2309
   2362.5000       0.0040       0.2765       2.4950       0.2362
   2363.0000       0.0020       0.2839       2.5030       0.2415
   2363.5000       0.0010       0.2949       2.5090       0.2342
   2364.0000      -0.0010       0.3072       2.5150       0.2203
   2364.5000      -0.0030       0.3026       2.5000       0.2064
   2365.0000      -0.0060       0.2993       2.4830       0.1936
   2365.5000      -0.0090       0.2959       2.4650       0.2022
   2366.0000      -0.0140       0.2850       2.4520       0.2100
   2366.5000      -0.0250       0.2831       2.4590       0.2179
   2367.0000      -0.0300       0.2885       2.4660       0.2231
   2367.5000      -0.0210       0.2974       2.4720       0.2221
   2368.0000      -0.0010       0.2968       2.4750       0.2211
   2368.5000       0.0260       0.2877       2.4650       0.2200
   2369.0000       0.0170       0.2823       2.4550       0.2190
   2369.5000       0.0020       0.2816       2.4550       0.2180
   2370.0000      -0.0080       0.2959       2.4550       0.2169
   2370.5000       0.0100       0.3037       2.4810       0.2159
   2371.0000       0.0080       0.2975       2.4870       0.2149
   2371.5000       0.0060       0.2904       2.4820       0.2139
   2372.0000       0.0040       0.3046       2.4760       0.2128
   2372.5000       0.0030       0.3310       2.4710       0.2118
   2373.0000       0.0030       0.3459       2.4630       0.2108
   2373.5000       0.0050       0.3266       2.4430       0.2097
   2374.0000       0.0150       0.3254       2.4220       0.2087
   2374.5000       0.0780       0.3278       2.3690       0.2077
   2375.0000       0.0700       0.3238       2.3480       0.2066
   2375.5000       0.0380       0.3028       2.3840       0.2056
   2376.0000       0.0060       0.2967       2.3900       0.2046
   2376.5000      -0.0150       0.2880       2.4050       0.2036
   2377.0000      -0.0200       0.2810       2.4150       0.2046
   2377.5000      -0.0190       0.2813       2.4190       0.2056
   2378.0000      -0.0090       0.3014       2.4230       0.2066
   2378.5000      -0.0010       0.3211       2.4290       0.2076
   2379.0000       0.0010       0.3263       2.4290       0.2086
   2379.5000       0.0040       0.3245       2.4210       0.2096
   2380.0000       0.0120       0.3061       2.4090       0.2106
   2380.5000       0.0120       0.3007       2.4030       0.2116
   2381.0000       0.0110       0.3009       2.4130       0.2126
   2381.5000       0.0010       0.3101       2.4400       0.2135
   2382.0000      -0.0100       0.3137       2.4660       0.2027
   2382.5000       0.0190       0.3088       2.4780       0.1936
   2383.0000       0.0360       0.3013       2.4710       0.1919
   2383.5000       0.0500       0.3044       2.4800       0.1903
   2384.0000       0.0270       0.3125       2.4920       0.1887
   2384.5000       0.0000       0.3131       2.4950       0.1871
   2385.0000      -0.0140       0.3076       2.4800       0.1854
   2385.5000      -0.0240       0.2963       2.4870       0.1837
   2386.0000      -0.0030       0.2853       2.4980       0.1858
   2386.5000       0.0150       0.2702       2.5190       0.1881
   2387.0000      -0.0090       0.2684       2.5200       0.1904
   2387.5000       0.0080       0.2714       2.5150       0.1926
   2388.0000       0.0000       0.2854       2.5090       0.1949
   2388.5000      -0.0010       0.2931       2.5120       0.1972
   2389.0000       0.0020       0.2925       2.5160       0.1994
   2389.5000       0.0050       0.2834       2.5150       0.2017
   2390.0000       0.0050       0.2804       2.5140       0.2063
   2390.5000       0.0020       0.2809       2.5020       0.2212
   2391.0000       0.0000       0.2846       2.4890       0.2306
   2391.5000      -0.0010       0.2952       2.4790       0.2164
   2392.0000       0.0010       0.2876       2.4700       0.2021
   2392.5000      -0.0020       0.2706       2.4720       0.1963
   2393.0000       0.0030       0.2629       2.4760       0.2028
   2393.5000       0.0060       0.2698       2.4780       0.2093
   2394.0000       0.0020       0.3221       2.4800       0.2158
   2394.5000      -0.0020       0.3275       2.4800       0.2224
   2395.0000      -0.0030       0.3178       2.4800       0.2180
   2395.5000       0.0010       0.3088       2.4810       0.2115
   2396.0000       0.0050       0.3231       2.4880       0.2050
   2396.5000       0.0120       0.3341       2.4960       0.1985
   2397.0000       0.0110       0.3362       2.5030       0.1932
   2397.5000       0.0090       0.3349       2.5100       0.1916
   2398.0000       0.0080       0.3280       2.5130       0.1900
   2398.5000       0.0130       0.3186       2.5180       0.1884
   2399.0000       0.0180       0.3143       2.5260       0.1868
   2399.5000       0.0230       0.3179       2.5350       0.1852
   2400.0000       0.0280       0.3193       2.5410       0.1837
   2400.5000       0.0190       0.3183       2.5340       0.1928
   2401.0000       0.0080       0.3153       2.5190       0.2011
   2401.5000       0.0030       0.3082       2.5020       0.2094
   2402.0000       0.0140       0.3035       2.4860       0.2034
   2402.5000       0.0300       0.3085       2.4720       0.1943
   2403.0000       0.0430       0.3126       2.4890       0.1955
   2403.5000       0.0440       0.3029       2.5090       0.1967
   2404.0000       0.0410       0.3008       2.5270       0.1979
   2404.5000       0.0210       0.3262       2.5220       0.1991
   2405.0000       0.0120       0.3279       2.5160       0.2003
   2405.5000       0.0150       0.3099       2.5150       0.2015
   2406.0000       0.0230       0.2813       2.5200       0.2028
   2406.5000       0.0300       0.2848       2.5370       0.2036
   2407.0000       0.0360       0.2955       2.5390       0.2036
   2407.5000       0.0410       0.2877       2.5370       0.2036
   2408.0000       0.0470       0.2879       2.5310       0.2036
   2408.5000       0.0520       0.2962       2.5160       0.2036
   2409.0000       0.0540       0.3042       2.5070       0.2036
   2409.5000       0.0450       0.3150       2.5070       0.1976
   2410.0000       0.0310       0.3122       2.5080       0.1866
   2410.5000       0.0110       0.3079       2.5260       0.1849
   2411.0000       0.0050       0.3076       2.5280       0.1864
   2411.5000       0.0100       0.3090       2.5210       0.1880
   2412.0000       0.0160       0.3101       2.5050       0.1895
   2412.5000       0.0160       0.3097       2.4840       0.1911
   2413.0000       0.0110       0.3058       2.4840       0.1926
   2413.5000       0.0070       0.2976       2.4910       0.1942
   2414.0000      -0.0010       0.2855       2.4960       0.1957
   2414.5000      -0.0160       0.2741       2.4840       0.1973
   2415.0000      -0.0120       0.2683       2.4770       0.1989
   2415.5000      -0.0070       0.2692       2.4780       0.2004
   2416.0000      -0.0010       0.2769       2.4810       0.2020
   2416.5000       0.0080       0.2967       2.5070       0.2036
   2417.0000       0.0170       0.3064       2.5260       0.1940
   2417.5000       0.0150       0.3171       2.5230       0.1840
   2418.0000       0.0110       0.3194       2.5110       0.1738
   2418.5000      -0.0040       0.3200       2.4680       0.1792
   2419.0000       0.0010       0.3193       2.4380       0.1847
   2419.5000       0.0090       0.3168       2.4390       0.1902
   2420.0000       0.0110       0.3005       2.4350       0.1936
   2420.5000      -0.0090       0.2912       2.4600       0.1936
   2421.0000      -0.0130       0.2941       2.4550       0.1936
   2421.5000      -0.0180       0.3001       2.4470       0.1936
   2422.0000      -0.0220       0.2975       2.4440       0.1951
   2422.5000      -0.0210       0.2957       2.4490       0.1990
