~VERSION INFORMATION
 VERS.                2.0:   CWLS LOG ASCII STANDARD - VERSION 2.0
 WRAP.                 NO:   ONE LINE PER DEPTH STEP
~WELL INFORMATION
#MNEM.UNIT      DATA TYPE    INFORMATION
#----------   ------------   ------------------------------
 STRT.F            0.0000:   START DEPTH
 STOP.F         5786.0000:   STOP DEPTH
 STEP.F            0.5000:   STEP LENGTH
 NULL.          -999.2500:   NO VALUE
 COMP. U.S. DEPARTMENT OF ENERGY:   COMPANY
 WELL. DEPARTMENT "X" #2-3:   WELL
 FLD .           N P R #3:   FIELD
 LOC .       S3 T38N R78W:   LOCATION
 CNTY.            NATRONA:   COUNTY
 STAT.            WYOMING:   STATE
 CTRY. UNITED STATES OF AMERICA:   COUNTRY
 SRVC.       BAKER HUHGES:   SERVICE COMPANY
 DATE.        14-JUL-2002:   LOGDATE
 API .     49025230540000:   API NUMBER
~CURVE INFORMATION
#MNEM.UNIT       API CODE    CURVE DESCRIPTION
#----------   ------------   ------------------------------
 DEPT.F                  :   
 TEND.LBS    45 635 01 00:   TENSION FROM DENSITY LOG
 CALD.IN     45 280 60 00:   CALIPER FROM DENSITY LOG
 ZCOR.G/C3   45 356 01 00:   DENSITY CORRECTION
 PE  .B/E    45 358 01 00:   PHOTOELECTRIC FACTOR
 ZDEN.G/C3   45 350 01 00:   BULK DENSITY
 CNCF.DEC    42 890 03 00:   NEUTRON POROSITY
 TENS.LBS    60 635 01 00:   TENSION FROM SONIC
 DT  .US/F   60 520 00 00:   DELTA TIME
 RD  .OHMM   11 220 10 00:   RESISTIVITY DEEP
 TENR.LBS    11 635 01 00:   TENSION FROM RES. LOG
 RS  .OHMM   11 220 09 00:   RESISTIVITY SHALLOW
 GRR .GAPI   11 310 01 00:   GAMMA RAY FROM RES.
 RMLL.OHMM   11 270 04 00:   MICRO LATEROLOG
 SPR .MV     11 010 01 00:   SPONTANEOUS POTENTIAL FROM RES.
~PARAMETER INFORMATION
#MNEM.UNIT          VALUE    DESCRIPTION
#----------   ------------   ------------------------------
 EKB .F         5164.7000:   Kelly bushing
 EGL .F         5154.7000:   Ground level
 EDF .F         5163.7000:   Drilling floor
 TD  .F         5773.0000:   Total depth
 DATE.        14-JUL-2002:   Date logged
 CLNT.            A2DTECH:   Client Code
 SL  . 838' FNL & 2128' FWL:   Surface Location
 PD  .                 GL:   Permanent Datum
 EPD .F            5154.7:   Elevation Permanent Datum
 LMF .                 KB:   Log Measured From
 DMF .                 KB:   Drilling Measured From
 DD  .F              5770:   Depth driller
 DL  .F              5773:   Depth logger
 BLI .F              5770:   Bottom log interval
 CS1 .IN            9.625:   Casing size
 CBD1.       9.625 @ 578':   Casing driller 1
 CBL1.F               578:   Casing logger 1
 BS1 .IN             8.75:   Bit size
 DFT .       GEL/CHEMICAL:   Type fluid in hole
 DFD .                  9:   Density
 DFV .                 45:   Viscosity
 DFPH.                8.5:   pH
 DFL .                9.6:   Fluid loss
 MSS .           FLOWLINE:   Source of sample
 RMS .OHMM          0.568:   Rm
 MST .F                91:   Rm Meas. temp.
 RMF .OHMM          0.490:   Rmf
 MFST.F                92:   Rmf Meas. temp.
 RMC .OHMM          1.072:   Rmc
 MCST.F                90:   Rmc Meas. temp.
 MFSS.               MEAS:   Source Rmf.
 RMB .OHMM          0.291:   Rm. at BHT
 BHT .F               184:   BHT.
 TCS .HRS               8:   Time Circ. stopped
 MRT .F               184:   Maximum recorded temp.
 LUN .            HL-6530:   Logging unit number
 LUL .             CASPER:   Logging unit location
 ENGI.           VERCIMAK:   Recorded By
 WITN.              HARDY:   Witnessed by
 ORIG.           5" PRINT:   Origin of data
 UWI .     49025230540000:   Unique Well ID
 DICO. A2D TECHNOLOGIES, INC.:   Digitizing Company
~OTHER INFORMATION
~A    DEPT    TEND       CALD       ZCOR         PE       ZDEN       CNCF       TENS         DT         RD       TENR         RS         GRR      RMLL        SPR   
# ...
 5733.0000    25.0000     8.0890     0.0770     2.7130     2.6840  -999.2500    -8.7530  -999.2500   196.9650    53.2930   163.5950  -999.2500    80.0150  -999.2500
 5733.5000    11.9170     8.0870     0.0390     2.4160     2.6710  -999.2500   -33.0370  -999.2500   206.0560    28.7430   177.3470  -999.2500   133.4690  -999.2500
 5734.0000    -8.5830     8.1160     0.0280     2.2380     2.6400  -999.2500   -45.2830  -999.2500   220.2110     3.8690   191.0990  -999.2500    92.0980  -999.2500
 5734.5000   -17.3000     8.0860     0.0240     2.2090     2.6080  -999.2500   -46.6060  -999.2500   241.3960     0.9800   204.8510  -999.2500    80.5050  -999.2500
 5735.0000    21.3570     8.0570     0.0330     2.2020     2.5750  -999.2500   -47.9290  -999.2500   258.7060    -1.9080   212.7020  -999.2500   134.7020  -999.2500
 5735.5000    60.0140     8.0270     0.0400     2.1960     2.5600  -999.2500   -49.2520  -999.2500   242.5840    -4.7960   207.2880  -999.2500   107.9120  -999.2500
 5736.0000    85.0000     8.0260     0.0460     2.1900     2.5510  -999.2500   -50.5760  -999.2500   171.0670    -5.0550   202.9560  -999.2500    73.4070  -999.2500
 5736.5000    71.0200     8.0110     0.0520     2.1830     2.5460  -999.2500   -51.8990  -999.2500   148.7550    -4.4840   177.2720  -999.2500    36.5180  -999.2500
 5737.0000    55.0000     7.9950     0.0590     2.1770     2.5430  -999.2500   -53.2220  -999.2500   128.6510    -3.9130   144.2360  -999.2500    37.7650  -999.2500
 5737.5000     5.0000     7.9860     0.0750     2.1710     2.5400  -999.2500   -54.6090  -999.2500   128.6510    -3.3420   134.7020  -999.2500    39.3050  -999.2500
 5738.0000     5.0000     7.9860     0.0770     2.1830     2.5390  -999.2500   -53.2260  -999.2500   128.6510    -2.7710   134.7020  -999.2500    38.9450  -999.2500
 5738.5000   -17.8860     7.9840     0.0760     2.2420     2.5470  -999.2500   -51.7730  -999.2500   131.1520    -2.2000   136.1500  -999.2500    43.0670  -999.2500
 5739.0000    55.0000     7.9810     0.0750     2.3510     2.5620  -999.2500   -50.3190  -999.2500   136.4100    -1.6290   141.4670  -999.2500    46.7660  -999.2500
 5739.5000    35.9000     7.9780     0.0800     2.5300     2.5830  -999.2500   -48.8650  -999.2500   164.5690    -1.0580   146.7840  -999.2500    47.6730  -999.2500
 5740.0000    60.5000     7.9760     0.0930     2.7440     2.6450  -999.2500   -47.4120  -999.2500   205.7570    -0.4870   169.1560  -999.2500    64.5280  -999.2500
 5740.5000    -5.0000     7.9730     0.1200     2.9600     2.7100  -999.2500   -45.9580  -999.2500   407.4390     0.0840   396.2440  -999.2500   229.5670  -999.2500
 5741.0000   -15.9780     7.9700     0.1250     3.1910     2.7620  -999.2500   -44.5050  -999.2500   645.0520     0.6550   749.9810  -999.2500   288.8750  -999.2500
 5741.5000   -22.8500     7.9680     0.1180     3.4480     2.7780  -999.2500   -43.0510  -999.2500   967.0970     1.2250  1103.7180  -999.2500   319.6120  -999.2500
 5742.0000   -10.5500     7.9340     0.1090     3.7950     2.7740  -999.2500   -41.5970  -999.2500  1353.2230     1.7960  1457.4550  -999.2500   733.4260  -999.2500
 5742.5000   -28.6250     7.8920     0.1010     4.1700     2.7660  -999.2500   -40.1440  -999.2500  1971.3060     2.3670  1832.7610  -999.2500  1936.6801  -999.2500
 5743.0000   -75.0000     7.8490  -999.2500     4.3280  -999.2500  -999.2500   -38.6900  -999.2500  2392.6230     2.9380  2392.6230  -999.2500  1936.6801  -999.2500
 5743.5000   -15.0000  -999.2500  -999.2500     4.4000  -999.2500  -999.2500   -37.2360  -999.2500  3041.3730     3.5090  3487.7629  -999.2500  1936.6801  -999.2500
 5744.0000    81.6330  -999.2500  -999.2500     4.4720  -999.2500  -999.2500   -35.7830  -999.2500  3693.2571     4.0800  3823.5530  -999.2500  1936.6801  -999.2500
 5744.5000   125.0000  -999.2500  -999.2500  -999.2500  -999.2500  -999.2500   -34.5690  -999.2500  4153.3188     4.4910  4153.3188  -999.2500  1936.6801  -999.2500
 5745.0000    98.5000  -999.2500  -999.2500  -999.2500  -999.2500  -999.2500   -23.6780  -999.2500  4308.8691    18.7960  4470.2461  -999.2500  1936.6801  -999.2500
 5745.5000    73.9000  -999.2500  -999.2500  -999.2500  -999.2500  -999.2500   -12.4600  -999.2500  4040.3521    25.8840  4511.5249  -999.2500  1936.6801  -999.2500
 5746.0000    55.0000  -999.2500  -999.2500  -999.2500  -999.2500  -999.2500    -1.2420  -999.2500  2123.1370    31.6600  3300.6150  -999.2500  1936.6801  -999.2500
 5746.5000    55.0000  -999.2500  -999.2500  -999.2500  -999.2500  -999.2500     9.9760  -999.2500  1103.5720    37.4370  1936.4210  -999.2500  1884.0040  -999.2500
 5747.0000    55.0000  -999.2500  -999.2500  -999.2500  -999.2500  -999.2500     5.1570  -999.2500   249.3670    43.2140   575.5880  -999.2500  1061.6700  -999.2500
 5747.5000    65.0000  -999.2500  -999.2500  -999.2500  -999.2500  -999.2500     2.1220  -999.2500   236.6760    44.4110   270.4990  -999.2500   249.2440  -999.2500
 5748.0000    53.5290  -999.2500  -999.2500  -999.2500  -999.2500  -999.2500    -0.9140  -999.2500   138.4680    44.4110    74.8500  -999.2500    45.9410  -999.2500
 5748.5000    44.7010  -999.2500  -999.2500  -999.2500  -999.2500  -999.2500    -3.9490  -999.2500    64.3930    44.4110    37.8270  -999.2500    16.5650  -999.2500
 5749.0000    35.8730  -999.2500  -999.2500  -999.2500  -999.2500  -999.2500    -8.8920  -999.2500    32.7410    32.9980    26.9630  -999.2500    10.9830  -999.2500
 5749.5000    27.0450  -999.2500  -999.2500  -999.2500  -999.2500  -999.2500   -15.9470  -999.2500    21.7620    17.6550    22.4350  -999.2500     6.9810  -999.2500
 5750.0000    18.2170  -999.2500  -999.2500  -999.2500  -999.2500  -999.2500   -23.0010  -999.2500    21.6250     2.3120    24.9620  -999.2500     8.0610  -999.2500
 5750.5000     9.3890  -999.2500  -999.2500  -999.2500  -999.2500  -999.2500   -30.0550  -999.2500    29.4430    -4.8740    30.6660  -999.2500     9.2830  -999.2500
 5751.0000     0.5610  -999.2500  -999.2500  -999.2500  -999.2500  -999.2500   -34.5690  -999.2500    36.5390    -2.7410    36.5180  -999.2500    15.4560  -999.2500
 5751.5000    -8.2670  -999.2500  -999.2500  -999.2500  -999.2500  -999.2500   -34.5690  -999.2500    40.2830    -0.6070    45.1150  -999.2500    29.3730  -999.2500
 5752.0000   -14.3860  -999.2500  -999.2500  -999.2500  -999.2500  -999.2500   -34.5690  -999.2500    42.3070     1.5260    49.9160  -999.2500    43.2910  -999.2500
 5752.5000   -11.7980  -999.2500  -999.2500  -999.2500  -999.2500  -999.2500   -34.5690  -999.2500    44.3310     3.6590    48.6750  -999.2500    53.2330  -999.2500
 5753.0000    -9.2110  -999.2500  -999.2500  -999.2500  -999.2500  -999.2500   -34.5690  -999.2500    45.5320     8.1200    50.0140  -999.2500    29.0860  -999.2500
 5753.5000    -6.6230  -999.2500  -999.2500  -999.2500  -999.2500  -999.2500   -34.5690  -999.2500    46.2570    17.0420    52.4010  -999.2500    20.6540  -999.2500
 5754.0000    -4.2950  -999.2500  -999.2500  -999.2500  -999.2500  -999.2500   -34.5690  -999.2500    48.1170    24.4510    54.7870  -999.2500    74.7970  -999.2500
 5754.5000    -2.4040  -999.2500  -999.2500  -999.2500  -999.2500  -999.2500   -34.5690  -999.2500    48.8380     8.2340    57.2950  -999.2500    66.0190  -999.2500
 5755.0000    -0.5130  -999.2500  -999.2500  -999.2500  -999.2500  -999.2500   -34.5690  -999.2500  -999.2500     0.0550  -999.2500  -999.2500    50.3240  -999.2500
 5755.5000     1.3780  -999.2500  -999.2500  -999.2500  -999.2500  -999.2500   -34.5690  -999.2500  -999.2500     0.8320  -999.2500  -999.2500    34.6300  -999.2500
 5756.0000     3.2690  -999.2500  -999.2500  -999.2500  -999.2500  -999.2500   -14.5290  -999.2500  -999.2500    20.4590  -999.2500  -999.2500    29.8320  -999.2500
 5756.5000     5.0000  -999.2500  -999.2500  -999.2500  -999.2500  -999.2500   -10.3350  -999.2500  -999.2500    44.4110  -999.2500  -999.2500    39.1390  -999.2500
 5757.0000    -2.6190  -999.2500  -999.2500  -999.2500  -999.2500  -999.2500     1.2060  -999.2500  -999.2500    34.4310  -999.2500  -999.2500    46.2700  -999.2500
