~VERSION INFORMATION
 VERS.                2.0:   CWLS LOG ASCII STANDARD - VERSION 2.0
 WRAP.                 NO:   ONE LINE PER DEPTH STEP
~WELL INFORMATION
#MNEM.UNIT      DATA TYPE    INFORMATION
#----------   ------------   ------------------------------
 STRT.F           14.0000:   START DEPTH
 STOP.F         3246.0000:   STOP DEPTH
 STEP.F            0.5000:   STEP LENGTH
 NULL.          -999.2500:   NO VALUE
 COMP.   LAWRENCE ALLISON:   COMPANY
 WELL. LAWRENCE "34X" #11:   WELL
 FLD .             N.P.R.:   FIELD
 LOC .      S34 T38N R78W:   LOCATION
 CNTY.            NATRONA:   COUNTY
 STAT.            WYOMING:   STATE
 CTRY. UNITED STATES OF AMERICA:   COUNTRY
 SRVC.      DRESSER ATLAS:   SERVICE COMPANY
 DATE.        02-MAY-1985:   LOGDATE
 API .     49025110530001:   API NUMBER
~CURVE INFORMATION
#MNEM.UNIT       API CODE    CURVE DESCRIPTION
#----------   ------------   ------------------------------
 DEPT.F                  :   
 CNC .DEC    42 890 03 00:   NEUTRON POROSITY
 CALD.IN     45 280 60 00:   CALIPER FROM DENSITY LOG
 CORR.G/C3   45 356 01 00:   DENSITY CORRECTION
 RHOB.G/C3   45 350 01 00:   BULK DENSITY
 GRR .GAPI   07 310 01 00:   GAMMA RAY FROM RESISTIVITY
 SPR .MV     07 010 01 00:   SPONTANEOUS POTENTIAL FROM RES.
 TENR.LBS    06 635 01 00:   TENSION FROM RESISTIVITY
 RILD.OHMM   07 120 46 00:   DEEP INDUCTION RESISTIVITY
 RILM.OHMM   07 120 44 00:   INDUCTION LOG MEDIUM RESISTIVITY
 RFOC.OHMM   07 220 04 00:   RESISTIVITY FOCUSED LOG RES.
~PARAMETER INFORMATION
#MNEM.UNIT          VALUE    DESCRIPTION
#----------   ------------   ------------------------------
 EKB .F         5099.0000:   Kelly bushing
 TD  .F         3239.0000:   Total depth
 CLNT.            A2DTECH:   Client Code
 PD  .                 GL:   Permanent Datum
 EPD .F              5087:   Elevation Permanent Datum
 LMF .                 KB:   Log Measured From
 DMF .                 KB:   Drilling Measured From
 DAPD.F                12:   Feet Above Permanent Datum
 DATE.        02-MAY-1985:   Date Logged [DD-MMM-YYYY]
 DD  .F              3239:   Depth driller
 DL  .F              3242:   Depth logger
 BLI .F              3294:   Bottom log interval
 CS1 .IN            8.625:   Casing size
 CBD1.      8.625" @ 487':   Casing driller 1
 CBL1.F               487:   Casing logger 1
 BS1 .IN            7.875:   Bit size
 BSD1.F              3239:   Depth drilled with bit1
 DFT .            KCL GEL:   Type fluid in hole
 DFD .                9.1:   Density
 DFV .                 35:   Viscosity
 DFPH.                  8:   pH
 DFL .                9.8:   Fluid loss
 MSS .           FLOWLINE:   Source of sample
 RMS .OHMM           0.27:   Rm
 MST .F                68:   Rm Meas. temp.
 RMF .OHMM           0.20:   Rmf
 MFST.F                68:   Rmf Meas. temp.
 MFSS.               MEAS:   Source Rmf.
 RMC .OHMM           0.34:   Rmc
 MCST.F                68:   Rmc Meas. temp.
 MCSS.               CALC:   Source Rmc.
 RMB .OHMM           0.15:   Rm. at BHT
 BHT .F               126:   BHT.
 TCS .HRS               3:   Time Circ. stopped
 MRT .F               126:   Maximum recorded temp.
 LUN .               6274:   Logging unit number
 LUL .               GLTE:   Logging unit location
 ENGI.       MACK/EDWARDS:   Recorded By
 WITN.             STRONG:   Witnessed by
 ORIG.           5" PRINT:   Origin of data
 UWI .     49025110260000:   Unique Well ID
 DICO. A2D TECHNOLOGIES, INC.:   Digitizing Company
~OTHER INFORMATION
~A   DEPT      CNC       CALD       CORR       RHOB        GRR        SPR       TENR       RILD       RILM       RFOC   
# ...
 1923.5000  -999.2500  -999.2500  -999.2500  -999.2500    99.2864   -63.9115   -65.7651     8.6705     7.3442     8.9912
 1924.0000  -999.2500  -999.2500  -999.2500  -999.2500    99.7668   -63.7401   -67.2614     8.6810     7.3003     8.9405
 1924.5000  -999.2500  -999.2500  -999.2500  -999.2500    95.7697   -63.5687   -61.1937     8.6722     7.3116     8.9519
 1925.0000  -999.2500  -999.2500  -999.2500  -999.2500    93.1106   -63.2476   -47.9356     8.6392     7.2679     8.7791
 1925.5000  -999.2500  -999.2500  -999.2500  -999.2500    92.9100   -63.2259   -41.8676     8.5922     7.2290     8.6097
 1926.0000  -999.2500  -999.2500  -999.2500  -999.2500    93.8462   -63.0539   -43.3643     8.6029     7.1880     8.4435
 1926.5000  -999.2500  -999.2500  -999.2500  -999.2500    94.9987   -62.8776   -42.1513     8.6158     7.1473     8.2758
 1927.0000  -999.2500  -999.2500  -999.2500  -999.2500    94.1333   -63.1553   -38.7292     8.5648     7.1583     8.0673
 1927.5000  -999.2500  -999.2500  -999.2500  -999.2500    91.6984   -63.1336   -35.3000     8.5769     7.3175     8.1336
 1928.0000  -999.2500  -999.2500  -999.2500  -999.2500    89.7120   -63.2616   -34.2663     8.5872     7.3774     8.3148
 1928.5000  -999.2500  -999.2500  -999.2500  -999.2500    90.8724   -63.3950   -35.8169     8.5976     7.3866     8.7385
 1929.0000  -999.2500  -999.2500  -999.2500  -999.2500    91.5765   -63.5180   -37.3677     8.6080     7.3957     8.9952
 1929.5000  -999.2500  -999.2500  -999.2500  -999.2500    92.5048   -63.6456   -39.0849     8.6184     7.3538     9.1322
 1930.0000  -999.2500  -999.2500  -999.2500  -999.2500    91.1910   -63.7735   -40.4689     8.5691     7.3041     9.2712
 1930.5000  -999.2500  -999.2500  -999.2500  -999.2500    91.4466   -63.8961   -42.0778     8.5202     7.2205     9.0952
 1931.0000  -999.2500  -999.2500  -999.2500  -999.2500    92.3750   -64.0241   -43.5740     8.4129     7.1796     8.9196
 1931.5000  -999.2500  -999.2500  -999.2500  -999.2500    94.7088   -64.0024   -45.1210     8.2521     7.1389     8.8666
 1932.0000  -999.2500  -999.2500  -999.2500  -999.2500    99.3964   -64.1358   -46.9412     8.2025     7.0985     9.0044
 1932.5000  -999.2500  -999.2500  -999.2500  -999.2500    99.8763   -64.0388   -56.0017     8.2149     7.1094     9.1415
 1933.0000  -999.2500  -999.2500  -999.2500  -999.2500   101.2531   -63.9371   -57.4984     8.2248     7.1183     8.8418
 1933.5000  -999.2500  -999.2500  -999.2500  -999.2500   104.4235   -63.9147   -66.5589     8.2351     7.1274     8.3737
 1934.0000  -999.2500  -999.2500  -999.2500  -999.2500   105.3440   -63.8884   -68.0556     8.2471     7.1381     8.2146
 1934.5000  -999.2500  -999.2500  -999.2500  -999.2500    99.7780   -63.8667   -69.5537     8.2571     7.1469     8.6360
 1935.0000  -999.2500  -999.2500  -999.2500  -999.2500    93.3072   -63.8473   -71.1045     8.2670     7.2555     8.9514
 1935.5000  -999.2500  -999.2500  -999.2500  -999.2500    91.7691   -63.8232   -72.9190     8.3346     7.3149     9.2783
 1936.0000  -999.2500  -999.2500  -999.2500  -999.2500    96.2928   -63.8015   -74.4153     8.4027     7.3748     8.7292
 1936.5000  -999.2500  -999.2500  -999.2500  -999.2500    96.9890   -63.7798   -75.9115     8.4714     7.5388     8.4948
 1937.0000  -999.2500  -999.2500  -999.2500  -999.2500    92.0956   -63.7575   -77.4081     8.5411     7.6009     9.0630
 1937.5000  -999.2500  -999.2500  -999.2500  -999.2500    88.3154   -63.7310   -71.2935     8.5536     7.7184     9.2618
 1938.0000  -999.2500  -999.2500  -999.2500  -999.2500    85.6563   -63.5595   -72.8368     8.5624     7.5170     9.2760
 1938.5000  -999.2500  -999.2500  -999.2500  -999.2500    85.9120   -63.3881   -66.7687     8.5742     7.3208     9.2208
 1939.0000  -999.2500  -999.2500  -999.2500  -999.2500    86.6315   -63.2167   -68.6392     8.5846     7.2771     9.1085
 1939.5000  -999.2500  -999.2500  -999.2500  -999.2500    86.2070   -63.1950   -70.1359     8.5949     7.2883     8.8100
 1940.0000  -999.2500  -999.2500  -999.2500  -999.2500    84.2205   -63.1733   -63.6940     8.6053     7.2470     8.5800
 1940.5000  -999.2500  -999.2500  -999.2500  -999.2500    83.7957   -63.0015   -57.6259     8.6160     7.2059     8.5320
 1941.0000  -999.2500  -999.2500  -999.2500  -999.2500    86.0771   -62.9747   -51.9321     8.5664     7.2171     8.6201
 1941.5000  -999.2500  -999.2500  -999.2500  -999.2500    87.6781   -62.9530   -53.4417     8.5175     7.2260     8.9811
 1942.0000  -999.2500  -999.2500  -999.2500  -999.2500    87.7096   -62.9313   -55.2993     8.4688     7.2349     9.0550
 1942.5000  -999.2500  -999.2500  -999.2500  -999.2500    87.7410   -62.9096   -48.8574     8.4204     7.2439     8.8190
 1943.0000  -999.2500  -999.2500  -999.2500  -999.2500    87.8034   -63.0430   -51.4192     8.4331     7.2529     8.5864
 1943.5000  -999.2500  -999.2500  -999.2500  -999.2500    88.4845   -63.0159   -59.6444     8.4433     7.2618     8.6597
 1944.0000  -999.2500  -999.2500  -999.2500  -999.2500    90.0854   -63.2975   -64.0701     8.3951     7.2711     8.9141
 1944.5000  -999.2500  -999.2500  -999.2500  -999.2500    90.3411   -64.0439   -70.3456     8.4077     7.2821     9.1763
 1945.0000  -999.2500  -999.2500  -999.2500  -999.2500    90.8210   -64.7471   -64.2780     8.4179     7.2911     9.1271
 1945.5000  -999.2500  -999.2500  -999.2500  -999.2500    91.7493   -64.8751   -68.8612     8.3698     7.3001     8.9481
 1946.0000  -999.2500  -999.2500  -999.2500  -999.2500    92.6777   -64.6983   -75.2091     8.3799     7.3091     8.7177
 1946.5000  -999.2500  -999.2500  -999.2500  -999.2500    93.8457   -64.5269   -76.7057     8.3316     7.2673     8.6658
 1947.0000  -999.2500  -999.2500  -999.2500  -999.2500    94.3180   -64.3555   -78.2020     8.3421     7.2767     8.4426
 1947.5000  -999.2500  -999.2500  -999.2500  -999.2500    95.0221   -64.1840   -79.6982     8.3524     7.2860     8.4534
 1948.0000  -999.2500  -999.2500  -999.2500  -999.2500    95.5019   -64.0120   -81.1949     8.3647     7.2970     8.7084
 1948.5000  -999.2500  -999.2500  -999.2500  -999.2500    95.7576   -63.8358   -82.7157     8.3144     7.2534     9.0223
 1949.0000  -999.2500  -999.2500  -999.2500  -999.2500    95.5649   -63.6644   -76.6235     8.3270     7.1647     9.2233
 1949.5000  -999.2500  -999.2500  -999.2500  -999.2500    93.8026   -63.6427   -78.4940     8.3370     7.0750     9.2962
 1950.0000  -999.2500  -999.2500  -999.2500  -999.2500    90.2466   -63.6209   -79.9902     8.3466     6.9382     8.6285
 1950.5000  -999.2500  -999.2500  -999.2500  -999.2500    89.8297   -63.5992   -81.4869     8.2993     6.8513     8.1179
 1951.0000  -999.2500  -999.2500  -999.2500  -999.2500    91.2143   -63.7275   -82.9831     8.3097     6.9133     8.0691
 1951.5000  -999.2500  -999.2500  -999.2500  -999.2500    89.2278   -63.7051   -76.8912     8.2644     6.9661     8.3144
 1952.0000  -999.2500  -999.2500  -999.2500  -999.2500    88.5788   -63.8335   -70.8474     8.2172     7.0232     8.6752
 1952.5000  -999.2500  -999.2500  -999.2500  -999.2500    90.1876   -63.8064   -72.7180     8.1702     7.0319     8.9301
 1953.0000  -999.2500  -999.2500  -999.2500  -999.2500    90.4433   -63.7846   -66.2760     8.1801     7.0406     9.1290
 1953.5000  -999.2500  -999.2500  -999.2500  -999.2500    90.4747   -63.9126   -68.1466     8.1309     7.0493     9.1406
 1954.0000  -999.2500  -999.2500  -999.2500  -999.2500    90.5067   -63.8909   -69.6432     8.1432     7.0093     8.9642
 1954.5000  -999.2500  -999.2500  -999.2500  -999.2500    90.7698   -64.0189   -71.1395     8.1533     7.0183     8.6105
 1955.0000  -999.2500  -999.2500  -999.2500  -999.2500    91.2496   -63.9970   -72.6361     8.1064     6.9782     8.4406
 1955.5000  -999.2500  -999.2500  -999.2500  -999.2500    91.2811   -64.1252   -74.1679     8.0601     6.8930     8.2269
 1956.0000  -999.2500  -999.2500  -999.2500  -999.2500    91.0805   -64.0980   -76.0029     8.0723     6.9015     8.2373
 1956.5000  -999.2500  -999.2500  -999.2500  -999.2500    88.4292   -64.2314   -77.4995     8.0237     6.7660     8.2478
