~VERSION INFORMATION
 VERS.                2.0:   CWLS LOG ASCII STANDARD - VERSION 2.0
 WRAP.                 NO:   ONE LINE PER DEPTH STEP
~WELL INFORMATION
#MNEM.UNIT      DATA TYPE    INFORMATION
#----------   ------------   ------------------------------
 STRT.F           22.0000:   START DEPTH
 STOP.F         4228.5000:   STOP DEPTH
 STEP.F            0.5000:   STEP LENGTH
 NULL.          -999.2500:   NO VALUE
 COMP. LAWRENCE ALLISON & ASSOCIATES:   COMPANY
 WELL. LAWRENCE NPR 3 "X" #25-2:   WELL
 FLD .                NPR:   FIELD
 LOC .       S2 T38N R78W:   LOCATION
 CNTY.            NATRONA:   COUNTY
 STAT.            WYOMING:   STATE
 CTRY. UNITED STATES OF AMERICA:   COUNTRY
 SRVC.      DRESSER ATLAS:   SERVICE COMPANY
 DATE.        22-DEC-1985:   LOGDATE
 API .     49025110700000:   API NUMBER
~CURVE INFORMATION
#MNEM.UNIT       API CODE    CURVE DESCRIPTION
#----------   ------------   ------------------------------
 DEPT.F                  :   
 TENS.LBS    60 635 01 00:   TENSION FROM SONIC
 DT  .US/F   60 520 00 00:   DELTA TIME
 SPHI.DEC    60 890 00 00:   SONIC POROSITY
 TENR.LBS    07 635 01 00:   TENSION FROM RESISTIVITY
 CALR.IN     07 280 01 00:   CALIPER FROM RESISTIVITY
 SPR .MV     07 010 01 00:   SPONTANEOUS POTENTIAL
 GRR .GAPI   07 310 01 00:   GAMMA RAY FROM RESISTIVITY
 SFL .OHMM   07 220 01 00:   SHALLOW FOCUSED LOG RESISTIVITY
 ILD .OHMM   07 120 46 00:   DEEP INDUCTION RESISTIVITY
 ILM .OHMM   07 120 44 00:   INDUCTION LOG MEDIUM RESISTIVITY
~PARAMETER INFORMATION
#MNEM.UNIT          VALUE    DESCRIPTION
#----------   ------------   ------------------------------
 EKB .F         5148.0000:   Kelly bushing
 EGL .F         5136.0000:   Ground level
 EDF .F            0.0000:   Drilling floor
 TD  .F         4228.0000:   Total depth
 DATE.        22-DEC-1985:   Date logged
 CLNT.            A2DTECH:   Client Code
 SL  . 1350' FWL & 1968' FSL:   Surface Location
 PD  .                 GL:   Permanent Datum
 DD  .F              4224:   Depth driller
 DL  .F              4228:   Depth logger
 BLI .F              4225:   Bottom log interval
 CS1 .IN            8.625:   Casing size
 CBD1.      8.625" @ 677':   Casing driller 1
 CBL1.F               677:   Casing logger 1
 BS1 .IN            7.875:   Bit size
 DFT .            KCL/GEL:   Type fluid in hole
 DFD .                9.2:   Density
 DFV .                 45:   Viscosity
 DFPH.                8.5:   pH
 DFL .               11.5:   Fluid loss
 MSS .               TANK:   Source of sample
 RMS .OHMM           .256:   Rm
 MST .F                63:   Rm Meas. temp.
 RMF .OHMM           .192:   Rmf
 MFST.F                64:   Rmf Meas. temp.
 RMC .OHMM           .320:   Rmc
 MCST.F                64:   Rmc Meas. temp.
 MFSS.               MEAS:   Source Rmf.
 RMB .OHMM           .119:   Rm. at BHT
 BHT .F               143:   BHT.
 TCS .HRS             4.5:   Time Circ. stopped
 MRT .F               143:   Maximum recorded temp.
 LUN .               6427:   Logging unit number
 LUL .          WILLISTON:   Logging unit location
 ENGI.             MCHUCH:   Recorded By
 WITN.             STRONG:   Witnessed by
 ORIG.           5" PRINT:   Origin of data
 UWI .     49025110700000:   Unique Well ID
 DICO. A2D TECHNOLOGIES, INC.:   Digitizing Company
 DAPD.                 12:   Feet Above Permanent Datum
 BSD1.               4224:   Depth drilled with bit1
 MCSS.               CALC:   Source Rmc.
 EPD .F              5136:   Elevation Permanent Datum
 LMF .                 KB:   Log Measured From
 DMF .                 KB:   Drilling Measured From
~OTHER INFORMATION
~A   DEPT     TENS         DT       SPHI       TENR       CALR        SPR         GRR       SFL        ILD        ILM   
# ...
 1864.5000  -999.2500  -999.2500  -999.2500   -85.8370    11.3890   -63.6940    93.4780     6.8140     7.0110     6.1990
 1865.0000  -999.2500  -999.2500  -999.2500   -85.3280    11.3580   -63.6030    93.6460     6.8380     7.0230     6.2350
 1865.5000  -999.2500  -999.2500  -999.2500   -84.8200    11.3270   -63.6790    95.8030     6.8560     7.0310     6.2700
 1866.0000  -999.2500  -999.2500  -999.2500   -84.3120    11.2990   -63.7630    97.8890     6.8740     7.0390     6.3050
 1866.5000  -999.2500  -999.2500  -999.2500   -83.8030    11.2210   -63.8490    98.6200     6.8930     7.0470     6.3410
 1867.0000  -999.2500  -999.2500  -999.2500   -83.2950    11.1390   -63.9300    96.4930     6.8930     7.0550     6.3760
 1867.5000  -999.2500  -999.2500  -999.2500   -82.7870    11.0520   -63.9320    94.4440     6.8930     7.0630     6.4120
 1868.0000  -999.2500  -999.2500  -999.2500   -82.2780    11.0050   -63.9320    93.1610     6.8930     7.0710     6.4640
 1868.5000  -999.2500  -999.2500  -999.2500   -81.7700    10.9880   -63.9310    95.6860     6.8930     7.0790     6.4480
 1869.0000  -999.2500  -999.2500  -999.2500   -81.2620    10.9580   -63.9340    96.9580     6.8930     7.0850     6.4160
 1869.5000  -999.2500  -999.2500  -999.2500   -80.7530    10.9130   -64.0310    98.6160     6.8930     7.0720     6.3840
 1870.0000  -999.2500  -999.2500  -999.2500   -80.2450    10.9070   -64.1340    99.4110     6.8930     7.0600     6.3520
 1870.5000  -999.2500  -999.2500  -999.2500   -79.7370    10.9020   -64.2370    99.2960     6.8930     7.0480     6.3210
 1871.0000  -999.2500  -999.2500  -999.2500   -79.2280    10.8960   -64.3220    99.2050     6.8940     7.0350     6.2890
 1871.5000  -999.2500  -999.2500  -999.2500   -78.7200    10.8910   -64.2820    99.7230     6.8610     7.0230     6.2570
 1872.0000  -999.2500  -999.2500  -999.2500   -78.2120    10.8860   -64.2400   101.4860     6.8210     6.9730     6.2260
 1872.5000  -999.2500  -999.2500  -999.2500   -77.7030    10.8800   -64.1990   100.7780     6.7820     6.9130     6.1940
 1873.0000  -999.2500  -999.2500  -999.2500   -77.1950    10.8770   -64.1570   100.1160     6.7420     6.8530     6.1620
 1873.5000  -999.2500  -999.2500  -999.2500   -76.6870    10.9010   -64.1160    99.4860     6.7030     6.7940     6.1300
 1874.0000  -999.2500  -999.2500  -999.2500   -76.1780    10.9260   -64.0740    98.9280     6.6630     6.7340     6.0990
 1874.5000  -999.2500  -999.2500  -999.2500   -75.6700    10.9500   -64.0320    98.3810     6.6450     6.7060     6.0670
 1875.0000  -999.2500  -999.2500  -999.2500   -75.5230    10.9690   -63.9910    97.8310     6.6450     6.7060     6.0350
 1875.5000  -999.2500  -999.2500  -999.2500   -75.5230    10.9860   -63.9490    96.0920     6.6450     6.7060     6.0060
 1876.0000  -999.2500  -999.2500  -999.2500   -75.5230    11.0030   -63.9540    92.2990     6.6450     6.7060     6.0770
 1876.5000  -999.2500  -999.2500  -999.2500   -75.5230    11.0200   -63.9910    92.8490     6.6450     6.7060     6.1420
 1877.0000  -999.2500  -999.2500  -999.2500   -75.5230    11.0320   -64.0290    94.0470     6.7120     6.8160     6.2070
 1877.5000  -999.2500  -999.2500  -999.2500   -75.5230    11.0180   -64.0660    95.2270     6.8650     7.0860     6.4590
 1878.0000  -999.2500  -999.2500  -999.2500   -75.5230    11.0040   -64.1040    97.7480     6.8930     7.0810     6.8930
 1878.5000  -999.2500  -999.2500  -999.2500   -75.5230    10.9830   -64.1410    99.9300     6.8930     7.0690     6.8540
 1879.0000  -999.2500  -999.2500  -999.2500   -75.5230    10.9400   -64.1790    99.2510     6.8930     7.0570     6.7550
 1879.5000  -999.2500  -999.2500  -999.2500   -75.5230    10.8980   -64.2170    97.9020     6.8800     7.0450     6.6570
 1880.0000  -999.2500  -999.2500  -999.2500   -75.5230    10.8560   -64.2540    99.5140     6.8440     7.0330     6.5580
 1880.5000  -999.2500  -999.2500  -999.2500   -75.5230    10.8140   -64.2920   103.3210     6.8080     7.0210     6.4590
 1881.0000  -999.2500  -999.2500  -999.2500   -75.5230    10.7720   -64.3290   106.1940     6.7720     7.0090     6.3610
 1881.5000  -999.2500  -999.2500  -999.2500   -75.5230    10.7300   -64.3670   106.4150     6.7360     6.9970     6.2620
 1882.0000  -999.2500  -999.2500  -999.2500   -75.5230    10.6880   -64.4050   105.8700     6.7000     6.9850     6.2090
 1882.5000  -999.2500  -999.2500  -999.2500   -75.5230    10.6470   -64.4420   104.9730     6.6450     6.9730     6.1760
 1883.0000  -999.2500  -999.2500  -999.2500   -75.5230    10.6160   -64.4800   103.6430     6.6560     6.9610     6.1440
 1883.5000  -999.2500  -999.2500  -999.2500   -75.5230    10.5870   -64.5170   100.3640     6.6810     6.9380     6.1110
 1884.0000  -999.2500  -999.2500  -999.2500   -75.5230    10.5600   -64.5550    97.5070     6.7060     6.9080     6.0780
 1884.5000  -999.2500  -999.2500  -999.2500   -75.5230    10.5810   -64.5930    98.2530     6.6650     6.8780     6.0460
 1885.0000  -999.2500  -999.2500  -999.2500   -75.5230    10.6040   -64.6300    98.7860     6.6250     6.8490     6.0060
 1885.5000  -999.2500  -999.2500  -999.2500   -75.5230    10.6280   -64.6680    99.0250     6.5840     6.8210     6.0160
 1886.0000  -999.2500  -999.2500  -999.2500   -75.5230    10.6520   -64.7050    99.2690     6.5940     6.7950     6.0340
 1886.5000  -999.2500  -999.2500  -999.2500   -75.5230    10.6760   -64.7330    99.4830     6.6080     6.7680     6.0520
 1887.0000  -999.2500  -999.2500  -999.2500   -75.5230    10.6990   -64.7500    99.1440     6.6210     6.8120     6.0700
 1887.5000  -999.2500  -999.2500  -999.2500   -75.5230    10.7130   -64.7670    96.5460     6.6350     6.8590     6.0880
 1888.0000  -999.2500  -999.2500  -999.2500   -75.5230    10.6920   -64.7840    95.1250     6.6920     6.9070     6.1060
 1888.5000  -999.2500  -999.2500  -999.2500   -75.5230    10.6730   -64.8020    94.4510     6.8580     6.9540     6.1240
 1889.0000  -999.2500  -999.2500  -999.2500   -75.5230    10.6660   -64.8190    94.7670     7.0240     7.0010     6.1420
 1889.5000  -999.2500  -999.2500  -999.2500   -75.5230    10.7100   -64.8360    95.4460     7.1890     7.0490     6.1600
 1890.0000  -999.2500  -999.2500  -999.2500   -75.5230    10.7530   -64.8530    96.1340     7.3550     7.0860     6.1740
 1890.5000  -999.2500  -999.2500  -999.2500   -75.5230    10.7960   -64.8700    96.8210     7.4190     7.0380     6.1570
 1891.0000  -999.2500  -999.2500  -999.2500   -75.5230    10.8380   -64.8870    97.9210     7.2990     6.9900     6.1430
 1891.5000  -999.2500  -999.2500  -999.2500   -75.5230    10.8750   -64.9040    99.3380     7.1930     6.9430     6.1290
 1892.0000  -999.2500  -999.2500  -999.2500   -75.5230    10.8760   -64.9270   100.6100     7.0550     6.8960     6.1160
 1892.5000  -999.2500  -999.2500  -999.2500   -75.5230    10.8760   -65.1110   101.6820     7.0100     6.8490     6.1020
 1893.0000  -999.2500  -999.2500  -999.2500   -75.5230    10.8760   -65.0670   102.7690     6.9950     6.8020     6.0880
 1893.5000  -999.2500  -999.2500  -999.2500   -75.5230    10.8760   -65.0050   102.8650     6.9800     6.7540     6.0740
 1894.0000  -999.2500  -999.2500  -999.2500   -75.5230    10.8760   -64.9400   102.4890     6.9650     6.7070     6.0620
 1894.5000  -999.2500  -999.2500  -999.2500   -75.5230    10.8840   -64.8440   102.8120     6.9470     6.6600     5.9350
 1895.0000  -999.2500  -999.2500  -999.2500   -75.5230    10.9200   -64.6700   104.3320     6.9280     6.5980     5.8190
 1895.5000  -999.2500  -999.2500  -999.2500   -75.5230    10.9560   -64.4970   106.2810     6.9080     6.5290     5.7030
 1896.0000  -999.2500  -999.2500  -999.2500   -75.5230    10.9910   -64.3370   108.0900     6.8580     6.4590     5.6400
 1896.5000  -999.2500  -999.2500  -999.2500   -75.5230    11.0270   -64.4730   109.1350     6.7080     6.3770     5.5860
 1897.0000  -999.2500  -999.2500  -999.2500   -75.5230    11.0550   -64.6190   111.2290     6.5580     6.2490     5.5330
 1897.5000  -999.2500  -999.2500  -999.2500   -75.5230    11.0810   -64.7640   112.5380     6.4050     6.1170     5.4790
