~VERSION INFORMATION
 VERS.                2.0:   CWLS LOG ASCII STANDARD - VERSION 2.0
 WRAP.                 NO:   ONE LINE PER DEPTH STEP
~WELL INFORMATION
#MNEM.UNIT      DATA TYPE    INFORMATION
#----------   ------------   ------------------------------
 STRT.F          208.0000:   START DEPTH
 STOP.F         2950.0000:   STOP DEPTH
 STEP.F            0.5000:   STEP LENGTH
 NULL.          -999.2500:   NO VALUE
 COMP.    FENIX & SCISSON:   COMPANY
 WELL.     FENIX A #56-28:   WELL
 FLD .                NPR:   FIELD
 LOC .      S28 T39N R78W:   LOCATION
 CNTY.            NATRONA:   COUNTY
 STAT.            WYOMING:   STATE
 CTRY. UNITED STATES OF AMERICA:   COUNTRY
 SRVC.              WELEX:   SERVICE COMPANY
 DATE.        20-AUG-1977:   LOGDATE
 API .     49025104140000:   API NUMBER
~CURVE INFORMATION
#MNEM.UNIT       API CODE    CURVE DESCRIPTION
#----------   ------------   ------------------------------
 DEPT.F                  :   
 SPR .MV     07 010 01 00:   SPONTANEOUS POTENTIAL
 RILM.OHMM   07 120 44 00:   INDUCTION LOG MEDIUM RESISTIVITY
 RILD.OHMM   07 120 46 00:   INDUCTION LOG DEEP RESISTIVITY
 SGRD.OHMM   07 220 05 00:   SHALLOW GUARD LOG RESISTIVITY
 CALD.IN     45 280 60 00:   CALIPER FROM DENSITY LOG
 DCOR.G/C3   45 356 01 00:   DENSITY CORRECTION
 GRD .GAPI   45 310 01 00:   GAMMA RAY FROM DENSITY LOG
 RHOB.G/C3   45 350 01 00:   BULK DENSITY
~PARAMETER INFORMATION
#MNEM.UNIT          VALUE    DESCRIPTION
#----------   ------------   ------------------------------
 EKB .F         5088.0000:   Kelly bushing
 EGL .F         5078.0000:   Ground level
 EDF .F            0.0000:   Drilling floor
 EPD .F         5078.0000:   Permanent datum
 TD  .F         2960.0000:   Total depth
 DATE.        20-AUG-1977:   Date logged
 CLNT.            A2DTECH:   Client Code
 SL  . 1650' FSL & 2310' FEL:   Surface Location
 PD  .                 GL:   Permanent Datum
 LMF .                 KB:   Log Measured From
 DMF .                 KB:   Drilling Measured From
 DAPD.F                10:   Feet Above Permanent Datum
 DD  .F              2960:   Depth driller
 DL  .F              2952:   Depth logger
 BLI .F              2950:   Bottom log interval
 TLI .F               210:   Top log interval
 CS1 .IN            8.625:   Casing size
 CBD1.      8.625" @ 215':   Casing driller 1
 CBL1.F               218:   Casing logger 1
 BS1 .IN            7.875:   Bit size
 BSD1.F              2960:   Depth drilled with bit1
 DFT .            KCL MUD:   Type fluid in hole
 DFD .                8.9:   Density
 DFV .                 60:   Viscosity
 DFPH.                 11:   pH
 DFL .                7.2:   Fluid loss
 MSS .           FLOWLINE:   Source of sample
 RMS .OHMM            .78:   Rm
 MST .F                81:   Rm Meas. temp.
 RMF .OHMM            .46:   Rmf
 MFST.F                81:   Rmf Meas. temp.
 RMC .OHMM           1.66:   Rmc
 MCST.F                81:   Rmc Meas. temp.
 MFSS.               CALC:   Source Rmf.
 MCSS.               CALC:   Source Rmc.
 RMB .OHMM            .56:   Rm. at BHT
 BHT .F               112:   BHT.
 TCS .HRS             2.5:   Time Circ. stopped
 MRT .F               112:   Maximum recorded temp.
 LUN .               8611:   Logging unit number
 LUL .             CASPER:   Logging unit location
 ENGI.             C DOAK:   Recorded By
 WITN.       B HARRINGTON:   Witnessed by
 ORIG.           5" PRINT:   Origin of data
 UWI .     49025104140000:   Unique Well ID
 DICO. A2D TECHNOLOGIES, INC.:   Digitizing Company
~OTHER INFORMATION
~A   DEPT      SPR       RILM       RILD       SGRD         CALD     DCOR        GRD       RHOB   
# ...
  572.5000   -72.9930     9.6590     8.0430    11.4940     9.5690     0.0080   124.3880     2.4620
  573.0000   -72.9760     9.8130     8.0430    11.5180     9.5620     0.0080   124.8590     2.4620
  573.5000   -72.9590    10.1110     8.0430    11.5910     9.5540     0.0070   123.0900     2.4630
  574.0000   -72.9430     9.6590     8.0430    11.5260     9.5470     0.0080   121.3920     2.4690
  574.5000   -72.9260     9.9280     8.0430    11.4030     9.5390     0.0100   119.6800     2.4790
  575.0000   -72.9100     9.7280     8.0430    11.2810     9.5320     0.0120   117.8320     2.4900
  575.5000   -72.8930     9.2270     8.0430    11.1830     9.5250     0.0140   116.0280     2.5000
  576.0000   -72.8760     9.5180     8.0430    11.4440     9.5180     0.0140   116.2700     2.5020
  576.5000   -72.8590     9.8090     8.0430    11.7060     9.5220     0.0120   117.1510     2.4990
  577.0000   -72.8460     9.9560     8.0430    11.5210     9.5370     0.0110   115.9640     2.4960
  577.5000   -72.9350    10.0040     8.0860    11.2860     9.5520     0.0090   114.8420     2.4930
  578.0000   -73.0280    10.0510     8.1300    11.5500     9.5680     0.0070   114.9660     2.4900
  578.5000   -73.1220    10.0990     8.1740    11.8180     9.5830     0.0050   116.3380     2.4840
  579.0000   -73.2180    10.1460     8.2170    12.1430     9.5990     0.0040   117.7470     2.4780
  579.5000   -73.1780    10.1940     8.2610    11.8400     9.6100     0.0050   117.4940     2.4840
  580.0000   -73.1060    10.2500     8.3050    11.6000     9.5770     0.0080   117.1170     2.4970
  580.5000   -73.0340    10.3080     8.3480    12.0280     9.5580     0.0110   116.7370     2.5000
  581.0000   -72.9610    10.3660     8.3920    12.2430     9.5800     0.0140   116.4420     2.5010
  581.5000   -72.8890    10.4240     8.4180    12.1280     9.6020     0.0170   116.3010     2.5000
  582.0000   -72.8820    10.4820     8.4080    12.0320     9.6030     0.0150   116.5560     2.4960
  582.5000   -72.9920    10.5410     8.4000    12.4440     9.5840     0.0130   117.1330     2.4930
  583.0000   -73.1010    10.5990     8.3910    12.6640     9.5650     0.0100   117.9050     2.4890
  583.5000   -73.2120    10.6820     8.3830    12.1430     9.5470     0.0090   118.9490     2.4860
  584.0000   -73.2350    10.6630     8.3750    12.8700     9.5390     0.0110   119.9730     2.4830
  584.5000   -73.2360    10.6280     8.3660    13.7420     9.5620     0.0120   120.9950     2.4810
  585.0000   -73.2350    10.5940     8.3580    12.1430     9.5840     0.0090   122.0200     2.4740
  585.5000   -73.2350    10.5590     8.3490    12.1970     9.6070     0.0060   122.9510     2.4630
  586.0000   -73.2350    10.5250     8.3430    12.2550     9.5920     0.0020   123.7010     2.4520
  586.5000   -73.2400    10.4880     8.4470    11.7390     9.5760     0.0020   124.4580     2.4530
  587.0000   -73.0870    10.6010     8.5380    11.4690     9.5910     0.0040   124.9890     2.4590
  587.5000   -72.8880    10.7190     8.6280    12.4410     9.6050     0.0060   122.2550     2.4660
  588.0000   -72.8700    10.8380     8.7190    12.9470     9.6190     0.0070   123.3510     2.4630
  588.5000   -72.9030    10.9560     8.8140    12.7320     9.6320     0.0050   125.2810     2.4580
  589.0000   -72.9370    11.0810     8.8500    13.0280     9.6360     0.0040   126.6830     2.4600
  589.5000   -72.9720    11.1090     8.8890    13.4300     9.6390     0.0070   125.9090     2.4690
  590.0000   -73.0060    11.1390     8.9280    13.3540     9.6430     0.0100   124.5800     2.4790
  590.5000   -73.0410    11.1830     8.9770    13.2150     9.6470     0.0120   123.2280     2.4890
  591.0000   -73.0750    11.1490     8.9620    13.0660     9.6500     0.0150   121.8760     2.4870
  591.5000   -73.1090    11.0850     8.9410    13.0660     9.6540     0.0160   120.5480     2.4820
  592.0000   -73.1430    11.0220     8.9210    13.0660     9.6570     0.0130   119.9030     2.4750
  592.5000   -73.1780    10.9800     8.9000    13.0660     9.6610     0.0110   121.2120     2.4770
  593.0000   -73.2130    11.0360     8.8650    13.0650     9.6640     0.0080   122.4440     2.4740
  593.5000   -73.2710    11.0810     8.8230    13.0640     9.6680     0.0050   123.1140     2.4680
  594.0000   -73.3980    10.9780     8.7820    13.0660     9.6710     0.0030   122.2060     2.4670
  594.5000   -73.5200    10.8680     8.7410    12.7800     9.6670     0.0080   121.3430     2.4800
  595.0000   -73.6220    10.7580     8.6990    12.2630     9.6640     0.0120   120.4850     2.4920
  595.5000   -73.5820    10.6680     8.6580    11.6000     9.6600     0.0170   119.6230     2.5020
  596.0000   -73.5410    10.6250     8.6160    11.7670     9.6560     0.0210   118.7550     2.5050
  596.5000   -73.5000    10.5810     8.5750    12.0010     9.6530     0.0220   117.8560     2.5080
  597.0000   -73.4590    10.5370     8.5340    12.2550     9.6490     0.0240   117.3110     2.5110
  597.5000   -73.4190    10.4930     8.4970    12.1280     9.6450     0.0240   117.6200     2.5120
  598.0000   -73.3780    10.4500     8.4970    12.0320     9.6420     0.0230   118.7870     2.5100
  598.5000   -73.3370    10.4060     8.4970    12.2510     9.6380     0.0210   119.9440     2.5050
  599.0000   -73.2970    10.3690     8.4970    12.3680     9.6340     0.0190   120.8190     2.5000
  599.5000   -73.2560    10.3350     8.4970    12.2320     9.6330     0.0170   120.9170     2.4950
  600.0000   -73.3090    10.3020     8.4260    12.1280     9.6360     0.0190   121.6050     2.4930
  600.5000   -73.4530    10.2680     8.3470    12.0240     9.6400     0.0210   122.5110     2.4950
  601.0000   -73.5980    10.2340     8.2670    11.9210     9.6430     0.0230   123.4160     2.4990
  601.5000   -73.7430    10.2040     8.1880    11.8170     9.6470     0.0250   123.9650     2.5020
  602.0000   -73.8880     9.7460     8.1090    11.7130     9.6500     0.0230   124.7000     2.5030
  602.5000   -74.0330     9.3820     8.0300    11.6000     9.6540     0.0200   126.2390     2.4980
  603.0000   -74.1820     9.3320     7.9510    11.3260     9.6570     0.0190   127.7490     2.4930
  603.5000   -74.1860     9.2820     7.8660    11.0260     9.6600     0.0190   129.2510     2.4840
  604.0000   -74.1470     9.2320     7.7660    10.8800     9.6640     0.0150   130.7470     2.4760
  604.5000   -74.1080     9.1830     7.6660    10.8800     9.6670     0.0100   131.8400     2.4670
  605.0000   -74.0680     9.1330     7.5660    10.8800     9.6710     0.0050   131.5060     2.4580
  605.5000   -74.0280     9.0830     7.4660    10.7960     9.6710     0.0030   131.6780     2.4490
  606.0000   -74.0270     9.0290     7.3670    10.6800     9.6710     0.0040   132.7250     2.4530
  606.5000   -74.0480     8.9710     7.3200    10.5640     9.6710     0.0050   133.8110     2.4600
  607.0000   -74.0680     8.9120     7.2950    10.4480     9.6710     0.0060   132.8820     2.4670
  607.5000   -74.0890     8.8540     7.2740    10.2700     9.6710     0.0070   131.6090     2.4720
  608.0000   -74.1090     8.7960     7.2870     9.9280     9.6710     0.0070   131.1110     2.4660
  608.5000   -74.1300     8.7340     7.3010    10.0780     9.6710     0.0080   131.8550     2.4610
  609.0000   -74.1500     8.7810     7.3140    10.4880     9.6710     0.0090   132.5380     2.4590
  609.5000   -74.1710     8.8310     7.3280    10.4600     9.6710     0.0070   131.8970     2.4560
  610.0000   -74.1920     8.8950     7.3410    10.3930     9.6710     0.0060   131.2500     2.4500
  610.5000   -74.2100     8.8680     7.3550    10.5730     9.6710     0.0040   132.2410     2.4450
  611.0000   -74.2860     8.8140     7.3680    10.8800     9.6710     0.0020   133.3180     2.4390
  611.5000   -74.3700     8.8770     7.3820    10.6780     9.6710     0.0000   134.3950     2.4340
  612.0000   -74.4550     8.9770     7.3950    10.3930     9.6710    -0.0020   135.5110     2.4280
  612.5000   -74.5390     8.7890     7.4070    10.5290     9.6710    -0.0030   134.8310     2.4280
