~VERSION INFORMATION
 VERS.                2.0:   CWLS LOG ASCII STANDARD - VERSION 2.0
 WRAP.                 NO:   ONE LINE PER DEPTH STEP
~WELL INFORMATION
#MNEM.UNIT      DATA TYPE    INFORMATION
#----------   ------------   ------------------------------
 STRT.F          250.5000:   START DEPTH
 STOP.F         2849.5000:   STOP DEPTH
 STEP.F            0.5000:   STEP LENGTH
 NULL.          -999.2500:   NO VALUE
 COMP. FENIX & SCISSON U.S. NAVY:   COMPANY
 WELL.   FENIX "A" #25-21:   WELL
 FLD .           N P R #3:   FIELD
 LOC .      S21 T39N R78W:   LOCATION
 CNTY.            NATRONA:   COUNTY
 STAT.            WYOMING:   STATE
 CTRY. UNITED STATES OF AMERICA:   COUNTRY
 SRVC.       SCHLUMBERGER:   SERVICE COMPANY
 DATE.        14-MAR-1977:   LOGDATE
 API .     49025103140000:   API NUMBER
~CURVE INFORMATION
#MNEM.UNIT       API CODE    CURVE DESCRIPTION
#----------   ------------   ------------------------------
 DEPT.F                  :   
 CALD.IN     45 280 60 00:   CALIPER FROM DENSITY LOG
 GRD .GAPI   45 310 01 00:   GAMMA RAY FROM DENSITY LOG
 RHOB.G/C3   45 350 01 00:   BULK DENSITY
 CORR.G/C3   45 356 01 00:   DENSITY CORRECTION
 SPR .MV     07 010 01 00:   SPONTANEOUS POTENTIAL
 LL8 .OHMM   07 220 08 00:   LATEROLOG-8 RES.
 ILM .OHMM   07 120 44 00:   INDUCTION LOG MEDIUM RESISTIVITY
 ILD .OHMM   07 120 46 00:   DEEP INDUCTION RESISTIVITY
~PARAMETER INFORMATION
#MNEM.UNIT          VALUE    DESCRIPTION
#----------   ------------   ------------------------------
 EKB .F         4963.0000:   Kelly bushing
 EGL .F         4953.0000:   Ground level
 EDF .F            0.0000:   Drilling floor
 TD  .F         2848.0000:   Total depth
 DATE.        14-MAR-1977:   Date logged
 CLNT.            A2DTECH:   Client Code
 SL  . 990' FWL & 2310' FSL:   Surface Location
 PD  .                 GL:   Permanent Datum
 DD  .F              2847:   Depth driller
 DL  .F              2848:   Depth logger
 BLI .F              2842:   Bottom log interval
 CS1 .IN            8.625:   Casing size
 CBD1.      8.625" @ 259':   Casing driller 1
 CBL1.F               261:   Casing logger 1
 BS1 .IN            7.875:   Bit size
 DFT .                KCL:   Type fluid in hole
 DFD .                9.2:   Density
 DFV .                 37:   Viscosity
 DFPH.                8.5:   pH
 DFL .                8.6:   Fluid loss
 MSS .           FLOWLINE:   Source of sample
 RMS .OHMM          0.226:   Rm
 MST .F                72:   Rm Meas. temp.
 RMF .OHMM          0.190:   Rmf
 MFST.F                72:   Rmf Meas. temp.
 MFSS.               MEAS:   Source Rmf.
 RMB .OHMM           .139:   Rm. at BHT
 BHT .F               117:   BHT.
 TCS .HRS            1800:   Time Circ. stopped
 MRT .F               117:   Maximum recorded temp.
 LUN .               5642:   Logging unit number
 LUL .               CSPR:   Logging unit location
 ENGI.         JIM MARTIN:   Recorded By
 WITN.               JAPP:   Witnessed by
 ORIG.           5" PRINT:   Origin of data
 UWI .     49025103140000:   Unique Well ID
 DICO. A2D TECHNOLOGIES, INC.:   Digitizing Company
 DAPD.                 10:   Feet Above Permanent Datum
 BSD1.               2847:   Depth drilled with bit1
 EPD .               4953:   Elevation Permanent Datum
 LMF .                 KB:   Log Measured From
 DMF .                 KB:   Drilling Measured From
 TLI .                261:   Top log interval
 TLAB.               2400:   Time logger at bottom
~OTHER INFORMATION
~A   DEPT     CALD         GRD      RHOB       CORR        SPR        LL8        ILM        ILD   
# ...
 1425.0000     9.2110   114.7320     2.5330     0.0070   -61.1020     7.3840     7.6110     7.9700
 1425.5000     9.1930   116.6940     2.5460     0.0150   -60.9900     7.3710     7.6110     7.8960
 1426.0000     9.1770   115.7950     2.5460     0.0250   -60.8830     7.3580     7.6110     7.9150
 1426.5000     9.2040   113.1210     2.5430     0.0160   -60.7630     7.3450     7.6110     7.9530
 1427.0000     9.2180   112.1410     2.5500     0.0190   -61.1530     7.3360     7.6110     7.9910
 1427.5000     9.2210   112.5840     2.5600     0.0260   -61.2660     7.3300     7.6110     8.0280
 1428.0000     9.2230   113.4640     2.5570     0.0300   -61.4050     7.3170     7.6110     8.0660
 1428.5000     9.2240   114.3570     2.5530     0.0190   -61.5520     7.3040     7.6110     8.1040
 1429.0000     9.2260   115.2400     2.5370     0.0120   -61.6980     7.2900     7.6110     8.1170
 1429.5000     9.2280   115.2750     2.5220     0.0110   -61.8500     7.2770     7.5930     8.0420
 1430.0000     9.2300   113.7700     2.5290     0.0210   -61.7810     7.2640     7.5760     7.9690
 1430.5000     9.2320   112.6870     2.5400     0.0260   -61.6500     7.2510     7.5580     7.8970
 1431.0000     9.2330   112.3750     2.5250     0.0180   -61.5160     7.2380     7.5410     7.8240
 1431.5000     9.2350   112.6890     2.5370     0.0090   -61.3830     7.2240     7.5230     7.8240
 1432.0000     9.2370   118.8430     2.5460     0.0120   -61.2500     7.2110     7.5060     7.8240
 1432.5000     9.2380   117.2390     2.5530     0.0160   -61.1170     7.1980     7.4890     7.8240
 1433.0000     9.2480   114.2350     2.5550     0.0190   -60.9850     7.1850     7.4710     7.8240
 1433.5000     9.2570   111.2430     2.5550     0.0220   -60.8890     7.1710     7.4540     7.8240
 1434.0000     9.2670   108.4180     2.5450     0.0240   -60.8890     7.1580     7.4360     7.8240
 1434.5000     9.2770   110.7660     2.5340     0.0190   -60.9810     7.1450     7.4190     7.8250
 1435.0000     9.2860   113.7790     2.5250     0.0050   -61.1100     7.0970     7.3360     7.8270
 1435.5000     9.2960   116.8210     2.5280     0.0110   -61.2390     6.9840     7.3160     7.7480
 1436.0000     9.3060   118.3700     2.5310     0.0140   -61.3690     6.8700     7.1680     7.6110
 1436.5000     9.3150   118.0820     2.5190     0.0100   -61.4980     6.8150     7.0060     7.4720
 1437.0000     9.3250   116.5900     2.5170     0.0070   -61.6280     6.8260     7.0060     7.4040
 1437.5000     9.3350   114.1810     2.5110     0.0020   -61.7590     6.9180     7.1020     7.5110
 1438.0000     9.3440   111.7710     2.5240     0.0100   -61.8730     7.0100     7.1750     7.5920
 1438.5000     9.3540   110.9380     2.5490     0.0220   -61.7260     7.1020     7.2480     7.6740
 1439.0000     9.3560   114.4500     2.5660     0.0200   -61.5750     7.1940     7.3210     7.7550
 1439.5000     9.3560   118.4680     2.5680     0.0280   -61.4250     7.3360     7.4040     7.8360
 1440.0000     9.3560   122.6220     2.5710     0.0350   -61.2760     7.2690     7.3610     7.8960
 1440.5000     9.3540   122.6170     2.5680     0.0260   -61.1260     7.1240     7.2680     7.7080
 1441.0000     9.3480   121.6470     2.5630     0.0270   -60.9760     6.9800     7.1750     7.5580
 1441.5000     9.3430   117.3410     2.5480     0.0160   -60.8260     6.8350     7.0820     7.4080
 1442.0000     9.3370   111.7050     2.5260     0.0060   -60.6760     6.7370     6.9880     7.2020
 1442.5000     9.3310   109.3840     2.5170     0.0030   -60.5320     6.6980     6.8780     7.2550
 1443.0000     9.3260   115.0860     2.5160     0.0010   -60.2720     6.6910     6.9450     7.3800
 1443.5000     9.3200   119.6260     2.5200     0.0040   -59.9890     6.7580     7.0530     7.5050
 1444.0000     9.3150   118.0510     2.5240     0.0060   -59.7180     6.8410     7.1610     7.6310
 1444.5000     9.3090   116.5440     2.5280     0.0090   -59.9500     6.9240     7.2690     7.6810
 1445.0000     9.3040   116.0790     2.5200     0.0110   -60.2090     7.0060     7.3250     7.5840
 1445.5000     9.2980   116.0030     2.5240     0.0070   -60.4660     6.9510     7.2220     7.4860
 1446.0000     9.3060   119.1690     2.5320     0.0010   -60.7210     6.8540     7.1400     7.4040
 1446.5000     9.3170   126.0480     2.5380     0.0030   -60.8710     6.7530     7.0710     7.5590
 1447.0000     9.3280   126.2920     2.5310     0.0060   -60.7910     6.8780     7.1680     7.6920
 1447.5000     9.3390   123.1460     2.5450     0.0080   -60.7160     7.0340     7.2690     7.7520
 1448.0000     9.3500   119.7660     2.5440    -0.0010   -60.6420     7.1360     7.3360     7.7520
 1448.5000     9.3610   117.4390     2.5340     0.0030   -60.5680     7.1190     7.3140     7.7520
 1449.0000     9.3720   117.8570     2.5290     0.0070   -60.4930     7.0950     7.2970     7.7520
 1449.5000     9.3830   118.1320     2.5280     0.0100   -60.4190     7.0700     7.2800     7.7530
 1450.0000     9.3950   117.0890     2.5300     0.0030   -60.3450     7.0460     7.2630     7.7360
 1450.5000     9.4050   116.0070     2.5310     0.0030   -60.2700     7.0220     7.2470     7.7030
 1451.0000     9.4170   114.1460     2.5330     0.0070   -60.1960     6.9980     7.2300     7.6700
 1451.5000     9.4330   111.5690     2.5390     0.0110   -60.1210     6.9740     7.2130     7.6370
 1452.0000     9.4240   109.0300     2.5590     0.0160   -60.0460     6.9500     7.1960     7.6030
 1452.5000     9.4150   107.1690     2.5400     0.0180   -59.9710     6.9260     7.1790     7.5700
 1453.0000     9.4060   107.7180     2.5230     0.0090   -59.9110     6.9020     7.1630     7.5370
 1453.5000     9.3970   112.2630     2.5140     0.0000   -60.1430     6.8780     7.1460     7.5040
 1454.0000     9.3880   117.3460     2.5210    -0.0030   -60.3790     6.8920     7.1360     7.4720
 1454.5000     9.3790   118.4330     2.5390     0.0070   -60.6140     6.9090     7.1890     7.5060
 1455.0000     9.3700   116.0680     2.5510     0.0140   -60.8480     6.9260     7.2320     7.5830
 1455.5000     9.3610   116.7310     2.5430     0.0070   -61.0820     6.9420     7.2750     7.6600
 1456.0000     9.3510   117.9650     2.5350     0.0020   -61.3170     7.0030     7.3180     7.7370
 1456.5000     9.3420   119.1960     2.5270    -0.0060   -61.5510     7.0630     7.3610     7.7520
 1457.0000     9.3370   120.4290     2.5170    -0.0050   -61.7860     7.1240     7.4040     7.8240
 1457.5000     9.3370   121.6650     2.5290     0.0060   -62.0280     7.1880     7.4230     7.8290
 1458.0000     9.3380   122.0580     2.5660     0.0160   -61.9550     7.2020     7.4420     7.8370
 1458.5000     9.3390   120.9200     2.5610     0.0190   -61.7940     7.1810     7.4620     7.8450
 1459.0000     9.3410   120.1660     2.5520     0.0140   -61.6310     7.1580     7.4810     7.8530
 1459.5000     9.3430   122.4640     2.5400     0.0120   -61.4670     7.1360     7.5010     7.8610
 1460.0000     9.3440   124.9860     2.5450     0.0130   -61.3040     7.1130     7.5200     7.8690
 1460.5000     9.3460   127.2700     2.5520     0.0190   -61.1400     7.0910     7.5390     7.8770
 1461.0000     9.3480   126.2730     2.5470     0.0170   -60.9760     7.0740     7.5590     7.8850
 1461.5000     9.3490   125.1750     2.5390     0.0200   -60.8150     7.1070     7.5780     7.8930
 1462.0000     9.3510   126.3400     2.5440     0.0280   -60.7270     7.1380     7.5980     7.8240
 1462.5000     9.3520   127.6540     2.5520     0.0330   -60.8890     7.1700     7.6170     7.8710
 1463.0000     9.3540   128.2790     2.5570     0.0190   -61.0440     7.2020     7.6360     7.9220
 1463.5000     9.3560   122.9420     2.5530     0.0260   -61.1980     7.2340     7.6560     7.9730
 1464.0000     9.3600   117.1510     2.5490     0.0070   -61.3530     7.2660     7.6750     8.0240
 1464.5000     9.3650   113.5770     2.5480     0.0120   -61.5070     7.2970     7.7080     8.0760
 1465.0000     9.3710   116.1580     2.5500     0.0090   -61.6620     7.3290     7.7520     8.1270
