~VERSION INFORMATION
 VERS.                2.0:   CWLS LOG ASCII STANDARD - VERSION 2.0
 WRAP.                 NO:   ONE LINE PER DEPTH STEP
~WELL INFORMATION
#MNEM.UNIT      DATA TYPE    INFORMATION
#----------   ------------   ------------------------------
 STRT.F         2185.0000:   START DEPTH
 STOP.F         5688.0000:   STOP DEPTH
 STEP.F            0.5000:   STEP LENGTH
 NULL.          -999.2500:   NO VALUE
 COMP.       FLUOR DANIEL:   COMPANY
 WELL.   FLUOR "X" #53-10:   WELL
 FLD .           N.P.R #3:   FIELD
 LOC .      S10 T38N R78W:   LOCATION
 CNTY.            NATRONA:   COUNTY
 STAT.            WYOMING:   STATE
 CTRY. UNITED STATES OF AMERICA:   COUNTRY
 SRVC.      WESTERN ATLAS:   SERVICE COMPANY
 DATE.        23-MAR-1997:   LOGDATE
 API .     49025228470000:   API NUMBER
~CURVE INFORMATION
#MNEM.UNIT       API CODE    CURVE DESCRIPTION
#----------   ------------   ------------------------------
 DEPT.F                  :   
 CNC .DEC    42 890 03 00:   NEUTRON POROSITY SANDSTONE
 TEND.LBS    45 635 01 00:   TENSION FORM DENSITY LOG
 GRD .GAPI   45 310 01 00:   GAMMA RAY FROM DENSITY LOG
 CALD.IN     45 280 60 00:   CALIPER FROM DENSITY LOG
 ZDEN.G/C3   45 350 01 00:   BULK DENSITY
 ZCOR.G/C3   45 356 01 00:   DENSITY CORRECTION
 PE  .B/E    45 358 01 00:   PHOTOELECTRIC FACTOR
 R4SL.OHMM   07 000 00 00:   RESISTIVITY DEL 4
 R2SL.OHMM   07 000 00 00:   RESISTIVITY DEL 2
~PARAMETER INFORMATION
#MNEM.UNIT          VALUE    DESCRIPTION
#----------   ------------   ------------------------------
 EKB .F         5182.0000:   Kelly bushing
 EGL .F         5172.0000:   Ground level
 EDF .F         5181.0000:   Drilling floor
 EPD .F         5172.0000:   Permanent datum
 TD  .F         5690.0000:   Total depth
 CLNT.            A2DTECH:   Client Code
 SL  . 1183' FNL & 2118' FEL:   Surface Location
 PD  .                 GL:   Permanent Datum
 LMF .                 KB:   Log Measured From
 DMF .                 KB:   Drilling Measured From
 DAPD.F                10:   Feet Above Permanent Datum
 DATE.        23-MAR-1997:   Date Logged [DD-MMM-YYYY]
 DD  .F              5690:   Depth driller
 DL  .F              5688:   Depth logger
 BLI .F              5648:   Bottom log interval
 TLI .F              2200:   Top log interval
 CS1 .IN            9.625:   Casing size
 CBD1.      9.625" @ 446':   Casing driller 1
 CBL1.F               452:   Casing logger 1
 BS1 .IN             8.75:   Bit size
 BSD1.F              5690:   Depth drilled with bit1
 DFT .           GEL CHEM:   Type fluid in hole
 DFD .                9.8:   Density
 DFV .                 66:   Viscosity
 DFPH.                8.5:   pH
 DFL .                8.4:   Fluid loss
 MSS .              CIRC.:   Source of sample
 RMS .OHMM            1.1:   Rm
 MST .F                73:   Rm Meas. temp.
 RMF .OHMM           0.87:   Rmf
 MFST.F                73:   Rmf Meas. temp.
 MFSS.               CALC:   Source Rmf.
 RMC .OHMM           1.35:   Rmc
 MCST.F                73:   Rmc Meas. temp.
 MCSS.               CALC:   Source Rmc.
 RMB .OHMM           0.46:   Rm. at BHT
 BHT .F               174:   BHT.
 TCS .HRS               5:   Time Circ. stopped
 MRT .F               174:   Maximum recorded temp.
 LUN .            HL 6530:   Logging unit number
 LUL .          CASPER WY:   Logging unit location
 ENGI.           BROWNLOW:   Recorded By
 WITN.              HARDY:   Witnessed by
 ORIG.     2.5", 5" PRINT:   Origin of data
 UWI .     49025228470000:   Unique Well ID
 DICO. A2D TECHNOLOGIES, INC.:   Digitizing Company
~OTHER INFORMATION
~A  DEPTH      CNC       TEND        GRD       CALD       ZDEN       ZCOR         PE       R4SL       R2SL
# ...
 2404.0000     0.2922    -4.8664   118.4709     9.1501     2.5196     0.0352     3.1346  -999.2500  -999.2500
 2404.5000     0.2928   -12.1814   117.5762     9.1510     2.5283     0.0412     3.2098  -999.2500  -999.2500
 2405.0000     0.2886   -19.4902   117.8922     9.1218     2.5374     0.0277     3.2734  -999.2500  -999.2500
 2405.5000     0.2874   -26.8022   119.4100     9.1077     2.5351     0.0171     3.3458  -999.2500  -999.2500
 2406.0000     0.2940   -34.1141   121.2290     9.1086     2.5108     0.0157     3.3910  -999.2500  -999.2500
 2406.5000     0.3000   -26.3874   122.7590     9.1247     2.4922     0.0487     3.2993  -999.2500  -999.2500
 2407.0000     0.3088   -26.2030   124.2651     9.1406     2.4823     0.0847     3.2551  -999.2500  -999.2500
 2407.5000     0.3106   -26.0188   123.0747     9.1565     2.4865     0.0997     3.2394  -999.2500  -999.2500
 2408.0000     0.2996   -25.8344   121.2792     9.1424     2.5045     0.0412     3.2239  -999.2500  -999.2500
 2408.5000     0.2739   -33.1464   115.2669     9.1433     2.5383     0.0217     3.2233  -999.2500  -999.2500
 2409.0000     0.2652   -32.9620   114.0739     9.1291     2.5555     0.0172     3.2077  -999.2500  -999.2500
 2409.5000     0.2592   -32.7776   112.5768     9.1300     2.5631     0.0187     3.2221  -999.2500  -999.2500
 2410.0000     0.2544   -32.5933   114.7000     9.1309     2.5653     0.0157     3.2065  -999.2500  -999.2500
 2410.5000     0.2532   -32.4213   115.0130     9.1168     2.5669     0.0112     3.1012  -999.2500  -999.2500
 2411.0000     0.2562   -32.2247   112.6152     9.1176     2.5661     0.0232     3.0407  -999.2500  -999.2500
 2411.5000     0.2583   -32.0403   108.7113     9.1185     2.5639     0.0292     3.0401  -999.2500  -999.2500
 2412.0000     0.2616   -31.8560   105.4099     9.1194     2.5624     0.0322     3.0844  -999.2500  -999.2500
 2412.5000     0.2679   -24.1754   103.3133     9.1203     2.5617     0.0352     3.0526  -999.2500  -999.2500
 2413.0000     0.2716    -8.9985   103.9277     9.1212     2.5595     0.0369     2.9909  -999.2500  -999.2500
 2413.5000     0.2727   -32.2934   104.2410     9.1221     2.5512     0.0493     2.9328  -999.2500  -999.2500
 2414.0000     0.2709   -46.1112   104.5565     9.1232     2.5430     0.0592     2.9173  -999.2500  -999.2500
 2414.5000     0.2679   -45.8807   108.4839     9.1391     2.5369     0.0412     2.9167  -999.2500  -999.2500
 2415.0000     0.2694   -30.7039   114.2186     9.1247     2.5373     0.0202     2.9312  -999.2500  -999.2500
 2415.5000     0.2736   -23.0233   117.8449     9.1409     2.5446     0.0052     2.9456  -999.2500  -999.2500
 2416.0000     0.2764   -22.8390   119.0586     9.1265     2.5446     0.0022     2.9449  -999.2500  -999.2500
 2416.5000     0.2773   -30.1509   117.2661     9.1276     2.5446     0.0037     2.9443  -999.2500  -999.2500
 2417.0000     0.2764   -45.0051   115.1695     9.1285     2.5469     0.0112     2.9437  -999.2500  -999.2500
 2417.5000     0.2745   -44.7747   113.0729     9.1294     2.5507     0.0172     2.9281  -999.2500  -999.2500
 2418.0000     0.2718   -44.5904   111.9155     9.1453     2.5530     0.0217     2.9275  -999.2500  -999.2500
 2418.5000     0.2731   -44.4061   110.6867     9.1462     2.5530     0.0247     2.9269  -999.2500  -999.2500
 2419.0000     0.2773   -44.2218   109.1808     9.1471     2.5500     0.0307     2.9413  -999.2500  -999.2500
 2419.5000     0.2797   -44.0374   108.3008     9.1480     2.5470     0.0309     2.9705  -999.2500  -999.2500
 2420.0000     0.2833   -43.8530   108.3156     9.1489     2.5440     0.0247     3.0000  -999.2500  -999.2500
 2420.5000     0.2887   -43.6656   112.8455     9.1498     2.5448     0.0201     3.1939  -999.2500  -999.2500
 2421.0000     0.2953   -43.4783   114.3633     9.1507     2.5508     0.0187     3.2085  -999.2500  -999.2500
 2421.5000     0.3001   -43.2540   115.2788     9.1518     2.5539     0.0232     3.2228  -999.2500  -999.2500
 2422.0000     0.2977   -43.0697   115.5918     9.1376     2.5554     0.0247     3.2221  -999.2500  -999.2500
 2422.5000     0.2906   -27.8928   114.7000     9.1385     2.5539     0.0247     3.2215  -999.2500  -999.2500
 2423.0000     0.2821   -20.2122   113.2058     9.1544     2.5516     0.0217     3.2359  -999.2500  -999.2500
 2423.5000     0.2791   -20.0279   112.0128     9.1553     2.5501     0.0187     3.2353  -999.2500  -999.2500
 2424.0000     0.2809   -27.3398   111.7229     9.1562     2.5487     0.0172     3.2347  -999.2500  -999.2500
 2424.5000     0.2812   -34.6518   111.1325     9.1418     2.5510     0.0217     3.2260  -999.2500  -999.2500
 2425.0000     0.2815   -34.4674   111.4458     9.1429     2.5533     0.0247     3.2186  -999.2500  -999.2500
 2425.5000     0.2815   -34.2830   111.4338     9.1438     2.5570     0.0292     3.0981  -999.2500  -999.2500
 2426.0000     0.2809   -34.0987   108.3608     9.1447     2.5608     0.0292     2.9328  -999.2500  -999.2500
 2426.5000     0.2779   -33.9144   107.2644     9.1456     2.5623     0.0292     2.8724  -999.2500  -999.2500
 2427.0000     0.2749   -33.7301   108.4839     9.1465     2.5624     0.0292     2.8418  -999.2500  -999.2500
 2427.5000     0.2716   -33.5457   110.3030     9.1474     2.5601     0.0292     2.8413  -999.2500  -999.2500
 2428.0000     0.2689   -33.3583   110.6130     9.1483     2.5579     0.0277     2.8708  -999.2500  -999.2500
 2428.5000     0.2632   -33.1709   107.3146     9.1472     2.5549     0.0277     2.9001  -999.2500  -999.2500
 2429.0000     0.2602   -32.9467   108.8324     9.1350     2.5519     0.0277     2.8994  -999.2500  -999.2500
 2429.5000     0.2584   -32.7623   108.8442     9.1211     2.5550     0.0292     2.9138  -999.2500     2.8845
 2430.0000     0.2578   -40.1203   108.2536     9.1220     2.5595     0.0277     2.9281  -999.2500     2.8262
 2430.5000     0.2581   -39.8899   107.9639     9.1228     2.5625     0.0277     2.9275  -999.2500     2.7311
 2431.0000     0.2596   -39.7055   109.4820     9.1388     2.5602     0.0292     2.9244  -999.2500     2.5850
 2431.5000     0.2602   -39.5212   109.4940     9.1244     2.5587     0.0292     2.8813  -999.2500     2.5152
 2432.0000     0.2562   -39.3369   110.1445     9.1255     2.5581     0.0292     2.8658  -999.2500     2.4814
 2432.5000     0.2569   -39.1526   111.6289     9.1414     2.5589     0.0277     2.8352  -999.2500     2.4826
 2433.0000     0.2647   -38.9682   113.4479     9.1423     2.5476     0.0217     2.8347  -999.2500     2.4833
 2433.5000     0.2798   -23.7913   115.2669     9.1432     2.5319     0.0487     2.8191  -999.2500     2.4501
 2434.0000     0.2828   -23.6071   117.0860     9.1742     2.5184     0.0967     2.8035  -999.2500     2.4509
 2434.5000     0.2774   -53.4077   118.9050     9.1901     2.5214     0.1237     2.7880  -999.2500     2.3849
 2435.0000     0.2593   -53.2234   120.1217     9.2060     2.5425     0.1072     2.7575  -999.2500     2.2888
 2435.5000     0.2500   -45.0340   119.5311     9.2370     2.5507     0.0529     2.7120  -999.2500     2.1965
 2436.0000     0.2570   -30.3598   117.4344     9.2379     2.5493     0.0616     2.8461  -999.2500     2.1372
 2436.5000     0.2734   -22.6393   116.8434     9.2239     2.5388     0.1102     2.9665  -999.2500     2.0438
 2437.0000     0.2774   -29.9512   117.4581     9.1795     2.5245     0.1207     3.0246  -999.2500     1.9589
 2437.5000     0.2762   -37.3092   120.7831     9.1355     2.5096     0.1192     3.0089     6.9980     1.9153
 2438.0000     0.2804   -44.6211   124.4587     9.1364     2.4878     0.1147     3.0083     6.8062     1.9973
 2438.5000     0.2897   -44.3907   125.3248     9.1373     2.4661     0.1207     3.0376     6.7127     2.1116
 2439.0000     0.2972   -44.2063   123.8306     9.1229     2.4519     0.1522     3.0820     6.6206     2.2636
 2439.5000     0.2942   -36.5258   125.0502     9.0789     2.4653     0.1552     3.0664     6.6218     2.4266
 2440.0000     0.2645   -28.8452   122.0500     9.0495     2.5091     0.1267     3.0209     6.7157     2.6012
