~VERSION INFORMATION
 VERS.                2.0:   CWLS LOG ASCII STANDARD - VERSION 2.0
 WRAP.                 NO:   ONE LINE PER DEPTH STEP
~WELL INFORMATION
#MNEM.UNIT      DATA TYPE    INFORMATION
#----------   ------------   ------------------------------
 STRT.F          482.0000:   START DEPTH
 STOP.F         4000.0000:   STOP DEPTH
 STEP.F            0.5000:   STEP LENGTH
 NULL.          -999.2500:   NO VALUE
 COMP.    FENIX & SCISSON:   COMPANY
 WELL. FENIX  NPR 3 "LX" #56-10:   WELL
 FLD .              N P R:   FIELD
 LOC .      S10 T38N R78W:   LOCATION
 CNTY.            NATRONA:   COUNTY
 STAT.            WYOMING:   STATE
 CTRY. UNITED STATES OF AMERICA:   COUNTRY
 SRVC.       SCHLUMBERGER:   SERVICE COMPANY
 DATE.        11-JUL-1978:   LOGDATE
 API .     49025107100000:   API NUMBER
~CURVE INFORMATION
#MNEM.UNIT       API CODE    CURVE DESCRIPTION
#----------   ------------   ------------------------------
 DEPT.F                  :   
 GRD .GAPI   45 310 01 00:   GAMMA RAY FROM DENSITY LOG
 CALD.IN     45 280 60 00:   CALIPER FROM DENSITY LOG
 RHOB.G/C3   45 350 01 00:   BULK DENSITY
 NPHI.DEC    42 890 03 00:   NEUTRON POROSITY SANDSTONE
 DRHO.G/C3   45 356 01 00:   DENSITY CORRECTION
 TEND.LBS    45 635 01 00:   TENSION FROM DENSITY LOG
 SPR .MV     07 010 01 00:   SPONTANEOUS POTENTIAL
 TENR.LBS    07 635 01 00:   TENSION FROM RESISTIVITY
 ILD .OHMM   07 120 46 00:   DEEP INDUCTION RESISTIVITY
 ILM .OHMM   07 120 44 00:   INDUCTION LOG MEDIUM RESISTIVITY
 SFLU.OHMM   07 220 01 00:   SPHERICALLY FOCUSED LOG UNAVERAGED RESISTIVITY
~PARAMETER INFORMATION
#MNEM.UNIT          VALUE    DESCRIPTION
#----------   ------------   ------------------------------
 EKB .F         5212.0000:   Kelly bushing
 EGL .F         5202.0000:   Ground level
 EDF .F            0.0000:   Drilling floor
 TD  .F         4000.0000:   Total depth
 DATE.        11-JUL-1978:   Date logged
 CLNT.            A2DTECH:   Client Code
 SL  . 1144' FSL & 2183' FEL:   Surface Location
 PD  .                 GL:   Permanent Datum
 EPD .F              5202:   Elevation Permanent Datum
 LMF .                 KB:   Log Measured From
 DMF .                 KB:   Drilling Measured From
 DD  .F              4000:   Depth driller
 DL  .F              3990:   Depth logger
 BLI .F              3985:   Bottom log interval
 TLI .F               501:   Top log interval
 CS1 .IN            9.625:   Casing size
 CBD1.      9.625" @ 500':   Casing driller 1
 CBL1.F               501:   Casing logger 1
 BS1 .IN            7.875:   Bit size
 DFT .                FGM:   Type fluid in hole
 DFD .                9.1:   Density
 DFV .                 50:   Viscosity
 DFPH.                 12:   pH
 DFL .                4.4:   Fluid loss
 MSS .           MUD/TANK:   Source of sample
 RMS .OHMM           .714:   Rm
 MST .F                83:   Rm Meas. temp.
 RMF .OHMM           .585:   Rmf
 MFST.F                83:   Rmf Meas. temp.
 MFSS.               MEAS:   Source Rmf.
 RMB .OHMM            .42:   Rm. at BHT
 BHT .F               140:   BHT.
 TCS .HRS            1000:   Time Circ. stopped
 MRT .F               140:   Maximum recorded temp.
 LUN .               8035:   Logging unit number
 LUL .       ROCK SPRINGS:   Logging unit location
 ENGI.             MARTIN:   Recorded By
 WITN.           MCCINLEY:   Witnessed by
 ORIG.           5" PRINT:   Origin of data
 UWI .     49025107100000:   Unique Well ID
 DICO. A2D TECHNOLOGIES, INC.:   Digitizing Company
 DAPD.F                10:   Feet Above Permanent Datum
 BSD1.F              4000:   Depth drilled with bit1
 TLAB.HRS            1300:   Time logger at bottom
~OTHER INFORMATION
~A   DEPT       GRD      CALD       RHOB         NPHI     DRHO       TEND        SPR       TENR        ILD        ILM       SFLU   
# ...
 3959.0000    46.3860     8.9760     2.6740     0.0480     0.0280  1660.6840   -15.9870  1377.2460    23.5990    21.9390    59.1680
 3959.5000    51.0440     8.9850     2.6670     0.0540     0.0250  1660.1270   -16.1840  1377.2460    24.0360    23.5990    58.0900
 3960.0000    55.4100     8.9850     2.6520     0.0710     0.0210  1659.5699   -16.3850  1377.2460    23.0870    22.7470    50.9660
 3960.5000    57.5320     8.9800     2.6260     0.0850     0.0180  1659.0129   -16.5840  1377.2460    20.9470    20.2150    41.9320
 3961.0000    58.0830     8.9720     2.5990     0.0930     0.0150  1658.4561   -16.7810  1377.2460    18.8060    18.1580    32.8980
 3961.5000    57.8520     8.9640     2.5940     0.1000     0.0110  1657.9000   -16.9890  1377.2460    16.6660    16.1010    23.8640
 3962.0000    54.0390     8.9550     2.5890     0.1010     0.0080  1657.3430   -17.1750  1377.2460    14.5250    14.0430    14.9030
 3962.5000    50.1600     8.9470     2.5850     0.0970     0.0050  1656.7860   -17.3760  1377.2460    12.3850    12.4010    14.6590
 3963.0000    47.5960     8.9390     2.5730     0.0930     0.0010  1656.2290   -17.1210  1377.2460    11.8810    12.6960    14.7940
 3963.5000    47.9050     8.9310     2.5770     0.0880     0.0020  1655.6720   -16.8190  1377.2460    11.7350    13.0660    14.9030
 3964.0000    49.7040     8.9220     2.5960     0.0830     0.0090  1655.1150   -16.5020  1377.2460    12.1470    13.4360    18.6870
 3964.5000    52.4500     8.9140     2.6240     0.0800     0.0160  1654.5580   -16.1960  1377.2460    13.2340    13.6670    22.4430
 3965.0000    55.3260     8.9060     2.6160     0.0810     0.0100  1654.0010   -15.8860  1377.2460    14.3650    13.7930    26.3510
 3965.5000    56.5910     8.8980     2.6090     0.0860     0.0050  1653.4449   -15.5760  1377.2460    14.1040    13.9190    26.8200
 3966.0000    54.7410     8.8890     2.6370     0.0980     0.0170  1652.8879   -15.2670  1377.2460    12.6430    14.0460    27.3370
 3966.5000    52.6590     8.8810     2.6540     0.1320     0.0480  1652.3311   -14.9560  1377.2460    11.3770    14.1040    26.0390
 3967.0000    52.8830     8.8730     2.6420     0.1630     0.0500  1651.7740   -14.6500  1377.2460    10.1110    13.0200    22.3320
 3967.5000    53.0760     8.8660     2.6180     0.1950     0.0410  1651.2170   -14.3380  1377.2460     8.8450    11.5430    17.9280
 3968.0000    53.3580     8.8660     2.5940     0.2180     0.0340  1650.6600   -14.0230  1377.2460     7.5490    10.0670    13.1790
 3968.5000    53.5820     8.8660     2.5740     0.2290     0.0260  1650.1030   -13.8320  1377.2460     7.2170     8.7450     8.4310
 3969.0000    53.8620     8.8660     2.5720     0.2240     0.0270  1649.5460   -13.9550  1377.2460     6.8350     7.9870     7.0140
 3969.5000    54.0480     8.8660     2.5740     0.2180     0.0320  1648.9900   -14.0700  1377.2460     6.4530     7.1350     7.0140
 3970.0000    54.6960     8.8660     2.5810  -999.2500     0.0370  1648.4330   -14.1950  1377.2460     6.0710     6.2830     7.4110
 3970.5000    55.6000     8.8660     2.5850  -999.2500     0.0420  1647.8760   -14.3160  1377.2460     5.6890     5.7330     7.8870
 3971.0000    55.7500     8.8660     2.5780  -999.2500     0.0470  1647.3190   -14.4370  1377.2460     5.3060     5.5170     8.4290
 3971.5000    55.5850     8.8660     2.5690  -999.2500     0.0500  1646.8250   -14.5590  1377.2460     4.9460     5.3010     8.2760
 3972.0000    54.8510     8.8660     2.5600  -999.2500     0.0430  1646.8250   -14.6810  1377.2460     4.7180     5.0430     7.1260
 3972.5000    54.9810     8.8660     2.5130  -999.2500     0.0330  1646.8250   -14.8020  1377.2460     4.5020     4.7620     6.0470
 3973.0000    54.9320     8.8660     2.4970  -999.2500     0.0210  1646.8250   -14.9240  1377.2460     4.2860     4.4810     4.9670
 3973.5000    54.9350     8.8650     2.5110  -999.2500     0.0210  1646.8250   -15.0450  1377.2460     4.0700     4.2000     4.3490
 3974.0000    54.9520     8.8660     2.5370  -999.2500     0.0290  1646.8250   -15.1670  1377.2460     3.8540     3.7540     4.3490
 3974.5000    54.9330     8.8660     2.5620  -999.2500     0.0370  1646.8250   -15.2890  1377.2460     3.6380     3.7580     4.5840
 3975.0000    54.9350     8.8740     2.5820  -999.2500     0.0440  1646.8250   -15.4100  1377.2460     3.5520     3.7670     4.9620
 3975.5000    54.9770     8.8810     2.5960  -999.2500     0.0510  1646.8250   -15.5330  1377.2460     3.6080     3.7770     4.8560
 3976.0000    54.8480     8.8880     2.5990  -999.2500     0.0590  1646.8250   -15.6510  1377.2460     3.6780     3.7870     4.9900
 3976.5000    55.6070     8.8950     2.5980  -999.2500     0.0590  1646.8250   -15.7720  1417.1660     3.7480     3.7960     5.1310
 3977.0000    55.6970     8.9020     2.5880  -999.2500     0.0520  1646.8250   -15.6990  1457.0861     3.8180     3.8060     5.0560
 3977.5000    55.6800     8.9090     2.5820  -999.2500     0.0470  1646.8250   -15.5640  1457.0861     3.8870     3.8150     4.9460
 3978.0000    54.2050     8.9160     2.5830  -999.2500     0.0440  1646.8250   -15.4300  1377.2460     3.9570     3.8240     5.1000
 3978.5000  -999.2500     8.9230     2.6050  -999.2500     0.0560  1646.8250   -15.2980  1337.3250     4.0270     4.0770     5.3780
 3979.0000  -999.2500     8.9300     2.6260  -999.2500     0.0680  1646.8250   -15.1640  1337.3250     4.0970     4.4140     5.6560
 3979.5000  -999.2500     8.9370     2.6270  -999.2500     0.0750  1646.8250   -15.0320  1457.0861     4.5310     4.7520     5.8360
 3980.0000  -999.2500     8.9440     2.6280  -999.2500     0.0670  1646.8250   -14.8980  1497.0060     5.0980     5.0900     5.9440
 3980.5000  -999.2500     8.9510     2.6110  -999.2500     0.0570  1646.8250   -14.7660  1455.3890     5.6650     5.4270     6.5090
 3981.0000  -999.2500     8.9570     2.5890  -999.2500     0.0470  1646.8250   -14.6330  1418.2629     5.9440     5.7290     7.5980
 3981.5000  -999.2500     8.9640     2.5780  -999.2500     0.0340  1646.8250   -14.4990  1377.2460     5.9440     5.7130     8.6870
 3982.0000  -999.2500     8.9710     2.5820  -999.2500     0.0380  1646.8250   -14.3690  1377.2460     5.9440     5.6890     9.2410
 3982.5000  -999.2500     8.9790     2.5950  -999.2500     0.0480  1646.8250   -14.2350  1377.2460     5.8250     5.6660     7.8070
 3983.0000  -999.2500     8.9860     2.6020  -999.2500     0.0590  1646.8250   -14.2570  1414.9301     5.7870     5.6420     6.4890
 3983.5000  -999.2500     8.9910     2.5970  -999.2500     0.0570  1646.8250   -14.3430  1494.1320     5.7490     5.5530     5.5230
 3984.0000  -999.2500     9.0020     2.5900  -999.2500     0.0490  1646.8250   -14.4290  1503.8290     5.7110     5.2800     5.1310
 3984.5000  -999.2500     9.0060     2.5920  -999.2500     0.0420  1646.8250   -14.5080  1431.8270     5.6730     5.0070  -999.2500
 3985.0000  -999.2500     9.0060     2.5970  -999.2500     0.0430  1646.8250   -14.5940  1359.8260     5.6350     4.8560  -999.2500
 3985.5000  -999.2500     9.0490     2.5790  -999.2500     0.0550  1646.8250  -999.2500  1287.8240     5.5970     4.8560  -999.2500
 3986.0000  -999.2500     8.7380     2.5480  -999.2500     0.0700  1646.8250  -999.2500  1217.5649     5.5590     4.8560  -999.2500
 3986.5000  -999.2500     8.0840     2.5210  -999.2500     0.1880  1646.8250  -999.2500  1352.7610     5.5210     4.8560  -999.2500
 3987.0000  -999.2500     7.5440     2.4970  -999.2500     0.2440  1646.8250  -999.2500  1484.7640     5.4830     4.8560  -999.2500
 3987.5000  -999.2500  -999.2500     2.4960  -999.2500  -999.2500  1646.8250  -999.2500  1556.8860     5.4450  -999.2500  -999.2500
 3988.0000  -999.2500  -999.2500     2.4960  -999.2500  -999.2500  1646.8250  -999.2500  1484.6310  -999.2500  -999.2500  -999.2500
 3988.5000  -999.2500  -999.2500  -999.2500  -999.2500  -999.2500  1646.8250  -999.2500  1369.1281  -999.2500  -999.2500  -999.2500
 3989.0000  -999.2500  -999.2500  -999.2500  -999.2500  -999.2500  1646.8250  -999.2500  1253.6260  -999.2500  -999.2500  -999.2500
