~VERSION INFORMATION
 VERS.                2.0:   CWLS LOG ASCII STANDARD - VERSION 2.0
 WRAP.                 NO:   ONE LINE PER DEPTH STEP
~WELL INFORMATION
#MNEM.UNIT      DATA TYPE    INFORMATION
#----------   ------------   ------------------------------
 STRT.F          200.0000:   START DEPTH
 STOP.F         3142.0000:   STOP DEPTH
 STEP.F            0.5000:   STEP LENGTH
 NULL.          -999.2500:   NO VALUE
 COMP.    FENIX & SCISSON:   COMPANY
 WELL.  FENIX "AX" #37-10:   WELL
 FLD .              NPR-3:   FIELD
 LOC .      S10 T38N R78W:   LOCATION
 CNTY.            NATRONA:   COUNTY
 STAT.            WYOMING:   STATE
 CTRY. UNITED STATES OF AMERICA:   COUNTRY
 SRVC.              WELEX:   SERVICE COMPANY
 DATE.        19-SEP-1977:   LOGDATE
 API .     49025104190000:   API NUMBER
~CURVE INFORMATION
#MNEM.UNIT       API CODE    CURVE DESCRIPTION
#----------   ------------   ------------------------------
 DEPT.F                  :   
 CALD.IN     45 280 60 00:   CALIPER FROM DENSITY LOG
 GRD .GAPI   45 310 01 00:   GAMMA RAY FROM DENSITY LOG
 RHOB.G/C3   45 350 01 00:   BULK DENSITY
 CORR.G/C3   45 356 01 00:   DENSITY CORRECTION
 NPHI.DEC    42 890 03 00:   NEUTRON POROSITY SANDSTONE
 SPR .MV     07 010 01 00:   SPONTANEOUS POTENTIAL
 SGRD.OHMM   07 220 05 00:   SHALLOW GUARD RESISTIVITY
 ILD .OHMM   07 120 46 00:   INDUCTION LOG DEEP RESISTIVITY
 ILM .OHMM   07 120 44 00:   INDUCTION LOG MEDIUM RESISTIVITY
 TENR.LBS    07 635 01 00:   TENSION FROM RESISTIVITY
~PARAMETER INFORMATION
#MNEM.UNIT          VALUE    DESCRIPTION
#----------   ------------   ------------------------------
 EKB .F         5221.0000:   Kelly bushing
 EGL .F         5211.0000:   Ground level
 EDF .F            0.0000:   Drilling floor
 TD  .F         3150.0000:   Total depth
 DATE.        19-SEP-1977:   Date logged
 CLNT.            A2DTECH:   Client Code
 SL  . 1190' FSL & 1750' FWL:   Surface Location
 PD  .                 GL:   Permanent Datum
 DD  .F              3150:   Depth driller
 DL  .F              3146:   Depth logger
 BLI .F              3144:   Bottom log interval
 CS1 .IN            8.625:   Casing size
 CBD1.      8.625" @ 215':   Casing driller 1
 BS1 .IN            7.875:   Bit size
 DFT .            KCL/MUD:   Type fluid in hole
 DFD .                8.9:   Density
 TCS .HRS               2:   Time Circ. stopped
 MRT .F               116:   Maximum recorded temp.
 ENGI.            C. DOAK:   Recorded By
 WITN.      B. HARRINGTON:   Witnessed by
 ORIG.           5" PRINT:   Origin of data
 UWI .     49025104190000:   Unique Well ID
 DICO. A2D TECHNOLOGIES, INC.:   Digitizing Company
 DAPD.F                10:   Feet Above Permanent Datum
 BSD1.F              3150:   Depth drilled with bit1
 EPD .F              5211:   Elevation Permanent Datum
 LMF .                 KB:   Log Measured From
 DMF .                 KB:   Drilling Measured From
 TLI .F               200:   Top log interval
 CBL1.                213:   Casing logger 1
 DFV .                 37:   Viscosity
 DFPH.                 11:   pH
 DFL .                5.8:   Fluid loss
 MSS .           MEASURED:   Source of sample
 RMS .               2.82:   Rm
 MST .                 94:   Rm Meas. temp.
 RMF .               1.61:   Rmf
 MFST.                 94:   Rmf Meas. temp.
 MFSS.               MEAS:   Source Rmf.
 RMC .               3.12:   Rmc
 MCST.                 94:   Rmc Meas. temp.
 MCSS.               MEAS:   Source Rmc.
 RMB .               2.28:   Rm. at BHT
 BHT .                116:   BHT.
 LUN .               8611:   Logging unit number
 LUL .             CASPER:   Logging unit location
~OTHER INFORMATION
~A   DEPT       CALD       GRD        RHOB      CORR      NPHI        SPR       SGRD        ILD        ILM       TENR   
# ...
  769.5000    11.4624    61.0273     2.4927     0.0193     0.2374   -75.5168     8.5948     6.1184     7.0881  1110.4075
  770.0000    11.5423    61.3397     2.4808     0.0134     0.2418   -75.7132     8.5166     6.1185     6.8955  1110.2180
  770.5000    11.6022    61.6520     2.4658     0.0094     0.2660   -75.7108     8.2856     6.1188     6.7701  1090.0596
  771.0000    11.6622    61.9644     2.4649     0.0154     0.2757   -75.7092     8.2101     6.1755     6.7084  1089.8698
  771.5000    11.6423    62.2768     2.4738     0.0154     0.2757   -75.7068     8.1354     6.2904     6.6472  1109.6493
  772.0000    11.6425    62.6047     2.4828     0.0174     0.2692   -75.7052     7.9877     6.2906     6.6474  1089.4904
  772.5000    11.6426    62.6059     2.4838     0.0094     0.2596   -75.7032     8.2868     6.2332     6.6476  1089.3007
  773.0000    11.6227    62.6070     2.4838     0.0154     0.2532   -75.7009    15.7590     6.2334     6.6477  1089.1113
  773.5000    11.5830    62.6082     2.4848     0.0075     0.2508   -75.6993     8.2875     6.1200     6.6481  1088.9215
  774.0000    11.5033    62.4101     2.4828     0.0154     0.2476   -75.8961     8.2877     6.0086     6.5272  1148.6046
  774.5000    11.4037    62.4113     2.4848     0.0154     0.2532   -76.0917     8.2122     5.9538     6.2917  1088.5419
  775.0000    11.3640    62.2132     2.4848     0.0174     0.2468   -76.4866     8.1375     5.7921     6.1206  1088.3522
  775.5000    11.2644    62.2144     2.4898     0.0175     0.2472   -76.4858     7.9167     5.7922     6.1209  1108.1332
  776.0000    11.2445    62.2157     2.4928     0.0195     0.2516   -76.4830     7.5618     5.2836     5.8460  1107.9436
  776.5000    11.2047    61.8181     2.4928     0.0215     0.2629   -76.4806     7.2227     5.2353     5.8461  1107.7542
  777.0000    11.1848    61.4205     2.4938     0.0215     0.2706   -76.4786     7.0915     5.1875     5.7398  1107.5645
  777.5000    11.2049    61.2223     2.4928     0.0215     0.2681   -76.4766     7.0918     5.1402     5.6353  1107.3749
  778.0000    11.2648    61.2235     2.4908     0.0195     0.2641   -76.4746     9.8705     5.0933     5.5328  1107.1857
  778.5000    11.3248    60.6269     2.4898     0.0115     0.2608   -76.4730     5.6093     5.0934     5.4824  1087.0620
  779.0000    11.3847    60.8271     2.4819     0.0076     0.2590   -76.4710     6.4055     5.0470     5.3826  1086.8350
  779.5000    11.4646    60.4289     2.4719     0.0056     0.2759   -76.4690     7.0280     5.0472     5.2364  1106.6169
  780.0000    11.5046    60.5906     2.4649     0.0036     0.2803   -76.4670     6.9640     5.0011     5.2365  1106.4272
  780.5000    11.4449    60.7522     2.4639     0.0056     0.2892   -76.4650     6.9006     5.0012     5.1887  1106.2377
  781.0000    11.4650    60.9139     2.4669     0.0076     0.2739   -77.0583     6.7752     4.7767     5.0943  1106.0480
  781.5000    11.4850    61.0755     2.4739     0.0156     0.2602   -77.0563     6.2955     4.7768     5.0016  1085.8853
  782.0000    11.5450    61.2372     2.4789     0.0156     0.2522   -77.0543     6.2382     4.7332     4.9560  1085.7333
  782.5000    11.5650    61.3989     2.4809     0.0156     0.2389   -77.0523     6.0134     4.6900     4.9561  1065.5698
  783.0000    11.5850    61.6351     2.4839     0.0156     0.2422   -77.0503     6.0691     4.6473     4.9563  1085.3540
  783.5000    11.5452    61.6359     2.4929     0.0156     0.2450   -77.0483     6.1819     4.6474     4.9564  1105.1382
  784.0000    11.5254    61.6364     2.5028     0.0156     0.2486   -77.0463     6.7766     4.6475     5.0024  1104.9486
  784.5000    11.5056    61.5247     2.4969     0.0156     0.2457   -77.0443     6.7769     4.6907     5.0488  1104.7589
  785.0000    11.5655    61.4130     2.4969     0.0156     0.2449   -77.0423     6.9027     4.7341     5.1427  1104.5693
  785.5000    11.5856    61.3014     2.4969     0.0137     0.2449   -77.0404     6.9029     4.8222     5.1904  1104.4176
  786.0000    11.5258    61.1897     2.4949     0.0097     0.2506   -77.0384     6.9032     4.8669     5.3358  1104.1899
  786.5000    11.4262    61.0780     2.4889     0.0097     0.2594   -77.0364     6.9034     5.0033     5.4351  1104.0002
  787.0000    11.3864    60.9664     2.4849     0.0097     0.2570   -77.0344     6.9037     5.0034     5.4855  1103.8105
  787.5000    11.4264    60.8480     2.4770     0.0077     0.2498   -77.0324     6.9676     5.1435     5.5363  1103.6210
  788.0000    11.4864    60.8489     2.4690     0.0077     0.2450   -77.0304     7.0322     5.1912     5.5365  1123.4076
  788.5000    11.4865    60.8501     2.4670     0.0077     0.2458   -77.0284     6.9681     5.2393     5.5368  1103.2419
  789.0000    11.4268    61.2504     2.4670     0.0097     0.2515   -77.0264     6.9684     5.2395     5.5369  1103.0524
  789.5000    11.3471    61.4511     2.4690     0.0137     0.2547   -77.0244     6.9049     5.2882     5.5371  1102.8627
  790.0000    11.3272    61.8514     2.4750     0.0157     0.2579   -77.0224     6.9051     5.1920     5.5373  1102.6730
  790.5000    11.3672    62.2517     2.4870     0.0177     0.2539   -77.0204     6.9054     5.1921     5.4868  1102.4833
  791.0000    11.4072    62.2525     2.4949     0.0197     0.2547   -77.0184     6.9056     5.1923     5.4869  1102.2936
  791.5000    11.4073    62.6533     2.5149     0.0237     0.2628   -77.0164     6.9696     5.1924     5.4871  1122.0811
  792.0000    11.3476    62.6545     2.5328     0.0277     0.2645   -77.0144     7.0342     5.1926     5.5380  1101.9142
  792.5000    11.3078    62.6558     2.5388     0.0357     0.2714   -77.0124     7.0993     5.1928     5.5894  1101.7245
  793.0000    11.2680    62.4575     2.5368     0.0337     0.2738   -77.0104     7.0347     5.1930     5.6934  1101.6870
  793.5000    11.2880    62.2592     2.5348     0.0337     0.2704   -77.0084     7.0998     5.1932     5.7992  1101.3455
  794.0000    11.3879    62.0609     2.5288     0.0318     0.2670   -77.0064     7.2317     5.1933     5.9072  1101.1558
  794.5000    11.3880    62.0621     2.5229     0.0298     0.2704   -77.0044     7.2320     5.1935     6.1855  1100.9659
  795.0000    11.3482    62.0633     2.5189     0.0278     0.2750   -77.0024     7.0357     5.1936     6.3588  1100.7762
  795.5000    11.3483    62.0646     2.5149     0.0258     0.2718   -77.0004     7.1008     5.1938     7.0364  1100.5865
  796.0000    11.3884    62.0658     2.5129     0.0258     0.2682   -76.9984     7.1010     5.1940     6.4180  1120.3759
  796.5000    11.4484    62.0671     2.5169     0.0239     0.2807   -76.9965     7.0364     5.1942     5.6947  1120.1864
  797.0000    11.6081    62.2679     2.5189     0.0239     0.2807   -76.9945     6.9723     5.1943     5.5910  1100.0175
  797.5000    11.7080    62.4687     2.5169     0.0219     0.2795   -76.9938     6.9726     5.1944     5.5400  1119.8073
  798.0000    11.7480    62.8691     2.5149     0.0199     0.2675   -77.1906     6.9091     5.1947     5.5402  1119.6177
  798.5000    11.7082    63.0700     2.5089     0.0199     0.2707   -77.1886     6.9093     5.1949     5.5404  1119.4282
  799.0000    11.6485    63.0712     2.5050     0.0199     0.2715   -77.1870     6.9733     5.1950     5.5406  1119.2386
  799.5000    11.5887    63.0725     2.5030     0.0199     0.2587   -77.1850     6.9736     5.1951     5.6437  1119.0870
  800.0000    11.5289    62.8746     2.5030     0.0219     0.2598   -77.1826     6.9738     5.1477     5.6960  1158.8586
  800.5000    11.5291    63.0520     2.5030     0.0219     0.2606   -77.0361     7.0318     5.0694     5.7467  1119.1570
  801.0000    11.5493    63.2779     2.5030     0.0260     0.2606   -77.1778     7.0402     5.0091     5.8035  1118.4781
  801.5000    11.5696    63.2800     2.5050     0.0280     0.2614   -76.9782     6.9768     5.0094     5.6990  1118.2660
  802.0000    11.5698    63.2817     2.5070     0.0300     0.2622   -77.1746     6.9779     5.0105     5.6994  1118.0540
  802.5000    11.4703    63.4834     2.5090     0.0320     0.2647   -76.9742     7.0433     5.0110     5.6480  1117.8420
