~VERSION INFORMATION
 VERS.                2.0:   CWLS LOG ASCII STANDARD - VERSION 2.0
 WRAP.                 NO:   ONE LINE PER DEPTH STEP
~WELL INFORMATION
#MNEM.UNIT      DATA TYPE    INFORMATION
#----------   ------------   ------------------------------
 STRT.F          212.0000:   START DEPTH
 STOP.F         3042.0000:   STOP DEPTH
 STEP.F            0.5000:   STEP LENGTH
 NULL.          -999.2500:   NO VALUE
 COMP.    FENIX & SCISSON:   COMPANY
 WELL.   FENIX "A" #74-28:   WELL
 FLD .             NPR #3:   FIELD
 LOC .      S28 T39N R78W:   LOCATION
 CNTY.            NATRONA:   COUNTY
 STAT.            WYOMING:   STATE
 CTRY. UNITED STATES OF AMERICA:   COUNTRY
 SRVC.              WELEX:   SERVICE COMPANY
 DATE.        03-AUG-1977:   LOGDATE
 API .     49025104080000:   API NUMBER
~CURVE INFORMATION
#MNEM.UNIT       API CODE    CURVE DESCRIPTION
#----------   ------------   ------------------------------
 DEPT.F                  :   
 SPR .MV     07 010 01 00:   SPONTANEOUS POTENTIAL
 ILD .OHMM   07 120 46 00:   INDUCTION LOG DEEP RESISTIVITY
 ILM .OHMM   07 120 44 00:   INDUCTION LOG MEDIUM RESISTIVITY
 SFLU.OHMM   07 220 01 00:   SPHERICALLY FOCUSED LOG UNAVERAGED RESISTIVITY
 CALD.IN     45 280 60 00:   CALIPER FROM DENSITY LOG
 GRD .GAPI   45 310 01 00:   GAMMA RAY FROM DENSITY LOG
 CORR.G/C3   45 356 01 00:   DENSITY CORRECTION
 RHOB.G/C3   45 350 01 00:   BULK DENSITY
~PARAMETER INFORMATION
#MNEM.UNIT          VALUE    DESCRIPTION
#----------   ------------   ------------------------------
 EKB .F         5050.0000:   Kelly bushing
 EGL .F         5040.0000:   Ground level
 EDF .F            0.0000:   Drilling floor
 TD  .F         3044.0000:   Total depth
 DATE.        03-AUG-1977:   Date logged
 CLNT.            A2DTECH:   Client Code
 SL  . 2310' FNL & 930' FEL:   Surface Location
 PD  .                 GL:   Permanent Datum
 EPD .F              5040:   Elevation Permanent Datum
 LMF .                 KB:   Log Measured From
 DMF .                 KB:   Drilling Measured From
 DAPD.F                10:   Feet Above Permanent Datum
 DD  .F              3044:   Depth driller
 DL  .F              3044:   Depth logger
 BLI .F              3042:   Bottom log interval
 TLI .F               238:   Top log interval
 CS1 .IN            8.625:   Casing size
 CBD1.      8.625" @ 220':   Casing driller 1
 CBL1.F               238:   Casing logger 1
 BS1 .IN            7.875:   Bit size
 BSD1.F              3044:   Depth drilled with bit1
 DFT .            KCL MUD:   Type fluid in hole
 DFV .                 35:   Viscosity
 DFPH.               10.5:   pH
 DFL .                7.2:   Fluid loss
 MSS .           FLOWLINE:   Source of sample
 RMS .OHMM           1.13:   Rm
 MST .F                84:   Rm Meas. temp.
 RMF .OHMM           0.77:   Rmf
 MFST.F                70:   Rmf Meas. temp.
 MFSS.           FANN KIT:   Source Rmf.
 MCSS.           FANN KIT:   Source Rmc.
 RMB .OHMM            .82:   Rm. at BHT
 BHT .F               118:   BHT.
 TCS .HRS               7:   Time Circ. stopped
 MRT .F               116:   Maximum recorded temp.
 LUN .               8611:   Logging unit number
 LUL .             CASPER:   Logging unit location
 ENGI.            C. DOAK:   Recorded By
 WITN.      W. PETTINGILL:   Witnessed by
 ORIG.         2.5" PRINT:   Origin of data
 UWI .     49025104080000:   Unique Well ID
 DICO. A2D TECHNOLOGIES, INC.:   Digitizing Company
~OTHER INFORMATION
~A   DEPT      SPR        ILD        ILM       SFLU         CALD       GRD       CORR        RHOB 
# ...
 2642.0000   -61.4270     6.7510     8.6890    12.4000     9.1080   129.2580     0.0410     2.5020
 2642.5000   -61.6550     6.6350     8.5950    12.6660     9.1410   131.1810     0.0390     2.4990
 2643.0000   -61.8790     6.5960     8.4780    11.9210     9.1730   130.0990     0.0380     2.5020
 2643.5000   -62.1140     6.5960     8.1500    11.2190     9.2050   129.1890     0.0360     2.5040
 2644.0000   -62.2070     6.5960     7.8220    10.1270     9.2380   128.0600     0.0340     2.5030
 2644.5000   -62.1980     6.5960     7.3760    10.3170     9.2700   125.9990     0.0340     2.4970
 2645.0000   -62.2000     6.5960     7.6560    10.7440     9.3020   123.8080     0.0360     2.4980
 2645.5000   -62.2010     6.5950     8.0900    11.1700     9.3350   121.5330     0.0380     2.5040
 2646.0000   -62.1990     6.5950     8.4130    11.3260     9.3670   120.8740     0.0400     2.5090
 2646.5000   -62.2000     6.5960     8.4490    11.3260     9.3990   121.0300     0.0420     2.5150
 2647.0000   -62.2000     6.5960     8.4840    11.3260     9.4320   121.1270     0.0430     2.5200
 2647.5000   -62.2000     6.5960     8.5200    11.3260     9.4630   121.2340     0.0450     2.5210
 2648.0000   -62.2010     6.5960     8.5630    11.4440     9.4980   121.3320     0.0450     2.5160
 2648.5000   -62.1980     6.7110     8.5810    12.2030     9.5180   121.4310     0.0390     2.5110
 2649.0000   -62.2020     6.8520     8.6260    12.1170     9.5470   121.5940     0.0340     2.5080
 2649.5000   -62.2120     6.9930     8.6700    11.9770     9.5780   121.4950     0.0280     2.5140
 2650.0000   -62.4110     7.1060     8.7240    11.9770     9.6100   123.2220     0.0260     2.5190
 2650.5000   -62.6160     7.0180     8.7240    12.2030     9.6410   126.2270     0.0260     2.5180
 2651.0000   -62.8280     6.9070     8.5380    10.7100     9.6720   128.9240     0.0260     2.5180
 2651.5000   -63.0360     6.7960     8.3510    10.8540     9.7030   131.9020     0.0260     2.5270
 2652.0000   -63.2450     6.6850     8.1630    11.2340     9.7350   132.2960     0.0260     2.5250
 2652.5000   -63.4530     6.5740     7.9760    11.0620     9.7660   130.8630     0.0260     2.5170
 2653.0000   -63.6720     6.4630     7.7880    10.7190     9.7980   130.5260     0.0260     2.5090
 2653.5000   -63.8990     6.3520     7.6010    10.3750     9.8290   130.9710     0.0260     2.5050
 2654.0000   -64.1480     6.2410     7.5150    10.0310     9.8600   131.3220     0.0260     2.5080
 2654.5000   -64.4070     6.1220     7.3160     9.5570     9.8920   131.6490     0.0260     2.5110
 2655.0000   -64.6670     5.9760     7.1400     8.9110     9.9230   132.0490     0.0260     2.5140
 2655.5000   -64.9240     5.8200     6.9650     8.9630     9.9540   132.3800     0.0260     2.5140
 2656.0000   -65.1840     5.6630     6.7890     9.0680     9.9570   135.9110     0.0260     2.5090
 2656.5000   -65.4410     5.5060     6.5960     9.2260     9.9600   139.8590     0.0270     2.5080
 2657.0000   -65.7030     5.3500     6.3290     8.8360     9.9620   140.0840     0.0270     2.5120
 2657.5000   -65.9590     5.1930     6.0310     8.0450     9.9650   140.0010     0.0270     2.5160
 2658.0000   -66.1890     5.0360     5.7320     7.2540     9.9670   139.8140     0.0270     2.5090
 2658.5000   -66.1970     4.8800     5.4340     6.3540     9.9700   139.7210     0.0280     2.5000
 2659.0000   -66.2020     4.7230     5.2730     6.6860     9.9720   139.5970     0.0280     2.5000
 2659.5000   -66.1990     4.5430     5.2830     7.3760     9.9750   139.4540     0.0280     2.5030
 2660.0000   -66.2000     4.5470     5.2990     7.0950     9.9770   139.3060     0.0280     2.4960
 2660.5000   -66.2000     4.5560     5.3140     6.3540     9.9800   138.4970     0.0290     2.4890
 2661.0000   -66.2000     4.5650     5.3300     6.7750     9.9820   137.7770     0.0290     2.4900
 2661.5000   -66.2000     4.5740     5.3460     7.3760     9.9850   136.9320     0.0290     2.5010
 2662.0000   -66.2000     4.5840     5.3610     7.2850     9.9870   134.4940     0.0290     2.5070
 2662.5000   -66.2000     4.5930     5.3770     7.1060     9.9890   132.7840     0.0290     2.5040
 2663.0000   -66.1990     4.6020     5.3920     7.2030     9.9930   132.9730     0.0300     2.5020
 2663.5000   -66.2010     4.6110     5.4080     7.4490     9.9950   132.9670     0.0300     2.5050
 2664.0000   -66.2000     4.6200     5.4230     7.8010     9.9940   132.8190     0.0300     2.5070
 2664.5000   -66.1970     4.6280     5.4390     7.7300     9.9640   134.0180     0.0300     2.5000
 2665.0000   -66.2110     4.6280     5.4540     7.6070     9.9370   135.9670     0.0310     2.5010
 2665.5000   -66.0840     4.6280     5.4740     7.4840     9.9070   137.6860     0.0310     2.5040
 2666.0000   -65.8410     4.6280     5.4690     7.3610     9.8800   139.3400     0.0310     2.5040
 2666.5000   -65.6140     4.6280     5.4530     7.2380     9.8490   138.5810     0.0310     2.5160
 2667.0000   -65.3860     4.6280     5.4360     7.1060     9.8310   137.2430     0.0320     2.5220
 2667.5000   -65.1560     4.6280     5.4200     7.0390     9.7870   135.9050     0.0320     2.5190
 2668.0000   -64.9280     4.7030     5.4060     6.8460     9.7430   134.7510     0.0320     2.5110
 2668.5000   -64.6980     4.8080     5.3920     7.0500     9.6970   133.5340     0.0320     2.5020
 2669.0000   -64.4730     4.9120     5.3730     7.6560     9.6530   132.5970     0.0320     2.4940
 2669.5000   -64.2370     5.0170     5.3730     7.3150     9.6080   127.9990     0.0330     2.4880
 2670.0000   -64.0150     5.1760     5.5360     7.5480     9.5620   123.6730     0.0330     2.4930
 2670.5000   -63.8270     5.1620     5.7740     8.6380     9.5180   127.1320     0.0330     2.4970
 2671.0000   -64.0730     5.1320     6.0120    10.3180     9.4760   134.0130     0.0330     2.5030
 2671.5000   -64.3080     5.1030     6.2370     9.8410     9.4740   141.2620     0.0340     2.5010
 2672.0000   -64.5660     5.0450     5.8850     8.8050     9.4740   144.6750     0.0340     2.4990
 2672.5000   -64.8100     4.9020     5.5520     7.7690     9.4740   144.5590     0.0340     2.4960
 2673.0000   -65.0520     4.7590     5.2190     6.9750     9.4740   143.5060     0.0340     2.5050
 2673.5000   -65.3190     4.6160     4.8940     6.9750     9.4740   142.6050     0.0330     2.5180
 2674.0000   -65.3150     4.4730     4.8940     6.9290     9.4690   141.9240     0.0330     2.5310
 2674.5000   -65.1270     4.3300     4.8940     6.7200     9.4550   140.5100     0.0320     2.5260
 2675.0000   -64.9680     4.2160     4.8940     6.8900     9.4420   137.8130     0.0310     2.5160
 2675.5000   -64.7980     4.2610     4.8940     7.1720     9.4280   136.6740     0.0310     2.5110
 2676.0000   -64.6290     4.3180     4.8940     7.4540     9.4150   134.5110     0.0300     2.5130
 2676.5000   -64.1400     4.3760     4.8940     6.8460     9.4020   132.9980     0.0320     2.5260
 2677.0000   -63.5390     4.5870     4.8940     7.6560     9.3810   132.9150     0.0350     2.5340
 2677.5000   -62.9420     4.8030     5.4280     7.5310     9.3470   132.9990     0.0380     2.5420
 2678.0000   -62.3500     5.0190     5.8850     7.2400     9.3140   131.8560     0.0410     2.5490
 2678.5000   -61.7540     5.2340     6.3420     8.5220     9.2810   128.7860     0.0440     2.5470
 2679.0000   -61.1560     5.4500     6.7980    10.4090     9.2470   125.7070     0.0470     2.5410
 2679.5000   -60.5710     5.6820     7.2550    11.7100     9.2140   123.3730     0.0500     2.5310
 2680.0000   -59.9580     6.0060     7.6560    12.6660     9.1800   118.9520     0.0530     2.5190
 2680.5000   -59.3770     6.3570     8.0270    12.1340     9.1530   113.2920     0.0540     2.5070
 2681.0000   -58.8170     6.7070     8.3580    11.3260     9.1180   107.7000     0.0510     2.4970
 2681.5000   -58.2240     7.0570     8.7240    11.5740     9.0700   106.6960     0.0430     2.4810
 2682.0000   -58.0640     7.3760     9.1820    12.6660     9.0240   109.2830     0.0350     2.4770
