~VERSION INFORMATION
 VERS.                2.0:   CWLS LOG ASCII STANDARD - VERSION 2.0
 WRAP.                 NO:   ONE LINE PER DEPTH STEP
~WELL INFORMATION
#MNEM.UNIT      DATA TYPE    INFORMATION
#----------   ------------   ------------------------------
 STRT.F          150.0000:   START DEPTH
 STOP.F         2929.0000:   STOP DEPTH
 STEP.F            0.5000:   STEP LENGTH
 NULL.          -999.2500:   NO VALUE
 COMP.    FENIX & SCISSON:   COMPANY
 WELL.    FENIX AX #12-28:   WELL
 FLD .        TEAPOT DOME:   FIELD
 LOC .      S28 T39N R78W:   LOCATION
 CNTY.            NATRONA:   COUNTY
 STAT.            WYOMING:   STATE
 CTRY. UNITED STATES OF AMERICA:   COUNTRY
 SRVC.           BIRDWELL:   SERVICE COMPANY
 DATE.        06-JUN-1978:   LOGDATE
 API .     49025106420000:   API NUMBER
~CURVE INFORMATION
#MNEM.UNIT       API CODE    CURVE DESCRIPTION
#----------   ------------   ------------------------------
 DEPT.F                  :   
 SPR .MV     05 010 01 00:   SPONTANEOUS POTENTIAL
 SN  .OHMM   05 040 16 00:   SHORT NORMAL 16"
 ILD .OHMM   05 120 46 00:   INDUCTION LOG DEEP RESISTIVITY
 RHOB.G/C3   45 350 01 00:   BULK DENSITY
 CORR.G/C3   45 356 01 00:   DENSITY CORRECTION
 GRD .GAPI   45 310 01 00:   GAMMA RAY FROM DENSITY LOG
 CALD.IN     45 280 60 00:   CALIPER FROM DENSITY LOG
~PARAMETER INFORMATION
#MNEM.UNIT          VALUE    DESCRIPTION
#----------   ------------   ------------------------------
 EKB .F         5000.0000:   Kelly bushing
 EGL .F         4990.0000:   Ground level
 EDF .F            0.0000:   Drilling floor
 EPD .F         5005.0000:   Permanent datum
 TD  .F         2911.0000:   Total depth
 DATE.        06-JUN-1978:   Date logged
 CLNT.            A2DTECH:   Client Code
 SL  . 1250' FNL & 225' FWL:   Surface Location
 PD  .                 GL:   Permanent Datum
 LMF .                 KB:   Log Measured From
 DMF .                 KB:   Drilling Measured From
 DAPD.F                10:   Feet Above Permanent Datum
 DD  .F              2911:   Depth driller
 DL  .F              2912:   Depth logger
 BLI .F              2906:   Bottom log interval
 TLI .F               200:   Top log interval
 CS1 .IN            8.625:   Casing size
 CBD1.      8.625" @ 225':   Casing driller 1
 CBL1.F               225:   Casing logger 1
 BS1 .IN            7.875:   Bit size
 BSD1.F              2911:   Depth drilled with bit1
 DFT .       OIL BASE MUD:   Type fluid in hole
 DFD .                9.2:   Density
 DFV .                 35:   Viscosity
 DFPH.               10.5:   pH
 DFL .                  2:   Fluid loss
 TCS .HRS             3.5:   Time Circ. stopped
 LUN .               2958:   Logging unit number
 LUL .               CASP:   Logging unit location
 ENGI.            POINTER:   Recorded By
 WITN.           MCGINLEY:   Witnessed by
 ORIG.           5" PRINT:   Origin of data
 UWI .     49025106420000:   Unique Well ID
 DICO. A2D TECHNOLOGIES, INC.:   Digitizing Company
~OTHER INFORMATION
~A   DEPT      SPR         SN        ILD       RHOB       CORR         GRD      CALD   
# ...
 2880.0000   -25.4570     5.2740     4.1230     2.5130     0.0270    90.2510     8.1350
 2880.5000   -25.1030     5.0700     4.0950     2.5120     0.0260    91.3010     8.1380
 2881.0000   -25.0840     4.9150     3.9750     2.5080     0.0250    93.0400     8.1210
 2881.5000   -25.6800     4.7520     3.8570     2.5050     0.0240    94.7680     8.1040
 2882.0000   -26.4540     4.5890     3.7440     2.5000     0.0230    96.4720     8.0870
 2882.5000   -26.1130     4.4250     3.6320     2.4940     0.0260    97.4470     8.0700
 2883.0000   -25.7130     4.3070     3.6120     2.4870     0.0320    96.6370     8.0530
 2883.5000   -25.3200     4.3530     3.6060     2.4890     0.0380    95.7800     8.0370
 2884.0000   -25.3320     4.3890     3.6010     2.4920     0.0410    97.5800     8.0200
 2884.5000   -25.8420     4.4250     3.5960     2.4960     0.0420    98.8780     8.0030
 2885.0000   -26.3620     4.4690     3.5910     2.4920     0.0430    96.7870     7.9860
 2885.5000   -26.4870     4.4140     3.5850     2.4890     0.0430    97.3430     7.9690
 2886.0000   -26.4880     4.3430     3.5700     2.4850     0.0440    96.3730     7.9530
 2886.5000   -26.3930     4.2720     3.5490     2.4840     0.0440    95.1200     7.9500
 2887.0000   -25.8850     4.2020     3.5290     2.4850     0.0450    94.5140     7.9620
 2887.5000   -25.5990     4.1460     3.5050     2.4860     0.0480    95.4490     8.0440
 2888.0000   -26.1360     4.1260     3.4600     2.4860     0.0520    97.1700     8.1520
 2888.5000   -26.6620     4.1050     3.4150     2.4840     0.0550    98.1080     8.1850
 2889.0000   -26.2780     4.0850     3.3700     2.4810     0.0580    97.6630     8.0890
 2889.5000   -25.8150     4.0650     3.3460     2.4790     0.0590    97.2400     7.9940
 2890.0000   -25.3510     4.0450     3.3280     2.4790     0.0610    96.8130     7.9060
 2890.5000   -24.9210     4.0240     3.3100     2.4820     0.0640    96.3810     7.9170
 2891.0000   -25.2360     4.0040     3.2920     2.4800     0.0640    95.8440     7.9370
 2891.5000   -25.5920     4.0020     3.2740     2.4780     0.0630    97.6740     7.9560
 2892.0000   -25.5430     4.0020     3.2470     2.4760     0.0620   100.3980     7.9750
 2892.5000   -25.2310     4.0020     3.2170     2.4770     0.0600   101.7720     7.9830
 2893.0000   -24.9150     3.9780     3.1870     2.4790     0.0590   100.4340     7.9840
 2893.5000   -25.0510     3.9100     3.1570     2.4800     0.0580    99.1410     7.9840
 2894.0000   -25.4020     3.8430     3.1270     2.4800     0.0570    97.8400     7.9840
 2894.5000   -25.7890     3.7760     3.0770     2.4810     0.0550    96.5160     7.9840
 2895.0000   -26.0610     3.6290     3.0240     2.4810     0.0540    98.7910     7.9830
 2895.5000   -25.8590     3.4390     2.9700     2.4790     0.0530   102.3150     7.9520
 2896.0000   -25.6370     3.2650     2.9160     2.4760     0.0520   104.1820     7.8150
 2896.5000   -25.0180     3.2350     2.8630     2.4740     0.0500   104.6430     7.8210
 2897.0000   -25.2900     3.2040     2.8090     2.4750     0.0490   102.7470     7.8680
 2897.5000   -25.7550     3.1780     2.7550     2.4750     0.0480   105.3560     7.9150
 2898.0000   -26.2510     3.1710     2.7360     2.4740     0.0470   106.1050     7.9450
 2898.5000   -25.6600     3.1650     2.7270     2.4720     0.0450   105.7300     7.9500
 2899.0000   -25.2880     3.1580     2.7170     2.4660     0.0440   107.4760     7.9550
 2899.5000   -24.9020     3.1520     2.7080     2.4600     0.0430   106.9350     7.9600
 2900.0000   -24.7800     3.1150     2.6980     2.4550     0.0480   106.3530     7.9550
 2900.5000   -25.0770     3.0630     2.6830     2.4560     0.0540   106.1360     7.9200
 2901.0000   -25.3650     3.0080     2.6610     2.4580     0.0550   107.7380     7.8870
 2901.5000   -25.4540     3.0060     2.6400     2.4590     0.0550   109.3570     7.8530
 2902.0000   -25.3340     3.0040     2.6180     2.4580     0.0550   110.6800     7.8190
 2902.5000   -25.2150     3.0020     2.5960     2.4580     0.0550   109.2830     7.7860
 2903.0000   -25.1060     2.9990     2.6200     2.4570     0.0560   107.8190     7.8130
 2903.5000   -25.2460     2.9970     2.6450     2.4610     0.0580   108.0450     7.8470
 2904.0000   -25.2320     2.9950     2.6700     2.4650     0.0590   110.3850     7.8810
 2904.5000   -25.0870     2.9930     2.6940     2.4690     0.0600   110.0760     7.9040
 2905.0000   -24.9420     2.9900     2.6810     2.4680     0.0620   109.3930     7.9000
 2905.5000   -24.8080     2.9880     2.6680     2.4650     0.0640   109.0760     7.8960
 2906.0000   -24.8620     2.9860     2.6560     2.4630     0.0680   110.2940     7.8920
 2906.5000   -24.9060     2.9840     2.6450     2.4670     0.0710   110.2860     7.8890
 2907.0000   -24.9020     2.9810  -999.2500     2.4710     0.0750   108.0600     7.8850
 2907.5000   -24.9010  -999.2500  -999.2500     2.4750     0.0790   105.9270     7.8890
 2908.0000   -24.9010  -999.2500  -999.2500     2.4760     0.0780   106.7420     7.8940
 2908.5000   -24.9010  -999.2500  -999.2500     2.4710     0.0770   107.9370     7.8990
 2909.0000   -24.9000  -999.2500  -999.2500     2.4660     0.0790   109.1300     7.9030
 2909.5000   -24.9020  -999.2500  -999.2500     2.4670     0.0830   110.3310     7.9050
 2910.0000   -25.1220  -999.2500  -999.2500     2.4700     0.0880   110.3160     7.9060
 2910.5000   -25.3750  -999.2500  -999.2500     2.4740     0.0990   109.2660     7.9070
 2911.0000   -25.3470  -999.2500  -999.2500     2.4840     0.1100   108.2030     7.9090
 2911.5000   -25.0740  -999.2500  -999.2500     2.4940     0.1200   107.1200     7.9100
 2912.0000  -999.2500  -999.2500  -999.2500     2.5040     0.1310   107.2320     7.9110
 2912.5000  -999.2500  -999.2500  -999.2500  -999.2500     0.1350   107.6990     7.9120
 2913.0000  -999.2500  -999.2500  -999.2500  -999.2500     0.1350   108.0700     7.9130
 2913.5000  -999.2500  -999.2500  -999.2500  -999.2500     0.1350   107.0430     7.9140
 2914.0000  -999.2500  -999.2500  -999.2500  -999.2500  -999.2500   106.0150     7.9150
 2914.5000  -999.2500  -999.2500  -999.2500  -999.2500  -999.2500   106.8710     7.9160
 2915.0000  -999.2500  -999.2500  -999.2500  -999.2500  -999.2500   107.9470     7.9170
 2915.5000  -999.2500  -999.2500  -999.2500  -999.2500  -999.2500   106.8220     7.9190
 2916.0000  -999.2500  -999.2500  -999.2500  -999.2500  -999.2500   106.6470     7.9200
 2916.5000  -999.2500  -999.2500  -999.2500  -999.2500  -999.2500   107.4480     7.9210
 2917.0000  -999.2500  -999.2500  -999.2500  -999.2500  -999.2500   106.8960     7.9220
 2917.5000  -999.2500  -999.2500  -999.2500  -999.2500  -999.2500   105.8570     7.9230
 2918.0000  -999.2500  -999.2500  -999.2500  -999.2500  -999.2500   107.6560     7.9240
 2918.5000  -999.2500  -999.2500  -999.2500  -999.2500  -999.2500   109.4640     7.9250
 2919.0000  -999.2500  -999.2500  -999.2500  -999.2500  -999.2500   111.2400     7.9260
 2919.5000  -999.2500  -999.2500  -999.2500  -999.2500  -999.2500   112.0570     7.9270
 2920.0000  -999.2500  -999.2500  -999.2500  -999.2500  -999.2500   107.1290     7.9290
 2920.5000  -999.2500  -999.2500  -999.2500  -999.2500  -999.2500   109.4180     7.9300
 2921.0000  -999.2500  -999.2500  -999.2500  -999.2500  -999.2500   112.8220     7.9310
 2921.5000  -999.2500  -999.2500  -999.2500  -999.2500  -999.2500   107.2680     7.9320
 2922.0000  -999.2500  -999.2500  -999.2500  -999.2500  -999.2500   100.6910     7.9330
 2922.5000  -999.2500  -999.2500  -999.2500  -999.2500  -999.2500   105.5810     7.9340
 2923.0000  -999.2500  -999.2500  -999.2500  -999.2500  -999.2500  -999.2500     7.9350
 2923.5000  -999.2500  -999.2500  -999.2500  -999.2500  -999.2500  -999.2500     7.9360
 2924.0000  -999.2500  -999.2500  -999.2500  -999.2500  -999.2500  -999.2500     7.9370
 2924.5000  -999.2500  -999.2500  -999.2500  -999.2500  -999.2500  -999.2500     7.9390
 2925.0000  -999.2500  -999.2500  -999.2500  -999.2500  -999.2500  -999.2500     7.9400
