~VERSION INFORMATION
 VERS.                2.0:   CWLS LOG ASCII STANDARD - VERSION 2.0
 WRAP.                 NO:   ONE LINE PER DEPTH STEP
~WELL INFORMATION
#MNEM.UNIT      DATA TYPE    INFORMATION
#----------   ------------   ------------------------------
 STRT.F           16.0000:   START DEPTH
 STOP.F         4208.0000:   STOP DEPTH
 STEP.F            0.5000:   STEP LENGTH
 NULL.          -999.2500:   NO VALUE
 COMP.    FENIX & SCISSON:   COMPANY
 WELL. FENIX NPR 3 "MX" #41-10:   WELL
 FLD .                NPR:   FIELD
 LOC .      S10 T38N R78W:   LOCATION
 CNTY.            NATRONA:   COUNTY
 STAT.            WYOMING:   STATE
 CTRY. UNITED STATES OF AMERICA:   COUNTRY
 SRVC.       SCHLUMBERGER:   SERVICE COMPANY
 DATE.        04-NOV-1978:   LOGDATE
 API .     49025107260000:   API NUMBER
~CURVE INFORMATION
#MNEM.UNIT       API CODE    CURVE DESCRIPTION
#----------   ------------   ------------------------------
 DEPT.F                  :   
 TENR.LBS    07 635 01 00:   TENSION FROM RESISTIVITY
 SPR .MV     07 010 01 00:   SPONTANEOUS POTENTIAL
 SFL .OHMM   07 220 01 00:   SHALLOW FOCUSED LOG RESISTIVITY
 ILD .OHMM   07 120 46 00:   DEEP INDUCTION RESISTIVITY
 ILM .OHMM   07 120 44 00:   INDUCTION LOG MEDIUM RESISTIVITY
 CALD.IN     45 280 60 00:   CALIPER FROM DENSITY LOG
 GRD .GAPI   45 310 01 00:   GAMMA RAY FROM DENSITY LOG
 TEND.LBS    45 635 01 00:   TENSION FROM DENSITY LOG
 RHOB.G/C3   45 350 01 00:   BULK DENSITY
 CORR.G/C3   45 356 01 00:   DENSITY CORRECTION
 NPHI.DEC    42 890 03 00:   NEUTRON POROSITY SANDSTONE
~PARAMETER INFORMATION
#MNEM.UNIT          VALUE    DESCRIPTION
#----------   ------------   ------------------------------
 EKB .F         5237.0000:   Kelly bushing
 EGL .F         5227.0000:   Ground level
 EDF .F            0.0000:   Drilling floor
 TD  .F         4200.0000:   Total depth
 DATE.        04-NOV-1978:   Date logged
 CLNT.            A2DTECH:   Client Code
 SL  . 70' FNL & 2370' FWL:   Surface Location
 PD  .                 GL:   Permanent Datum
 EPD .F              5227:   Elevation Permanent Datum
 LMF .                 KB:   Log Measured From
 DMF .                 KB:   Drilling Measured From
 DAPD.F                10:   Feet Above Permanent Datum
 DD  .F              4200:   Depth driller
 DL  .F              4191:   Depth logger
 BLI .F              4185:   Bottom log interval
 TLI .F               506:   Top log interval
 CS1 .IN            9.625:   Casing size
 CBD1.      9.625" @ 500':   Casing driller 1
 CBL1.F               506:   Casing logger 1
 BS1 .IN             8.75:   Bit size
 BSD1.F              4200:   Depth drilled with bit1
 DFT .                FGM:   Type fluid in hole
 DFD .                9.3:   Density
 DFV .                 42:   Viscosity
 DFPH.               11.5:   pH
 DFL .                6.4:   Fluid loss
 MSS .               TANK:   Source of sample
 RMS .OHMM           1.08:   Rm
 MST .F                67:   Rm Meas. temp.
 RMF .OHMM           0.83:   Rmf
 MFST.F                67:   Rmf Meas. temp.
 MFSS.               MEAS:   Source Rmf.
 RMB .OHMM           0.58:   Rm. at BHT
 BHT .F               125:   BHT.
 TCS .HRS            0430:   Time Circ. stopped
 TLAB.HRS            0830:   Time logger at bottom
 MRT .F               125:   Maximum recorded temp.
 LUN .               8039:   Logging unit number
 LUL .               CSPR:   Logging unit location
 ENGI.          STADULLIS:   Recorded By
 WITN.              AMEND:   Witnessed by
 ORIG.           5" PRINT:   Origin of data
 UWI .     49025107260000:   Unique Well ID
 DICO. A2D TECHNOLOGIES, INC.:   Digitizing Company
~OTHER INFORMATION
~A   DEPT     TENR        SPR        SFL        ILD        ILM       CALD         GRD      TEND       RHOB       CORR       NPHI   
# ...
 1724.0000   784.6120   -18.9480     7.6430     7.1650     6.6130    10.6350   120.3990  1064.2570     2.5430     0.0150     0.2960
 1724.5000   784.7290   -18.9480     7.5420     7.1650     6.5940    10.6300   121.5310  1064.2570     2.5380     0.0140     0.2960
 1725.0000   784.8470   -18.9480     7.4410     7.1650     6.5760    10.6260   122.3160  1064.2570     2.5290     0.0080     0.2980
 1725.5000   784.9640   -18.9480     7.3400     7.1650     6.5570    10.6220   123.3990  1064.2570     2.5210     0.0050     0.3010
 1726.0000   785.0820   -18.9480     7.2390     7.1650     6.5330    10.6180   124.7370  1064.2570     2.5300     0.0110     0.3040
 1726.5000   785.1990   -18.9480     7.1660     7.1930     6.5620    10.6130   126.1870  1064.2570     2.5450     0.0220     0.3100
 1727.0000   785.3170   -18.9480     7.0190     7.2900     6.6670    10.6090   125.8800  1064.2570     2.5590     0.0320     0.3140
 1727.5000   785.4340   -18.9480     6.8530     7.3870     6.7790    10.6050   123.6770  1064.2570     2.5670     0.0410     0.3170
 1728.0000   785.5520   -18.9480     6.7790     7.4810     6.5500    10.6010   121.6450  1064.2570     2.5500     0.0370     0.3130
 1728.5000   785.6690   -18.9480     6.2990     7.5740     6.1410    10.5970   121.0900  1064.2570     2.5330     0.0240     0.3080
 1729.0000   785.7870   -18.9480     5.8870     7.4330     5.7410    10.5970   122.3760  1064.2570     2.5230     0.0100     0.3050
 1729.5000   785.9040   -18.9480     5.4750     7.2990     5.3400    10.6260   123.7170  1064.2570     2.5280     0.0180     0.2990
 1730.0000   786.0220   -18.9480     5.0630     6.5170     4.9400    10.6500   124.2420  1064.2570     2.5380     0.0120     0.2920
 1730.5000   786.1390   -18.9490     4.6510     5.7730     4.5400    10.6770   120.5670  1064.2570     2.5340     0.1820     0.3150
 1731.0000   786.2570   -18.9480     4.2390     5.0290     4.1140    10.7040   115.7440  1064.2570     2.4530     0.1730     0.3510
 1731.5000   786.3740   -18.9470     3.8920     4.2300     4.4480    10.7270   111.0810  1064.2570     2.3590     0.1780     0.4030
 1732.0000   786.4920   -18.9310     4.4810     4.4430     4.8040    10.7540   107.2550  1064.2570     2.2750     0.1230     0.3990
 1732.5000   786.6090   -18.9160     5.3380     4.8700     5.1600    10.7150   107.4190  1064.2570     2.3000     0.0660     0.3880
 1733.0000   786.7270   -18.9010     6.1950     5.2970     5.5160    10.6680   108.9760  1064.2570     2.3630     0.0310     0.3730
 1733.5000   786.8440   -18.8860     7.0520     5.7230     5.8720    10.6200   111.4490  1064.6890     2.4300     0.0150     0.3540
 1734.0000   786.9620   -18.8710     7.9090     6.1500     6.2270    10.5720   115.4080  1065.3470     2.4980     0.0100     0.3360
 1734.5000   787.0790   -18.8560     8.1560     6.5770     6.5830    10.5170   120.2230  1066.0040     2.5350     0.0150     0.3160
 1735.0000   787.1970   -18.8410     8.1280     7.0040     6.9390    10.4690   122.8060  1066.6620     2.5390     0.0200     0.3180
 1735.5000   787.3140   -18.8260     8.0990     7.4360     7.2990    10.4780   122.2050  1067.3190     2.5450     0.0240     0.3200
 1736.0000   787.4320   -18.8110     8.0690     7.4360     7.0170    10.4920   121.9800  1067.9760     2.5610     0.0300     0.3230
 1736.5000   787.5490   -18.7960     8.0400     7.3090     6.7320    10.5070   121.9410  1068.6340     2.5660     0.0260     0.3180
 1737.0000   787.6670   -18.7810     8.0060     7.0160     6.4470    10.5230   123.2280  1069.2910     2.5630     0.0210     0.3120
 1737.5000   787.7840   -18.7660     7.7690     6.7230     6.1610    10.5380   124.1460  1069.9490     2.5620     0.0150     0.3060
 1738.0000   787.9020   -18.7510     7.4360     6.4290     5.8760    10.5530   123.6790  1070.6060     2.5590     0.0070     0.3020
 1738.5000   788.0190   -18.7360     6.7510     6.1360     5.6340    10.5690   122.6870  1071.2629     2.5620     0.0580     0.3000
 1739.0000   788.1360   -18.7210     6.0140     6.0670     5.7320    10.5840   120.0330  1071.9210     2.5770     0.1400     0.3070
 1739.5000   788.2540   -18.7060     5.3300     6.0670     5.8170    10.5990   117.6860  1072.5780     2.5130     0.2050     0.3260
 1740.0000   788.3710   -18.6910     5.5980     6.0670     5.9020    10.6140   114.8560  1073.2360     2.4280     0.2330     0.3520
 1740.5000   788.4890   -18.6760     6.2230     6.0670     5.9870    10.6310   115.8590  1073.8929     2.2860     0.1990     0.3820
 1741.0000   788.6060   -18.6610     6.8480     6.0670     6.0720    10.6270   117.6100  1074.5500     2.3080     0.1400     0.3860
 1741.5000   788.7240   -18.6460     7.4740     6.3330     6.1570    10.6100   117.0660  1075.2080     2.3000     0.0810     0.3690
 1742.0000   788.8410   -18.6310     8.0060     6.5770     6.2420    10.5930   116.2150  1075.8650     2.3640     0.0350     0.3500
 1742.5000   788.9590   -18.6160     7.9870     6.8200     6.3730    10.5790   115.3770  1076.5229     2.4230    -0.0020     0.3290
 1743.0000   789.0760   -18.6010     7.9330     7.0640     6.5840    10.5610   116.2300  1077.1801     2.5140     0.0040     0.3040
 1743.5000   789.1940   -18.5860     7.8790     7.2990     6.7950    10.5470   117.3550  1077.8370     2.5260     0.0110     0.3090
 1744.0000   789.3110   -18.5710     7.7160     7.2900     7.0340    10.5100   118.5040  1078.4950     2.5420     0.0190     0.3160
 1744.5000   789.4290   -18.5560     7.7670     7.2810     7.0130    10.5160   117.0480  1079.1520     2.5310     0.0270     0.3220
 1745.0000   789.5460   -18.5780     7.8740     7.2720     6.9890    10.5140   115.7080  1079.8101     2.5190     0.0220     0.3270
 1745.5000   789.6640   -18.6180     7.9800     7.2630     6.9640    10.5140   113.9280  1080.4670     2.5100     0.0130     0.3260
 1746.0000   789.7810   -18.6580     8.0060     7.2540     6.9400    10.5140   116.2920  1081.1240     2.5060     0.0040     0.3220
 1746.5000   789.8990   -18.6960     8.0060     7.2450     6.9160    10.5140   119.5180  1081.7820     2.5180     0.0010     0.3170
 1747.0000   790.0160   -18.7370     8.0060     7.2360     6.8920    10.5140   121.1930  1082.4390     2.5190    -0.0010     0.3090
 1747.5000   790.1340   -18.7460     7.9730     7.2270     6.8670    10.5140   120.7630  1083.0970     2.5240     0.0030     0.2990
 1748.0000   790.2510   -18.7360     7.8390     7.2170     6.8430    10.5140   120.5730  1083.7540     2.5290     0.0070     0.2950
 1748.5000   790.3690   -18.7270     7.7060     7.2080     6.8190    10.5140   120.3370  1084.4120     2.5590     0.0360     0.2970
 1749.0000   790.4860   -18.7180     7.5730     7.1990     6.7940    10.5140   120.4090  1085.0690     2.5710     0.0760     0.3020
 1749.5000   790.6040   -18.7090     7.4360     7.1900     6.6550    10.5140   120.8420  1085.7260     2.5690     0.0980     0.3130
 1750.0000   790.7210   -18.7000     7.4360     7.1810     6.6550    10.5140   121.2190  1086.3840     2.5390     0.0660     0.3190
 1750.5000   790.8390   -18.6910     7.6530     7.1680     6.7410    10.5140   121.5310  1087.0410     2.4980     0.0350     0.3190
 1751.0000   790.9560   -18.6830     7.8600     7.1860     6.8130    10.5140   122.6750  1087.6990     2.5030     0.0190     0.3150
 1751.5000   791.0740   -18.6740     7.8600     7.2650     6.8860    10.5140   126.1360  1088.3560     2.5190     0.0160     0.3140
 1752.0000   791.1910   -18.6650     7.8600     7.3430     6.9580    10.5140   128.0990  1089.0129     2.5260     0.0130     0.3120
 1752.5000   791.3090   -18.6560     7.8600     7.4220     7.0300    10.5140   127.2630  1089.6710     2.5160     0.0100     0.3110
 1753.0000   791.4260   -18.6470     8.1030     7.5010     7.1030    10.5140   123.6030  1090.3280     2.5140     0.0100     0.3100
 1753.5000   791.5440   -18.6390     8.4200     7.5800     7.1750    10.5140   120.2970  1090.9860     2.5220     0.0120     0.3110
 1754.0000   791.6610   -18.6300     8.7370     7.6590     7.2470    10.5140   116.6870  1091.6429     2.5310     0.0140     0.3110
