~VERSION INFORMATION
 VERS.                2.0:   CWLS LOG ASCII STANDARD - VERSION 2.0
 WRAP.                 NO:   ONE LINE PER DEPTH STEP
~WELL INFORMATION
#MNEM.UNIT      DATA TYPE    INFORMATION
#----------   ------------   ------------------------------
 STRT.F           11.0000:   START DEPTH
 STOP.F         3368.0000:   STOP DEPTH
 STEP.F            0.5000:   STEP LENGTH
 NULL.          -999.2500:   NO VALUE
 COMP. LAWRENCE ALLISON AND ASSOC.:   COMPANY
 WELL. LAWRENCE NPR "AX" #3-11:   WELL
 FLD .                NPR:   FIELD
 LOC .      S11 T38N R78W:   LOCATION
 CNTY.            NATRONA:   COUNTY
 STAT.            WYOMING:   STATE
 CTRY. UNITED STATES OF AMERICA:   COUNTRY
 SRVC.      DRESSER ATLAS:   SERVICE COMPANY
 DATE.        17-JAN-1986:   LOGDATE
 API .     49025110540000:   API NUMBER
~CURVE INFORMATION
#MNEM.UNIT       API CODE    CURVE DESCRIPTION
#----------   ------------   ------------------------------
 DEPT.F                  :   
 TEND.LBS    45 635 01 00:   TENSION FROM DENSITY LOG
 DEN .G/C3   45 350 01 00:   BULK DENSITY
 CORR.G/C3   45 356 01 00:   DENSITY CORRECTION
 CNC .DEC    42 890 03 00:   NEUTRON PORISITY SANDSTONE
 TENR.LBS    07 635 01 00:   TENSION FROM RESISTIVITY
 CALR.IN     07 280 01 00:   CALIPER FROM RESISTIVITY
 SPR .MV     07 010 01 00:   SPONTANEOUS POTENTIAL
 GRR .GAPI   07 310 01 00:   GAMMA RAY FROM RESISTIVITY
 RFOC.OHMM   07 220 04 00:   RESISTIVITY FOCUSED LOG RES.
 RILD.OHMM   07 120 46 00:   INDUCTION LOG DEEP RESISTIVITY
 RILM.OHMM   07 120 44 00:   INDUCTION LOG MEDIUM RESISTIVITY
 TENS.LBS    60 635 01 00:   TENSION FROM SONIC
 AC  .US/F   60 250 00 00:   ACCOUSTIC
~PARAMETER INFORMATION
#MNEM.UNIT          VALUE    DESCRIPTION
#----------   ------------   ------------------------------
 EKB .F         5195.5000:   Kelly bushing
 EGL .F         5183.2000:   Ground level
 EDF .F         5194.5000:   Drilling floor
 TD  .F         3360.0000:   Total depth
 DATE.        17-JAN-1986:   Date logged
 CLNT.            A2DTECH:   Client Code
 SL  . 2389' FSL & 461'FWL:   Surface Location
 PD  .                 GL:   Permanent Datum
 EPD .F            5183.2:   Elevation Permanent Datum
 LMF .                 KB:   Log Measured From
 DMF .                 KB:   Drilling Measured From
 DAPD.F              12.3:   Feet Above Permanent Datum
 DD  .F              3360:   Depth driller
 DL  .F              3358:   Depth logger
 BLI .F              3356:   Bottom log interval
 TLI .F               575:   Top log interval
 CS1 .IN            8.625:   Casing size
 CBD1.      8.625" @ 575':   Casing driller 1
 CBL1.F               575:   Casing logger 1
 BS1 .IN            7.875:   Bit size
 BSD1.F              3360:   Depth drilled with bit1
 DFT .        POLYMER-KCL:   Type fluid in hole
 DFD .                  9:   Density
 DFV .                 36:   Viscosity
 DFPH.                  9:   pH
 DFL .                9.5:   Fluid loss
 MSS .           FLOWLINE:   Source of sample
 RMS .OHMM           .633:   Rm
 MST .F                68:   Rm Meas. temp.
 RMF .OHMM           .475:   Rmf
 MFST.F                68:   Rmf Meas. temp.
 RMC .OHMM           .791:   Rmc
 MCST.F                68:   Rmc Meas. temp.
 RMB .OHMM            .44:   Rm. at BHT
 BHT .F                98:   BHT.
 TCS .HRS               4:   Time Circ. stopped
 MRT .F                98:   Maximum recorded temp.
 LUN .               6264:   Logging unit number
 LUL .               GLTE:   Logging unit location
 ENGI.             MILLER:   Recorded By
 WITN.             STRONG:   Witnessed by
 ORIG.        2" 5" PRINT:   Origin of data
 UWI .     49025110540000:   Unique Well ID
 DICO. A2D TECHNOLOGIES, INC.:   Digitizing Company
~OTHER INFORMATION
~A   DEPT     TEND        DEN       CORR        CNC       TENR       CALR        SPR         GRR      RFOC       RILD       RILM       TENS         AC   
# ...
 1493.0000  -999.2500  -999.2500  -999.2500  -999.2500  -114.7290     9.0960   -48.4500    93.4870     7.8380     7.1780     7.2800   -90.3490    89.9500
 1493.5000  -999.2500  -999.2500  -999.2500  -999.2500  -114.7290     9.0980   -48.6510    94.3740     7.9450     7.1940     7.2800   -90.5140    89.6850
 1494.0000  -999.2500  -999.2500  -999.2500  -999.2500  -114.7290     9.0990   -49.1520    96.0140     8.0880     7.2130     7.2810   -90.6790    89.4100
 1494.5000  -999.2500  -999.2500  -999.2500  -999.2500  -114.7290     9.1010   -49.6390    97.9540     8.2300     7.1800     7.2700   -90.8440    89.1340
 1495.0000  -999.2500  -999.2500  -999.2500  -999.2500  -114.7290     9.1030   -50.0390    99.1770     8.3610     7.1340     7.2310   -91.0080    88.8580
 1495.5000  -999.2500  -999.2500  -999.2500  -999.2500  -114.7290     9.1040   -50.3410    99.5610     8.0880     7.0870     7.1940   -91.1730    88.5500
 1496.0000  -999.2500  -999.2500  -999.2500  -999.2500  -114.7290     9.1060   -50.6490    99.5100     7.7770     7.0410     7.1570   -91.3380    88.9850
 1496.5000  -999.2500  -999.2500  -999.2500  -999.2500  -114.7290     9.1070   -50.5050    98.8790     7.3700     6.9940     7.1190   -91.5030    89.4770
 1497.0000  -999.2500  -999.2500  -999.2500  -999.2500  -114.7290     9.1090   -50.2850    96.8360     7.4650     6.9480     7.0820   -91.6670    90.0500
 1497.5000  -999.2500  -999.2500  -999.2500  -999.2500  -115.7060     9.1110   -50.0660    94.5830     7.6950     6.9010     7.0440   -91.8320    90.2150
 1498.0000  -999.2500  -999.2500  -999.2500  -999.2500  -118.1660     9.1120   -49.9170    93.9670     7.5620     6.8550     7.0070   -91.9970    90.4120
 1498.5000  -999.2500  -999.2500  -999.2500  -999.2500  -120.6260     9.1140   -49.7630    94.3670     7.3920     6.8280     6.9520   -92.1620    90.6090
 1499.0000  -999.2500  -999.2500  -999.2500  -999.2500  -123.0860     9.1150   -49.6090    95.4920     7.2800     6.8650     6.9740   -92.3260    90.8500
 1499.5000  -999.2500  -999.2500  -999.2500  -999.2500  -124.4030     9.1170   -49.5040    97.0300     7.4260     6.8940     7.0140   -92.4910    90.6960
 1500.0000  -999.2500  -999.2500  -999.2500  -999.2500  -123.3310     9.1190   -49.6230    98.5640     7.5540     6.9240     7.0540   -92.6560    90.4980
 1500.5000  -999.2500  -999.2500  -999.2500  -999.2500  -122.2600     9.1200   -49.7550   100.1100     7.6830     6.9530     7.0940   -92.8210    90.3000
 1501.0000  -999.2500  -999.2500  -999.2500  -999.2500  -121.1880     9.1220   -49.8810   101.7760     7.8110     6.9830     7.1350   -92.9850    90.1020
 1501.5000  -999.2500  -999.2500  -999.2500  -999.2500  -120.1170     9.1230   -49.4000    99.1600     7.9840     7.0160     7.1750   -93.1500    89.9040
 1502.0000  -999.2500  -999.2500  -999.2500  -999.2500  -119.0460     9.1250   -48.8290    94.7140     7.9380     7.0010     7.2130   -93.3150    89.7500
 1502.5000  -999.2500  -999.2500  -999.2500  -999.2500  -117.9740     9.1310   -48.2550    90.3180     7.8340     6.9820     7.1950   -93.4800    89.4470
 1503.0000  -999.2500  -999.2500  -999.2500  -999.2500  -116.9030     9.1370   -47.6810    92.0180     7.7290     6.9640     7.1770   -93.6440    89.2500
 1503.5000  -999.2500  -999.2500  -999.2500  -999.2500  -115.8310     9.1430   -47.1030    95.0150     7.6250     6.9450     7.1590   -93.8090    89.3490
 1504.0000  -999.2500  -999.2500  -999.2500  -999.2500  -114.7290     9.1490   -46.5630    95.8930     7.5210     6.9260     7.1410   -93.9740    89.6330
 1504.5000  -999.2500  -999.2500  -999.2500  -999.2500  -114.7290     9.1540   -47.0830    95.3810     7.4160     6.9080     7.1230   -94.1390    89.9160
 1505.0000  -999.2500  -999.2500  -999.2500  -999.2500  -114.7290     9.1600   -47.6530    95.4210     7.3480     6.8880     7.1050   -94.3030    90.3500
 1505.5000  -999.2500  -999.2500  -999.2500  -999.2500  -114.7290     9.1660   -48.2180    99.4580     7.4260     6.8880     7.0820   -94.4680    90.7000
 1506.0000  -999.2500  -999.2500  -999.2500  -999.2500  -114.7290     9.1720   -48.7130   106.2690     7.5330     6.8880     7.0860   -94.6330    90.9500
 1506.5000  -999.2500  -999.2500  -999.2500  -999.2500  -114.7290     9.1780   -48.9710   104.0670     7.6390     6.8880     7.0920   -94.0360    90.5400
 1507.0000  -999.2500  -999.2500  -999.2500  -999.2500  -114.7290     9.1830   -49.2490    99.4980     7.7460     6.8880     7.0980   -93.0410    90.1870
 1507.5000  -999.2500  -999.2500  -999.2500  -999.2500  -114.7290     9.1890   -49.5290    94.8320     7.9110     6.8880     7.1030   -92.0470    89.8340
 1508.0000  -999.2500  -999.2500  -999.2500  -999.2500  -114.7290     9.1950   -49.8170    93.3780     7.8500     6.8870     7.1090   -91.0520    89.4820
 1508.5000  -999.2500  -999.2500  -999.2500  -999.2500  -114.7290     9.2010   -50.0180    94.7170     7.7150     6.9230     7.1150   -90.0580    89.4740
 1509.0000  -999.2500  -999.2500  -999.2500  -999.2500  -114.7290     9.2070   -50.1980    94.5720     7.5790     6.9660     7.1210   -89.0630    89.6730
 1509.5000  -999.2500  -999.2500  -999.2500  -999.2500  -114.7290     9.2130   -50.3760    94.0320     7.4160     7.0160     7.1270   -88.0690    89.8710
 1510.0000  -999.2500  -999.2500  -999.2500  -999.2500  -114.7290     9.2180   -50.5510    94.8570     7.5270     6.9830     7.1330   -87.0740    90.0700
 1510.5000  -999.2500  -999.2500  -999.2500  -999.2500  -114.7290     9.2250   -50.6400    96.4270     7.6670     6.9400     7.1380   -86.0800    90.2500
 1511.0000  -999.2500  -999.2500  -999.2500  -999.2500  -114.7290     9.2420   -50.3360    98.0030     7.8060     6.8970     7.1470   -85.0850    89.8470
 1511.5000  -999.2500  -999.2500  -999.2500  -999.2500  -114.7290     9.2590   -50.0390    99.5750     7.9840     6.8540     7.1280   -84.6690    89.4780
 1512.0000  -999.2500  -999.2500  -999.2500  -999.2500  -114.7290     9.2760   -49.7430   101.1310     7.8320     6.8250     7.0920   -84.6690    89.1100
 1512.5000  -999.2500  -999.2500  -999.2500  -999.2500  -114.7290     9.2930   -49.4470   101.1060     7.6240     6.8790     7.0560   -84.6690    89.0500
 1513.0000  -999.2500  -999.2500  -999.2500  -999.2500  -114.7290     9.3110   -49.1500    97.8950     7.3480     6.9200     7.0210   -84.6690    89.3210
 1513.5000  -999.2500  -999.2500  -999.2500  -999.2500  -114.7290     9.3280   -48.8540    94.7000     7.4650     6.9610     7.0610   -84.6690    89.5760
 1514.0000  -999.2500  -999.2500  -999.2500  -999.2500  -114.9450     9.3440   -48.5590    93.0400     7.6390     7.0020     7.1120   -84.6690    89.8320
 1514.5000  -999.2500  -999.2500  -999.2500  -999.2500  -115.4150     9.3490   -48.2660    93.5260     7.8120     7.0450     7.1630   -84.6690    89.7900
 1515.0000  -999.2500  -999.2500  -999.2500  -999.2500  -115.8840     9.3540   -47.9750    94.8190     7.9170     7.0890     7.2140   -84.6690    89.4930
 1515.5000  -999.2500  -999.2500  -999.2500  -999.2500  -116.3540     9.3590   -47.6830    97.5800     7.9420     7.1330     7.2650   -84.6690    89.1950
 1516.0000  -999.2500  -999.2500  -999.2500  -999.2500  -116.8230     9.3640   -47.6560    99.3000     7.9680     7.1770     7.3160   -84.6690    88.8970
 1516.5000  -999.2500  -999.2500  -999.2500  -999.2500  -117.2930     9.3700   -47.9490    97.1780     7.9940     7.2130     7.3470   -84.6690    88.6500
 1517.0000  -999.2500  -999.2500  -999.2500  -999.2500  -117.7620     9.3750   -48.2450   100.0180     8.0200     7.2050     7.3350   -84.6690    88.4510
 1517.5000  -999.2500  -999.2500  -999.2500  -999.2500  -118.2320     9.3800   -48.5520   103.6860     8.0580     7.1960     7.3250   -84.6690    88.2500
 1518.0000  -999.2500  -999.2500  -999.2500  -999.2500  -118.7010     9.3850   -48.8570   101.6530     7.9420     7.1870     7.3160   -84.6690    88.0540
 1518.5000  -999.2500  -999.2500  -999.2500  -999.2500  -119.1710     9.3900   -49.1790    97.6420     7.7230     7.1780     7.3060   -84.6690    87.9500
