~VERSION INFORMATION
 VERS.                2.0:   CWLS LOG ASCII STANDARD - VERSION 2.0
 WRAP.                 NO:   ONE LINE PER DEPTH STEP
~WELL INFORMATION
#MNEM.UNIT      DATA TYPE    INFORMATION
#----------   ------------   ------------------------------
 STRT.F            3.5000:   START DEPTH
 STOP.F         5648.0000:   STOP DEPTH
 STEP.F            0.5000:   STEP LENGTH
 NULL.          -999.2500:   NO VALUE
 COMP.       FLUOR DANIEL:   COMPANY
 WELL.   FLUOR "X" #46-10:   WELL
 FLD .          N.P.R. #3:   FIELD
 LOC .      S10 T38N R78W:   LOCATION
 CNTY.            NATRONA:   COUNTY
 STAT.            WYOMING:   STATE
 CTRY. UNITED STATES OF AMERICA:   COUNTRY
 SRVC.      WESTERN ATLAS:   SERVICE COMPANY
 DATE.        25-MAR-1996:   LOGDATE
 API .     49025227700000:   API NUMBER
~CURVE INFORMATION
#MNEM.UNIT       API CODE    CURVE DESCRIPTION
#----------   ------------   ------------------------------
 DEPT.F                  :   
 CALD.IN     45 280 60 00:   CALIPER FROM DENSITY LOG
 ZDEN.G/C3   45 350 01 00:   BULK DENSITY
 ZCOR.G/C3   45 356 01 00:   DENSITY CORRECTION
 TEND.LBS    45 635 01 00:   TENSION FORM DENSITY LOG
 GRD .GAPI   45 310 01 00:   GAMMA RAY FROM DENSITY LOG
 CNC .DEC    42 890 01 00:   NEUTRON POROSITY LIMESTONE
 SPR .MV     07 010 01 00:   SPONTANEOUS POTENTIAL
 RD  .OHMM   07 220 10 00:   RESISTIVITY DEEP
 RS  .OHMM   07 220 09 00:   RESISTIVITY SHALLOW
~PARAMETER INFORMATION
#MNEM.UNIT          VALUE    DESCRIPTION
#----------   ------------   ------------------------------
 EKB .F         5216.0000:   Kelly bushing
 EGL .F         5206.0000:   Ground level
 EDF .F         5215.0000:   Drilling floor
 TD  .F         5650.0000:   Total depth
 CLNT.            A2DTECH:   Client Code
 SL  . 1493' FSL & 2330' FWL:   Surface Location
 PD  .                 GL:   Permanent Datum
 EPD .F              5206:   Elevation Permanent Datum
 LMF .                 KB:   Log Measured From
 DMF .                 KB:   Drilling Measured From
 DAPD.F                10:   Feet Above Permanent Datum
 DATE.        25-MAR-1996:   Date Logged [DD-MMM-YYYY]
 DD  .F              5650:   Depth driller
 DL  .F              5648:   Depth logger
 BLI .F              5636:   Bottom log interval
 TLI .F                 0:   Top log interval
 CS1 .IN            9.625:   Casing size
 CBD1.      9.625" @ 498':   Casing driller 1
 CBL1.F               496:   Casing logger 1
 BS1 .IN             8.75:   Bit size
 BSD1.F              5650:   Depth drilled with bit1
 DFT .           CHEM GEL:   Type fluid in hole
 DFD .                9.6:   Density
 DFV .                 54:   Viscosity
 DFPH.                9.5:   pH
 DFL .                8.4:   Fluid loss
 MSS .           FLOWLINE:   Source of sample
 RMS .OHMM          0.635:   Rm
 MST .F                68:   Rm Meas. temp.
 RMF .OHMM          0.483:   Rmf
 MFST.F                68:   Rmf Meas. temp.
 MFSS.               MEAS:   Source Rmf.
 RMC .OHMM          0.789:   Rmc
 MCST.F                68:   Rmc Meas. temp.
 MCSS.               MEAS:   Source Rmc.
 RMB .OHMM           0.26:   Rm. at BHT
 BHT .F               166:   BHT.
 TCS .HRS               6:   Time Circ. stopped
 MRT .F               166:   Maximum recorded temp.
 LUN .            HL-6530:   Logging unit number
 LUL .             CASPER:   Logging unit location
 ENGI.        VERN RAUTIO:   Recorded By
 WITN. LORRAINE LAFRENIERE:   Witnessed by
 ORIG.           5" PRINT:   Origin of data
 UWI .     49025227700000:   Unique Well ID
 DICO. A2D TECHNOLOGIES, INC.:   Digitizing Company
~OTHER INFORMATION
~A  DEPTH     CALD       ZDEN       ZCOR       TEND        GRD        CNC        SPR         RD         RS
# ...
 5259.5000     9.3305     2.7827    -0.0092   -25.8646    20.6542     0.0414   -47.2383   421.5476   550.5402
 5260.0000     9.3313     2.7654    -0.0107   -25.9493    23.6747     0.0489   -47.9942   332.1299   292.8820
 5260.5000     9.3171     2.7377    -0.0061   -26.0205    27.9021     0.0549   -48.5989   213.9594   206.4969
 5261.0000     9.3182     2.6811    -0.0031   -33.6106    33.9346     0.0594   -49.2037   157.7974   138.4814
 5261.5000     9.3038     2.6630    -0.0001   -33.6842    44.7864     0.0669   -49.9596   121.3110   112.4683
 5262.0000     9.3048     2.6570     0.0045   -18.7332    77.9294     0.0753   -50.4135    93.8380    95.8855
 5262.5000     9.3059     2.6547     0.0075   -11.2856   102.6366     0.0835   -50.4149    83.4865    91.9773
 5263.0000     9.3066     2.6555     0.0121   -11.3568   120.1149     0.0883   -50.7179    85.8296    92.6174
 5263.5000     9.3179     2.6638     0.0136   -11.4286   121.9307     0.0847   -50.8705    90.7150    95.2928
 5264.0000     9.3235     2.6698     0.0121   -11.5170   118.3266     0.0820   -51.0228    96.5443   101.3560
 5264.5000     9.3246     2.6699     0.0061   -11.5882   113.8169     0.0810   -51.0242    98.5694   103.4869
 5265.0000     9.3254     2.6684     0.0017   -11.6595   112.3193     0.0853   -51.0259    95.2173    97.9014
 5265.5000     9.3318     2.6684    -0.0028   -19.2495   117.1491     0.0886   -51.0273    91.3449    91.9773
 5266.0000     9.3422     2.6669    -0.0013   -20.4152   121.3743     0.0907   -51.0287    86.4256    86.4116
 5266.5000     9.3432     2.6646     0.0017   -34.4473   122.0757     0.0920   -51.0302    82.2589    82.1315
 5267.0000     9.3441     2.6586     0.0033   -34.5185   118.3812     0.0937   -50.8811    81.2073    79.5111
 5267.5000     9.3449     2.6549     0.0063   -34.5897   116.5824     0.0934   -50.8825    80.0911    78.4158
 5268.0000     9.3458     2.6564     0.0124   -34.6616   117.1932     0.0931   -50.8839    78.9903    77.8738
 5268.5000     9.3467     2.6625     0.0169   -34.7368   119.3405     0.0946   -50.8856    76.7419    76.8011
 5269.0000     9.3476     2.6685     0.0214   -34.8212   121.7302     0.0967   -50.7358    73.7091    75.1943
 5269.5000     9.3485     2.6745     0.0245   -27.3736   123.5458     0.1003   -50.7376    71.6969    72.6559
 5270.0000     9.3494     2.6806     0.0275   -27.4448   125.6627     0.1051   -50.7393    70.7115    69.2128
 5270.5000     9.3505     2.6859     0.0276   -19.9972   125.9723     0.1021   -50.7407    67.8183    66.3918
 5271.0000     9.3513     2.6904     0.0276   -20.0862   122.9707     0.1000   -50.4405    65.0769    63.6857
 5271.5000     9.3522     2.6964     0.0261   -12.6208   115.1478     0.0985   -50.4419    64.1824    61.9432
 5272.0000     9.3530     2.6995     0.0169    -5.1733   112.4454     0.1066   -50.2928    63.3003    60.2027
 5272.5000     9.3541     2.6987     0.0217    -5.2632   116.0703     0.1108   -50.1434    60.7259    56.6027
 5273.0000     9.3549     2.6912     0.0322    -5.3513   119.6932     0.1126   -50.2956    57.0593    53.5477
 5273.5000     9.3501     2.6875     0.0368    -5.4225   120.3042     0.1123   -50.4482    53.6142    49.7616
 5274.0000     9.3466     2.6860     0.0383    -5.4937   117.3025     0.1129   -51.0529    52.1505    46.2901
 5274.5000     9.3575     2.6852     0.0383    -5.5649   113.6964     0.1159   -51.3560    51.4337    43.4890
 5275.0000     9.3433     2.6883     0.0383    -5.6539   110.0904     0.1268   -51.8184    51.0790    41.4281
 5275.5000     9.3443     2.7056     0.0339   -13.2440   108.8940     0.1364   -52.1133    51.4337    39.7395
 5276.0000     9.3453     2.7086     0.0294   -13.3152   117.0370     0.1475   -52.2655    53.6142    39.1921
 5276.5000     9.3310     2.7064     0.0159   -20.9051   123.9731     0.1593   -52.5775    55.8870    38.9212
 5277.0000     9.3320     2.6978     0.0129   -20.9775   129.1041     0.1608   -52.8720    58.4446    39.4649
 5277.5000     9.3329     2.6883     0.0144   -21.0654   130.6185     0.1505   -53.1751    63.3003    40.6028
 5278.0000     9.3337     2.6838     0.0160   -13.6178   120.9884     0.1223   -53.4781    66.9033    44.4033
 5278.5000     9.3348     2.6771     0.0160   -13.6890   107.3932     0.1054   -53.9324    70.2238    46.2901
 5279.0000     9.3355     2.6709     0.0130   -13.7602    94.2001     0.1015   -54.0846    71.2025    44.0964
 5279.5000     9.3364     2.6688     0.0070   -21.3681    93.3027     0.0991   -54.3877    68.7810    41.1418
 5280.0000     9.3373     2.6786     0.0011   -21.4286    96.3253     0.1165   -54.6908    63.3003    37.8563
 5280.5000     9.3383     2.6869     0.0089   -21.5104   103.8659     0.1346   -54.8433    57.4556    34.9961
 5281.0000     9.3392     2.6923     0.0162   -21.5817   108.6936     0.1439   -54.9956    52.1475    31.8300
 5281.5000     9.3552     2.6982     0.0147   -21.6541   111.7141     0.1617   -55.1516    48.6638    29.2882
 5282.0000     9.3560     2.7065     0.0132   -21.7419   112.9294     0.1800   -55.3004    47.3353    27.9003
 5282.5000     9.3571     2.7171     0.0117   -21.8131   113.2369     0.1872   -55.6035    45.7255    27.3258
 5283.0000     9.3579     2.7224     0.0133   -21.8797   111.1390     0.1869   -55.7557    44.7860    26.7631
 5283.5000     9.3435     2.7119     0.0133   -21.9556   108.6772     0.1893   -55.9083    42.9646    26.0308
 5284.0000     9.3446     2.6908     0.0284     0.5118   105.1338     0.1989   -56.2113    41.2173    25.1436
 5284.5000     9.3456     2.6381     0.0630     7.9773   100.6241     0.2161   -56.3636    36.3902    23.1357
 5285.0000     9.3614     2.5667     0.1232    22.9436    95.2108     0.2346   -56.5158    29.1620    20.7057
 5285.5000     9.3775     2.4589     0.1743    30.3734    84.3780     0.2558   -56.6684    24.9044    17.2893
 5286.0000     9.3783     2.4250     0.2270    22.1941    77.1575     0.2768   -56.8206    20.9201    15.7871
 5286.5000     9.4095     2.4687     0.2330     7.6568    80.1779     0.3003   -57.1237    19.3868    15.3664
 5287.0000     9.4405     2.5320     0.1879     7.5856    84.4053     0.3129   -57.5779    17.7189    15.6895
 5287.5000     9.4714     2.5147     0.0977    -0.0045    84.1125     0.3367   -58.0318    15.8171    15.3664
 5288.0000     9.5325     2.4627     0.0872    -0.0757    80.5064     0.3595   -58.3349    12.8883    12.8805
 5288.5000     9.6842     2.2835     0.1264    -7.6835    75.1516     0.3956   -58.9400    10.5449     9.5885
 5289.0000    10.0766     2.2037     0.1465    -7.7547    65.4651     0.4287   -59.0922     8.3921     8.4433
 5289.5000    10.7401     2.0818     0.1685    -0.2893    55.5338     0.4597   -59.2444     6.6297     8.0622
 5290.0000    11.4337     2.0517     0.1926    -0.3783    47.4096     0.4609   -59.3967     6.5415     8.1183
 5290.5000    11.6758     2.0547     0.2152    -0.4511    41.9985     0.4521   -59.5492     6.7251     8.2890
 5291.0000    11.3754     2.1285     0.2074    -0.5385    39.2960     0.4260   -59.5506     7.2070     8.4047
 5291.5000    10.7287     2.2513     0.1717    -8.1286    39.3044     0.3773   -59.5521     7.7234     8.6412
 5292.0000    10.5639     2.3748     0.1236    -8.1998    41.7246     0.3126   -59.5538     8.3921     9.1977
 5292.5000    10.7456     2.4124     0.1296    -8.2709    42.9378     0.2823   -59.4040     9.1820     9.7901
 5293.0000    10.7314     2.4200     0.1885   -15.8788    42.9462     0.2468   -59.2546    10.1863    10.2061
 5293.5000    10.3558     2.5013     0.1943   -23.4688    42.0208     0.2248   -58.9547    12.1942    11.3251
 5294.0000     9.6639     2.5789     0.1402   -38.5776    42.9651     0.1920   -58.9565    17.2352    14.1393
 5294.5000     9.4240     2.7265     0.0922   -46.1676    47.4916     0.1571   -58.6558    27.5915    20.5665
 5295.0000     9.3796     2.7898     0.0591   -53.7594    51.1145     0.1436   -58.3559    36.3902    32.4993
 5295.5000     9.3805     2.8310     0.0095   -61.3654    52.3277     0.1271   -58.2069    45.4102    39.7395
