~VERSION INFORMATION
 VERS.                2.0:   CWLS LOG ASCII STANDARD - VERSION 2.0
 WRAP.                 NO:   ONE LINE PER DEPTH STEP
~WELL INFORMATION
#MNEM.UNIT      DATA TYPE    INFORMATION
#----------   ------------   ------------------------------
 STRT.F            7.5000:   START DEPTH
 STOP.F         5700.0000:   STOP DEPTH
 STEP.F            0.5000:   STEP LENGTH
 NULL.          -999.2500:   NO VALUE
 COMP. FLUOR DANIEL (NPOSR):   COMPANY
 WELL.   FLOUR "X" #52-10:   WELL
 FLD .             NPR #3:   FIELD
 LOC .      S10 T38N R78W:   LOCATION
 CNTY.            NATRONA:   COUNTY
 STAT.            WYOMING:   STATE
 CTRY. UNITED STATES OF AMERICA:   COUNTRY
 SRVC.      WESTERN ATLAS:   SERVICE COMPANY
 DATE.        12-JAN-1996:   LOGDATE
 API .     49025227600000:   API NUMBER
~CURVE INFORMATION
#MNEM.UNIT       API CODE    CURVE DESCRIPTION
#----------   ------------   ------------------------------
 DEPT.F                  :   
 TENR.LBS    11 635 01 00:   TENSION
 GRR .GAPI   11 310 01 00:   GAMMA RAY FROM RESISTIVITY
 LLD .OHMM   11 220 10 00:   LATEROLOG DEEP
 LLS .OHMM   11 220 09 00:   LATEROLOG SHALLOW
 SPR .MV     11 010 01 00:   SPONTANEOUS POTENTIAL
 CALD.IN     45 280 60 00:   CALIPER FROM DENSITY LOG
 TEND.LBS    45 635 01 00:   TENSION FROM DENSITY LOG
 ZCOR.G/C3   45 356 01 00:   DENSITY CORRECTION
 ZDEN.G/C3   45 350 01 00:   BULK DENSITY
 CNC .DEC    42 890 03 00:   NEUTRON POROSITY SANDSTONE
~PARAMETER INFORMATION
#MNEM.UNIT          VALUE    DESCRIPTION
#----------   ------------   ------------------------------
 EKB .F         5196.0000:   Kelly bushing
 EGL .F         5186.0000:   Ground level
 EDF .F         5195.0000:   Drilling floor
 TD  .F         5699.0000:   Total depth
 DATE.        12-JAN-1996:   Date logged
 CLNT.            A2DTECH:   Client Code
 SL  . 1032' FNL & 2536' FEL:   Surface Location
 PD  .                 GL:   Permanent Datum
 EPD .F              5186:   Elevation Permanent Datum
 LMF .                 KB:   Log Measured From
 DMF .                 KB:   Drilling Measured From
 DAPD.F                11:   Feet Above Permanent Datum
 DD  .F              5699:   Depth driller
 DL  .F              5699:   Depth logger
 BLI .F              5687:   Bottom log interval
 CS1 .IN            9.625:   Casing size
 CBD1.      9.625" @ 520':   Casing driller 1
 CBL1.F               522:   Casing logger 1
 BS1 .IN             8.75:   Bit size
 BSD1.F              5699:   Depth drilled with bit1
 DFT .               CHEM:   Type fluid in hole
 DFD .                9.8:   Density
 DFV .                 50:   Viscosity
 DFPH.                9.5:   pH
 DFL .                8.4:   Fluid loss
 MSS .           FLOWLINE:   Source of sample
 RMS .OHMM          0.515:   Rm
 MST .F                66:   Rm Meas. temp.
 RMF .OHMM          0.499:   Rmf
 MFST.F                66:   Rmf Meas. temp.
 RMC .OHMM          0.761:   Rmc
 MCST.F                66:   Rmc Meas. temp.
 MFSS.               MEAS:   Source Rmf.
 MCSS.               MEAS:   Source Rmc.
 RMB .OHMM          0.233:   Rm. at BHT
 BHT .F               174:   BHT.
 TCS .HRS               6:   Time Circ. stopped
 MRT .F               174:   Maximum recorded temp.
 LUN .            HL 6530:   Logging unit number
 LUL .             CASPER:   Logging unit location
 ENGI.        VERN RAUTIO:   Recorded By
 WITN. LAFRENIERE/OPSAL/HARDY:   Witnessed by
 ORIG.     2.5", 5" PRINT:   Origin of data
 UWI .     49025227600000:   Unique Well ID
 DICO. A2D TECHNOLOGIES, INC.:   Digitizing Company
~OTHER INFORMATION
~A    DEPT    TENR         GRR       LLD        LLS        SPR       CALD       TEND       ZCOR       ZDEN        CNC   
# ...
 3927.0000   -54.5550   107.7480     5.3610     3.4830   -93.6240    10.6050   -44.1180     0.0450     2.5260     0.3180
 3927.5000   -52.1460   107.9370     5.3180     3.5520   -93.5990    10.6040   -44.1180     0.0430     2.5310     0.3090
 3928.0000    -5.5330   108.7780     5.2000     3.4970   -93.5730    10.6070   -44.1180     0.0390     2.5280     0.3080
 3928.5000    56.8410   113.6390     5.0900     3.4390   -93.5480    10.5790     0.5880     0.0250     2.5100     0.3080
 3929.0000    18.2090   118.4790     5.0760     3.3600   -93.5230    10.5190    42.3530     0.0100     2.4820     0.2980
 3929.5000   -43.9640   123.4170     5.0620     3.4320   -93.4980    10.4630    20.5880     0.0280     2.4540     0.2930
 3930.0000   -41.8760   124.3160     5.0520     3.5430   -93.4720    10.4060   -44.1180     0.0450     2.4290     0.2890
 3930.5000   -13.5810   117.0620     5.6590     3.6540   -93.4470    10.3490   -36.1440     0.0640     2.3710     0.2780
 3931.0000   -23.6420   112.7510     5.9860     3.7650   -93.4600    10.2920   -27.8430     0.0780     2.3150     0.2570
 3931.5000   -73.4410   115.2120     6.5550     4.2260   -93.5120    10.2360   -24.5100     0.1380     2.3310     0.2380
 3932.0000  -100.5030   113.9960     8.2010     5.5060   -93.5640    10.1790   -56.8240     0.1710     2.3720     0.2150
 3932.5000   -98.0170    99.4380    11.3830     7.8210   -93.6140    10.1180  -102.9410     0.1480     2.5250     0.1930
 3933.0000   -94.0640    83.5280    15.4630    10.2620   -93.4880    10.0870  -102.9410     0.0690     2.6150     0.1710
 3933.5000   -94.0640    70.8790    19.3620    12.8690   -93.1160    10.0830  -102.9410     0.0570     2.6420     0.1490
 3934.0000   -89.3700    71.4660    20.6590    14.4620   -92.7420    10.0630  -102.9410     0.0520     2.6400     0.1270
 3934.5000   -69.1650    71.7500    20.3100    15.2170   -92.6280    10.0570  -102.9410     0.0460     2.5870     0.1180
 3935.0000   -60.5300    67.7380    19.9400    14.3940   -92.6260    10.1680   -93.9220     0.0140     2.5050     0.1200
 3935.5000   -56.7150    61.3100    17.5150    11.0220   -92.6260    10.2270   -83.3330     0.0260     2.3240     0.1380
 3936.0000   -53.7600    60.6370    12.2250     7.1670   -92.6250    10.8720   -83.3330     0.0770     2.1080     0.1400
 3936.5000   -31.0930    74.4770     6.9350     4.3470   -92.6190    11.9850   -64.5100     0.1250     2.0050     0.1610
 3937.0000    -8.4260    87.4980     3.5860     2.7960   -92.9290    13.0530   -39.6080     0.1640     2.0040     0.2090
 3937.5000     3.2380    98.8420     3.6440     2.5920   -93.3090    13.2060   -24.5100     0.1700     2.0030     0.2970
 3938.0000    -6.4760   106.3910     3.7560     2.7690   -93.4520    13.0580   -24.5100     0.1750     2.1610     0.3580
 3938.5000   -16.1910   108.8870     4.2560     3.1170   -93.4830    12.4530   -24.5100     0.1770     2.2790     0.3550
 3939.0000   -23.6420   110.1860     4.6630     3.4640   -93.5110    11.9050   -24.5100     0.2030     2.3640     0.3320
 3939.5000   -23.6420   110.4310     4.7310     3.6010   -93.5400    11.8540   -24.5100     0.2260     2.4230     0.3040
 3940.0000   -19.2030   108.7080     4.7790     3.6190   -93.5690    11.7940   -24.5100     0.2260     2.3710     0.2990
 3940.5000    -3.9650   105.5620     4.5180     3.3900   -93.5970    11.8490   -22.0780     0.2280     2.3270     0.3000
 3941.0000    11.2740   102.4090     4.3200     3.2130   -93.6250    11.9190   -17.0980     0.2310     2.3190     0.3020
 3941.5000    26.6600    99.2360     4.0820     3.0350   -93.5870    11.9500   -12.1180     0.2290     2.3110     0.3060
 3942.0000    16.8870    97.0600     4.1380     3.0200   -93.4760    11.9450    -7.1370     0.2210     2.3090     0.3140
 3942.5000     7.0180    97.6020     4.2090     3.0050   -93.3650    11.8860    -4.9020     0.2300     2.3400     0.3230
 3943.0000    -2.8500    99.6470     4.2800     2.9910   -93.2530    11.8180    -4.9020     0.2540     2.3720     0.3250
 3943.5000   -13.5810   103.6890     4.3160     2.9760   -93.1410    11.7920    -4.9020     0.2690     2.3910     0.3270
 3944.0000    -2.6700   107.7730     4.3000     2.9610   -93.0370    11.8170    -4.9020     0.2610     2.4010     0.3290
 3944.5000     9.2860   109.2350     4.2900     2.9520   -93.1430    11.7970    -4.9020     0.2530     2.4130     0.3490
 3945.0000    10.8510   108.5930     4.2760     2.9520   -93.2270    11.6630    -4.9020     0.2630     2.4100     0.3500
 3945.5000    -3.9520   107.9940     4.4570     3.0240   -93.1930    11.4450    -4.9020     0.2820     2.4150     0.3510
 3946.0000   -18.7550   108.4910     4.7520     3.1740   -93.1600    11.0560   -19.1500     0.3150     2.4290     0.3510
 3946.5000   -23.6420   111.9810     5.0480     3.4990   -93.1280    10.6350   -35.7520     0.2920     2.5540     0.3450
 3947.0000   -23.6420   115.4420     5.5280     3.8250   -93.0950    10.6010   -40.0000     0.2150     2.5800     0.3310
 3947.5000   -21.5840   115.0230     6.1880     4.1510   -93.0620    10.5830   -31.6990     0.1130     2.5950     0.3100
 3948.0000    -7.4540   110.5220     6.8480     4.4760   -93.0340    10.5830   -23.3990     0.0580     2.5950     0.3100
 3948.5000     6.5390   104.3130     7.3870     4.8020   -93.1240    10.5710   -15.0980     0.0220     2.5950     0.2740
 3949.0000    -9.5570    98.1050     7.7370     5.0580   -93.2220    10.5660    -6.7970     0.0170     2.6010     0.2560
 3949.5000   -25.4990    92.1800     7.7370     5.0870   -93.1060    10.5840   -24.1180     0.0220     2.6060     0.2490
 3950.0000   -31.9060    87.3750     7.7370     5.1160   -92.9580    10.5980   -44.1180     0.0250     2.6080     0.2410
 3950.5000   -28.2050    86.0880     8.0010     5.1460   -92.8090    10.6150   -35.6960     0.0290     2.6110     0.2400
 3951.0000   -24.5040    85.8010     8.2940     5.3190   -92.6570    10.6300   -28.6590     0.0330     2.6130     0.2390
 3951.5000   -50.1340    85.5780     8.5870     5.5040   -92.5910    10.6470   -37.9740     0.0360     2.6230     0.2320
 3952.0000   -84.0040    83.4310     9.3070     5.9170   -92.5460    10.6610   -70.7840     0.0400     2.6390     0.2150
 3952.5000   -67.5420    80.1580    10.1360     6.3880   -92.5010    10.6760  -102.9410     0.0440     2.6560     0.1990
 3953.0000   -29.8610    76.8330    10.9010     6.8030   -92.4550    10.7220   -67.0870     0.0570     2.5440     0.1860
 3953.5000    -1.2930    73.4840    10.5370     6.9230   -92.3610    10.7660   -31.9330     0.0800     2.3620     0.1800
 3954.0000     6.5390    73.8860     9.5360     5.9560   -92.1500    10.9600    -7.1760     0.1470     2.2320     0.1780
 3954.5000    -3.2190    77.9620     8.1790     5.2910   -91.9420    11.2210   -17.0200     0.3300     2.1360     0.1810
 3955.0000   -13.5810    82.0160     8.0290     5.0990   -91.7340    11.4830   -21.5690     0.3140     2.2150     0.2040
 3955.5000     5.1560    85.1930     8.2770     5.5230   -91.6150    11.3930    -9.2650     0.2590     2.3210     0.2440
 3956.0000    44.0140    84.4700     8.6820     6.0240   -91.6160    11.2810    40.3920     0.1560     2.4340     0.2530
 3956.5000    82.8720    73.8590     8.9730     5.9860   -91.6150    11.1760    65.0000     0.1650     2.3340     0.2470
 3957.0000    59.3560    70.4290     8.5120     5.7620   -91.6180    11.4810    62.8100     0.2480     2.1990     0.2390
 3957.5000    -5.4070    75.1700     7.9710     5.4670   -91.7320    11.5770    14.7060     0.3130     2.2290     0.2710
 3958.0000   -51.2070    81.4930     7.4750     5.1720   -91.8550    11.5240   -28.7580     0.3150     2.3000     0.2700
 3958.5000   -56.6640    87.7400     7.2510     5.0050   -91.9780    11.4850   -69.7710     0.2390     2.4770     0.2780
 3959.0000   -44.4730    90.8990     7.5520     5.0650   -92.1010    11.4290   -76.7450     0.2040     2.4650     0.2730
 3959.5000   -32.2820    92.3360     7.8030     5.2210   -92.2230    11.5380   -66.9020     0.1630     2.3370     0.2650
 3960.0000   -10.7070    89.9050     8.0030     5.4400   -92.3450    11.7660   -47.0590     0.0820     2.1230     0.2590
