~VERSION INFORMATION
 VERS.                2.0:   CWLS LOG ASCII STANDARD - VERSION 2.0
 WRAP.                 NO:   ONE LINE PER DEPTH STEP
~WELL INFORMATION
#MNEM.UNIT      DATA TYPE    INFORMATION
#----------   ------------   ------------------------------
 STRT.F            4.0000:   START DEPTH
 STOP.F         3266.0000:   STOP DEPTH
 STEP.F            0.5000:   STEP LENGTH
 NULL.          -999.2500:   NO VALUE
 COMP. LAWRENCE ALLISON & ASSOSCIATES:   COMPANY
 WELL. LAWRENCE "X" #27-11:   WELL
 FLD .          N.P.R. #3:   FIELD
 LOC .      S11 T38N R78W:   LOCATION
 CNTY.            NATRONA:   COUNTY
 STAT.            WYOMING:   STATE
 CTRY. UNITED STATES OF AMERICA:   COUNTRY
 SRVC.      DRESSER ATLAS:   SERVICE COMPANY
 DATE.        22-AUG-1986:   LOGDATE
 API .     49025111070000:   API NUMBER
~CURVE INFORMATION
#MNEM.UNIT       API CODE    CURVE DESCRIPTION
#----------   ------------   ------------------------------
 DEPT.F                  :   
 SPR .MV     07 010 01 00:   SPONTANEOUS POTENTIAL
 TENR.LBS    06 635 01 00:   TENSION FROM RESISTIVITY
 GRR .GAPI   07 310 01 00:   GAMMA RAY FROM RESISTIVITY
 RILD.OHMM   07 120 46 00:   DEEP INDUCTION RESISTIVITY
 RILM.OHMM   07 120 44 00:   INDUCTION LOG MEDIUM RESISTIVITY
 RFOC.OHMM   07 220 04 00:   RESISTIVITY FOCUSED LOG RES.
 NPHI.DEC    42 890 03 00:   NEUTRON POROSITY SANDSTONE
 CALD.IN     45 280 60 00:   CALIPER FROM DENSITY LOG
 RHOB.G/C3   45 350 01 00:   BULK DENSITY
 CORR.G/C3   45 356 01 00:   DENSITY CORRECTION
 TEND.LBS    45 635 01 00:   TENSION FORM DENSITY LOG
~PARAMETER INFORMATION
#MNEM.UNIT          VALUE    DESCRIPTION
#----------   ------------   ------------------------------
 EKB .F         5206.0000:   Kelly bushing
 EGL .F         5194.0000:   Ground level
 EDF .F         5205.0000:   Drilling floor
 EPD .F         5194.0000:   Permanent datum
 TD  .F         3250.0000:   Total depth
 CLNT.            A2DTECH:   Client Code
 SL  . 1197' FSL & 1088' FWL:   Surface Location
 PD  .                 GL:   Permanent Datum
 DAPD.F                12:   Feet Above Permanent Datum
 DATE.        22-AUG-1986:   Date Logged [DD-MMM-YYYY]
 DD  .F              3250:   Depth driller
 DL  .F              3246:   Depth logger
 BLI .F              3243:   Bottom log interval
 TLI .F               683:   Top log interval
 CS1 .IN            8.625:   Casing size
 CBD1.      8.625" @ 672':   Casing driller 1
 CBL1.F               673:   Casing logger 1
 BS1 .IN            7.875:   Bit size
 BSD1.F              3250:   Depth drilled with bit1
 DFT .            KCL-GEL:   Type fluid in hole
 DFD .                8.9:   Density
 DFV .                 35:   Viscosity
 MSS .               TANK:   Source of sample
 RMS .OHMM           0.31:   Rm
 MST .F                70:   Rm Meas. temp.
 RMF .OHMM           0.29:   Rmf
 MFST.F                67:   Rmf Meas. temp.
 MFSS.               CALC:   Source Rmf.
 RMC .OHMM           0.46:   Rmc
 MCST.F                70:   Rmc Meas. temp.
 MCSS.               CALC:   Source Rmc.
 RMB .OHMM           0.16:   Rm. at BHT
 BHT .F               136:   BHT.
 TCS .HRS               4:   Time Circ. stopped
 MRT .F               136:   Maximum recorded temp.
 LUN .            HL-6426:   Logging unit number
 LUL .          RK. SPGS.:   Logging unit location
 ENGI.               RALL:   Recorded By
 WITN.             STRONG:   Witnessed by
 ORIG.           5" PRINT:   Origin of data
 UWI .     49025111070000:   Unique Well ID
 DICO. A2D TECHNOLOGIES, INC.:   Digitizing Company
~OTHER INFORMATION
~A    DEPT     SPR       TENR         GRR      RILD       RILM       RFOC       NPHI       CALD       RHOB       CORR       TEND   
# ...
 1864.5000   -71.6501   -69.0511   133.4886     6.9765     6.8213     8.1015  -999.2500  -999.2500  -999.2500  -999.2500  -999.2500
 1865.0000   -71.2375   -61.8785   134.7936     6.9771     6.7766     8.1044  -999.2500  -999.2500  -999.2500  -999.2500  -999.2500
 1865.5000   -70.8114   -54.8329   132.4780     6.9289     6.7321     7.9939  -999.2500  -999.2500  -999.2500  -999.2500  -999.2500
 1866.0000   -70.3893   -47.9140   129.2526     6.8333     6.6886     7.9404  -999.2500  -999.2500  -999.2500  -999.2500  -999.2500
 1866.5000   -69.9679   -55.9740   129.2448     6.7861     6.6916     7.8873  -999.2500  -999.2500  -999.2500  -999.2500  -999.2500
 1867.0000   -69.5465   -64.0484   131.6563     6.7866     6.7417     7.9455  -999.2500  -999.2500  -999.2500  -999.2500  -999.2500
 1867.5000   -69.1252   -64.6679   132.9303     6.7398     6.7922     7.9478  -999.2500  -999.2500  -999.2500  -999.2500  -999.2500
 1868.0000   -68.7035   -72.7279   134.4928     6.6933     6.7952     8.0060  -999.2500  -999.2500  -999.2500  -999.2500  -999.2500
 1868.5000   -68.2798   -73.2351   137.3012     6.6939     6.7982     7.9518  -999.2500  -999.2500  -999.2500  -999.2500  -999.2500
 1869.0000   -67.8571   -73.7422   136.1030     6.6944     6.8013     7.8991  -999.2500  -999.2500  -999.2500  -999.2500  -999.2500
 1869.5000   -67.7252   -74.2493   132.1284     6.6481     6.7566     7.7371  -999.2500  -999.2500  -999.2500  -999.2500  -999.2500
 1870.0000   -67.6078   -67.2037   129.1696     6.6486     6.7603     7.6853  -999.2500  -999.2500  -999.2500  -999.2500  -999.2500
 1870.5000   -67.4854   -67.8376   126.9474     6.6491     6.7152     7.6881  -999.2500  -999.2500  -999.2500  -999.2500  -999.2500
 1871.0000   -67.5939   -68.3447   126.1029     6.6495     6.7189     7.7443  -999.2500  -999.2500  -999.2500  -999.2500  -999.2500
 1871.5000   -67.8463   -68.8518   126.7260     6.6500     6.7219     7.7466  -999.2500  -999.2500  -999.2500  -999.2500  -999.2500
 1872.0000   -68.1015   -69.3590   125.1002     6.6467     6.7722     7.8581  -999.2500  -999.2500  -999.2500  -999.2500  -999.2500
 1872.5000   -68.3569   -69.8662   120.6973     6.6046     6.7753     7.9156  -999.2500  -999.2500  -999.2500  -999.2500  -999.2500
 1873.0000   -68.6119   -70.3928   119.4324     6.3783     6.4991     7.9736  -999.2500  -999.2500  -999.2500  -999.2500  -999.2500
 1873.5000   -68.8669   -71.0072   122.4697     6.0741     5.9763     8.0324  -999.2500  -999.2500  -999.2500  -999.2500  -999.2500
 1874.0000   -69.1223   -79.0672   126.8266     5.4927     5.3433     8.0912  -999.2500  -999.2500  -999.2500  -999.2500  -999.2500
 1874.5000   -69.3805   -71.8948   129.2166     4.8924     4.9481     8.1504  -999.2500  -999.2500  -999.2500  -999.2500  -999.2500
 1875.0000   -69.6427   -80.0816   128.0394     4.7572     4.7794     7.7627  -999.2500  -999.2500  -999.2500  -999.2500  -999.2500
 1875.5000   -69.4391   -73.0358   124.4463     4.6909     4.7815     6.6096  -999.2500  -999.2500  -999.2500  -999.2500  -999.2500
 1876.0000   -69.1913   -73.6698   121.6272     4.6255     4.8174     4.8911  -999.2500  -999.2500  -999.2500  -999.2500  -999.2500
 1876.5000   -68.9448   -74.1769   120.2765     4.6251     4.9227     4.6594  -999.2500  -999.2500  -999.2500  -999.2500  -999.2500
 1877.0000   -68.6992   -74.6841   120.3843     4.8567     5.1009     4.9993  -999.2500  -999.2500  -999.2500  -999.2500  -999.2500
 1877.5000   -68.4536   -75.1912   119.5109     4.9247     5.3604     5.7125  -999.2500  -999.2500  -999.2500  -999.2500  -999.2500
 1878.0000   -68.2080   -75.6983   120.3413     4.8560     5.6728     7.0011  -999.2500  -999.2500  -999.2500  -999.2500  -999.2500
 1878.5000   -67.9624   -76.2084   123.3710     5.2804     6.0034     8.2272  -999.2500  -999.2500  -999.2500  -999.2500  -999.2500
 1879.0000   -67.7167   -76.8394   126.4801     5.8635     6.3589     8.2930  -999.2500  -999.2500  -999.2500  -999.2500  -999.2500
 1879.5000   -67.4708   -77.3466   126.4603     6.3760     6.7717     8.1174  -999.2500  -999.2500  -999.2500  -999.2500  -999.2500
 1880.0000   -67.2256   -77.8537   124.7262     6.7421     7.0663     8.0636  -999.2500  -999.2500  -999.2500  -999.2500  -999.2500
 1880.5000   -67.0165   -78.3608   124.0623     7.0324     7.2709     8.0659  -999.2500  -999.2500  -999.2500  -999.2500  -999.2500
 1881.0000   -66.9431   -78.8681   125.5910     7.1288     7.3254     8.1250  -999.2500  -999.2500  -999.2500  -999.2500  -999.2500
 1881.5000   -66.8678   -79.3807   128.3847     6.9318     7.1255     8.1844  -999.2500  -999.2500  -999.2500  -999.2500  -999.2500
 1882.0000   -66.7921   -80.0091   130.9010     6.7402     6.7866     8.2443  -999.2500  -999.2500  -999.2500  -999.2500  -999.2500
 1882.5000   -66.7145   -80.5162   133.2554     6.4630     6.4130     8.3630  -999.2500  -999.2500  -999.2500  -999.2500  -999.2500
 1883.0000   -66.6285   -81.0233   133.1618     6.1972     5.9864     8.1753  -999.2500  -999.2500  -999.2500  -999.2500  -999.2500
 1883.5000   -67.0496   -81.5306   130.6870     5.9010     5.8634     6.7825  -999.2500  -999.2500  -999.2500  -999.2500  -999.2500
 1884.0000   -67.5188   -74.4713   128.2035     5.7379     5.8667     6.1507  -999.2500  -999.2500  -999.2500  -999.2500  -999.2500
 1884.5000   -67.9891   -75.0001   123.4835     5.6975     5.9523     5.8581  -999.2500  -999.2500  -999.2500  -999.2500  -999.2500
 1885.0000   -68.4579   -75.6259   123.7364     5.6971     6.0818     5.9010  -999.2500  -999.2500  -999.2500  -999.2500  -999.2500
 1885.5000   -68.9271   -68.4534   124.8800     5.6967     6.3020     6.2429  -999.2500  -999.2500  -999.2500  -999.2500  -999.2500
 1886.0000   -69.3947   -69.0873   125.9943     5.7766     6.5340     7.1837  -999.2500  -999.2500  -999.2500  -999.2500  -999.2500
 1886.5000   -69.8676   -69.5945   129.3164     5.8985     6.7248     7.8389  -999.2500  -999.2500  -999.2500  -999.2500  -999.2500
 1887.0000   -69.9654   -70.1016   133.2383     6.0664     6.9633     8.2692  -999.2500  -999.2500  -999.2500  -999.2500  -999.2500
 1887.5000   -69.8140   -70.6194   133.2078     6.2953     7.0649     8.2716  -999.2500  -999.2500  -999.2500  -999.2500  -999.2500
 1888.0000   -69.6701   -71.2428   129.0205     6.5033     7.1681     8.0448  -999.2500  -999.2500  -999.2500  -999.2500  -999.2500
 1888.5000   -69.5558   -71.7499   124.0688     6.6872     7.2218     7.9357  -999.2500  -999.2500  -999.2500  -999.2500  -999.2500
 1889.0000   -69.2759   -64.5774   122.8860     6.8284     7.2250     7.9938  -999.2500  -999.2500  -999.2500  -999.2500  -999.2500
 1889.5000   -69.2959   -65.2113   122.8141     6.9726     7.1775     8.0523  -999.2500  -999.2500  -999.2500  -999.2500  -999.2500
 1890.0000   -68.6573   -58.1571   122.9614     7.0703     7.1815     8.1688  -999.2500  -999.2500  -999.2500  -999.2500  -999.2500
 1890.5000   -68.3506   -58.6727   124.6585     7.0191     7.1336     8.2864  -999.2500  -999.2500  -999.2500  -999.2500  -999.2500
 1891.0000   -68.2439   -51.6269   130.3038     6.9225     7.0379     8.2309  -999.2500  -999.2500  -999.2500  -999.2500  -999.2500
 1891.5000   -68.2084   -59.8137   134.1149     6.9221     6.9910     8.1182  -999.2500  -999.2500  -999.2500  -999.2500  -999.2500
 1892.0000   -67.6836   -60.3210   132.0403     6.9216     6.9457     8.0638  -999.2500  -999.2500  -999.2500  -999.2500  -999.2500
 1892.5000   -67.3310   -68.3810   127.2716     6.8729     6.9002     8.0104  -999.2500  -999.2500  -999.2500  -999.2500  -999.2500
 1893.0000   -67.0271   -68.8881   124.4084     6.8044     6.8070     7.8461  -999.2500  -999.2500  -999.2500  -999.2500  -999.2500
 1893.5000   -67.0347   -69.4109   126.9900     6.7529     6.7630     7.7398  -999.2500  -999.2500  -999.2500  -999.2500  -999.2500
 1894.0000   -67.0367   -70.0291   131.1148     6.7290     6.7179     7.6337  -999.2500  -999.2500  -999.2500  -999.2500  -999.2500
 1894.5000   -67.0244   -70.5364   130.9482     6.7284     6.7216     7.6901  -999.2500  -999.2500  -999.2500  -999.2500  -999.2500
