~VERSION INFORMATION
 VERS.                2.0:   CWLS LOG ASCII STANDARD - VERSION 2.0
 WRAP.                 NO:   ONE LINE PER DEPTH STEP
~WELL INFORMATION
#MNEM.UNIT      DATA TYPE    INFORMATION
#----------   ------------   ------------------------------
 STRT.F         2200.0000:   START DEPTH
 STOP.F         3200.0000:   STOP DEPTH
 STEP.F            0.5000:   STEP LENGTH
 NULL.          -999.2500:   NO VALUE
 COMP.   LAWRENCE ALLISON:   COMPANY
 WELL. LAWRENCE "X" #18-34:   WELL
 FLD .          NPR NO. 3:   FIELD
 LOC .      S34 T39N R78W:   LOCATION
 CNTY.            NATRONA:   COUNTY
 STAT.            WYOMING:   STATE
 CTRY. UNITED STATES OF AMERICA:   COUNTRY
 SRVC.      DRESSER ATLAS:   SERVICE COMPANY
 DATE.        14-MAY-1986:   LOGDATE
 API .     49025110720000:   API NUMBER
~CURVE INFORMATION
#MNEM.UNIT       API CODE    CURVE DESCRIPTION
#----------   ------------   ------------------------------
 DEPT.F                  :   
 CALD.IN     45 280 60 00:   CALIPER FROM DENSITY LOG
 GRD .GAPI   45 310 01 00:   GAMMA RAY FROM DENSITY LOG
 TEND.LBS    45 635 01 00:   TENSION FORM DENSITY LOG
 CORR.G/C3   45 356 01 00:   DENSITY CORRECTION
 DEN .G/C3   45 350 01 00:   BULK DENSITY
 CNC .DEC    42 890 03 00:   NEUTRON POROSITY SANDSTONE
~PARAMETER INFORMATION
#MNEM.UNIT          VALUE    DESCRIPTION
#----------   ------------   ------------------------------
 EKB .F         5192.0000:   Kelly bushing
 EGL .F         5181.0000:   Ground level
 EDF .F         5189.0000:   Drilling floor
 TD  .F         3195.0000:   Total depth
 CLNT.            A2DTECH:   Client Code
 SL  . 722' FWL & 239' FSL:   Surface Location
 PD  .                 GL:   Permanent Datum
 EPD .F              5181:   Elevation Permanent Datum
 LMF .                 KB:   Log Measured From
 DMF .                 KB:   Drilling Measured From
 DAPD.F                11:   Feet Above Permanent Datum
 DATE.        14-MAY-1986:   Date Logged [DD-MMM-YYYY]
 DD  .F              3195:   Depth driller
 DL  .F              3194:   Depth logger
 BLI .F              3192:   Bottom log interval
 TLI .F                 0:   Top log interval
 CS1 .IN            8.625:   Casing size
 CBD1.      8.625" @ 601':   Casing driller 1
 CBL1.F               596:   Casing logger 1
 BS1 .IN            7.875:   Bit size
 BSD1.F              3195:   Depth drilled with bit1
 DFT .        POLYMER-KCL:   Type fluid in hole
 DFD .                  9:   Density
 DFV .                 35:   Viscosity
 DFPH.                9.5:   pH
 DFL .               16.2:   Fluid loss
 MSS .           FLOWLINE:   Source of sample
 RMS .OHMM          0.378:   Rm
 MST .F                65:   Rm Meas. temp.
 RMF .OHMM          0.306:   Rmf
 MFST.F                65:   Rmf Meas. temp.
 MFSS.               MEAS:   Source Rmf.
 RMC .OHMM          0.472:   Rmc
 MCST.F                65:   Rmc Meas. temp.
 MCSS.               CALC:   Source Rmc.
 RMB .OHMM          0.208:   Rm. at BHT
 BHT .F               118:   BHT.
 TCS .HRS               3:   Time Circ. stopped
 MRT .F               118:   Maximum recorded temp.
 LUN .            HL-6274:   Logging unit number
 LUL .           GILLETTE:   Logging unit location
 ENGI.             RAUTIO:   Recorded By
 WITN.             STRONG:   Witnessed by
 ORIG.           5" PRINT:   Origin of data
 UWI .     49025110720000:   Unique Well ID
 DICO. A2D TECHNOLOGIES, INC.:   Digitizing Company
~OTHER INFORMATION
~A  DEPT        CALD      GRD        TEND        CORR        DEN        CNC 
# ...
 3032.0000     8.0718    68.9092    -2.4790     0.0283     2.3773     0.2202
 3032.5000     8.0415    64.3727    -2.2557     0.0585     2.3683     0.2088
 3033.0000     7.9810    58.9312    -1.9887     0.0493     2.3494     0.2001
 3033.5000     7.9054    51.9814    -1.7707     0.0368     2.3192     0.1953
 3034.0000     7.8751    48.0482    -1.5789     0.0221     2.3041     0.1914
 3034.5000     7.9504    46.5279    -1.3348     0.0085     2.2958     0.1944
 3035.0000     8.0558    47.1170    -1.1170    -0.0006     2.2905     0.2008
 3035.5000     8.0536    48.3120    -0.8990     0.0114     2.2890     0.2059
 3036.0000     7.9197    51.9203    -8.1999     0.0190     2.2882     0.2074
 3036.5000     7.7989    51.3053    -0.4086     0.0069     2.2889     0.2081
 3037.0000     7.7234    50.0871    -0.1907    -0.0053     2.2911     0.2106
 3037.5000     7.6931    49.4721     0.0273    -0.0098     2.2934     0.2126
 3038.0000     8.0398    49.5919     7.7639     0.0158     2.2963     0.2129
 3038.5000     7.9944    53.0658     7.9819     0.0339     2.2993     0.2133
 3039.0000     7.9490    58.1824     0.6810     0.0460     2.3023     0.2184
 3039.5000     7.9338    67.8238     0.9023     0.0550     2.3038     0.2236
 3040.0000     7.9487    78.3703     1.1714     0.0610     2.3038     0.2260
 3040.5000     7.9938    78.6967     1.3893     0.0625     2.2992     0.2290
 3041.0000     8.0088    73.4886     1.6072     0.0610     2.3112     0.2321
 3041.5000     8.0237    68.3777     1.8252     0.0534     2.3255     0.2311
 3042.0000     8.0084    66.2544     2.0432     0.0292     2.3368     0.2279
 3042.5000     7.9781    65.3378    -5.2631     0.0050     2.3262     0.2312
 3043.0000     7.9800    61.7063    -5.0397    -0.0026     2.3119     0.2357
 3043.5000     8.0080    58.0747   -12.3407    -0.0072     2.3081     0.2339
 3044.0000     8.0229    55.6498   -19.6415     0.0079     2.3084     0.2321
 3044.5000     8.0228    56.8606   -26.8879     0.0174     2.3224     0.2379
 3045.0000     8.0226    57.7381   -26.6699     0.0063     2.3216     0.2389
 3045.5000     8.0225    56.5170   -26.4520     0.0018     2.3170     0.2315
 3046.0000     8.0072    51.9804   -26.2340    -0.0043     2.3147     0.2276
 3046.5000     7.9920    50.4634   -18.4963     0.0113     2.3222     0.2304
 3047.0000     7.9918    52.8621   -18.2707     0.0274     2.3260     0.2325
 3047.5000     7.9766    56.1687   -10.4882     0.0289     2.3275     0.2325
 3048.0000     7.9765    60.7795   -17.8435     0.0273     2.3234     0.2356
 3048.5000     7.9763    63.6840   -17.5711    -0.0044     2.3138     0.2428
 3049.0000     7.9762    63.6724   -17.3531     0.0106     2.3085     0.2462
 3049.5000     7.9609    61.2475   -17.1353     0.0333     2.3092     0.2425
 3050.0000     7.9608    56.1076   -16.9173     0.0347     2.3160     0.2332
 3050.5000     7.9626    53.0794   -16.6917     0.0396     2.3205     0.2350
 3051.0000     7.9756    53.5161   -24.0002     0.0543     2.3167     0.2368
 3051.5000     7.9768    58.7950   -23.6938     0.0679     2.3098     0.2335
 3052.0000     7.9790    61.8028   -23.2769     0.0678     2.3053     0.2308
 3052.5000     7.9812    63.9057   -22.8601     0.0677     2.3060     0.2281
 3053.0000     7.9834    67.8185   -22.4432     0.0611     2.3075     0.2290
 3053.5000     7.9856    72.0329   -22.0263     0.0404     2.3082     0.2288
 3054.0000     7.9878    75.0408   -21.6094     0.0222     2.3059     0.2310
 3054.5000     7.9896    67.3801   -21.1925     0.0055     2.3043     0.2376
 3055.0000     7.9894    54.2065   -20.7756     0.0100     2.3096     0.2345
 3055.5000     7.9893    49.0696   -20.3588     0.0144     2.3209     0.2294
 3056.0000     8.0042    46.0442   -19.9419     0.0219     2.3223     0.2261
 3056.5000     8.0041    47.8454   -11.9755     0.0462     2.3207     0.2291
 3057.0000     8.0190    55.6797   -11.6116     0.0475     2.3185     0.2310
 3057.5000     8.0188    60.7992   -11.2479     0.0414     2.3162     0.2334
 3058.0000     8.0338    64.4182   -10.8840     0.0338     2.3048     0.2355
 3058.5000     8.0336    66.2115   -10.5203     0.0277     2.2973     0.2331
 3059.0000     8.0335    65.8989   -10.1503     0.0367     2.3115     0.2341
 3059.5000     8.0333    64.0801   -17.3115     0.0411     2.3213     0.2344
 3060.0000     8.0181    62.2614   -16.8566     0.0426     2.3282     0.2326
 3060.5000     8.0179    58.9344   -16.4929     0.0410     2.3303     0.2253
 3061.0000     8.0178    56.8140   -16.1654     0.0364     2.3265     0.2266
 3061.5000     8.0176    56.5036   -15.7894     0.0273     2.3181     0.2335
 3062.0000     8.0024    58.6185   -22.9323     0.0136     2.3098     0.2435
 3062.5000     7.9872    59.5026   -22.5564     0.0287     2.3113     0.2423
 3063.0000     7.9870    59.7955   -22.1804     0.0558     2.3180     0.2414
 3063.5000     7.9869    59.7845   -14.2191     0.0725     2.3265     0.2463
 3064.0000     7.9867    60.6808   -13.8552     0.0738     2.3300     0.2481
 3064.5000     7.9865    61.2753   -13.4915     0.0662     2.3300     0.2469
 3065.0000     7.9864    62.1715   -13.1276     0.0601     2.3292     0.2436
 3065.5000     7.9863    59.4478   -12.7638     0.0540     2.3291     0.2460
 3066.0000     7.9861    62.2171   -19.9248     0.0419     2.3351     0.2497
 3066.5000     7.9860    67.2712   -19.5488     0.0297     2.3434     0.2464
 3067.0000     7.9858    72.0890   -19.1002     0.0161     2.3542     0.2434
 3067.5000     7.9857    76.3034   -18.7969     0.0175     2.3659     0.2413
 3068.0000     7.9855    77.8052   -18.3725     0.0265     2.3629     0.2389
 3068.5000     7.9703    73.2693   -18.0086     0.0446     2.3538     0.2367
 3069.0000     7.9852    68.1323   -17.6449     0.0460     2.3485     0.2347
 3069.5000     7.9700    64.5036    -9.7622     0.0566     2.3522     0.2341
 3070.0000     7.9547    62.3833    -1.8797     0.0973     2.3567     0.2338
 3070.5000     7.8943    65.3889    -1.5037     0.1078     2.3429     0.2453
 3071.0000     7.8338    67.4917    -1.0611     0.1111     2.3317     0.2507
 3071.5000     7.8186    68.6896    -0.6972     0.1273     2.3272     0.2468
 3072.0000     7.8349    68.6808    -7.9433     0.1378     2.3173     0.2456
 3072.5000     7.8635    68.3704    -7.4884     0.1317     2.3105     0.2520
 3073.0000     7.8633    66.8533    -7.1247     0.1196     2.3082     0.2575
 3073.5000     7.8933    65.3363    -6.7608     0.1074     2.3052     0.2511
 3074.0000     7.9837    66.8599    -6.3910     0.0636     2.2951     0.2442
 3074.5000     8.0138    66.5231    -5.9422     0.0120     2.2802     0.2439
 3075.0000     8.0287    67.7210    -5.5785    -0.0060     2.2726     0.2445
 3075.5000     8.0436    70.4272    -5.2146     0.0030     2.2703     0.2436
 3076.0000     8.0434    73.1333    -4.8509     0.0074     2.2786     0.2421
 3076.5000     8.0282    71.6163     3.0318     0.0089     2.2838     0.2403
 3077.0000     8.0280    68.2892    10.9143     0.0073     2.2815     0.2394
 3077.5000     8.0279    65.8672    11.2782     0.0012     2.2768     0.2449
 3078.0000     8.0127    64.3219     4.1231    -0.0079     2.2558     0.2540
 3078.5000     8.0125    63.7358   -10.4596    -0.0186     2.2467     0.2534
 3079.0000     8.0124    65.2354   -17.6147    -0.0231     2.2474     0.2434
 3079.5000     8.0273    67.9415   -17.2508    -0.0247     2.2580     0.2374
 3080.0000     8.0271    68.5383   -20.0507    -0.0233     2.2707     0.2447
 3080.5000     8.0421    65.8124   -24.0601    -0.0188     2.2760     0.2380
 3081.0000     8.0419    66.1053   -23.6781    -0.0109     2.2752     0.2308
 3081.5000     8.0418    67.9064   -23.3143    -0.0038     2.2834     0.2323
 3082.0000     8.0265    70.3752   -30.4692    -0.0069     2.3008     0.2382
 3082.5000     8.0264    73.9199   -30.0146    -0.0115     2.3199     0.2475
 3083.0000     8.0262    76.6260   -29.6507    -0.0040     2.3346     0.2505
 3083.5000     8.0261    77.2228   -21.7681    -0.0010     2.3384     0.2511
