~VERSION INFORMATION
 VERS.                2.0:   CWLS LOG ASCII STANDARD - VERSION 2.0
 WRAP.                 NO:   ONE LINE PER DEPTH STEP
~WELL INFORMATION
#MNEM.UNIT      DATA TYPE    INFORMATION
#----------   ------------   ------------------------------
 STRT.F            0.5000:   START DEPTH
 STOP.F         4128.0000:   STOP DEPTH
 STEP.F            0.5000:   STEP LENGTH
 NULL.          -999.2500:   NO VALUE
 COMP. LAWRENCE ALLISON ASSOC WEST:   COMPANY
 WELL. LAWRENCE NPR "AX" #12-33:   WELL
 FLD .      NPR - WILDCAT:   FIELD
 LOC .      S33 T39N R78W:   LOCATION
 CNTY.            NATRONA:   COUNTY
 STAT.            WYOMING:   STATE
 CTRY. UNITED STATES OF AMERICA:   COUNTRY
 SRVC.      DRESSER ATLAS:   SERVICE COMPANY
 DATE.        04-AUG-1984:   LOGDATE
 API .     49025109720000:   API NUMBER
~CURVE INFORMATION
#MNEM.UNIT       API CODE    CURVE DESCRIPTION
#----------   ------------   ------------------------------
 DEPT.F                  :   
 CORR.G/C3   45 356 01 00:   DENSITY CORRECTION
 TEND.LBS    45 635 01 00:   TENSION FROM DENSITY LOG
 RHOB.G/C3   45 350 01 00:   BULK DENSITY
 GRR .GAPI   07 310 01 00:   GAMMA RAY FROM RESISTIVITY
 SPR .MV     07 010 01 00:   SPONTANEOUS POTENTIAL
 RFOC.OHMM   07 220 04 00:   RESISTIVITY FOCUSED LOG RES.
 RILM.OHMM   07 120 44 00:   RESISTIVITY INDUCTION LOG MEDIUM
 RILD.OHMM   07 120 46 00:   RESISTIVITY INDUCTION LOG MEDIUM
 TENR.LBS    07 635 01 00:   TENSION FROM RESISTIVITY
 CALR.IN     07 280 01 00:   CALIPER FROM RESISTIVITY
 DT  .US/F   60 520 00 00:   DELTA TIME
 TENS.LBS    60 635 01 00:   TENSION FROM SONIC
 SPHI.DEC    60 890 00 00:   SONIC POROSITY
~PARAMETER INFORMATION
#MNEM.UNIT          VALUE    DESCRIPTION
#----------   ------------   ------------------------------
 EKB .F         5170.0000:   Kelly bushing
 EGL .F         5157.0000:   Ground level
 EDF .F            0.0000:   Drilling floor
 TD  .F         4121.0000:   Total depth
 DATE.        04-AUG-1984:   Date logged
 CLNT.            A2DTECH:   Client Code
 SL  . 857' FNL & 751' FWL:   Surface Location
 PD  .                 GL:   Permanent Datum
 EPD .F              5157:   Elevation Permanent Datum
 LMF .                 KB:   Log Measured From
 DMF .                 KB:   Drilling Measured From
 DAPD.F                13:   Feet Above Permanent Datum
 DD  .F              4120:   Depth driller
 DL  .F              4121:   Depth logger
 BLI .F              4119:   Bottom log interval
 CS1 .IN            8.625:   Casing size
 CBD1.      8.625" @ 625':   Casing driller 1
 CBL1.F               624:   Casing logger 1
 BS1 .IN            7.875:   Bit size
 BSD1.F              4120:   Depth drilled with bit1
 DFT .            GEL/KCL:   Type fluid in hole
 DFD .                9.1:   Density
 DFV .                 40:   Viscosity
 DFPH.                8.5:   pH
 DFL .                 11:   Fluid loss
 MSS .               TANK:   Source of sample
 RMS .OHMM           .302:   Rm
 MST .F                84:   Rm Meas. temp.
 RMF .OHMM            .22:   Rmf
 MFST.F                84:   Rmf Meas. temp.
 RMC .OHMM            .38:   Rmc
 MCST.F                84:   Rmc Meas. temp.
 MFSS.               CALC:   Source Rmf.
 MCSS.               CALC:   Source Rmc.
 RMB .OHMM            .19:   Rm. at BHT
 BHT .F               132:   BHT.
 TCS .HRS               4:   Time Circ. stopped
 MRT .F               132:   Maximum recorded temp.
 LUN .               6307:   Logging unit number
 LUL .               GLTE:   Logging unit location
 ENGI.           FAHLSING:   Recorded By
 WITN.       ROBERT SCOTT:   Witnessed by
 ORIG.           5" PRINT:   Origin of data
 UWI .     49025109720000:   Unique Well ID
 DICO. A2D TECHNOLOGIES, INC.:   Digitizing Company
~OTHER INFORMATION
~A    DEPT    CORR       TEND       RHOB         GRR       SPR       RFOC       RILM       RILD       TENR       CALR         DT       TENS       SPHI   
# ...
 3874.5000     0.0850   -31.6020     2.5430   132.7440   -74.6080     7.0060     5.6700     5.2430   -18.1370     7.9540    82.4400   -59.3360     0.2290
 3875.0000     0.0810   -31.5600     2.5450   136.7570   -74.3650     7.0060     5.6700     5.2680   -18.1290     7.9620    82.9930   -58.9530     0.2320
 3875.5000     0.0790   -31.5180     2.5510   138.1850   -74.1210     7.0060     5.6700     5.2680   -18.1210     7.9690    83.2950   -58.5710     0.2350
 3876.0000     0.0890   -31.4760     2.5560   139.5040   -73.8770     7.0060     5.6700     5.2680   -18.1130     7.9770    83.6680   -58.1890     0.2370
 3876.5000     0.0980   -31.4340     2.5590   140.8250   -73.6330     7.0060     5.6700     5.1970   -18.1050     7.9840    84.0570   -57.8070     0.2400
 3877.0000     0.0980   -31.3920     2.5530   141.7090   -73.3890     7.0060     5.5690     5.0960   -18.0960     7.9920    84.4470   -57.4250     0.2440
 3877.5000     0.0890   -31.3500     2.5470   141.9060   -73.1450     6.8490     5.4570     4.9950   -18.0880     8.0010    84.8360   -57.0430     0.2470
 3878.0000     0.0810   -31.3080     2.5430   142.1110   -72.8960     6.6750     5.3450     4.8940   -18.0800     7.9900    85.2260   -56.6610     0.2500
 3878.5000     0.0900   -31.2660     2.5540   142.3150   -72.6330     6.5010     5.2330     4.7930   -18.0720     8.0120    85.6150   -56.2790     0.2520
 3879.0000     0.1020   -31.2240     2.5500   142.5190   -73.0800     6.3260     5.1210     4.6910   -18.0640     8.0330    86.0050   -55.8960     0.2550
 3879.5000     0.0970   -31.1820     2.5430   142.7220   -73.4950     6.2740     5.0090     4.5900   -18.0560     8.0540    86.3940   -55.5140     0.2570
 3880.0000     0.0900   -31.1400     2.5360   143.5040   -73.9210     6.2160     4.8970     4.4890   -18.0470     8.0650    86.6670   -55.1320     0.2590
 3880.5000     0.0840   -31.0980     2.5300   145.1290   -74.3470     6.1590     4.7850     4.3880   -18.0390     8.0700    86.8990   -54.8050     0.2610
 3881.0000     0.0830   -31.0560     2.5230   146.7340   -74.7730     6.0470     4.6730     4.2870   -18.0310     8.0750    87.1630   -54.8050     0.2630
 3881.5000     0.0980   -31.0140     2.5210   147.9120   -75.1990     5.8800     4.5610     4.1860   -18.0230     8.0810    87.6100   -54.8050     0.2650
 3882.0000     0.0780   -30.9720     2.5180   147.0780   -75.6240     5.6940     4.4600     4.0850   -18.0150     8.0860    88.1350   -54.8050     0.2700
 3882.5000     0.0520   -30.9300     2.5150   143.4480   -76.0500     5.5090     4.3690     3.9840   -18.0070     8.0910    88.8050   -54.8050     0.2770
 3883.0000     0.0520   -30.8880     2.5120   142.9400   -76.4750     5.3230     4.2780     3.8830   -17.9990     8.0970    89.4990   -54.8050     0.2820
 3883.5000     0.0660   -30.8460     2.5110   144.7060   -76.9010     5.2260     4.1880     3.8350   -17.9900     8.1010    89.7690   -54.8050     0.2830
 3884.0000     0.0640   -30.8040     2.5130   143.3910   -77.3260     5.1660     4.0970     3.7820   -17.9820     8.1000    89.7000   -54.8050     0.2850
 3884.5000     0.0580   -30.7620     2.5460   142.1020   -77.7520     5.1070     4.0190     3.7010   -17.9740     8.0990    89.7370   -54.8050     0.2810
 3885.0000     0.0590   -30.7200     2.5790   142.5940   -78.1770     5.0280     3.9680     3.6270   -17.9660     8.0980    89.3780   -54.8050     0.2790
 3885.5000     0.0660   -30.6780     2.5650   145.0840   -78.5750     4.8640     3.9180     3.5460   -17.9580     8.0970    89.3480   -54.8050     0.2780
 3886.0000     0.0730   -30.6360     2.5460   148.4160   -78.5900     4.7010     3.8530     3.5460   -17.9500     8.0960    89.6170   -54.8050     0.2830
 3886.5000     0.0810   -30.5940     2.5320   150.6580   -78.4560     4.5370     3.8880     3.5140   -17.9420     8.0950    90.7760   -54.8050     0.2880
 3887.0000     0.0890   -30.5520     2.5400   152.9120   -78.3060     4.4230     3.9240     3.5140   -17.9330     8.0930    91.9360   -54.8050     0.2930
 3887.5000     0.0970   -30.5100     2.5490   153.5910   -78.1560     4.4230     3.9600     3.5140   -17.9250     8.0920    92.3420   -54.8050     0.2980
 3888.0000     0.0980   -30.4680     2.5570   152.2670   -78.0050     4.5090     3.9600     3.4280   -17.9170     8.0910    91.9300   -54.8050     0.3020
 3888.5000     0.0950   -30.4260     2.5490   150.7730   -77.8540     4.7970     3.8970     3.3500   -17.9090     8.0900    91.3120   -54.8050     0.3030
 3889.0000     0.1030   -30.3840     2.5390   149.2510   -77.7040     5.0850     3.8070     3.2720   -17.9010     8.0890    90.7010   -54.8050     0.3040
 3889.5000     0.1110   -30.3420     2.5300   147.6770   -77.5850     5.1720     3.7170     3.1940   -17.8930     8.0880    90.8890   -54.8050     0.3060
 3890.0000     0.1020   -30.3000     2.5250   146.9810   -77.7090     4.9060     3.6270     3.1160   -17.8850     8.0860    92.2290   -54.8050     0.3070
 3890.5000     0.0820   -30.2580     2.5190   146.5830   -77.8860     4.7010     3.5300     3.0610   -17.8760     8.0850    93.5690   -54.8050     0.3100
 3891.0000     0.0670   -30.2160     2.5180   146.2040   -78.0640     4.4970     3.5140     3.0670   -17.8680     8.0840    94.4250   -54.8050     0.3010
 3891.5000     0.0760   -30.1740     2.5220   144.9690   -78.2420     4.2930     3.5830     3.0720   -17.8600     8.0830    94.6890   -54.8050     0.3000
 3892.0000     0.0850   -30.1320     2.5340   142.7100   -78.4200     4.0710     3.6600     3.0780   -17.8520     8.0820    93.4550   -54.8050     0.2990
 3892.5000     0.0900   -30.0900     2.5460   139.1010   -78.5980     4.2730     3.7300     3.0830   -17.8440     8.0820    91.2670   -54.8050     0.2940
 3893.0000     0.0960   -30.0480     2.5590   135.3100   -78.7760     4.6780     3.7480     3.0880   -17.8360     8.0820    89.0800   -54.8050     0.2730
 3893.5000     0.1030   -30.0060     2.5600   132.3060   -78.9540     5.0820     3.7480     3.0890   -17.8280     8.0820    86.9970   -54.8050     0.2630
 3894.0000     0.0990   -29.9640     2.5430   133.5850   -79.1320     5.3650     3.7040     3.0890   -17.8190     8.0820    86.9970   -54.8050     0.2640
 3894.5000     0.0900   -29.9220     2.5290   136.7470   -79.3100     5.2210     3.6160     3.0890   -17.8110     8.0860    88.6830   -54.8050     0.2730
 3895.0000     0.0810   -29.8800     2.5270   139.6190   -79.4880     4.9320     3.5290     3.0480   -17.8030     8.0940    90.1900   -54.8050     0.2890
 3895.5000     0.0750   -29.8380     2.5390   140.0050   -79.5810     4.6420     3.4500     3.0020   -17.7950     8.1010    91.6020   -54.8050     0.2970
 3896.0000     0.0830   -29.7960     2.5560   138.5660   -79.5800     4.3820     3.4180     2.9560   -17.7870     8.1090    92.8490   -54.8050     0.2990
 3896.5000     0.1140   -29.7540     2.5890   132.5720   -79.5820     4.1470     3.4400     2.9230   -17.7790     8.1170    93.0030   -54.8050     0.2990
 3897.0000     0.1270   -29.7120     2.6220   126.5850   -79.5820     4.1090     3.4830     2.9230   -17.7710     8.1180    91.7220   -54.8050     0.2990
 3897.5000     0.1030   -29.6700     2.6490   122.9980   -79.5650     4.4280     3.5140     2.9230   -17.7620     8.1110    90.2640   -54.8050     0.2990
 3898.0000     0.0650   -29.6280     2.6310   123.2710   -79.2480     4.7820     3.4770     2.9230   -17.7540     8.1030    89.0530   -54.8050     0.2670
 3898.5000     0.0660   -29.5860     2.6120   127.5490   -78.9390     5.1720     3.4040     2.9100   -17.7460     8.0960    87.9570   -54.8050     0.2720
 3899.0000     0.0670   -29.5440     2.5530   131.7530   -78.6310     5.1720     3.3300     2.8830   -17.7380     8.0890    87.3970   -54.8050     0.2790
 3899.5000     0.0690   -29.5020     2.5360   135.9440   -78.3230     4.6530     3.2560     2.8440   -17.7300     8.0820    88.8950   -54.8050     0.2860
 3900.0000     0.0740   -29.4600     2.5350   140.2110   -78.0160     4.2540     3.1760     2.7970   -17.7220     8.0740    91.0550   -54.8050     0.2940
