~VERSION INFORMATION
 VERS.                2.0:   CWLS LOG ASCII STANDARD - VERSION 2.0
 WRAP.                 NO:   ONE LINE PER DEPTH STEP
~WELL INFORMATION
#MNEM.UNIT      DATA TYPE    INFORMATION
#----------   ------------   ------------------------------
 STRT.F          590.0000:   START DEPTH
 STOP.F         3123.0000:   STOP DEPTH
 STEP.F            0.5000:   STEP LENGTH
 NULL.          -999.2500:   NO VALUE
 COMP.         U. S. NAVY:   COMPANY
 WELL. U.S. NPR 3 "A" #402-33:   WELL
 FLD .             TEAPOT:   FIELD
 LOC .      S33 T39N R78W:   LOCATION
 CNTY.            NATRONA:   COUNTY
 STAT.            WYOMING:   STATE
 CTRY. UNITED STATES OF AMERICA:   COUNTRY
 SRVC.         MCCULLOUGH:   SERVICE COMPANY
 DATE.        23-OCT-1967:   LOGDATE
 API .     49025104460000:   API NUMBER
~CURVE INFORMATION
#MNEM.UNIT       API CODE    CURVE DESCRIPTION
#----------   ------------   ------------------------------
 DEPT.F                  :   
 GRN .GAPI   35 310 01 00:   GAMMA RAY FROM NEUTRON
 NEUT.NAPI   35 330 01 00:   NEUTRON
~PARAMETER INFORMATION
#MNEM.UNIT          VALUE    DESCRIPTION
#----------   ------------   ------------------------------
 EKB .F            0.0000:   Kelly bushing
 EGL .F         5160.5000:   Ground level
 EDF .F         5162.0000:   Drilling floor
 TD  .F         3123.5000:   Total depth
 CLNT.            A2DTECH:   Client Code
 PD  .                 GL:   Permanent Datum
 EPD .F            5160.5:   Elevation Permanent Datum
 LMF .                 DF:   Log Measured From
 DMF .                 DF:   Drilling Measured From
 DAPD.F               1.5:   Feet Above Permanent Datum
 DATE.        23-OCT-1967:   Date Logged [DD-MMM-YYYY]
 DL  .F            3123.5:   Depth logger
 BLI .F              3122:   Bottom log interval
 TLI .F               600:   Top log interval
 CS1 .IN           5.1875:   Casing size
 DFT .              WATER:   Type fluid in hole
 TCS .HRS             4.5:   Time Circ. stopped
 ENGI.         COWLTHORPE:   Recorded By
 WITN.           THOMASON:   Witnessed by
 ORIG.         2.5" PRINT:   Origin of data
 UWI .     49025104460000:   Unique Well ID
 DICO. A2D TECHNOLOGIES, INC.:   Digitizing Company
 LUN .               1498:   Logging unit number
~OTHER INFORMATION
~A   DEPT       GRN      NEUT   
# ...
 2898.5000    31.0477  1259.5873
 2899.0000    31.2551  1225.1050
 2899.5000    33.7554  1156.1405
 2900.0000    35.6303  1135.6187
 2900.5000    36.2556  1165.9926
 2901.0000    34.3441  1195.5488
 2901.5000    33.8946  1207.8639
 2902.0000    35.6792  1047.8693
 2902.5000    35.9587  1020.8005
 2903.0000    35.2148  1087.3264
 2903.5000    37.2003  1052.8687
 2904.0000    35.5803  1044.6508
 2904.5000    37.2625  1048.7472
 2905.0000    38.2913  1008.6074
 2905.5000    38.5484  1080.0593
 2906.0000    40.4244  1077.6207
 2906.5000    42.0919  1025.9216
 2907.0000    40.4244   947.1295
 2907.5000    37.2978  1065.3788
 2908.0000    33.7543  1068.1718
 2908.5000    32.0868   986.4920
 2909.0000    35.4218   954.4195
 2909.5000    40.4244   942.3254
 2910.0000    40.8413  1003.7754
 2910.5000    41.0497   988.6431
 2911.0000    32.5037   959.6397
 2911.5000    31.2530  1012.3727
 2912.0000    35.2483  1055.4441
 2912.5000    38.3400  1085.3268
 2913.0000    37.4773  1062.8829
 2913.5000    37.0894  1047.4164
 2914.0000    37.2978  1016.4354
 2914.5000    35.6454  1087.8873
 2915.0000    36.1827  1028.7992
 2915.5000    39.5906  1075.6464
 2916.0000    35.0219  1083.0344
 2916.5000    33.7543  1048.5765
 2917.0000    34.4414  1084.9948
 2917.5000    35.3489  1107.7422
 2918.0000    36.9053  1076.9463
 2918.5000    40.2571  1002.1100
 2919.0000    42.5942   962.8309
 2919.5000    41.8438   993.7549
 2920.0000    37.3393   983.8959
 2920.5000    36.9820   937.8762
 2921.0000    39.0938   947.8500
 2921.5000    40.0075   934.7411
 2922.0000    38.8655   877.3253
 2922.5000    37.6783   892.5449
 2923.0000    39.7991   934.8489
 2923.5000    40.4244   941.4416
 2924.0000    41.0497   927.0428
 2924.5000    37.9231   967.6993
 2925.0000    35.4218   916.0004
 2925.5000    34.5881   923.4138
 2926.0000    32.9206   950.5314
 2926.5000    34.5881   953.6890
 2927.0000    33.7543   930.8760
 2927.5000    32.9206   913.6592
 2928.0000    32.2952   861.9603
 2928.5000    36.4640   829.4869
 2929.0000    36.8809   864.4721
 2929.5000    40.0127   879.6496
 2930.0000    41.2582   822.6495
 2930.5000    38.6789   862.0823
 2931.0000    37.9231   921.2191
 2931.5000    39.6897   975.4298
 2932.0000    41.2582  1170.0326
 2932.5000    39.7153  1231.6323
 2933.0000    36.8343  1246.6388
 2933.5000    33.3680  1157.5697
 2934.0000    30.3030  1087.7360
 2934.5000    28.9602  1008.5734
 2935.0000    30.2108   939.7990
 2935.5000    28.6799   910.5187
 2936.0000    28.4656   862.3505
 2936.5000    28.3349   876.8828
 2937.0000    28.3349   904.2706
 2937.5000    28.9075   891.5710
 2938.0000    31.9798   888.6253
 2938.5000    31.3603   867.7361
 2939.0000    36.3994   827.3566
 2939.5000    41.6757   724.5922
 2940.0000    37.0894   756.6358
 2940.5000    35.6303   690.1588
 2941.0000    35.2134   732.7820
 2941.5000    35.1477   749.3199
 2942.0000    36.2556   709.8455
 2942.5000    41.6750   692.4760
 2943.0000    44.8017   739.7740
 2943.5000    45.4270   735.4896
 2944.0000    41.2582   697.0047
 2944.5000    39.5906   720.4844
 2945.0000    39.3822   731.2714
 2945.5000    39.7991   710.2437
 2946.0000    40.0199   713.9424
 2946.5000    38.5484   763.5759
 2947.0000    36.2556   772.6510
 2947.5000    37.9660   722.6916
 2948.0000    41.9504   724.2305
 2948.5000    42.9257   667.7156
 2949.0000    41.8377   712.5903
 2949.5000    41.2582   700.8948
 2950.0000    44.1769   685.7001
 2950.5000    45.4676   722.6697
 2951.0000    46.3540   739.2784
 2951.5000    47.9819   757.2007
 2952.0000    50.6299   668.9890
 2952.5000    53.3172   666.1232
 2953.0000    54.5984   661.6829
 2953.5000    53.8969   571.6741
 2954.0000    53.3100   549.2512
 2954.5000    52.0091   543.0708
 2955.0000    53.1186   567.2374
 2955.5000    52.9399   604.4332
 2956.0000    50.7379   558.6151
 2956.5000    51.3748   608.3591
 2957.0000    51.7976   666.3495
 2957.5000    54.2033   669.0802
 2958.0000    58.9756   656.5421
 2958.5000    59.6009   666.4227
 2959.0000    57.7250   661.5211
 2959.5000    53.1393   654.1564
 2960.0000    55.2237   696.0521
 2960.5000    56.2659   649.2791
 2961.0000    56.2659   713.3419
 2961.5000    56.4743   729.8221
 2962.0000    56.6828   699.2291
 2962.5000    56.2659   730.6562
 2963.0000    54.5984   730.6806
 2963.5000    53.7646   735.6310
 2964.0000    54.1815   752.8966
 2964.5000    58.9756   725.8278
 2965.0000    57.5165   696.2952
 2965.5000    60.8800   720.9505
 2966.0000    60.2262   674.1776
 2966.5000    60.6644   656.8587
 2967.0000    61.2684   672.0353
 2967.5000    58.8972   693.9548
 2968.0000    54.7289   654.5710
 2968.5000    53.6750   698.6245
 2969.0000    56.0413   759.0659
 2969.5000    60.9650   802.7061
 2970.0000    54.7443   785.7128
 2970.5000    51.8886   696.5642
 2971.0000    52.6625   706.4406
 2971.5000    53.5083   655.3027
 2972.0000    54.3538   643.3353
 2972.5000    54.9909   661.4391
 2973.0000    55.1380   667.7572
 2973.5000    53.7662   714.6278
 2974.0000    54.8392   750.0285
 2974.5000    53.6489   778.6694
 2975.0000    52.7746   755.9488
 2975.5000    52.4797   694.3450
 2976.0000    53.7646   696.8325
 2976.5000    51.2633   667.3006
 2977.0000    52.9308   689.6599
 2977.5000    51.2633   767.6104
 2978.0000    50.7436   824.5505
 2978.5000    52.9308   842.1470
 2979.0000    53.7646   861.9390
 2979.5000    53.3477   884.3300
 2980.0000    52.3055   886.5238
 2980.5000    56.6828   851.7551
 2981.0000    57.9334   811.7583
 2981.5000    52.0971   777.0965
 2982.0000    47.7198   709.4523
 2982.5000    46.2541   677.4575
 2983.0000    44.3848   603.5914
 2983.5000    47.5795   539.5773
 2984.0000    49.6735   512.5085
 2984.5000    45.8439   517.4589
 2985.0000    47.2191   581.5217
 2985.5000    48.7765   618.4914
 2986.0000    51.6802   685.0172
 2986.5000    48.3707   655.4855
 2987.0000    45.2074   657.9728
 2987.5000    44.1763   680.1644
 2988.0000    45.8354   658.0217
 2988.5000    46.8229   581.6924
 2989.0000    46.2071   490.5852
 2989.5000    43.1290   487.5042
 2990.0000    41.7029   500.4860
 2990.5000    41.2582   490.6584
 2991.0000    42.5006   416.7922
 2991.5000    43.6515   461.1509
 2992.0000    42.4700   508.0992
 2992.5000    39.1626   522.7751
 2993.0000    36.4640   515.1442
 2993.5000    40.8413   502.4009
 2994.0000    42.3004   488.3660
 2994.5000    42.9257   500.7055
 2995.0000    44.8017   473.6367
 2995.5000    45.1166   479.3461
 2996.0000    42.0919   486.0006
 2996.5000    41.6750   488.8838
 2997.0000    41.0497   508.2165
 2997.5000    40.4244   486.8181
 2998.0000    41.2582   478.7090
 2998.5000    42.0919   466.6257
 2999.0000    46.0523   441.8126
 2999.5000    44.5932   453.2361
 3000.0000    43.9679   459.1065
 3000.5000    45.8439   453.3347
 3001.0000    45.8439   428.7251
 3001.5000    47.0945   412.3783
 3002.0000    49.5958   443.9994
 3002.5000    50.1636   439.1199
 3003.0000    46.0523   406.6419
 3003.5000    43.1341   406.1273
 3004.0000    42.0919   407.6482
 3004.5000    41.9515   399.0182
 3005.0000    44.5932   426.6722
 3005.5000    45.8439   450.8880
 3006.0000    44.1763   424.1967
 3006.5000    43.3426   403.8617
 3007.0000    45.6354   369.4370
 3007.5000    46.6776   388.0529
 3008.0000    47.0945   402.8554
 3008.5000    46.0523   412.7319
 3009.0000    45.0101   393.0521
 3009.5000    43.3426   356.1312
 3010.0000    44.1763   373.3968
 3010.5000    42.4981   390.6623
 3011.0000    42.7172   353.7414
 3011.5000    42.4534   368.5439
 3012.0000    40.0607   415.3656
 3012.5000    41.3890   426.4715
 3013.0000    46.0822   412.2257
 3013.5000    47.3639   462.2361
 3014.0000    50.4090   454.8714
 3014.5000    49.3471   445.0437
 3015.0000    45.6457   410.5858
 3015.5000    43.4528   405.6842
 3016.0000    42.9257   395.8565
 3016.5000    43.7759   403.2700
 3017.0000    48.7688   408.2204
 3017.5000    50.4295   371.2995
 3018.0000    48.2887   430.5681
 3018.5000    47.0945   436.6471
 3019.0000    45.9576   466.3384
 3019.5000    43.6001   490.7406
