~VERSION INFORMATION
 VERS.                2.0:   CWLS LOG ASCII STANDARD - VERSION 2.0
 WRAP.                 NO:   ONE LINE PER DEPTH STEP
~WELL INFORMATION
#MNEM.UNIT      DATA TYPE    INFORMATION
#----------   ------------   ------------------------------
 STRT.F            5.5000:   START DEPTH
 STOP.F         3261.0000:   STOP DEPTH
 STEP.F            0.5000:   STEP LENGTH
 NULL.          -999.2500:   NO VALUE
 COMP. LAWRENCE ALLISON & ASSOCIATES:   COMPANY
 WELL. LAWRENCE "X" #12-14:   WELL
 FLD .              NPR 3:   FIELD
 LOC .      S14 T38N R78W:   LOCATION
 CNTY.            NATRONA:   COUNTY
 STAT.            WYOMING:   STATE
 CTRY. UNITED STATES OF AMERICA:   COUNTRY
 SRVC.      DRESSER ATLAS:   SERVICE COMPANY
 DATE.        18-AUG-1986:   LOGDATE
 API .     49025111080000:   API NUMBER
~CURVE INFORMATION
#MNEM.UNIT       API CODE    CURVE DESCRIPTION
#----------   ------------   ------------------------------
 DEPT.F                  :   
 RILM.OHMM   07 120 44 00:   INDUCTION LOG MEDIUM RESISTIVITY
 GRR .GAPI   07 310 01 00:   GAMMA RAY FROM RESISTIVITY
 SPR .MV     07 010 01 00:   SPONTANEOUS POTENTIAL
 NPHI.DEC    42 890 03 00:   NEUTRON POROSITY SANDSTONE
 CALD.IN     45 280 60 00:   CALIPER FROM DENSITY LOG
 TEND.LBS    45 635 01 00:   TENSION FORM DENSITY LOG
 DRHO.G/C3   45 356 01 00:   DENSITY CORRECTION
 DEN .G/C3   45 350 01 00:   BULK DENSITY
 RILD.OHMM   07 120 46 00:   DEEP INDUCTION RESISTIVITY
 RFOC.OHMM   07 220 04 00:   RESISTIVITY FOCUSED LOG RES.
~PARAMETER INFORMATION
#MNEM.UNIT          VALUE    DESCRIPTION
#----------   ------------   ------------------------------
 EKB .F         5245.0000:   Kelly bushing
 EGL .F         5234.0000:   Ground level
 TD  .F         3250.0000:   Total depth
 CLNT.            A2DTECH:   Client Code
 SL  . 901' FNL & 485' FWL:   Surface Location
 PD  .                 GL:   Permanent Datum
 EPD .F              5234:   Elevation Permanent Datum
 LMF .                 KB:   Log Measured From
 DMF .                 KB:   Drilling Measured From
 DAPD.F                11:   Feet Above Permanent Datum
 DATE.        18-AUG-1986:   Date Logged [DD-MMM-YYYY]
 DD  .F              3250:   Depth driller
 DL  .F              3246:   Depth logger
 BLI .F              3244:   Bottom log interval
 TLI .F                 0:   Top log interval
 CS1 .IN            8.625:   Casing size
 CBD1.      8.625" @ 733':   Casing driller 1
 CBL1.F               735:   Casing logger 1
 BS1 .IN            7.875:   Bit size
 BSD1.F              3250:   Depth drilled with bit1
 DFT .            KCL-GEL:   Type fluid in hole
 DFD .                8.8:   Density
 DFV .                 36:   Viscosity
 DFPH.                8.5:   pH
 DFL .               12.8:   Fluid loss
 MSS .           FLOWLINE:   Source of sample
 RMS .OHMM          0.292:   Rm
 MST .F                73:   Rm Meas. temp.
 RMF .OHMM          0.224:   Rmf
 MFST.F                73:   Rmf Meas. temp.
 MFSS.               MEAS:   Source Rmf.
 RMC .OHMM          0.365:   Rmc
 MCST.F                73:   Rmc Meas. temp.
 MCSS.               CALC:   Source Rmc.
 RMB .OHMM          0.154:   Rm. at BHT
 BHT .F               138:   BHT.
 TCS .HRS               5:   Time Circ. stopped
 MRT .F               138:   Maximum recorded temp.
 LUN .            HL-6214:   Logging unit number
 LUL .           GILLETTE:   Logging unit location
 ENGI.             RAUTIO:   Recorded By
 WITN.             STRONG:   Witnessed by
 ORIG.        2" 5" PRINT:   Origin of data
 UWI .     49025111080000:   Unique Well ID
 DICO. A2D TECHNOLOGIES, INC.:   Digitizing Company
~OTHER INFORMATION
~A    DEPT    RILM         GRR       SPR       NPHI       CALD       TEND       DRHO        DEN       RILD       RFOC   
# ...
 3221.5000     3.1528   127.9922   -37.9940  -999.2500     7.9567   463.2331     0.0275  -999.2500     3.1222     3.6503
 3222.0000     3.1095   128.0010   -37.9870  -999.2500     7.9715   463.3951     0.0396  -999.2500     3.0796     3.6003
 3222.5000     3.0881   128.0097   -37.9442  -999.2500     7.9712   463.5405     0.0502  -999.2500     2.9958     3.5510
 3223.0000     3.0246   128.0184   -37.8248  -999.2500     7.9709   463.6859     0.0472  -999.2500     2.9146     3.5024
 3223.5000     2.9412   128.0271   -37.8190  -999.2500     7.9554   471.3534     0.0396  -999.2500     2.8551     3.4543
 3224.0000     2.8613   128.0380   -37.8133  -999.2500     7.9248   479.0507     0.0426  -999.2500     2.8164     3.3834
 3224.5000     2.8024   128.0467   -37.8072  -999.2500     7.9245   479.1961     0.0608  -999.2500     2.7209     3.3371
 3225.0000     2.7257   128.0554   -37.8002  -999.2500     7.8939   486.8603     0.0638  -999.2500     2.6652     3.2913
 3225.5000     2.6511   128.0641   -37.7945  -999.2500     7.8936   509.5620     0.0487  -999.2500     2.6109     3.2013
 3226.0000     2.5606   128.0728   -37.7887  -999.2500     7.8933   517.2263     0.0426  -999.2500     2.5578     3.0893
 3226.5000     2.4905   128.0815   -37.7829  -999.2500     7.8930   524.8905     0.0819  -999.2500     2.5056     2.9868
 3227.0000     2.5081   127.7886   -37.7771  -999.2500     7.8927   540.0752     0.0864  -999.2500     2.4544     2.9051
 3227.5000     2.5083   127.7994   -37.7711  -999.2500     7.8924   555.2928     0.0291  -999.2500     2.4044     2.9258
 3228.0000     2.5084   127.8082   -37.7641  -999.2500     7.9073   577.9946    -0.1521  -999.2500     2.3868     2.9672
 3228.5000     2.5086   127.8169   -37.7583  -999.2500     7.8918   585.6589    -0.1898  -999.2500     2.3559     2.9676
 3229.0000     2.4913   127.8250   -37.7530  -999.2500     7.8915   600.8419    -0.1113  -999.2500     2.3402     2.9895
 3229.5000     2.4915   127.8343   -37.7470  -999.2500     7.8912   600.9873    -0.0141  -999.2500     2.3410     2.9685
 3230.0000     2.4917   127.8431   -37.7410  -999.2500     7.8909   601.1326     0.0215  -999.2500     2.3253     2.9075
 3230.5000     2.4746   127.8539   -37.7337  -999.2500     7.8906   631.3534     0.0155  -999.2500     2.3097     2.8876
 3231.0000     2.4406   127.8612   -37.7280  -999.2500     7.8903   632.5519     0.0140  -999.2500     2.2786     2.8881
 3231.5000     2.4070   127.8703   -37.7222  -999.2500     7.9203   654.2368     0.0140  -999.2500     2.2792     2.8683
 3232.0000     2.3739   127.8800   -37.7164  -999.2500     7.9503   661.9010     0.0125  -999.2500     2.2798     2.8489
 3232.5000     2.3577   127.8887   -37.7106  -999.2500     7.9652   677.0840     0.0140  -999.2500     2.2646     2.8493
 3233.0000     2.3415   127.8974   -37.7048  -999.2500     7.9648   684.7482     0.0140  -999.2500     2.2495     2.8498
 3233.5000     2.3228   127.9065   -38.0002  -999.2500     7.9494   692.4124     0.0140  -999.2500     2.2503     2.8501
 3234.0000     2.2935   127.9170   -38.1436  -999.2500     7.9491   715.1143     0.0140  -999.2500     2.2509     2.8705
 3234.5000     2.2619   127.9257   -38.2899  -999.2500     7.9488   722.7819     0.0140  -999.2500     2.2359     2.8708
 3235.0000     2.2308   127.6306   -38.4333  -999.2500     7.9182   722.9602     0.0140  -999.2500     2.2365     2.8513
 3235.5000     2.2001   127.3376   -38.2769  -999.2500     7.9027   738.1432     0.0144  -999.2500     2.2371     2.7733
 3236.0000     2.1850   127.0468   -38.2711  -999.2500     7.9024   753.3262     0.0155  -999.2500     2.2377     2.6392
 3236.5000     2.1852   127.0558   -38.2639  -999.2500     7.9021   768.5092     0.0140  -999.2500     2.2384     2.5874
 3237.0000     2.1854   127.0665   -38.2581  -999.2500     7.9018   783.6922     0.0140  -999.2500     2.2390     2.7171
 3237.5000     2.1855   127.3768   -38.1017  -999.2500     7.9167   783.8376     0.0140  -999.2500     2.2239     2.8138
 3238.0000     2.1857   127.3855   -38.0959  -999.2500     7.9618   814.0601     0.0136  -999.2500     2.2247     2.8142
 3238.5000     2.1858   127.3943   -38.0901  -999.2500     7.9615   829.2776     0.0135  -999.2500     2.2253     2.8541
 3239.0000     2.2012   127.7046   -38.0843  -999.2500     7.9612   844.4606     0.0140  -999.2500     2.2414     2.8945
 3239.5000     2.2014   127.7134   -38.0783  -999.2500     7.9458   852.1248     0.0140  -999.2500     2.2420     2.9976
 3240.0000     2.2015   128.0259   -38.0713  -999.2500     7.9455   859.7890     0.0140  -999.2500     2.2427     3.3750
 3240.5000     2.2017   128.0346   -38.0655  -999.2500     7.9451   874.9720     0.0140  -999.2500     2.2591     3.8801
 3241.0000     2.2018   128.0433   -38.2104  -999.2500     7.9448   882.6362     0.0155  -999.2500     2.2597     4.9522
 3241.5000     2.2020   128.0520   -38.2046  -999.2500     7.9445   882.7820     0.0155  -999.2500     2.2761     5.9780
 3242.0000     2.2021   128.0607   -38.1988  -999.2500     7.9442   890.4511     0.0155  -999.2500     2.2767     4.9882
 3242.5000     2.2023   128.0694   -38.4928  -999.2500     7.9388   905.6652     0.0140  -999.2500     2.2773     4.5201
 3243.0000     2.2024   127.7765   -38.4870  -999.2500     7.9133   913.3293     0.0125  -999.2500     2.2621     4.1630
 3243.5000     2.2026   127.2541   -38.4812  -999.2500     7.9130   875.8808     0.0125  -999.2500     2.2786     4.0774
 3244.0000     2.2028   127.2657   -38.4754  -999.2500  -999.2500   748.2067     0.0109  -999.2500     2.2792     4.0214
 3244.5000  -999.2500  -999.2500  -999.2500  -999.2500  -999.2500   582.9385  -999.2500  -999.2500  -999.2500  -999.2500
 3245.0000  -999.2500  -999.2500  -999.2500  -999.2500  -999.2500   440.2268  -999.2500  -999.2500  -999.2500  -999.2500
 3245.5000  -999.2500  -999.2500  -999.2500  -999.2500  -999.2500   286.0587  -999.2500  -999.2500  -999.2500  -999.2500
 3246.0000  -999.2500  -999.2500  -999.2500  -999.2500  -999.2500   139.8021  -999.2500  -999.2500  -999.2500  -999.2500
 3246.5000  -999.2500  -999.2500  -999.2500  -999.2500  -999.2500    49.7219  -999.2500  -999.2500  -999.2500  -999.2500
 3247.0000  -999.2500  -999.2500  -999.2500  -999.2500  -999.2500     4.7546  -999.2500  -999.2500  -999.2500  -999.2500
 3247.5000  -999.2500  -999.2500  -999.2500  -999.2500  -999.2500   -47.7317  -999.2500  -999.2500  -999.2500  -999.2500
 3248.0000  -999.2500  -999.2500  -999.2500  -999.2500  -999.2500   -77.6614  -999.2500  -999.2500  -999.2500  -999.2500
 3248.5000  -999.2500  -999.2500  -999.2500  -999.2500  -999.2500   -92.5564  -999.2500  -999.2500  -999.2500  -999.2500
 3249.0000  -999.2500  -999.2500  -999.2500  -999.2500  -999.2500   -99.9270  -999.2500  -999.2500  -999.2500  -999.2500
 3249.5000  -999.2500  -999.2500  -999.2500  -999.2500  -999.2500   -99.7452  -999.2500  -999.2500  -999.2500  -999.2500
 3250.0000  -999.2500  -999.2500  -999.2500  -999.2500  -999.2500   -99.5998  -999.2500  -999.2500  -999.2500  -999.2500
 3250.5000  -999.2500  -999.2500  -999.2500  -999.2500  -999.2500   -99.4544  -999.2500  -999.2500  -999.2500  -999.2500
 3251.0000  -999.2500  -999.2500  -999.2500  -999.2500  -999.2500   -99.3090  -999.2500  -999.2500  -999.2500  -999.2500
 3251.5000  -999.2500  -999.2500  -999.2500  -999.2500  -999.2500   -99.1636  -999.2500  -999.2500  -999.2500  -999.2500
 3252.0000  -999.2500  -999.2500  -999.2500  -999.2500  -999.2500   -99.0182  -999.2500  -999.2500  -999.2500  -999.2500
 3252.5000  -999.2500  -999.2500  -999.2500  -999.2500  -999.2500  -106.5125  -999.2500  -999.2500  -999.2500  -999.2500
 3253.0000  -999.2500  -999.2500  -999.2500  -999.2500  -999.2500  -122.4239  -999.2500  -999.2500  -999.2500  -999.2500
 3253.5000  -999.2500  -999.2500  -999.2500  -999.2500  -999.2500  -136.1759  -999.2500  -999.2500  -999.2500  -999.2500
 3254.0000  -999.2500  -999.2500  -999.2500  -999.2500  -999.2500  -158.5869  -999.2500  -999.2500  -999.2500  -999.2500
 3254.5000  -999.2500  -999.2500  -999.2500  -999.2500  -999.2500  -158.4211  -999.2500  -999.2500  -999.2500  -999.2500
