~VERSION INFORMATION
 VERS.                2.0:   CWLS LOG ASCII STANDARD - VERSION 2.0
 WRAP.                 NO:   ONE LINE PER DEPTH STEP
~WELL INFORMATION
#MNEM.UNIT      DATA TYPE    INFORMATION
#----------   ------------   ------------------------------
 STRT.F          602.0000:   START DEPTH
 STOP.F         5553.0000:   STOP DEPTH
 STEP.F            0.5000:   STEP LENGTH
 NULL.          -999.2500:   NO VALUE
 COMP.         U. S. NAVY:   COMPANY
 WELL. U. S. 1-TP-33 NPR #3-33:   WELL
 FLD . TEAPOT NAVAL RESERVE:   FIELD
 LOC .      S33 T39N R78W:   LOCATION
 CNTY.            NATRONA:   COUNTY
 STAT.            WYOMING:   STATE
 CTRY. UNITED STATES OF AMERICA:   COUNTRY
 SRVC.       SCHLUMBERGER:   SERVICE COMPANY
 DATE.        24-JUN-1952:   LOGDATE
 API .     49025065260000:   API NUMBER
~CURVE INFORMATION
#MNEM.UNIT       API CODE    CURVE DESCRIPTION
#----------   ------------   ------------------------------
 DEPT.F                  :   
 SPR .MV     01 010 01 00:   SPONTANEOUS POTENTIAL FROM RES.
 ASN .OHMM   01 041 16 00:   AMPLIFIED SHORT NORMAL 16"
 LAT .OHMM   01 070 08 00:   LATERAL 8'
 LN  .OHMM   01 060 64 00:   LONG NORMAL 64"
~PARAMETER INFORMATION
#MNEM.UNIT          VALUE    DESCRIPTION
#----------   ------------   ------------------------------
 EKB .F         5160.0000:   Kelly bushing
 EGL .F         5147.0000:   Ground level
 TD  .F         5553.0000:   Total depth
 CLNT.            A2DTECH:   Client Code
 DATE.        24-JUN-1952:   Date Logged [DD-MMM-YYYY]
 DD  .F              5549:   Depth driller
 DL  .F              5553:   Depth logger
 BLI .F              5553:   Bottom log interval
 TLI .F               602:   Top log interval
 CBL1.F               602:   Casing logger 1
 BSD1.F              5549:   Depth drilled with bit1
 DFT .           GYP BASE:   Type fluid in hole
 DFD .                9.8:   Density
 DFV .                 44:   Viscosity
 MSS .           FLOWLINE:   Source of sample
 RMS .OHMM            1.4:   Rm
 MST .F                60:   Rm Meas. temp.
 RMB .OHMM           0.48:   Rm. at BHT
 BHT .F               175:   BHT.
 TCS .HRS             1.5:   Time Circ. stopped
 MRT .F               175:   Maximum recorded temp.
 LUN .                563:   Logging unit number
 ENGI.             SANDER:   Recorded By
 WITN.            GRIBBIN:   Witnessed by
 ORIG.      1" 2.5" PRINT:   Origin of data
 UWI .     49025065260000:   Unique Well ID
 DICO. A2D TECHNOLOGIES, INC.:   Digitizing Company
~OTHER INFORMATION
~A  DEPTH      SPR        ASN        LAT         LN
# ...
 3522.0000   -49.6237     7.1006     4.9114     4.8564
 3522.5000   -49.6266     7.1693     4.9964     4.6339
 3523.0000   -49.4044     7.1526     4.9957     4.3770
 3523.5000   -49.3509     7.0724     4.9950     4.3746
 3524.0000   -49.3538     6.9405     5.0814     4.3099
 3524.5000   -49.3566     6.7544     5.1958     4.1972
 3525.0000   -49.3594     6.5490     5.2802     4.0845
 3525.5000   -49.3622     6.3587     5.2795     4.0817
 3526.0000   -49.5337     6.1968     5.2787     4.0000
 3526.5000   -49.6491     6.0531     5.2780     3.9352
 3527.0000   -49.7081     5.8895     5.2181     3.9324
 3527.5000   -49.9359     5.7078     5.1329     3.9292
 3528.0000   -50.1637     5.6250     5.1303     3.9268
 3528.5000   -50.2228     5.6233     5.0145     3.9239
 3529.0000   -50.2256     5.6640     4.9871     3.9211
 3529.5000   -50.2284     5.6874     4.9266     3.9183
 3530.0000   -50.2313     5.6873     4.8108     3.9155
 3530.5000   -50.2341     5.6537     4.6976     3.9127
 3531.0000   -50.0681     5.5745     4.6968     3.8592
 3531.5000   -49.8459     5.4436     4.5182     3.7465
 3532.0000   -49.6800     5.2548     4.2873     3.6222
 3532.5000   -49.6828     5.0526     4.1200     3.5211
 3533.0000   -49.6856     4.7952     4.1130     3.3408
 3533.5000   -49.6884     4.4970     3.8822     3.1550
 3534.0000   -49.8037     4.1745     3.6513     3.0479
 3534.5000   -49.9753     3.8423     3.4205     3.0451
 3535.0000   -49.9781     3.7082     3.1896     3.0423
 3535.5000   -49.9809     3.6196     2.9625     3.0394
 3536.0000   -49.9837     3.5504     2.8467     3.0591
 3536.5000   -49.9866     3.4912     2.7309     3.1744
 3537.0000   -49.9894     3.4673     2.6767     3.1718
 3537.5000   -49.9922     3.4672     2.6430     3.2395
 3538.0000   -49.9950     3.4836     2.5273     3.3070
 3538.5000   -49.9978     3.5172     2.4115     3.2958
 3539.0000   -50.0006     3.5632     2.3865     3.1831
 3539.5000   -50.0034     3.6110     2.3858     2.9831
 3540.0000   -50.0063     3.6110     2.4185     2.8169
 3540.5000   -50.0091     3.6435     2.5329     2.7296
 3541.0000   -50.0119     3.6895     2.6473     2.7266
 3541.5000   -50.0147     3.7355     2.7616     2.6197
 3542.0000   -50.0737     3.7836     2.8759     2.5803
 3542.5000   -50.3016     3.8274     2.9562     2.5775
 3543.0000   -50.3044     3.8734     2.9555     2.5746
 3543.5000   -50.3072     3.9194     2.9547     2.5713
 3544.0000   -50.4225     3.9608     2.9540     2.5690
 3544.5000   -50.5941     3.9849     2.9533     2.5662
 3545.0000   -50.5969     3.9412     2.9526     2.5634
 3545.5000   -50.5997     3.8147     2.9519     2.5605
 3546.0000   -50.6025     3.6431     2.9510     2.5577
 3546.5000   -50.6053     3.4633     2.8579     2.6310
 3547.0000   -50.6081     3.2929     2.7421     2.6930
 3547.5000   -50.6109     3.1190     2.6616     2.6901
 3548.0000   -50.6138     2.9506     2.6542     2.6869
 3548.5000   -50.4478     2.8503     2.5164     2.5915
 3549.0000   -50.3381     2.8272     2.4226     2.5408
 3549.5000   -50.3409     2.8027     2.3714     2.5380
 3550.0000   -50.1846     2.9106     2.4066     2.5352
 3550.5000   -50.1706     2.6393     2.4396     2.8653
 3551.0000   -50.1565     2.7626     2.5365     2.8653
 3551.5000   -50.1425     3.0420     2.5407     2.8653
 3552.0000   -50.1285     3.2071     2.6854     2.8653
 3552.5000   -50.1145     3.2527     2.8301     2.8151
 3553.0000   -49.8201     3.2254     2.8867     2.5788
 3553.5000   -49.8061     3.2261     2.9789     2.5278
 3554.0000   -49.7921     3.2775     2.9831     2.4355
 3554.5000   -49.7780     3.2635     2.8461     2.4355
 3555.0000   -49.7640     3.0806     2.7098     2.3830
 3555.5000   -49.7500     2.9537     2.5744     2.2923
 3556.0000   -49.7360     2.8300     2.5206     2.2923
 3556.5000   -49.4416     2.6759     2.4424     2.2923
 3557.0000   -49.4276     2.5371     2.2463     2.2923
 3557.5000   -49.1332     2.4116     2.1091     2.2923
 3558.0000   -49.1192     2.3563     2.0337     2.2923
 3558.5000   -49.1051     2.3428     1.8975     2.2923
 3559.0000   -49.0911     2.3433     1.8380     2.2923
 3559.5000   -49.0771     2.3717     1.7654     2.2923
 3560.0000   -49.3458     2.3871     1.6292     2.2923
 3560.5000   -49.3294     2.4006     1.6334     2.2923
 3561.0000   -49.3154     2.4289     1.6376     2.2923
 3561.5000   -49.5818     2.4294     1.6419     2.2923
 3562.0000   -49.5678     2.3207     1.7154     2.3515
 3562.5000   -49.5537     2.1759     1.7907     2.4355
 3563.0000   -49.8224     2.0813     1.7949     2.4355
 3563.5000   -49.8061     1.9873     1.7271     2.4962
 3564.0000   -49.7921     1.9601     1.6629     2.5788
 3564.5000   -49.4977     1.9051     1.5932     2.7836
 3565.0000   -49.2033     1.9057     1.4561     2.8653
 3565.5000   -49.1893     1.8783     1.1026     2.8653
 3566.0000   -49.1752     1.8790     0.7603     2.8653
 3566.5000   -48.8808     1.9073     0.5604     2.7384
 3567.0000   -48.8668     1.9356     0.7051     2.3715
 3567.5000   -48.8528     1.9918     0.8497     2.2923
 3568.0000   -48.8388     2.0756     0.9345     2.2923
 3568.5000   -49.1075     2.1873     0.9986     2.2923
 3569.0000   -49.0911     2.1879     1.0852     2.2923
 3569.5000   -49.0771     2.1051     1.1475     2.2923
 3570.0000   -49.0631     2.0501     1.1525     2.2923
 3570.5000   -49.0491     1.9951     1.1567     2.2923
 3571.0000   -49.0350     1.9678     1.1609     2.2923
 3571.5000   -49.0210     1.9128     1.1651     2.2923
 3572.0000   -49.0070     1.9134     1.1693     2.2923
 3572.5000   -48.9930     1.9139     1.1735     2.4355
 3573.0000   -48.9790     1.9145     1.0373     2.4355
 3573.5000   -48.9650     1.9428     1.0415     2.4355
 3574.0000   -48.9509     1.9989     1.0457     2.4355
 3574.5000   -48.9369     2.0828     1.1903     2.5788
 3575.0000   -48.9229     2.2500     1.1945     2.5788
 3575.5000   -48.9089     2.4173     1.3392     2.6509
 3576.0000   -48.8949     2.5567     1.3434     2.8653
 3576.5000   -48.8808     2.6406     1.3476     2.8653
 3577.0000   -49.1495     2.7523     1.4922     2.8653
 3577.5000   -49.4159     2.8917     1.4964     2.8653
 3578.0000   -49.6822     3.1700     1.6411     3.0086
 3578.5000   -49.9463     3.7261     1.7857     3.0836
 3579.0000   -49.9322     4.4211     1.9304     3.2951
 3579.5000   -50.2009     4.7272     2.0750     3.4384
 3580.0000   -50.1846     5.1167     2.3601     3.5817
 3580.5000   -50.4533     5.5617     2.5048     3.7249
 3581.0000   -50.4369     5.4511     2.7899     3.9456
 3581.5000   -50.4229     5.3406     2.9345     4.0115
 3582.0000   -50.4089     5.2300     3.2196     4.1547
 3582.5000   -50.3949     5.2861     3.5047     4.2980
 3583.0000   -50.6612     5.6756     3.7898     4.5205
 3583.5000   -50.9276     6.3710     3.9345     4.6643
 3584.0000   -51.4743     7.6033     4.3600     5.0314
 3584.5000   -52.0210     9.0204     4.5046     5.2383
 3585.0000   -52.2874     9.7926     4.3684     5.6066
 3585.5000   -52.2734     9.9573     4.2321     5.8940
 3586.0000   -52.2593     9.9859     3.8150     6.5502
 3586.5000   -52.2453    10.0128     3.2574     7.1027
 3587.0000   -51.9509    10.0092     2.8403     6.8768
 3587.5000   -51.9369     9.8078     2.4231     6.5664
 3588.0000   -51.6425     8.7733     2.2865     6.2198
 3588.5000   -51.3481     7.7083     2.1503     5.7893
 3589.0000   -51.3341     7.1657     2.0144     5.4174
 3589.5000   -51.0397     6.5442     2.0186     5.0722
 3590.0000   -50.7453     6.0113     2.0228     4.5845
 3590.5000   -50.4509     5.5211     2.0270     4.1547
 3591.0000   -50.1565     5.0073     2.1716     3.7249
 3591.5000   -50.1425     4.4453     2.1758     3.4384
 3592.0000   -49.8481     3.6204     2.1800     3.1519
 3592.5000   -49.5537     3.5421     2.0435     3.0086
 3593.0000   -49.5397     3.4869     2.0479     3.0086
 3593.5000   -49.2453     3.4316     2.0521     3.0086
 3594.0000   -49.2313     3.3308     2.0563     3.0086
 3594.5000   -49.2173     3.1821     2.0605     3.0086
