~VERSION INFORMATION
 VERS.                2.0:   CWLS LOG ASCII STANDARD - VERSION 2.0
 WRAP.                 NO:   ONE LINE PER DEPTH STEP
~WELL INFORMATION
#MNEM.UNIT      DATA TYPE    INFORMATION
#----------   ------------   ------------------------------
 STRT.F          243.5000:   START DEPTH
 STOP.F         2836.0000:   STOP DEPTH
 STEP.F            0.5000:   STEP LENGTH
 NULL.          -999.2500:   NO VALUE
 COMP. FENIX & SCISSON U. S. NAVY:   COMPANY
 WELL.   FENIX "A" #86-20:   WELL
 FLD .             NPR #3:   FIELD
 LOC .      S20 T39N R78W:   LOCATION
 CNTY.            NATRONA:   COUNTY
 STAT.            WYOMING:   STATE
 CTRY. UNITED STATES OF AMERICA:   COUNTRY
 SRVC.       SCHLUMBERGER:   SERVICE COMPANY
 DATE.        22-MAR-1977:   LOGDATE
 API .     49025103130000:   API NUMBER
~CURVE INFORMATION
#MNEM.UNIT       API CODE    CURVE DESCRIPTION
#----------   ------------   ------------------------------
 DEPT.F                  :   
 SPR .MV     07 010 01 00:   SPONTANEOUS POTENTIAL
 ILD .OHMM   07 120 46 00:   DEEP INDUCTION RESISTIVITY
 ILM .OHMM   07 120 44 00:   INDUCTION LOG MEDIUM RESISTIVITY
 LL8 .OHMM   07 220 08 00:   LATEROLOG-8 RES.
 CALD.IN     45 280 60 00:   CALIPER FROM DENSITY LOG
 GRD .GAPI   45 310 01 00:   GAMMA RAY FROM DENSITY LOG
 RHOB.G/C3   45 350 01 00:   BULK DENSITY
 CORR.G/C3   45 356 01 00:   DENSITY CORRECTION
~PARAMETER INFORMATION
#MNEM.UNIT          VALUE    DESCRIPTION
#----------   ------------   ------------------------------
 EKB .F         5005.0000:   Kelly bushing
 EGL .F         4994.0000:   Ground level
 EDF .F            0.0000:   Drilling floor
 TD  .F         2836.0000:   Total depth
 DATE.        22-MAR-1977:   Date logged
 CLNT.            A2DTECH:   Client Code
 SL  . 330' FEL & 1650' FSL:   Surface Location
 PD  .                 GL:   Permanent Datum
 EPD .F              5005:   Elevation Permanent Datum
 LMF .                 KB:   Log Measured From
 DMF .                 KB:   Drilling Measured From
 DD  .F              2835:   Depth driller
 DL  .F              2836:   Depth logger
 BLI .F              2826:   Bottom log interval
 TLI .F               259:   Top log interval
 CBD1.      8.625" @ 258':   Casing driller 1
 CBL1.F               259:   Casing logger 1
 BS1 .IN            7.875:   Bit size
 DFT .                KCL:   Type fluid in hole
 DFD .                9.1:   Density
 DFV .                 35:   Viscosity
 DFPH.                  9:   pH
 DFL .                8.6:   Fluid loss
 MSS .              CIRC.:   Source of sample
 RMS .OHMM           0.22:   Rm
 MST .F                60:   Rm Meas. temp.
 RMF .OHMM           0.18:   Rmf
 MFST.F                60:   Rmf Meas. temp.
 RMC .OHMM           0.33:   Rmc
 MCST.F                60:   Rmc Meas. temp.
 MFSS.               MEAS:   Source Rmf.
 RMB .OHMM           0.12:   Rm. at BHT
 BHT .F               110:   BHT.
 TCS .HRS            0900:   Time Circ. stopped
 MRT .F               110:   Maximum recorded temp.
 LUN .               7980:   Logging unit number
 LUL .               CSPR:   Logging unit location
 ENGI.                FIX:   Recorded By
 WITN.               JAPP:   Witnessed by
 ORIG.           5" PRINT:   Origin of data
 UWI .     49025103130000:   Unique Well ID
 DICO. A2D TECHNOLOGIES, INC.:   Digitizing Company
 DAPD.                 11:   Feet Above Permanent Datum
 CS1 .              8.625:   Casing size
 BSD1.               2835:   Depth drilled with bit1
 MCSS.               CACL:   Source Rmc.
 TLAB.               1630:   Time logger at bottom
~OTHER INFORMATION
~A   DEPT      SPR        ILD        ILM        LL8       CALD         GRD      RHOB       CORR   
# ...
 1944.5000   -54.3830     4.8100     5.0810     8.0130     8.4220   168.2490     2.4790     0.0200
 1945.0000   -54.3140     4.8550     5.0810     7.7350     8.4170   164.7730     2.5030     0.0350
 1945.5000   -54.2440     4.8990     5.0810     7.0680     8.4130   156.0040     2.5270     0.0590
 1946.0000   -54.1750     4.8990     5.0810     6.8010     8.4080   145.2820     2.5060     0.0620
 1946.5000   -54.1060     4.9890     5.3060     7.5280     8.4030   141.6310     2.4870     0.0380
 1947.0000   -54.0360     5.1610     5.5890     8.4370     8.3980   141.9570     2.4890     0.0450
 1947.5000   -53.9670     5.4480     5.8710     9.1950     8.3930   143.4500     2.4920     0.0340
 1948.0000   -53.8980     5.7350     6.1530    10.6350     8.3880   145.3570     2.4490     0.0060
 1948.5000   -53.8280     6.0220     6.4350    11.1240     8.3830   147.6720     2.4610     0.0230
 1949.0000   -53.7590     6.3090     6.7180    11.4830     8.3790   143.6530     2.4770     0.0450
 1949.5000   -53.6900     6.5960     7.0000    12.2530     8.3740   123.6840     2.4590     0.0110
 1950.0000   -53.6200     6.8830     7.2820    12.8700     8.3690   117.1230     2.4480     0.0190
 1950.5000   -53.5510     7.3150     7.4500    12.2580     8.3640   134.3040     2.4720     0.0330
 1951.0000   -53.4820     7.2940     7.5870    11.9650     8.3620   142.6710     2.4710     0.0350
 1951.5000   -53.4120     7.1980     7.4500    13.8430     8.3620   144.7330     2.4650     0.0380
 1952.0000   -53.3430     7.1020     7.3690    13.6460     8.3620   137.5870     2.4690     0.0400
 1952.5000   -53.2740     7.0060     7.2420    12.8410     8.3620   135.0820     2.4550     0.0290
 1953.0000   -53.2040     6.9100     7.1160    12.0350     8.3620   133.4820     2.4480     0.0180
 1953.5000   -53.1340     6.8150     6.9900    11.2300     8.3620   136.3610     2.4550     0.0180
 1954.0000   -53.0660     6.7190     6.8640    10.1550     8.3620   149.4520     2.4730     0.0300
 1954.5000   -52.9960     6.6230     6.8010    10.5600     8.3620   160.0300     2.4660     0.0280
 1955.0000   -52.9750     6.5570     6.8010    11.7490     8.3620   165.5710     2.4540     0.0230
 1955.5000   -52.9760     6.6780     6.8010    11.5370     8.3620   168.8980     2.4490     0.0200
 1956.0000   -52.9760     6.6780     6.9530    10.9570     8.3620   169.4400     2.4600     0.0290
 1956.5000   -52.9760     6.7640     7.0340    10.7260     8.3620   152.2610     2.4730     0.0450
 1957.0000   -52.9760     6.8550     7.1150    12.6400     8.3620   151.1770     2.4840     0.0550
 1957.5000   -52.9760     6.9470     7.1960    13.3480     8.3620   150.8870     2.4770     0.0550
 1958.0000   -52.9760     7.0380     7.2770    12.1850     8.3620   150.5750     2.4640     0.0340
 1958.5000   -52.9760     7.1290     7.3580    12.5330     8.3620   149.3410     2.4700     0.0400
 1959.0000   -52.9770     7.2210     7.4390    13.1070     8.3620   145.2180     2.4560     0.0270
 1959.5000   -52.9760     7.3120     7.5200    11.9560     8.3620   143.6540     2.4420     0.0130
 1960.0000   -52.9730     7.4030     7.6000    11.1240     8.3620   144.0790     2.4350     0.0210
 1960.5000   -52.9220     7.4940     7.6810    12.1780     8.3620   138.4910     2.4430     0.0310
 1961.0000   -52.8720     7.5860     7.7620    13.8140     8.3630   143.7990     2.4580     0.0420
 1961.5000   -52.8200     7.6770     7.8430    15.1640     8.3640   142.6160     2.4670     0.0460
 1962.0000   -52.7680     7.7680     7.9240    15.3720     8.3660   144.6530     2.4630     0.0280
 1962.5000   -52.7170     7.8600     8.0130    15.8030     8.3680   145.3090     2.4610     0.0280
 1963.0000   -52.6650     7.9510     8.1600    16.0160     8.3690   144.8300     2.4680     0.0400
 1963.5000   -52.6140     8.0130     8.3100    15.1960     8.3710   144.2670     2.4710     0.0270
 1964.0000   -52.5620     7.6720     8.1040    13.5390     8.3720   146.4020     2.4420     0.0250
 1964.5000   -52.5110     7.3040     7.7150    12.6380     8.3740   145.2250     2.4720     0.0410
 1965.0000   -52.4590     6.9360     7.3260    12.6380     8.3750   142.4950     2.4850     0.0560
 1965.5000   -52.4080     6.5570     6.9260    12.6380     8.3770   138.7800     2.4860     0.0720
 1966.0000   -52.3560     6.4390     6.9260    10.3630     8.3790   132.8550     2.4940     0.0990
 1966.5000   -52.3050     6.3230     6.9260     8.9390     8.3800   126.6850     2.5040     0.1200
 1967.0000   -52.2530     6.3360     6.9580    10.7040     8.3830   130.0910     2.4670     0.0620
 1967.5000   -52.2000     6.3590     6.9900    12.4770     8.3920   136.6030     2.4090     0.0190
 1968.0000   -52.1980     6.3810     7.0220    14.0980     8.4010   143.0890     2.4490     0.0330
 1968.5000   -52.2740     6.4040     7.0530    13.4970     8.4090   146.2020     2.4660     0.0220
 1969.0000   -52.3480     6.4270     7.1830    12.7780     8.4180   145.2050     2.4600     0.0210
 1969.5000   -52.4220     6.4390     7.1830    12.0580     8.4270   144.1070     2.4730     0.0310
 1970.0000   -52.4970     6.2960     6.7820    11.3290     8.4350   146.3490     2.4360     0.0360
 1970.5000   -52.5710     6.0820     6.3790    10.1730     8.4440   147.8330     2.4610     0.0230
 1971.0000   -52.6460     5.8690     5.9860     8.8620     8.4520   147.5600     2.4930     0.0380
 1971.5000   -52.7210     5.6560     5.9860     7.0530     8.4610   146.8690     2.5080     0.0450
 1972.0000   -52.7950     5.4420     5.7950     7.5780     8.4700   149.2000     2.5250     0.0540
 1972.5000   -52.8690     5.2290     5.5380     9.1990     8.4780   145.0440     2.5340     0.0600
 1973.0000   -52.9460     5.0810     5.2690     9.4410     8.4870   142.6390     2.5130     0.0370
 1973.5000   -52.9790     5.0870     5.2690     8.9390     8.4960   137.3820     2.5230     0.0470
 1974.0000   -52.9760     5.0970     5.2690     9.0170     8.5040   140.5330     2.5390     0.0580
 1974.5000   -52.9760     5.1080     5.2690     9.2270     8.5130   137.1760     2.5360     0.0490
 1975.0000   -52.9770     5.1190     5.2690     9.2710     8.5200   139.7300     2.5400     0.0590
 1975.5000   -52.9760     5.1300     5.2690     7.0530     8.5140   142.8770     2.5110     0.0380
 1976.0000   -52.9760     5.1400     5.2690     7.1830     8.5090   144.8490     2.4910     0.0360
 1976.5000   -52.9760     5.1510     5.2690     8.9180     8.5030   146.8990     2.4850     0.0450
 1977.0000   -52.9760     5.1620     5.2690    10.5320     8.4980   147.7040     2.4880     0.0530
 1977.5000   -52.9760     5.1740     5.2690     9.2570     8.4920   146.6910     2.4760     0.0320
 1978.0000   -52.9760     5.2380     5.3660     7.5930     8.4870   147.5400     2.4860     0.0450
 1978.5000   -52.9760     5.3750     5.5560     6.9260     8.4820   148.1150     2.5060     0.0550
 1979.0000   -52.9760     5.5120     5.7340     8.1650     8.4760   149.9710     2.4920     0.0410
 1979.5000   -52.9760     5.6490     5.9120    10.9230     8.4710   138.6270     2.5120     0.0540
 1980.0000   -52.9740     5.7860     6.0890    10.3550     8.4650   141.1870     2.5080     0.0600
 1980.5000   -52.9960     5.9230     6.2080     9.9720     8.4600   136.1520     2.4970     0.0370
 1981.0000   -53.0680     5.9860     6.1780    11.1240     8.4540   129.3040     2.4870     0.0440
 1981.5000   -53.1290     5.9570     6.1230    10.9230     8.4490   110.1480     2.4900     0.0610
 1982.0000   -53.1960     5.8760     6.0670     9.8680     8.4430   120.9260     2.4510     0.0240
 1982.5000   -53.2830     5.7940     6.0110     9.6150     8.4380   140.6940     2.4640     0.0330
 1983.0000   -53.2950     5.7120     5.9560    10.4650     8.4320   137.7520     2.4800     0.0240
 1983.5000   -53.6960     5.6300     5.9000    11.3290     8.4270   130.5560     2.4590     0.0080
 1984.0000   -53.6970     5.5650     5.7720     9.7550     8.4220   127.9770     2.4510     0.0120
 1984.5000   -53.6430     5.6060     5.7720     6.6780     8.4160   134.5030     2.4720     0.0270
