~VERSION INFORMATION
 VERS.                2.0:   CWLS LOG ASCII STANDARD - VERSION 2.0
 WRAP.                 NO:   ONE LINE PER DEPTH STEP
~WELL INFORMATION
#MNEM.UNIT      DATA TYPE    INFORMATION
#----------   ------------   ------------------------------
 STRT.F            0.5000:   START DEPTH
 STOP.F         1380.0000:   STOP DEPTH
 STEP.F            0.5000:   STEP LENGTH
 NULL.          -999.2500:   NO VALUE
 COMP.       FLUOR DANIEL:   COMPANY
 WELL. FLUOR 84 "X" #1-14:   WELL
 FLD .          N.P.R. #3:   FIELD
 LOC .      S14 T38N R78W:   LOCATION
 CNTY.            NATRONA:   COUNTY
 STAT.            WYOMING:   STATE
 CTRY. UNITED STATES OF AMERICA:   COUNTRY
 SRVC.     ATLAS WIRELINE:   SERVICE COMPANY
 DATE.        24-AUG-1994:   LOGDATE
 API .     49025226370000:   API NUMBER
~CURVE INFORMATION
#MNEM.UNIT       API CODE    CURVE DESCRIPTION
#----------   ------------   ------------------------------
 DEPT.F                  :   
 GRR .GAPI   07 310 01 00:   GAMMA RAY FROM RESISTIVITY
 RILD.OHMM   07 120 46 00:   INDUCTION LOG DEEP RESISTIVITY
 RILM.OHMM   07 120 44 00:   INDUCTION LOG MEDIUM RESISTIVITY
 TENR.LBS    07 635 01 00:   TENSION FROM RESISTIVITY
~PARAMETER INFORMATION
#MNEM.UNIT          VALUE    DESCRIPTION
#----------   ------------   ------------------------------
 EKB .F         5326.0000:   Kelly bushing
 EGL .F         5316.0000:   Ground level
 EDF .F         5325.0000:   Drilling floor
 TD  .F         1368.0000:   Total depth
 CLNT.            A2DTECH:   Client Code
 PD  .                 GL:   Permanent Datum
 EPD .F              5316:   Elevation Permanent Datum
 LMF .                 KB:   Log Measured From
 DMF .                 KB:   Drilling Measured From
 DAPD.F                10:   Feet Above Permanent Datum
 DATE.        24-AUG-1994:   Date Logged [DD-MMM-YYYY]
 DD  .F              1368:   Depth driller
 DL  .F              1364:   Depth logger
 BLI .F              1356:   Bottom log interval
 TLI .F                 0:   Top log interval
 CS1 .IN            9.625:   Casing size
 CBD1.       9.625" @ 56':   Casing driller 1
 CBL1.F                56:   Casing logger 1
 BS1 .IN             8.75:   Bit size
 BSD1.F              1368:   Depth drilled with bit1
 DFT .                AIR:   Type fluid in hole
 LUN .            HL 6530:   Logging unit number
 LUL .             CASPER:   Logging unit location
 WITN.        GARY STRONG:   Witnessed by
 ORIG.         2.5" PRINT:   Origin of data
 UWI .     49025226370000:   Unique Well ID
 DICO. A2D TECHNOLOGIES, INC.:   Digitizing Company
 SL  . 2551' FNL & 575' FEL:   Surface Location
~OTHER INFORMATION
~A    DEPT      GRR      RILD       RILM       TENR   
# ...
  876.5000   137.7245     8.3223     8.3368   -32.8869
  877.0000   135.9281     8.3189     8.3341   -32.4405
  877.5000   135.2095     8.2017     8.3318   -31.9941
  878.0000   136.5269     8.0846     8.3296   -31.5476
  878.5000   139.5210     7.8629     8.3273   -31.1012
  879.0000   140.7186     7.7520     8.2112   -30.6548
  879.5000   138.9222     7.7488     7.8768   -30.2083
  880.0000   137.1257     7.7456     7.7670   -29.7619
  880.5000   137.1018     7.7424     7.7471   -29.3155
  881.0000   140.1198     7.7392     7.8704   -28.8690
  881.5000   142.5310     7.7360     7.8683   -28.4226
  882.0000   142.4910     7.7328     7.8662   -27.9762
  882.5000   141.2775     7.7296     7.8640   -27.5298
  883.0000   140.7186     7.7264     7.8619   -27.0833
  883.5000   141.6766     7.7232     7.8598   -26.6369
  884.0000   146.1078     7.7200     7.8576   -26.1905
  884.5000   146.1078     7.7168     7.7480   -25.7440
  885.0000   145.9879     7.7136     7.7459   -25.2976
  885.5000   144.9102     7.6615     7.7438   -24.8512
  886.0000   145.2136     7.4469     7.7247   -24.4047
  886.5000   147.4731     7.2387     7.6138   -23.9584
  887.0000   148.5030     7.1114     7.4020   -23.4231
  887.5000   145.9082     6.9339     7.0736   -22.9829
  888.0000   145.5090     6.7960     6.7127   -22.5428
  888.5000   149.7964     6.7002     6.4985   -22.1025
  889.0000   153.7882     6.5153     6.2868   -21.6624
  889.5000   154.2276     6.4235     6.1991   -21.2222
  890.0000   151.8560     6.3329     6.1130   -20.7820
  890.5000   146.7301     6.3304     6.1957   -20.3418
  891.0000   143.1138     6.3278     6.1940   -19.9016
  891.5000   144.0400     6.3252     6.2344   -19.4614
  892.0000   144.9102     6.3226     6.3675   -33.9286
  892.5000   143.1138     6.3200     6.5891   -33.4620
  893.0000   140.1198     6.4941     6.7740   -33.0218
  893.5000   138.3233     6.5816     7.0010   -47.4702
  894.0000   137.1257     6.6703     6.9991   -47.0223
  894.5000   139.5210     6.7601     6.9972   -46.5774
  895.0000   139.5210     6.8512     7.1906   -46.1309
  895.5000   134.1317     6.9494     7.0904   -45.6845
  896.0000   126.9461     7.0370     6.9915   -45.2381
  896.5000   125.7485     7.0339     6.8941   -44.7917
  897.0000   128.7425     6.9347     6.7655   -44.3453
  897.5000   134.1317     6.9319     6.6116   -43.8988
  898.0000   138.3233     6.9088     6.6098   -43.4524
  898.5000   138.9222     6.8313     6.5176   -43.0059
  899.0000   137.1257     6.8285     6.5159   -42.5595
  899.5000   138.9222     6.8256     6.6044   -42.1131
  900.0000   142.5150     6.4566     6.7869   -41.6667
  900.5000   141.3223     6.4872     6.7848   -41.2202
  901.0000   141.5568     6.6363     6.9726   -40.7738
  901.5000   140.9681     6.8213     7.2643   -40.3274
  902.0000   138.6906     7.0116     7.4651   -39.8810
  902.5000   136.9461     7.3072     7.6714   -39.4345
  903.0000   133.3174     7.5110     7.6693   -38.9881
  903.5000   132.6707     7.6148     7.6672   -38.5417
  904.0000   135.6887     7.5100     7.6651   -38.0952
  904.5000   135.6568     7.4066     7.6631   -37.6488
  905.0000   134.7904     7.3047     7.5562   -37.1180
  905.5000   135.7485     7.2042     7.5542   -36.6778
  906.0000   140.7916     7.1051     7.3470   -36.2376
  906.5000   140.1987     7.0073     7.2446   -40.1586
  907.0000   138.4082     7.0068     7.1436    -8.4423
  907.5000   136.0189     6.9088     7.1416    -8.1480
  908.0000   133.0308     6.8153     7.1396    -7.8537
  908.5000   131.2403     6.8148     7.1377    -7.5594
  909.0000   134.8391     6.8144     7.1357   -22.1019
  909.5000   140.2342     6.8139     7.1337   -21.8076
  910.0000   139.0425     6.8134     7.1318   -51.1870
  910.5000   136.6532     6.8130     7.1298   -50.8902
  911.0000   137.8567     6.8125     7.1278   -50.1004
  911.5000   140.2579     6.8120     7.1259   -19.8817
  912.0000   140.8626     6.8115     7.1239    -5.4896
  912.5000   139.6709     6.8111     7.1220    -6.4308
  913.0000   137.2816     6.8106     7.1200   -21.2159
  913.5000   139.0839     6.9048     7.1180   -49.1270
  914.0000   140.2875     7.0001     7.1161   -48.8131
  914.5000   140.8922     6.9037     7.1141   -48.5163
  915.0000   140.8982     6.9033     7.1122   -48.2196
  915.5000   140.2714     6.8083     7.1102   -33.0861
  916.0000   139.7123     6.6226     6.9663   -32.7893
  916.5000   142.4848     6.4420     6.8668   -47.3613
  917.0000   148.4113     6.4416     6.7237   -47.0326
  917.5000   150.5090     6.4844     6.7723   -46.7359
  918.0000   147.3133     6.5761     6.8666   -46.4392
  918.5000   145.7300     6.7123     6.9057   -46.1424
  919.0000   145.7365     6.7118     6.9034   -45.8457
  919.5000   145.7425     6.7113     6.8072   -45.5489
  920.0000   145.4291     6.5282     6.7123   -45.2522
  920.5000   143.3584     6.4384     6.6187   -44.9555
  921.0000   147.7445     6.4380     6.6169   -44.6588
  921.5000   148.7605     6.4375     6.6151   -44.3620
  922.0000   146.5388     6.5265     6.7052   -38.1298
  922.5000   144.1216     6.5260     6.7032   -28.9317
  923.0000   142.7904     6.6162     6.7013   -28.6350
  923.5000   142.7964     6.7076     6.7924   -28.3383
  924.0000   142.8024     6.8003     6.8847   -28.0415
  924.5000   141.9241     6.7998     6.8828   -27.7448
  925.0000   139.5210     6.8937     6.8809   -34.8665
  925.5000   138.0300     6.8932     6.8791   -41.9881
  926.0000   139.2893     6.9885     6.9725   -41.6914
  926.5000   140.1796     6.9880     7.0673   -41.3947
  927.0000   141.9960     6.9875     7.0653   -41.0979
  927.5000   144.0430     6.9870     7.0634   -40.8012
  928.0000   145.8454     6.9866     7.0614   -40.4456
  928.5000   147.0489     6.9861     7.0595   -40.1513
  929.0000   145.8572     6.9856     7.0575   -25.0202
  929.5000   142.2703     6.9851     7.0556   -24.7260
  930.0000   139.2822     6.9846     7.0537   -24.4317
  930.5000   141.0845     6.9842     7.0517   -24.1374
  931.0000   141.6893     6.9728     7.0498   -23.8431
  931.5000   141.0964     6.8343     7.0478   -23.5488
  932.0000   139.9047     6.7391     7.0459   -23.2545
  932.5000   138.7130     6.6450     6.9199   -22.9602
  933.0000   136.3237     6.5978     6.7571   -22.6660
  933.5000   133.9341     6.5065     6.6629   -22.3717
  934.0000   136.3356     6.4154     6.5699   -22.0774
  934.5000   141.1319     6.3381     6.5330   -21.7831
  935.0000   142.3354     6.2509     6.4766   -21.4888
  935.5000   140.5449     6.2504     6.4748   -36.0534
  936.0000   138.7545     6.2500     6.4730   -35.7371
  936.5000   138.1616     6.2496     6.5153   -35.4428
  937.0000   138.2036     6.2491     6.5591   -35.1485
  937.5000   139.4709     6.2849     6.6482   -34.8542
  938.0000   139.0578     6.3737     6.7385   -34.5599
  938.5000   135.1912     6.4638     6.7919   -34.2656
  939.0000   135.2895     6.5552     6.8573   -33.9713
  939.5000   136.6127     6.6479     6.9414   -33.6771
  940.0000   138.8024     6.7419     7.0146   -33.3828
  940.5000   140.2737     6.7848     7.1099   -33.0861
  941.0000   142.5548     6.8786     7.2068   -32.7893
  941.5000   143.9341     6.9736     7.2045   -32.4926
  942.0000   144.8135     6.9730     7.3027   -32.1958
  942.5000   139.8403     6.9725     7.3004   -31.8991
  943.0000   140.0359     6.9720     7.2985   -31.6024
  943.5000   140.6396     6.9716     7.2965   -31.3056
  944.0000   139.5848     6.9711     7.2945   -31.0089
  944.5000   136.3234     6.9706     7.2482   -30.7122
  945.0000   135.7884     6.9702     7.1908   -30.4154
  945.5000   139.9623     6.9697     7.1889   -30.1187
  946.0000   144.8141     6.9692     6.9917   -29.8220
  946.5000   144.2655     6.9687     6.9898   -29.5252
  947.0000   141.5327     6.8728     6.8908   -29.2285
  947.5000   140.4191     6.8724     6.7963   -28.9317
  948.0000   144.2073     6.8719     6.7944   -28.6350
  948.5000   147.2886     6.8714     6.8868   -28.3383
  949.0000   147.2945     6.8710     6.8848   -28.0415
