~VERSION INFORMATION
 VERS.                2.0:   CWLS LOG ASCII STANDARD - VERSION 2.0
 WRAP.                 NO:   ONE LINE PER DEPTH STEP
~WELL INFORMATION
#MNEM.UNIT      DATA TYPE    INFORMATION
#----------   ------------   ------------------------------
 STRT.F          230.0000:   START DEPTH
 STOP.F         3480.0000:   STOP DEPTH
 STEP.F            0.5000:   STEP LENGTH
 NULL.          -999.2500:   NO VALUE
 COMP.    FENIX & SCISSON:   COMPANY
 WELL. FENIX NPR 3 "AX" #33-15:   WELL
 FLD .                NPR:   FIELD
 LOC .      S15 T38N R78W:   LOCATION
 CNTY.            NATRONA:   COUNTY
 STAT.            WYOMING:   STATE
 CTRY. UNITED STATES OF AMERICA:   COUNTRY
 SRVC.       SCHLUMBERGER:   SERVICE COMPANY
 DATE.        19-MAR-1981:   LOGDATE
 API .     49025108760000:   API NUMBER
~CURVE INFORMATION
#MNEM.UNIT       API CODE    CURVE DESCRIPTION
#----------   ------------   ------------------------------
 DEPT.F                  :   
 TENR.LBS    07 635 01 00:   TENSION
 SFL .OHMM   07 220 01 00:   SHALLOW FOCUSED LOG RESISTIVITY
 ILM .OHMM   07 120 44 00:   INDUCTION LOG MEDIUM RESISTIVITY
 ILD .OHMM   07 120 46 00:   INDUCTION LOG DEEP RESISTIVITY
 SPR .MV     07 010 01 00:   SPONTANEOUS POTENTIAL
 CALD.IN     45 280 60 00:   CALIPER FROM DENSITY LOG
 GRD .GAPI   45 310 01 00:   GAMMA RAY FROM DENSITY LOG
 CORR.G/C3   45 356 01 00:   DENSITY CORRECTION
 RHOB.G/C3   45 350 01 00:   BULK DENSITY
~PARAMETER INFORMATION
#MNEM.UNIT          VALUE    DESCRIPTION
#----------   ------------   ------------------------------
 EKB .F         5286.0000:   Kelly bushing
 EGL .F         5276.0000:   Ground level
 EDF .F            0.0000:   Drilling floor
 TD  .F         3500.0000:   Total depth
 DATE.        19-MAR-1981:   Date logged
 CLNT.            A2DTECH:   Client Code
 SL  . 1545' FNL & 1467' FWL:   Surface Location
 PD  .                 GL:   Permanent Datum
 EPD .F              5276:   Elevation Permanent Datum
 LMF .                 KB:   Log Measured From
 DMF .                 KB:   Drilling Measured From
 DAPD.F                10:   Feet Above Permanent Datum
 DD  .F              3500:   Depth driller
 DL  .F              3476:   Depth logger
 BLI .F              3470:   Bottom log interval
 TLI .F               234:   Top log interval
 CS1 .IN            8.625:   Casing size
 CBD1.      8.625" @ 250':   Casing driller 1
 CBL1.F               234:   Casing logger 1
 BS1 .IN            7.875:   Bit size
 BSD1.F              3500:   Depth drilled with bit1
 DFT .                FGM:   Type fluid in hole
 DFD .                8.9:   Density
 DFV .                 39:   Viscosity
 DFPH.                9.5:   pH
 DFL .                 10:   Fluid loss
 MSS .               TANK:   Source of sample
 RMS .OHMM           2.26:   Rm
 MST .F                54:   Rm Meas. temp.
 RMF .OHMM           1.60:   Rmf
 MFST.F                54:   Rmf Meas. temp.
 MFSS.               MEAS:   Source Rmf.
 RMB .OHMM            .87:   Rm. at BHT
 BHT .F               140:   BHT.
 TCS .HRS            1030:   Time Circ. stopped
 TLAB.HRS            1300:   Time logger at bottom
 MRT .F               140:   Maximum recorded temp.
 LUN .               8039:   Logging unit number
 LUL .               CSPR:   Logging unit location
 ENGI.           C. PFARR:   Recorded By
 WITN.           R. SCOTT:   Witnessed by
 ORIG.     2.5", 5" PRINT:   Origin of data
 UWI .     49025108760000:   Unique Well ID
 DICO. A2D TECHNOLOGIES, INC.:   Digitizing Company
~OTHER INFORMATION
~A   DEPT     TENR          SFL      ILM        ILD        SPR         CALD       GRD      CORR         RHOB 
  230.0000  -999.2500     0.2340  -999.2500  -999.2500  -999.2500     9.0670    68.7750  -999.2500     2.5150
  230.5000  -999.2500  -999.2500  -999.2500  -999.2500  -999.2500     9.0670    63.9170  -999.2500     2.5150
  231.0000  -999.2500  -999.2500  -999.2500  -999.2500  -999.2500     9.0670    64.9970  -999.2500     2.5150
  231.5000  -999.2500  -999.2500  -999.2500  -999.2500  -999.2500     9.0670    63.9320  -999.2500     2.5190
  232.0000  -999.2500  -999.2500  -999.2500  -999.2500  -999.2500     9.0670    63.7930  -999.2500     2.5150
  232.5000  -999.2500  -999.2500  -999.2500  -999.2500  -999.2500     9.0670    65.1730  -999.2500     2.5150
  233.0000   622.4900     0.2340  -999.2500  -999.2500  -999.2500     9.0660    66.6040  -999.2500     2.5150
  233.5000   622.4900     0.3120  -999.2500  -999.2500  -999.2500     9.0690    67.9120  -999.2500     2.5170
  234.0000   622.4900     2.1740  -999.2500  -999.2500  -999.2500     9.1980    70.0580  -999.2500     2.4120
  234.5000   622.4900     3.8990  -999.2500  -999.2500   -36.8900     9.5970    73.9610  -999.2500     2.3130
  235.0000  -999.2500     5.6240  -999.2500  -999.2500   -58.4930     9.6420    77.9490  -999.2500     2.3120
  235.5000  -999.2500     6.7020  -999.2500  -999.2500  -100.0000     9.6660    79.1220  -999.2500     2.3390
  236.0000   603.8440     6.7020  -999.2500  -999.2500   -98.9720     9.6950    79.7970  -999.2500     2.3580
  236.5000   600.9930     6.3390     3.8440  -999.2500   -91.7650     9.8380    80.8830  -999.2500     2.3660
  237.0000   593.5170     5.6720     4.0630     3.6360   -81.9430    10.2100    81.9670  -999.2500     2.2970
  237.5000   586.6320     5.3660     4.6260     3.8440   -71.9900    10.9710    83.0340  -999.2500     2.2470
  238.0000   582.3290     5.0750     5.7270    11.2600   -61.9920    11.7240    84.3850  -999.2500     2.2320
  238.5000   582.7350     5.0750     7.7730    10.9550   -54.7720    12.4840    86.6380  -999.2500     2.2870
  239.0000   583.4840     5.0750     7.4140     9.1500   -53.1400    12.7870    85.9470  -999.2500     2.3630
  239.5000   584.2330     5.0750     5.9790     7.6610   -53.1350    12.7940    85.2170  -999.2500     2.4130
  240.0000   584.9820     5.1700     6.0360     6.1720   -53.2100    12.7950    85.7790     0.0190     2.4140
  240.5000   585.7310     5.2670     4.9820     5.3650   -53.3780    12.7950    86.3530     0.0080     2.3960
  241.0000   586.4800     5.5680     5.0990     5.5630   -53.3960    12.7960    85.1840     0.0030     2.3940
  241.5000   587.2290     5.6720     5.2200     5.7680   -53.3730    12.7970    82.7940     0.0040     2.4000
  242.0000   587.9780     6.3070     5.3420     5.9740   -53.3710    12.7990    80.3670     0.0050     2.4070
  242.5000   588.7270     6.5990     5.4640     6.1800   -53.3730    12.8000    80.9110     0.0060     2.4130
  243.0000   589.4760     6.7000     5.5860     6.2230   -53.3710    12.8010    81.3020     0.0070     2.4200
  243.5000   590.2250     6.8000     5.7070     6.3250   -53.3960    12.8020    80.0880     0.0090     2.4270
  244.0000   590.9740     6.9000     5.8290     6.4320   -53.4610    12.8030    78.8940     0.0100     2.4260
  244.5000   591.7230     6.9550     5.9510     6.5390   -53.5220    12.8040    78.9290     0.0080     2.4220
  245.0000   592.4720     6.9550     5.9960     6.6400   -53.5830    12.8050    79.4240     0.0050     2.4200
  245.5000   593.2210     6.9550     5.9960     6.7020   -53.6490    12.8060    79.9100     0.0050     2.4210
  246.0000   593.9700     6.9550     5.9960     6.7020   -53.7050    12.8070    81.0180     0.0040     2.4300
  246.5000   594.7180     6.9550     5.9960     6.8160   -53.7570    12.8080    82.1830     0.0040     2.4400
  247.0000   595.4670     6.9550     5.9960     6.9550   -53.6020    12.8090    83.6330     0.0050     2.4500
  247.5000   596.2160     6.9550     5.9960     6.9200   -53.4410    12.8100    85.0150     0.0060     2.4500
  248.0000   596.9650     6.9550     5.8380     6.7550   -53.2730    12.8140    84.9820     0.0150     2.4020
  248.5000   597.7140     6.9550     5.7080     6.5900   -53.1090    12.7130    81.4250     0.0410     2.2540
  249.0000   598.4630     6.7200     5.5780     6.4250   -52.9680    12.5260    77.9350     0.0460     2.1090
  249.5000   599.2120     6.5120     5.4480     6.2600   -53.1150    11.6380    76.2060     0.0290     2.0050
  250.0000   599.9610     6.3040     5.3180     6.0950   -53.4830    10.7680    82.4490    -0.0060     2.0010
  250.5000   600.7100     6.0960     5.1880     5.8860   -53.8480     9.8720    88.2580    -0.0230     2.1330
  251.0000   601.4590     5.8870     5.0590     5.6320   -54.2000     9.6600    91.1800    -0.0160     2.2450
  251.5000   602.2080     5.6790     4.8500     5.3910   -54.5480     9.5980    94.0770     0.0130     2.3610
  252.0000   602.9570     5.4710     4.5300     5.1500   -54.5050     9.6270    96.2390     0.0550     2.4310
  252.5000   603.7060     5.2670     4.2090     4.9090   -54.3760     9.6520    98.4520     0.0920     2.4370
  253.0000   604.4550     4.5020     3.8880     4.6260   -54.2800     9.6760    99.8120     0.0720     2.3960
  253.5000   605.2040     3.7730     3.7040     4.5410   -54.2300     9.6680   101.3640     0.0450     2.3360
  254.0000   605.9530     3.9180     3.8360     4.5410   -55.0460     9.5410   102.8020     0.0200     2.3590
  254.5000   606.7020     4.5480     3.9650     4.6090   -55.9010     9.4320   102.0360     0.0070     2.3960
  255.0000   607.4510     5.1770     4.0940     4.6900   -56.6200     9.4320    98.9880     0.0290     2.4340
  255.5000   608.2000     5.7780     4.2170     4.7720   -56.9600     9.4330    96.0390     0.0230     2.4380
  256.0000   608.9490     5.9960     4.3790     4.8500   -56.6670     9.4350    93.0820     0.0130     2.4160
  256.5000   609.6980     5.9960     4.5350     5.0500   -56.4460     9.4360    92.4050     0.0030     2.4110
  257.0000   610.4470     5.9250     4.7130     5.2500   -56.1840     9.4370    93.6910     0.0110     2.4350
  257.5000   611.1960     5.7780     4.7670     5.4500   -55.9320     9.4380    95.2440     0.0190     2.4530
  258.0000   611.9450     5.8860     4.8310     5.6500   -55.7100     9.4390    96.9130     0.0240     2.4570
  258.5000   612.6940     5.8860     4.9820     5.8510   -55.3940     9.4400    97.4320     0.0210     2.4510
  259.0000   613.4430     6.0350     4.9430     5.9960   -55.6800     9.4410    96.3280     0.0200     2.4490
  259.5000   614.1920     6.1090     4.8850     5.9960   -55.6630     9.4420    95.9660     0.0190     2.4370
  260.0000   614.9410     6.0820     4.8270     5.8070   -55.4530     9.4430    97.3130     0.0150     2.4260
  260.5000   615.6900     5.9960     4.7680     5.6300   -55.2270     9.4440    97.8270     0.0130     2.4250
  261.0000   616.4390     5.8860     4.7100     5.4530   -55.0300     9.4450    97.6790     0.0180     2.4290
  261.5000   617.1880     5.7780     4.6520     5.2770   -54.8170     9.4460    98.0960     0.0230     2.4390
  262.0000   617.9360     5.5420     4.5940     5.1000   -54.6010     9.4470    99.5240     0.0250     2.4470
  262.5000   618.6850     5.3550     4.5410     4.9240   -54.4050     9.4480   100.3760     0.0280     2.4360
  263.0000   619.4340     5.0750     4.1840     4.6720   -54.1790     9.4490    99.2420     0.0430     2.4220
  263.5000   620.1830     5.1700     3.7930     4.2480   -54.1460     9.4510    98.3700     0.0750     2.4090
  264.0000   620.9320     4.8910     3.4030     3.8240   -53.8440     9.4860    96.8310     0.1220     2.3350
  264.5000   621.6810     4.0970     3.0120     3.4000   -53.5700     9.6030    95.7980     0.1940     2.2070
  265.0000   622.4900     3.0670     2.6220     2.9760   -53.2800     9.7190    93.0940     0.1630     2.0790
  265.5000   621.4360     2.1640     2.2320     2.6040   -53.0060     9.8400    90.7410     0.1260     2.0010
  266.0000   620.2900     1.6390     2.0850     2.5570   -52.6800     9.7240    89.1140     0.0630     1.9970
