~VERSION INFORMATION
 VERS.                2.0:   CWLS LOG ASCII STANDARD - VERSION 2.0
 WRAP.                 NO:   ONE LINE PER DEPTH STEP
~WELL INFORMATION
#MNEM.UNIT      DATA TYPE    INFORMATION
#----------   ------------   ------------------------------
 STRT.F          484.0000:   START DEPTH
 STOP.F         4334.0000:   STOP DEPTH
 STEP.F            0.5000:   STEP LENGTH
 NULL.          -999.2500:   NO VALUE
 COMP.    FENIX & SCISSON:   COMPANY
 WELL. FENIX NPR 3 "JX" #46-27:   WELL
 FLD .              N P R:   FIELD
 LOC .      S27 T39N R78W:   LOCATION
 CNTY.            NATRONA:   COUNTY
 STAT.            WYOMING:   STATE
 CTRY. UNITED STATES OF AMERICA:   COUNTRY
 SRVC.       SCHLUMBERGER:   SERVICE COMPANY
 DATE.        01-MAR-1979:   LOGDATE
 API .     49025107660000:   API NUMBER
~CURVE INFORMATION
#MNEM.UNIT       API CODE    CURVE DESCRIPTION
#----------   ------------   ------------------------------
 DEPT.F                  :   
 TENR.LBS    07 635 01 00:   TENSION FROM RESISTIVITY
 SPR .MV     07 010 01 00:   SPONTANEOUS POTENTIAL
 SFL .OHMM   07 220 01 00:   SHALLOW FOCUSED LOG RESISTIVITY
 ILD .OHMM   07 120 46 00:   DEEP INDUCTION RESISTIVITY
 ILM .OHMM   07 120 44 00:   INDUCTION LOG MEDIUM RESISTIVITY
 TEND.LBS    42 635 01 00:   TENSION FROM COMPENSATE NEUTRON
 GRD .GAPI   45 310 01 00:   GAMMA RAY FROM DENSITY LOG
 CALD.IN     45 280 60 00:   CALIPER FROM DENSITY LOG
 RHOB.G/C3   45 350 01 00:   BULK DENSITY
 CORR.G/C3   45 356 01 00:   DENSITY CORRECTION
 NPHI.DEC    42 890 03 00:   NEUTRON POROSITY SANDSTONE
~PARAMETER INFORMATION
#MNEM.UNIT          VALUE    DESCRIPTION
#----------   ------------   ------------------------------
 EKB .F         5059.0000:   Kelly bushing
 EGL .F         5049.0000:   Ground level
 EDF .F            0.0000:   Drilling floor
 TD  .F         4320.0000:   Total depth
 DATE.        01-MAR-1979:   Date logged
 CLNT.            A2DTECH:   Client Code
 SL  . 1625' FSL & 2281' FWL:   Surface Location
 PD  .                 GL:   Permanent Datum
 DD  .F              4320:   Depth driller
 DL  .F              4319:   Depth logger
 BLI .F              4316:   Bottom log interval
 CS1 .IN            8.625:   Casing size
 CBD1.      8.625" @ 505':   Casing driller 1
 CBL1.F               500:   Casing logger 1
 BS1 .IN            7.875:   Bit size
 DFT .                FGM:   Type fluid in hole
 DFD .                9.1:   Density
 DFV .                 40:   Viscosity
 DFPH.               11.7:   pH
 DFL .                6.5:   Fluid loss
 MSS .               TANK:   Source of sample
 RMS .OHMM           .901:   Rm
 MST .F                65:   Rm Meas. temp.
 RMF .OHMM           .852:   Rmf
 MFST.F                65:   Rmf Meas. temp.
 MFSS.               MEAS:   Source Rmf.
 RMB .OHMM            .39:   Rm. at BHT
 BHT .F               151:   BHT.
 TCS .HRS            1200:   Time Circ. stopped
 MRT .F               151:   Maximum recorded temp.
 LUN .               8043:   Logging unit number
 LUL .               CSPR:   Logging unit location
 ENGI.              PFARR:   Recorded By
 WITN.              AMENO:   Witnessed by
 ORIG.         2.5" PRINT:   Origin of data
 UWI .     49025107660000:   Unique Well ID
 DICO. A2D TECHNOLOGIES, INC.:   Digitizing Company
 DAPD.                 10:   Feet Above Permanent Datum
 BSD1.F              4320:   Depth drilled with bit1
 EPD .F              5049:   Elevation Permanent Datum
 LMF .                 KB:   Log Measured From
 DMF .                 KB:   Drilling Measured From
 TLI .F               500:   Top log interval
 TLAB.HRS            1900:   Time logger at bottom
~OTHER INFORMATION
~A   DEPT     TENR        SPR        SFL        ILD        ILM       TEND         GRD      CALD       RHOB       CORR         NPHI 
# ...
 3290.0000  1098.7480   -38.9940     6.0110     5.0300     5.1230  1363.1490   103.1210     8.0250     2.5290     0.0390     0.2400
 3290.5000  1098.8330   -39.0640     5.7920     4.9950     5.0880  1363.4470   101.6610     8.0210     2.5330     0.0370     0.2290
 3291.0000  1098.9180   -39.1350     5.5730     4.9610     5.0520  1363.7450   102.8480     8.0200     2.5350     0.0340     0.2240
 3291.5000  1099.0031   -39.2060     5.3540     4.9270     5.0170  1364.0430   107.0890     8.0270     2.5310     0.0360     0.2180
 3292.0000  1099.0880   -39.2740     5.1340     4.8920     4.9820  1364.3409   111.1320     8.0680     2.5290     0.0370     0.2160
 3292.5000  1099.1720   -39.3490     4.9420     4.8580     4.9470  1364.6379   115.1000     8.0720     2.5270     0.0400     0.2210
 3293.0000  1099.2570   -39.4160     5.0640     4.8230     4.9120  1364.9360   118.6210     8.0830     2.5200     0.0340     0.2260
 3293.5000  1099.3420   -39.4660     5.4540     4.7890     4.8770  1365.2340   118.9240     8.0920     2.4990     0.0220     0.2510
 3294.0000  1099.4270   -39.2740     5.8440     4.7640     4.8520  1365.5320   116.6730     8.0990     2.4820     0.0120     0.2680
 3294.5000  1099.5120   -39.1020     6.1540     4.7930     4.8810  1365.8300   111.5610     8.1120     2.4700     0.0110     0.2670
 3295.0000  1099.5959   -39.0630     6.0540     4.8250     4.9140  1366.1281   106.5790     8.1300     2.4800     0.0100     0.2500
 3295.5000  1099.6810   -38.9630     5.9100     4.8560     4.9460  1366.4260   102.2350     8.1480     2.4920     0.0090     0.2400
 3296.0000  1099.7660   -38.8670     5.7650     4.8880     4.9780  1366.7240    98.4940     8.1660     2.5010     0.0090     0.2400
 3296.5000  1099.8510   -38.7640     5.6200     4.9200     5.0100  1367.0220    97.1770     8.1840     2.5000     0.0190     0.2410
 3297.0000  1099.9360   -38.7130     5.4760     4.9510     5.0430  1367.3199   100.1990     8.2010     2.4930     0.0150     0.2460
 3297.5000  1100.0200   -38.8030     5.3310     4.9830     5.0750  1367.6180   102.5440     8.2190     2.4790     0.0110     0.2460
 3298.0000  1100.1050   -38.8900     5.2200     5.0150     5.1070  1367.9160   104.8910     8.2200     2.4710     0.0060     0.2470
 3298.5000  1100.1899   -38.9820     5.6950     5.0330     5.1260  1368.2130   107.5450     8.2170     2.4800     0.0040     0.2490
 3299.0000  1100.2750   -39.0720     6.2670     5.3590     5.4580  1368.5110   107.5910     8.2070     2.5040     0.0140     0.2520
 3299.5000  1100.3600   -39.1620     6.8380     5.6780     5.7830  1368.8090   105.7050     8.1970     2.5270     0.0270     0.2520
 3300.0000  1100.4440   -39.2520     7.5240     5.9330     6.0420  1369.0480   104.4240     8.1880     2.5420     0.0320     0.2460
 3300.5000  1100.5291   -39.3420     7.8040     6.1210     6.2340  1369.0480   105.1910     8.1780     2.5280     0.0270     0.2380
 3301.0000  1100.6140   -39.4330     7.8040     6.1160     6.2290  1369.0480   103.9070     8.1690     2.5150     0.0220     0.2320
 3301.5000  1100.6990   -39.5230     7.5170     5.9350     6.0440  1369.0480   101.4470     8.1590     2.5190     0.0190     0.2260
 3302.0000  1100.7830   -39.6110     7.1620     5.7540     5.8600  1369.0480    99.6380     8.1500     2.5230     0.0100     0.2200
 3302.5000  1100.8680   -39.7070     6.8070     5.5720     5.6750  1369.0480   100.1490     8.1410     2.5180     0.0120     0.2150
 3303.0000  1100.9530   -39.7910     6.4530     5.3910     5.4900  1369.0480   100.5530     8.1400     2.5140     0.0170     0.2120
 3303.5000  1101.0380   -39.8650     6.0980     5.2100     5.3060  1369.0480   102.8600     8.1440     2.5220     0.0190     0.2120
 3304.0000  1101.1230   -39.6730     5.7950     5.0290     5.1210  1369.0480   104.7710     8.1570     2.5260     0.0220     0.2130
 3304.5000  1101.2070   -39.4800     5.6640     4.8470     4.9370  1369.0480   106.8260     8.1680     2.5210     0.0270     0.2150
 3305.0000  1101.2920   -39.2770     5.5150     4.6660     4.7520  1369.0480   108.3720     8.1800     2.5120     0.0320     0.2170
 3305.5000  1101.3770   -39.0790     5.4050     4.4850     4.5680  1369.0480   108.3820     8.1920     2.5030     0.0290     0.2390
 3306.0000  1101.4620   -38.8750     5.2740     4.3480     4.4290  1369.0480   108.3790     8.2040     2.4940     0.0210     0.2570
 3306.5000  1101.5470   -38.6920     5.1430     4.3480     4.4290  1369.0480   108.5120     8.2150     2.4840     0.0130     0.2580
 3307.0000  1101.6310   -38.4620     5.0130     4.3480     4.4290  1369.0480   106.9460     8.2270     2.4840     0.0090     0.2480
 3307.5000  1101.7159   -38.2760     4.9420     4.3480     4.4290  1369.0480   103.8180     8.2390     2.4910     0.0080     0.2470
 3308.0000  1101.8010   -37.5500     5.0900     4.2480     4.3260  1369.0480   102.9050     8.2510     2.4930     0.0090     0.2480
 3308.5000  1101.8860   -37.6630     5.2200     4.0950     4.1710  1369.0480   106.0390     8.2620     2.4900     0.0040     0.2540
 3309.0000  1101.9709   -37.8090     5.1570     3.9430     4.0150  1369.0480   110.8480     8.2750     2.4890     0.0070     0.2580
 3309.5000  1102.0551   -38.0030     4.9780     3.7900     3.8600  1369.0480   112.2080     8.2850     2.4990     0.0140     0.2590
 3310.0000  1102.1400   -38.1680     4.6670     3.6380     3.7050  1369.0480   110.1990     8.2990     2.5170     0.0260     0.2590
 3310.5000  1102.2250   -38.3420     4.3560     3.4850     3.5500  1369.0480   109.9720     8.3080     2.5360     0.0360     0.2580
 3311.0000  1102.3101   -38.5170     4.0440     3.3330     3.3940  1369.0480   112.3980     8.3440     2.5250     0.0380     0.2580
 3311.5000  1102.3950   -38.6900     3.7330     3.1800     3.2390  1369.0480   114.6240     8.3310     2.5020     0.0160     0.2610
 3312.0000  1102.4790   -38.8600     3.4220     3.0170     3.0730  1369.0480   116.2740     8.3240     2.4710     0.0010     0.2680
 3312.5000  1102.5640   -39.0390     3.1100     2.9630     3.0170  1369.0480   115.4870     8.3150     2.4550    -0.0010     0.2790
 3313.0000  1102.6490   -39.0610     3.0170     3.0980     3.1550  1369.0480   114.7550     8.3060     2.4560     0.0090     0.2870
 3313.5000  1102.7340   -39.0040     3.0170     3.2920     3.3520  1369.0480   113.8900     8.2870     2.4670     0.0200     0.2910
 3314.0000  1102.8180   -38.9560     3.7500     3.4850     3.5500  1369.0480   111.2410     8.2530     2.4690     0.0310     0.2950
 3314.5000  1102.9030   -38.9080     4.4110     3.6790     3.7470  1369.0480   108.5780     8.2200     2.4730     0.0320     0.3000
 3315.0000  1102.9880   -38.8590     5.1260     3.8720     3.9440  1369.0480   105.8340     8.1870     2.4750     0.0260     0.3020
 3315.5000  1103.0730   -38.8110     5.2200     4.0420     4.1160  1369.0480   102.9800     8.1530     2.4840     0.0210     0.3000
 3316.0000  1103.1580   -38.7620     5.6160     4.1160     4.1920  1369.0480   102.2430     8.1390     2.4880     0.0160     0.2960
 3316.5000  1103.2419   -38.7130     5.8250     4.1160     4.1920  1369.0480   102.4150     8.1400     2.4850     0.0120     0.2850
 3317.0000  1103.3270   -38.6650     5.5730     4.1160     4.1920  1369.0480   104.6900     8.1400     2.4740     0.0100     0.2730
 3317.5000  1103.4120   -38.6160     5.2300     4.1160     4.1920  1369.0480   104.4720     8.1400     2.4700     0.0120     0.2710
 3318.0000  1103.4969   -38.5670     4.8860     4.1160     4.1920  1369.0480   103.9160     8.1400     2.4780     0.0140     0.2660
 3318.5000  1103.5820   -38.5190     4.5930     4.1160     4.1920  1369.0480   103.2510     8.1400     2.4920     0.0160     0.2580
 3319.0000  1103.6660   -38.4700     4.5100     4.2700     4.3480  1369.0480   103.0130     8.1400     2.5020     0.0180     0.2490
 3319.5000  1103.7510   -38.4220     4.9590     4.2700     4.3480  1369.0480   105.6250     8.1400     2.5010     0.0100     0.2490
 3320.0000  1103.8361   -38.3740     5.4310     4.1450     4.2210  1369.0480   107.6490     8.1400     2.4960     0.0080     0.2500
