~VERSION INFORMATION
 VERS.                2.0:   CWLS LOG ASCII STANDARD - VERSION 2.0
 WRAP.                 NO:   ONE LINE PER DEPTH STEP
~WELL INFORMATION
#MNEM.UNIT      DATA TYPE    INFORMATION
#----------   ------------   ------------------------------
 STRT.F          210.0000:   START DEPTH
 STOP.F         2998.0000:   STOP DEPTH
 STEP.F            0.5000:   STEP LENGTH
 NULL.          -999.2500:   NO VALUE
 COMP.    FENIX & SCISSON:   COMPANY
 WELL. FENIX & SCISSON "A" #41-28:   WELL
 FLD .          N.P.R. #3:   FIELD
 LOC .      S28 T39N R78W:   LOCATION
 CNTY.            NATRONA:   COUNTY
 STAT.            WYOMING:   STATE
 CTRY. UNITED STATES OF AMERICA:   COUNTRY
 SRVC.       SCHLUMBERGER:   SERVICE COMPANY
 DATE.        08-MAY-1977:   LOGDATE
 API .     49025103670000:   API NUMBER
~CURVE INFORMATION
#MNEM.UNIT       API CODE    CURVE DESCRIPTION
#----------   ------------   ------------------------------
 DEPT.F                  :   
 CALD.IN     45 280 60 00:   CALIPER FROM DENSITY LOG
 GRD .GAPI   45 310 01 00:   GAMMA RAY FROM DENSITY LOG
 CORR.G/C3   45 356 01 00:   DENSITY CORRECTION
 RHOB.G/C3   45 350 01 00:   BULK DENSITY
 SPR .MV     07 010 01 00:   SPONTANEOUS POTENTIAL
 LL8 .OHMM   07 220 08 00:   LATEROLOG-8 RES.
 ILM .OHMM   07 120 44 00:   INDUCTION LOG MEDIUM RESISTIVITY
 ILD .OHMM   07 120 46 00:   DEEP INDUCTION RESISTIVITY
~PARAMETER INFORMATION
#MNEM.UNIT          VALUE    DESCRIPTION
#----------   ------------   ------------------------------
 EKB .F         5012.0000:   Kelly bushing
 EGL .F         5002.0000:   Ground level
 TD  .F         3000.0000:   Total depth
 CLNT.            A2DTECH:   Client Code
 SL  . 330' FNL & 2310' FWL:   Surface Location
 DATE.        08-MAY-1977:   Date Logged [DD-MMM-YYYY]
 DD  .F              3000:   Depth driller
 DL  .F              2999:   Depth logger
 BLI .F              2993:   Bottom log interval
 TLI .F               222:   Top log interval
 CS1 .              8.625:   Casing size
 CBD1.      8.625" @ 112':   Casing driller 1
 CBL1.IN              222:   Casing logger 1
 BS1 .IN            7.875:   Bit size
 BSD1.F              3000:   Depth drilled with bit1
 DFT .                KCL:   Type fluid in hole
 DFD .                8.8:   Density
 DFV .                 32:   Viscosity
 DFPH.                8.0:   pH
 DFL .                8.8:   Fluid loss
 MSS .           FLOWLINE:   Source of sample
 RMS .OHMM          0.124:   Rm
 MST .F                80:   Rm Meas. temp.
 RMF .OHMM          0.117:   Rmf
 MFST.F                80:   Rmf Meas. temp.
 MFSS.               MEAS:   Source Rmf.
 RMB .OHMM         0.0886:   Rm. at BHT
 BHT .F               112:   BHT.
 TCS .HRS            0200:   Time Circ. stopped
 TLAB.HRS            0515:   Time logger at bottom
 MRT .F               112:   Maximum recorded temp.
 LUN .               5642:   Logging unit number
 LUL .               CSPR:   Logging unit location
 ENGI.            MARATIN:   Recorded By
 WITN.         PETTINGILL:   Witnessed by
 ORIG.      2.5" 5" PRINT:   Origin of data
 UWI .     49025103670000:   Unique Well ID
 DICO. A2D TECHNOLOGIES, INC.:   Digitizing Company
 PD  .                 GL:   Permanent Datum
 EPD .               5002:   Elevation Permanent Datum
 LMF .                 KB:   Log Measured From
 DMF .                 KB:   Drilling Measured From
 DAPD.                 10:   Feet Above Permanent Datum
~OTHER INFORMATION
~A   DEPT     CALD         GRD      CORR       RHOB        SPR        LL8        ILM        ILD   
# ...
 2235.0000     9.0093   126.6194     0.1170     2.5253    -9.3364     5.1656     3.8645     4.0049
 2235.5000     9.0107   126.1866     0.1149     2.5239    -9.3287     5.2797     3.9206     4.1090
 2236.0000     9.0272   126.3596     0.1141     2.5249    -9.3747     5.4708     4.0461     4.2140
 2236.5000     9.0137   127.4219     0.1186     2.5323    -9.6789     5.5149     4.1648     4.2731
 2237.0000     9.0152   128.4843     0.1254     2.5309    -9.9236     5.5511     4.2869     4.2737
 2237.5000     9.0167   127.7583     0.1263     2.5250   -10.2881     5.5519     4.4126     4.2743
 2238.0000     9.0181   124.6430     0.1172     2.5184   -10.5255     5.5528     4.5419     4.2162
 2238.5000     9.0043   124.3681     0.1076     2.5125   -10.8265     5.6335     4.6562     4.1589
 2239.0000     9.0211   125.1331     0.1016     2.5102   -10.8928     5.6343     4.6768     4.0857
 2239.5000     9.0226   127.3877     0.1017     2.5049   -11.1976     5.7161     4.7244     3.9913
 2240.0000     9.0241   129.3443     0.1041     2.4880   -11.7294     5.5560     4.7929     4.0104
 2240.5000     9.0106   130.5558     0.1086     2.5091   -12.1151     5.4003     4.7935     4.0480
 2241.0000     9.0270   129.2045     0.1115     2.5159   -12.7284     5.3245     4.7942     4.0485
 2241.5000     9.0435   130.6247     0.1075     2.4808   -13.0329     5.3253     4.7269     4.1054
 2242.0000     9.0449   135.3868     0.1040     2.4936   -13.2419     5.7202     4.7956     4.1287
 2242.5000     9.0464   137.0453     0.1034     2.5019   -13.5429     5.9510     4.8652     4.1878
 2243.0000     9.0479   137.6606     0.1064     2.5042   -13.5339     5.5607     4.9357     4.2476
 2243.5000     9.0344   136.1894     0.1095     2.4976   -13.8362     5.4049     4.9683     4.3681
 2244.0000     9.0359   125.1802     0.1125     2.4939   -13.8271     5.8057     5.0416     4.4018
 2244.5000     9.0374   124.7475     0.1125     2.4948   -13.8194     6.5093     5.0807     4.4637
 2245.0000     9.0392   125.5166     0.1117     2.4978   -13.8117     6.6038     5.0814     4.4643
 2245.5000     9.0407   126.5789     0.1089     2.5031   -13.9260     6.4188     5.1551     4.4970
 2246.0000     9.0268   127.3432     0.1059     2.5092   -14.1050     6.1505     5.1558     4.5906
 2246.5000     9.0287   127.5114     0.1045     2.5033   -14.0972     6.1514     5.1164     4.6551
 2247.0000     9.0152   127.3767     0.1030     2.4922   -14.0895     6.1522     4.9721     4.5210
 2247.5000     9.0167   126.7997     0.1000     2.4699   -14.0818     6.1531     4.8319     4.3963
 2248.0000     9.0028   128.0159     0.1009     2.4976   -14.0741     5.9807     4.5377     4.0008
 2248.5000     9.0047   129.9724     0.1024     2.5022   -14.6621     5.7307     4.1662     3.7344
 2249.0000     9.0061   133.1212     0.1031     2.5187   -15.8959     4.7605     3.8801     3.4380
 2249.5000     9.0076   136.4190     0.1069     2.5285   -16.8217     4.1870     3.6136     3.1651
 2250.0000     9.0091   144.1878     0.1107     2.4770   -17.5926     4.3708     3.4138     2.9954
 2250.5000     8.9978   147.1951     0.1100     2.4794   -17.7392     4.7625     3.1794     2.8733
 2251.0000     8.9855   147.9673     0.1064     2.4661   -17.7315     3.9969     3.0467     2.7563
 2251.5000     8.9732   146.1246     0.1086     2.4587   -17.7238     3.3243     2.9195     2.6809
 2252.0000     8.9608   139.8942     0.1124     2.4730   -17.8849     2.9320     2.8785     2.6805
 2252.5000     8.9578   139.2244     0.1140     2.4858   -18.0170     3.7031     2.8382     2.6801
 2253.0000     8.9446   138.9270     0.1117     2.4919   -18.0092     4.0731     2.7985     2.7171
 2253.5000     8.9468   137.9528     0.1074     2.4928   -18.1811     4.1323     2.7989     2.7545
 2254.0000     8.9486   135.4118     0.1037     2.4914   -18.3024     4.0591     2.8395     2.8312
 2254.5000     8.9504   136.0339     0.1075     2.4877   -18.6034     3.8876     2.8399     2.8701
 2255.0000     8.9522   137.0979     0.1090     2.4848   -18.9044     3.6790     2.8810     2.9096
 2255.5000     8.9540   137.8638     0.1076     2.4842   -19.5125     3.5244     2.9228     2.9497
 2256.0000     8.9558   137.7355     0.1025     2.4887   -20.1221     3.6490     2.9652     2.9904
 2256.5000     8.9576   137.3091     0.1003     2.4904   -20.7317     4.1359     3.0082     2.9899
 2257.0000     8.9593   136.2867     0.1011     2.4882   -21.6499     4.0643     3.0957     2.9895
 2257.5000     8.9611   133.1777     0.1071     2.4958   -22.5682     3.9495     3.1406     3.0306
 2258.0000     8.9629   134.2417     0.1056     2.5026   -23.7951     3.8931     3.1410     3.0302
 2258.5000     8.9647   135.6037     0.1035     2.5064   -24.7134     3.8530     3.1866     3.0298
 2259.0000     8.9515   137.2638     0.1072     2.5110   -25.9402     3.8536     3.1870     2.9878
 2259.5000     8.9234   138.0297     0.1104     2.5134   -26.8585     3.8542     3.2332     2.9874
 2260.0000     8.9252   138.4924     0.1104     2.5066   -27.4681     3.8547     3.2337     2.9870
 2260.5000     8.9270   134.9415     0.1090     2.4954   -28.0777     3.8553     3.2341     2.9866
 2261.0000     8.9288   133.3229     0.1053     2.4910   -28.6873     3.8558     3.2331     3.0277
 2261.5000     8.9306   133.9398     0.0986     2.4828   -29.6056     3.8564     3.1893     3.0273
 2262.0000     8.9323   135.7489     0.0979     2.4764   -30.2152     3.8350     3.1897     3.0690
 2262.5000     8.9341   136.0625     0.1017     2.4830   -30.5170     3.8028     3.2360     3.1545
 2263.0000     8.9359   133.7040     0.0994     2.4927   -30.5085     3.7799     3.2364     3.1979
 2263.5000     8.9377   134.9170     0.0957     2.4977   -30.1922     3.7260     3.2423     3.1974
 2264.0000     8.9395   137.3222     0.0900     2.4918   -29.8759     3.6973     3.2838     3.1970
 2264.5000     8.9413   137.7849     0.0900     2.5039   -29.2509     4.1138     3.2843     3.1527
 2265.0000     8.9431   135.7243     0.0930     2.5160   -28.6260     4.8175     3.2848     3.1091
 2265.5000     8.9449   131.4232     0.1014     2.5280   -28.3097     5.2888     3.2853     3.0240
 2266.0000     8.9467   128.0110     0.1141     2.5057   -27.9933     5.0228     3.2301     2.9009
 2266.5000     8.9485   131.4647     0.1096     2.4878   -27.9857     4.6077     3.1390     2.8214
 2267.0000     8.9503   133.5719     0.1082     2.4804   -28.2870     4.2269     3.0073     2.7442
 2267.5000     8.9521   134.6358     0.1165     2.4858   -28.2790     3.7916     2.9225     2.6691
 2268.0000     8.9539   132.8682     0.1177     2.5023   -28.5802     3.2932     2.8400     2.6321
 2268.5000     8.9406   135.2734     0.1159     2.5106   -28.2636     3.6496     2.7996     2.6318
 2269.0000     8.9575   137.8277     0.1130     2.4935   -27.9473     3.7559     2.7714     2.5953
 2269.5000     8.9442   140.5310     0.1107     2.4906   -27.6310     3.7032     2.7718     2.6310
 2270.0000     8.9310   140.7303     0.1079     2.5005   -27.0060     3.3039     2.7854     2.6673
 2270.5000     8.9333   141.9138     0.1064     2.5050   -26.3811     3.1209     2.8124     2.7416
 2271.0000     8.9351   144.4681     0.1058     2.5074   -25.7561     3.3523     2.8276     2.8571
 2271.5000     8.9369   147.1714     0.1058     2.5105   -24.8222     3.6010     2.8852     3.0609
 2272.0000     8.9232   145.0944     0.1059     2.5166   -23.8846     3.6533     2.9959     3.2343
 2272.5000     8.9255   143.9342     0.1081     2.5181   -22.9476     3.7063     3.1280     3.4175
 2273.0000     8.9273   145.0310     0.1113     2.5227   -22.3187     3.8143     3.2604     3.6111
 2273.5000     8.9291   144.5149     0.1136     2.5386   -21.6904     4.1560     3.4547     3.8157
 2274.0000     8.9458   140.6469     0.1151     2.5499   -21.0615     4.9336     3.6606     4.0318
 2274.5000     8.9476   137.6303     0.1166     2.5590   -20.4331     5.7735     3.9355     4.2017
 2275.0000     8.9195   133.8835     0.1158     2.5666   -20.1131     6.2017     4.1679     4.2012
