~VERSION INFORMATION
 VERS.                2.0:   CWLS LOG ASCII STANDARD - VERSION 2.0
 WRAP.                 NO:   ONE LINE PER DEPTH STEP
~WELL INFORMATION
#MNEM.UNIT      DATA TYPE    INFORMATION
#----------   ------------   ------------------------------
 STRT.F          199.5000:   START DEPTH
 STOP.F         2983.0000:   STOP DEPTH
 STEP.F            0.5000:   STEP LENGTH
 NULL.          -999.2500:   NO VALUE
 COMP.    FENIX & SCISSON:   COMPANY
 WELL. FENIX (UE-49) "AX" #52-29:   WELL
 FLD . U.S. NAVAL PETROLEUM RESERVE #3:   FIELD
 LOC .      S29 T39N R78W:   LOCATION
 CNTY.            NATRONA:   COUNTY
 STAT.            WYOMING:   STATE
 CTRY. UNITED STATES OF AMERICA:   COUNTRY
 SRVC.           BIRDWELL:   SERVICE COMPANY
 DATE.        07-AUG-1977:   LOGDATE
 API .     49025104090000:   API NUMBER
~CURVE INFORMATION
#MNEM.UNIT       API CODE    CURVE DESCRIPTION
#----------   ------------   ------------------------------
 DEPT.F                  :   
 GRD .GAPI   45 310 01 00:   GAMMA RAY FROM DENSITY LOG
 CALD.IN     45 280 60 00:   CALIPER FROM DENSITY LOG
 DEN .G/C3   45 350 01 00:   BULK DENSITY
 DCOR.G/C3   45 356 01 00:   DENSITY CORRECTION
 SN  .OHMM   05 040 16 00:   SHORT NORMAL 16"
 ILD .OHMM   05 120 46 00:   INDUCTION LOG DEEP RESISTIVITY
~PARAMETER INFORMATION
#MNEM.UNIT          VALUE    DESCRIPTION
#----------   ------------   ------------------------------
 EKB .F         4995.0000:   Kelly bushing
 EGL .F         4985.0000:   Ground level
 EDF .F            0.0000:   Drilling floor
 TD  .F         2973.0000:   Total depth
 DATE.         7-AUG-1977:   Date logged
 CLNT.            A2DTECH:   Client Code
 SL  . 1400' FNL & 2380' FEL:   Surface Location
 PD  .                 GL:   Permanent Datum
 EPD .F              4985:   Elevation Permanent Datum
 LMF .                 KB:   Log Measured From
 DMF .                 KB:   Drilling Measured From
 DAPD.F                10:   Feet Above Permanent Datum
 DD  .F              2972:   Depth driller
 DL  .F              2973:   Depth logger
 BLI .F              2968:   Bottom log interval
 TLI .F               216:   Top log interval
 CS1 .IN            8.625:   Casing size
 CBD1.      8.625" @ 216':   Casing driller 1
 CBL1.F               216:   Casing logger 1
 BS1 .IN            7.875:   Bit size
 BSD1.F              2972:   Depth drilled with bit1
 DFT .            GEL-KCL:   Type fluid in hole
 DFD .                8.9:   Density
 DFV .                 33:   Viscosity
 DFL .                  9:   Fluid loss
 MSS .            MUD PIT:   Source of sample
 RMS .OHMM           0.26:   Rm
 MST .F                73:   Rm Meas. temp.
 RMF .OHMM           0.26:   Rmf
 MFST.F                72:   Rmf Meas. temp.
 RMC .OHMM           0.96:   Rmc
 MCST.F                72:   Rmc Meas. temp.
 MFSS.              PRESS:   Source Rmf.
 RMB .OHMM           0.14:   Rm. at BHT
 BHT .F               130:   BHT.
 TCS .HRS               5:   Time Circ. stopped
 MRT .F               130:   Maximum recorded temp.
 LUN .               2958:   Logging unit number
 LUL .             CASPER:   Logging unit location
 ENGI.                LAW:   Recorded By
 WITN.             RHODES:   Witnessed by
 ORIG.           5" PRINT:   Origin of data
 UWI .     49025104090000:   Unique Well ID
 DICO. A2D TECHNOLOGIES, INC.:   Digitizing Company
~OTHER INFORMATION
~A   DEPT       GRD      CALD        DEN       DCOR         SN        ILD   
# ...
 2747.5000    70.6910     8.8130     2.5560     0.0130     5.7180     5.6620
 2748.0000    72.2570     8.8020     2.5580     0.0120     5.9210     5.9110
 2748.5000    65.9670     8.7910     2.5550     0.0140     6.1250     6.1610
 2749.0000    69.1710     8.7800     2.5470     0.0120     6.2520     6.3100
 2749.5000    74.3230     8.7690     2.5470     0.0160     6.3450     6.4480
 2750.0000    71.6220     8.7580     2.5530     0.0170     6.4370     6.5980
 2750.5000    68.2010     8.8060     2.5580     0.0160     6.5380     6.7850
 2751.0000    66.4700     8.8550     2.5490     0.0160     6.5990     6.9080
 2751.5000    71.0710     8.8580     2.5550     0.0200     6.6660     6.9080
 2752.0000    68.5340     8.8610     2.5620     0.0160     6.7330     6.9710
 2752.5000    65.9360     8.8630     2.5580     0.0130     6.8000     7.1500
 2753.0000    66.6070     8.8650     2.5510     0.0120     6.8500     7.3440
 2753.5000    70.4670     8.8670     2.5450     0.0100     6.8670     7.5020
 2754.0000    75.6920     8.8700     2.5460     0.0120     6.8840     7.5020
 2754.5000    76.7080     8.8720     2.5420     0.0140     6.9080     7.5330
 2755.0000    73.5440     8.8740     2.5430     0.0130     6.8990     7.7350
 2755.5000    73.6140     8.8640     2.5360     0.0150     6.8840     7.9380
 2756.0000    71.7420     8.8390     2.5360     0.0250     6.8690     8.1470
 2756.5000    69.4440     8.9600     2.5410     0.0380     6.8550     7.9480
 2757.0000    67.2570     9.0550     2.5510     0.0460     6.7770     7.7190
 2757.5000    68.5870     9.1370     2.5760     0.0330     6.5980     7.3730
 2758.0000    71.5750     9.1620     2.5640     0.0230     6.5650     6.8870
 2758.5000    70.7150     9.1590     2.5480     0.0340     6.5380     6.5380
 2759.0000    71.0530     9.1960     2.5490     0.0490     6.4040     6.5990
 2759.5000    75.4130     9.2470     2.5700     0.0570     6.2700     6.6590
 2760.0000    73.8070     9.2430     2.5790     0.0460     5.9990     6.3830
 2760.5000    77.7690     9.2310     2.5550     0.0230     5.6970     5.9350
 2761.0000    82.3230     9.2180     2.5290     0.0240     5.3950     5.4460
 2761.5000    81.0440     9.1610     2.5180     0.0290     5.1480     4.9500
 2762.0000    85.5810     8.9940     2.5230     0.0340     4.9140     4.4900
 2762.5000    84.4110     8.8500     2.5300     0.0240     4.7380     4.7440
 2763.0000   101.6270     8.8560     2.5270     0.0240     4.6580     4.7440
 2763.5000   118.7370     8.8560     2.5280     0.0220     4.7880     4.7440
 2764.0000   107.5550     8.8560     2.5200     0.0220     4.8760     5.0420
 2764.5000    92.0180     8.8560     2.5140     0.0340     5.3240     5.4900
 2765.0000    76.2120     8.8560     2.5320     0.0400     5.7460     5.9380
 2765.5000    65.2470     8.8560     2.5580     0.0210     6.1700     6.3860
 2766.0000    66.3120     8.8550     2.5760     0.0180     6.4160     6.8340
 2766.5000    67.0410     8.8710     2.5780     0.0170     6.5980     7.7820
 2767.0000    66.1480     8.8900     2.5750     0.0160     6.5450     7.7420
 2767.5000    65.5020     8.8790     2.5620     0.0180     6.4850     7.5980
 2768.0000    61.2540     8.9890     2.5560     0.0200     6.4250     7.2340
 2768.5000    63.2440     9.0150     2.5580     0.0170     6.3610     6.8690
 2769.0000    64.0390     9.0170     2.5540     0.0190     6.2250     6.4790
 2769.5000    65.0110     9.0190     2.5570     0.0250     6.0780     6.3230
 2770.0000    66.9850     9.0210     2.5610     0.0190     5.9300     6.2400
 2770.5000    68.4630     9.0230     2.5570     0.0200     5.7830     6.2250
 2771.0000    68.8280     9.0250     2.5460     0.0150     5.6350     6.2100
 2771.5000    72.1210     9.0260     2.5370     0.0110     5.4880     6.1950
 2772.0000    77.0440     9.0280     2.5280     0.0240     5.3400     5.8390
 2772.5000    73.1840     9.0300     2.5370     0.0250     5.1470     5.2150
 2773.0000    74.4420     9.0320     2.5410     0.0260     4.8400     4.5920
 2773.5000    76.7920     9.0240     2.5310     0.0270     4.3690     4.1350
 2774.0000    82.9120     8.9760     2.5230     0.0250     4.1380     3.6250
 2774.5000    91.4780     8.9890     2.4990     0.0220     3.9020     3.1120
 2775.0000   105.2350     9.0040     2.4880     0.0210     3.4900     2.9730
 2775.5000   127.3410     9.0070     2.4550     0.0270     3.2880     3.1000
 2776.0000   140.7840     8.9900     2.4210     0.0400     3.3470     3.2050
 2776.5000   133.2570     8.9750     2.4120     0.0660     3.4420     3.3090
 2777.0000   107.6560     8.9850     2.4240     0.1020     3.7310     3.4060
 2777.5000    82.7510     8.9960     2.4630     0.0890     4.0800     3.9210
 2778.0000    73.7050     9.0070     2.5500     0.0430     4.6520     4.6840
 2778.5000    72.5120     9.0140     2.5440     0.0070     5.1990     5.4480
 2779.0000    73.6610     9.0150     2.5370     0.0070     5.8650     6.2110
 2779.5000    73.6870     9.0160     2.5380     0.0030     6.0020     6.8530
 2780.0000    74.7430     9.0180     2.5330    -0.0020     6.1070     7.1660
 2780.5000    72.6850     9.0190     2.5270     0.0010     6.1750     6.9550
 2781.0000    71.6570     9.0200     2.5280     0.0130     6.2440     6.6410
 2781.5000    72.8550     9.0210     2.5360     0.0210     6.3120     6.5380
 2782.0000    80.3560     9.0220     2.5470     0.0240     6.3700     6.6250
 2782.5000    77.5430     9.0230     2.5590     0.0240     6.4030     6.6930
 2783.0000    75.8460     9.0240     2.5600     0.0190     6.4360     6.7620
 2783.5000    81.9720     9.0250     2.5570     0.0140     6.4790     6.8360
 2784.0000    78.8250     9.0260     2.5480     0.0120     6.4780     6.9430
 2784.5000    74.0690     9.0270     2.5390     0.0160     6.4790     7.0500
 2785.0000    75.0770     9.0290     2.5440     0.0190     6.4790     7.1660
 2785.5000    80.0550     9.0300     2.5480     0.0180     6.4790     7.1030
 2786.0000    77.7270     9.0310     2.5390     0.0280     6.4790     7.0350
 2786.5000    79.7640     9.0320     2.5420     0.0390     6.4750     6.9660
 2787.0000    73.7810     9.0330     2.5520     0.0480     6.4470     6.9080
 2787.5000    72.3230     9.0400     2.5610     0.0480     6.4200     7.0110
 2788.0000    74.3120     9.0540     2.5560     0.0460     6.5070     7.1020
 2788.5000    79.3400     9.0680     2.5500     0.0460     6.6000     7.2320
 2789.0000    80.6970     9.1140     2.5440     0.0640     6.6920     7.1890
 2789.5000    74.0120     9.1710     2.5600     0.0730     6.7850     7.1130
 2790.0000    76.0120     9.1620     2.5830     0.0570     6.8780     7.0360
 2790.5000    75.4940     9.1480     2.5710     0.0430     6.9710     6.9380
 2791.0000    80.0530     9.0850     2.5550     0.0470     6.7500     6.8380
 2791.5000    87.3940     8.9170     2.5400     0.0550     6.5530     6.7380
 2792.0000    88.5900     8.6860     2.5550     0.0430     6.3030     6.6380
 2792.5000    91.6750     8.5680     2.5650     0.0260     6.3230     6.5380
 2793.0000    87.3090     8.5770     2.5560     0.0200     6.3570     6.4390
 2793.5000    82.9920     8.5170     2.5450     0.0190     6.3910     6.3610
 2794.0000    86.3140     8.4880     2.5480     0.0190     6.4250     6.4660
 2794.5000    87.8840     8.4700     2.5500     0.0230     6.4590     6.5420
 2795.0000    81.7490     8.4520     2.5480     0.0220     6.4980     6.6170
 2795.5000    79.3560     8.4330     2.5530     0.0210     6.5790     6.6590
 2796.0000    79.4090     8.4240     2.5540     0.0170     6.6600     6.9600
 2796.5000    78.9010     8.4400     2.5480     0.0100     6.8030     7.2320
 2797.0000    79.2740     8.4410     2.5390     0.0110     7.1260     7.5320
 2797.5000    76.9500     8.4410     2.5370     0.0140     7.4080     7.8170
 2798.0000    74.3750     8.4410     2.5460     0.0160     7.6430     8.3100
 2798.5000    72.5280     8.4410     2.5550     0.0180     7.8780     8.8340
 2799.0000    72.7290     8.4410     2.5550     0.0200     8.0500     9.3580
