~VERSION INFORMATION
 VERS.                2.0:   CWLS LOG ASCII STANDARD - VERSION 2.0
 WRAP.                 NO:   ONE LINE PER DEPTH STEP
~WELL INFORMATION
#MNEM.UNIT      DATA TYPE    INFORMATION
#----------   ------------   ------------------------------
 STRT.F          190.0000:   START DEPTH
 STOP.F         3050.0000:   STOP DEPTH
 STEP.F            0.5000:   STEP LENGTH
 NULL.          -999.2500:   NO VALUE
 COMP.    FENIX & SCISSON:   COMPANY
 WELL. FENIX NPR 3 "AX" #86-29:   WELL
 FLD .      NPR - WILDCAT:   FIELD
 LOC .      S29 T39N R78W:   LOCATION
 CNTY.            NATRONA:   COUNTY
 STAT.            WYOMING:   STATE
 CTRY. UNITED STATES OF AMERICA:   COUNTRY
 SRVC.              WELEX:   SERVICE COMPANY
 DATE.        24-JUN-1977:   LOGDATE
 API .     49025103830000:   API NUMBER
~CURVE INFORMATION
#MNEM.UNIT       API CODE    CURVE DESCRIPTION
#----------   ------------   ------------------------------
 DEPT.F                  :   
 SPR .MV     07 010 01 00:   SPONTANEOUS POTENTIAL
 ILD .OHMM   07 120 46 00:   DEEP INDUCTION RESISTIVITY
 ILM .OHMM   07 120 44 00:   INDUCTION LOG MEDIUM RESISTIVITY
 SGRD.OHMM   07 220 05 00:   SHALLOW SHORT GUARD RESISTIVITY
 GRD .GAPI   45 310 01 00:   GAMMA RAY FROM DENSITY LOG
 CALD.IN     45 280 60 00:   CALIPER FROM DENSITY LOG
 RHOB.G/C3   45 350 01 00:   BULK DENSITY
 CORR.G/C3   45 356 01 00:   DENSITY CORRECTION
~PARAMETER INFORMATION
#MNEM.UNIT          VALUE    DESCRIPTION
#----------   ------------   ------------------------------
 EKB .F         5056.0000:   Kelly bushing
 EGL .F         5046.0000:   Ground level
 EDF .F            0.0000:   Drilling floor
 TD  .F         3051.0000:   Total depth
 DATE.        24-JUN-1977:   Date logged
 CLNT.            A2DTECH:   Client Code
 SL  . 1746' FSL & 534' FEL:   Surface Location
 PD  .                 GL:   Permanent Datum
 EPD .F              5046:   Elevation Permanent Datum
 LMF .                 KB:   Log Measured From
 DMF .                 KB:   Drilling Measured From
 DAPD.F                10:   Feet Above Permanent Datum
 DD  .F              3038:   Depth driller
 DL  .F              3051:   Depth logger
 BLI .F              3049:   Bottom log interval
 TLI .F               200:   Top log interval
 CS1 .IN            8.625:   Casing size
 CBD1.      8.625" @ 217':   Casing driller 1
 CBL1.F               213:   Casing logger 1
 BS1 .IN            7.875:   Bit size
 BSD1.F              3038:   Depth drilled with bit1
 DFT .            KCL/MUD:   Type fluid in hole
 DFD .                8.7:   Density
 DFV .                134:   Viscosity
 DFPH.                7.5:   pH
 DFL .                7.2:   Fluid loss
 MSS .           FLOWLINE:   Source of sample
 RMS .OHMM            .62:   Rm
 MST .F                82:   Rm Meas. temp.
 RMF .OHMM            .28:   Rmf
 MFST.F                82:   Rmf Meas. temp.
 RMC .OHMM            .78:   Rmc
 MCST.F                82:   Rmc Meas. temp.
 MFSS.               MEAS:   Source Rmf.
 MCSS.               MEAS:   Source Rmc.
 RMB .OHMM            .45:   Rm. at BHT
 BHT .F               111:   BHT.
 TCS .HRS               2:   Time Circ. stopped
 MRT .F               111:   Maximum recorded temp.
 LUN .               8766:   Logging unit number
 LUL .             CASPER:   Logging unit location
 ENGI.          D. LAWSON:   Recorded By
 WITN.      B. HARRINGTON:   Witnessed by
 ORIG.           5" PRINT:   Origin of data
 UWI .     49025103830000:   Unique Well ID
 DICO. A2D TECHNOLOGIES, INC.:   Digitizing Company
~OTHER INFORMATION
~A   DEPT      SPR        ILD        ILM       SGRD        GRD       CALD         RHOB      CORR  
# ...
 2093.5000   -61.4470     8.4840     9.6790    14.9160    73.3610     8.1160     2.4640    -0.0060
 2094.0000   -61.4340     8.5240     9.7120    14.2600    73.0130     8.1160     2.4610    -0.0050
 2094.5000   -61.4210     8.5630     9.7450    13.3630    72.3750     8.1170     2.4560    -0.0040
 2095.0000   -61.4070     8.6050     9.7790    13.3630    71.8220     8.1180     2.4490    -0.0040
 2095.5000   -61.3940     8.5960     9.8120    13.6510    71.3660     8.1180     2.4420    -0.0060
 2096.0000   -61.3810     8.5830     9.8450    14.0990    70.8680     8.1190     2.4350    -0.0070
 2096.5000   -61.3680     8.5690     9.8760    14.5900    70.0980     8.1200     2.4350    -0.0080
 2097.0000   -61.3920     8.5560     9.5650    16.3480    68.5110     8.1210     2.4400    -0.0090
 2097.5000   -61.4500     8.5430     9.2780    16.1570    66.9420     8.1220     2.4460    -0.0070
 2098.0000   -61.5080     8.5300     8.9920    15.9050    65.3730     8.1230     2.4450    -0.0060
 2098.5000   -61.5650     8.4400     8.8150    13.9250    63.8020     8.1240     2.4420    -0.0110
 2099.0000   -61.6230     8.3410     8.7060    12.6480    62.2340     8.1250     2.4440    -0.0180
 2099.5000   -61.6810     8.2420     8.6070    13.1200    60.6730     8.1260     2.4470    -0.0190
 2100.0000   -61.7390     8.1430     8.6510    12.5330    59.1970     8.1270     2.4470    -0.0190
 2100.5000   -61.7970     8.0440     8.6910    12.8810    57.6840     8.1270     2.4440    -0.0190
 2101.0000   -61.8550     7.9450     8.7300    13.1200    56.2440     8.1280     2.4400    -0.0190
 2101.5000   -61.9130     7.8530     8.7700    12.1280    54.8050     8.1290     2.4360    -0.0190
 2102.0000   -61.9710     7.7780     8.8100    11.5400    53.3560     8.1300     2.4320    -0.0190
 2102.5000   -62.0290     7.7090     8.8470    12.9130    52.0270     8.1310     2.4310    -0.0180
 2103.0000   -62.0860     7.6390     8.6890    13.3210    51.7140     8.1320     2.4320    -0.0170
 2103.5000   -62.1440     7.5690     8.4990    13.4730    51.9380     8.1330     2.4330    -0.0150
 2104.0000   -62.2020     7.5020     8.2580    12.8200    52.1420     8.1340     2.4340    -0.0130
 2104.5000   -62.2600     7.3850     8.0160    12.1930    52.3370     8.1350     2.4350    -0.0110
 2105.0000   -62.3170     7.2460     7.9260    10.2440    52.5280     8.1360     2.4360    -0.0080
 2105.5000   -62.3520     7.1070     7.9260    11.5400    52.7640     8.1340     2.4370    -0.0070
 2106.0000   -62.3520     6.9680     7.1660    10.6150    53.0720     8.1310     2.4380    -0.0070
 2106.5000   -62.3520     6.8280     7.0050    10.4340    53.3840     8.1290     2.4380    -0.0070
 2107.0000   -62.3520     6.6890     6.9110     9.8950    53.7120     8.1260     2.4390    -0.0070
 2107.5000   -62.3520     6.6590     6.9370     9.2160    53.1840     8.1230     2.4400    -0.0070
 2108.0000   -62.3520     6.6660     6.9580     8.9290    52.5360     8.1210     2.4400    -0.0070
 2108.5000   -62.3520     6.7030     6.9950     9.2060    51.8890     8.1180     2.4410    -0.0070
 2109.0000   -62.3520     6.7400     7.0600    10.8830    51.4910     8.1160     2.4390    -0.0080
 2109.5000   -62.3520     6.7780     7.1260    12.7030    52.1170     8.1160     2.4360    -0.0090
 2110.0000   -62.3520     6.8150     7.1910    14.9160    52.7230     8.1160     2.4320    -0.0110
 2110.5000   -62.3520     6.8520     7.2560    14.9160    52.9780     8.1160     2.4270    -0.0120
 2111.0000   -62.3520     6.8900     7.3210    13.0910    53.8640     8.1160     2.4220    -0.0140
 2111.5000   -62.3520     6.9080     7.3650    11.7230    54.7710     8.1160     2.4130    -0.0150
 2112.0000   -62.3520     6.6660     7.0350    10.6210    55.8880     8.1160     2.4060    -0.0160
 2112.5000   -62.3520     6.4830     6.7840     9.4360    57.3330     8.1160     2.4060    -0.0170
 2113.0000   -62.3520     6.2990     6.5330     8.2500    58.7680     8.1160     2.4140    -0.0150
 2113.5000   -62.3520     6.1160     6.3030     7.1000    59.6530     8.1160     2.4220    -0.0130
 2114.0000   -62.3520     6.0050     6.2450     7.5760    59.5260     8.1160     2.4270    -0.0110
 2114.5000   -62.3520     5.9730     6.7990     8.8130    58.8690     8.1160     2.4310    -0.0090
 2115.0000   -62.3520     5.9410     7.0520    10.0510    58.2170     8.1160     2.4340    -0.0070
 2115.5000   -62.3520     5.9110     7.1660    11.2880    57.5610     8.1160     2.4370    -0.0050
 2116.0000   -62.3520     5.9540     6.7760    12.1930    57.4230     8.1160     2.4420    -0.0030
 2116.5000   -62.3520     5.9940     6.4190    10.3140    57.6510     8.1160     2.4480    -0.0010
 2117.0000   -62.3520     6.0350     6.4790     8.1470    57.8740     8.1160     2.4500     0.0010
 2117.5000   -62.3520     6.0760     6.6210     8.8970    57.8600     8.1160     2.4520     0.0020
 2118.0000   -62.3360     6.1160     6.7590    10.1510    56.4690     8.1160     2.4550     0.0040
 2118.5000   -62.3110     6.2160     6.8970     9.4530    55.0790     8.1160     2.4620     0.0050
 2119.0000   -62.2860     6.3550     7.0360     9.1770    53.6670     8.1160     2.4680     0.0070
 2119.5000   -62.2610     6.4940     7.4630     9.4760    53.4050     8.1160     2.4740     0.0080
 2120.0000   -62.2360     6.6330     7.8920    10.6270    53.7510     8.1160     2.4800     0.0080
 2120.5000   -62.2110     6.7720     8.3220    12.2780    54.1100     8.1170     2.4860     0.0070
 2121.0000   -62.1850     6.9100     8.7660    14.3990    54.4680     8.1190     2.4900     0.0070
 2121.5000   -62.1600     7.0630     8.7660    15.6330    54.8300     8.1210     2.4900     0.0060
 2122.0000   -62.1350     7.2270     8.5710    13.6610    54.8050     8.1230     2.4900     0.0030
 2122.5000   -62.1100     7.3900     8.3660    11.8150    54.4020     8.1250     2.4900    -0.0010
 2123.0000   -62.0850     7.4330     8.1470    11.1250    54.0090     8.1260     2.4900     0.0000
 2123.5000   -62.0600     7.4330     8.1470    11.1620    53.6160     8.1280     2.4930     0.0020
 2124.0000   -62.0350     7.4350     8.1470    11.2280    53.2260     8.1300     2.5010     0.0050
 2124.5000   -62.0100     7.4510     8.1470    11.1070    53.0220     8.1320     2.5100     0.0100
 2125.0000   -61.9840     7.4670     8.1470    10.9230    53.6950     8.1330     2.5160     0.0170
 2125.5000   -61.9590     7.4840     8.2590    11.2790    54.3710     8.1350     2.5240     0.0240
 2126.0000   -61.9340     7.5000     8.3620    11.9950    55.0450     8.1370     2.5270     0.0240
 2126.5000   -61.9090     7.5630     8.5300    13.3630    55.7190     8.1380     2.5270     0.0240
 2127.0000   -61.8840     7.6330     8.7660    13.2410    56.3930     8.1390     2.5240     0.0230
 2127.5000   -61.8590     7.7030     8.6740    12.7360    57.0670     8.1400     2.5170     0.0220
 2128.0000   -61.8340     7.7730     8.5350    12.4180    57.7410     8.1410     2.5100     0.0200
 2128.5000   -61.8080     7.8420     8.3740    12.4180    58.4150     8.1420     2.5000     0.0140
 2129.0000   -61.7830     7.8530     8.6160    11.8310    59.0890     8.1430     2.4890     0.0080
 2129.5000   -61.7620     7.8530     8.9030    11.1250    59.7630     8.1440     2.4780     0.0020
 2130.0000   -61.8340     7.8530     9.0110    11.9270    60.4360     8.1460     2.4660    -0.0020
 2130.5000   -61.9090     7.7980     9.0940    14.5120    61.1000     8.1470     2.4590    -0.0040
 2131.0000   -61.9830     7.6630     8.8890    14.5120    61.6650     8.1480     2.4600    -0.0060
 2131.5000   -62.0570     7.5290     8.6860    13.6100    62.6380     8.1490     2.4610    -0.0070
 2132.0000   -62.1310     7.3940     8.3730    12.3320    63.6240     8.1500     2.4630    -0.0070
 2132.5000   -62.2050     7.2740     8.0590    11.2310    64.6070     8.1510     2.4640    -0.0070
 2133.0000   -62.2790     7.1160     7.6900    10.4240    65.5870     8.1520     2.4640    -0.0070
 2133.5000   -62.3530     6.9590     7.2800     9.6170    66.5690     8.1540     2.4650    -0.0070
