~VERSION INFORMATION
 VERS.                2.0:   CWLS LOG ASCII STANDARD - VERSION 2.0
 WRAP.                 NO:   ONE LINE PER DEPTH STEP
~WELL INFORMATION
#MNEM.UNIT      DATA TYPE    INFORMATION
#----------   ------------   ------------------------------
 STRT.F            0.0000:   START DEPTH
 STOP.F         4152.0000:   STOP DEPTH
 STEP.F            0.5000:   STEP LENGTH
 NULL.          -999.2500:   NO VALUE
 COMP. LAWRENCE ALLISON & ASSOCIATES:   COMPANY
 WELL. LAWRENCE "X" #28-27:   WELL
 FLD .             NPR #3:   FIELD
 LOC .      S27 T39N R78W:   LOCATION
 CNTY.            NATRONA:   COUNTY
 STAT.            WYOMING:   STATE
 CTRY. UNITED STATES OF AMERICA:   COUNTRY
 SRVC.      DRESSER ATLAS:   SERVICE COMPANY
 DATE.        26-FEB-1984:   LOGDATE
 API .     49025109630000:   API NUMBER
~CURVE INFORMATION
#MNEM.UNIT       API CODE    CURVE DESCRIPTION
#----------   ------------   ------------------------------
 DEPT.F                  :   
 GRR .GAPI   07 310 01 00:   GAMMA RAY FROM RES.
 TENR.LBS    07 635 01 00:   TENSION FROM RES.
 SPR .MV     07 010 01 00:   SPONTANEOUS POTENTIAL
 RILD.OHMM   07 120 46 00:   RESISTIVITY INDUCTION LOG DEEP
 RILM.OHMM   07 120 44 00:   RESISTIIVTY INDUCTION LOG MEDIUM
 RFOC.OHMM   07 220 04 00:   RESISTIVITY FOCUSED LOG
 DT  .US/F   60 520 00 00:   DELTA TIME
 TENS.LBS    60 635 01 00:   TENSION FROM SONIC
 CALD.IN     45 280 60 00:   CALIPER FROM DENSITY LOG
 TEND.LBS    45 635 01 00:   TENSION FORM DENSITY LOG
 CNC .DEC    42 890 03 00:   NEUTRON POROSITY SANDSTONE
 CORR.G/C3   45 356 01 00:   DENSITY CORRECTION
 DENS.G/C3   45 350 01 00:   DENSITY
~PARAMETER INFORMATION
#MNEM.UNIT          VALUE    DESCRIPTION
#----------   ------------   ------------------------------
 EKB .F         5088.0000:   Kelly bushing
 EGL .F         5078.0000:   Ground level
 EDF .F            0.0000:   Drilling floor
 TD  .F         4154.0000:   Total depth
 CLNT.            A2DTECH:   Client Code
 SL  . 250' FSL & 810' FWL:   Surface Location
 PD  .                 GL:   Permanent Datum
 EPD .F              5078:   Elevation Permanent Datum
 LMF .                 KB:   Log Measured From
 DMF .                 KB:   Drilling Measured From
 DAPD.F                10:   Feet Above Permanent Datum
 DATE.        26-FEB-1984:   Date Logged [DD-MMM-YYYY]
 DD  .F              4154:   Depth driller
 DL  .F              4148:   Depth logger
 BLI .F              4146:   Bottom log interval
 TLI .F                 0:   Top log interval
 CS1 .IN            8.625:   Casing size
 CBD1.      8.625" @ 537':   Casing driller 1
 CBL1.F               540:   Casing logger 1
 BS1 .IN            7.875:   Bit size
 BSD1.F              4154:   Depth drilled with bit1
 DFT .            GEL KCL:   Type fluid in hole
 DFD .                  9:   Density
 DFV .                 45:   Viscosity
 DFPH.                  8:   pH
 DFL .                 14:   Fluid loss
 MSS .           FLOWLINE:   Source of sample
 RMS .OHMM          0.595:   Rm
 MST .F                60:   Rm Meas. temp.
 RMF .OHMM          0.446:   Rmf
 MFST.F                60:   Rmf Meas. temp.
 MFSS.               CALC:   Source Rmf.
 RMC .OHMM          0.744:   Rmc
 MCST.F                60:   Rmc Meas. temp.
 MCSS.               CALC:   Source Rmc.
 RMB .OHMM           0.26:   Rm. at BHT
 BHT .F               138:   BHT.
 TCS .HRS               4:   Time Circ. stopped
 MRT .F               138:   Maximum recorded temp.
 LUN .               6307:   Logging unit number
 LUL .               GLTE:   Logging unit location
 ENGI.           FAHLSING:   Recorded By
 WITN.           JENNINGS:   Witnessed by
 ORIG.      1" 2.5" PRINT:   Origin of data
 UWI .     49025109630000:   Unique Well ID
 DICO. A2D TECHNOLOGIES, INC.:   Digitizing Company
~OTHER INFORMATION
~A    DEPT       GRR     TENR        SPR       RILD       RILM       RFOC         DT       TENS       CALD       TEND        CNC       CORR       DENS   
# ...
 2444.0000   100.3461   -35.7988   -22.8923     5.0956     5.0629     4.5611    89.2788   -60.4956     8.8921   -20.0106     0.2102     0.1053     2.5560
 2444.5000   102.1456   -36.3906   -22.8657     5.0975     5.0656     4.9812    88.0547   -60.4956     8.9226   -19.9963     0.2132     0.0713     2.5562
 2445.0000   105.4296   -36.9821   -22.5744     5.0996     5.0421     4.7841    86.4843   -60.4956     8.9227   -20.0000     0.2170     0.0620     2.5502
 2445.5000   108.9227   -37.6851   -22.4421     5.0323     4.9350     4.5235    85.9107   -60.4956     8.9229   -20.0000     0.2252     0.0690     2.5367
 2446.0000   109.0130   -38.2293   -22.2540     5.1038     4.9380     4.2802    87.9619   -60.4956     8.9231   -20.0000     0.2244     0.0901     2.5230
 2446.5000   106.9790   -38.7734   -21.6492     5.1061     4.9405     4.1811    90.0051   -60.4956     8.8929   -20.0000     0.2181     0.1154     2.5005
 2447.0000   105.8110   -54.1421   -21.0444     5.0389     4.9431     4.1270    91.9349   -60.4956     8.9233   -20.0000     0.2108     0.1288     2.5030
 2447.5000   104.5946   -54.7336   -20.9652     5.1101     4.9644     4.1850    93.8828   -60.4956     8.8932   -20.0000     0.2114     0.1495     2.5160
 2448.0000   103.4752   -55.3254   -20.4286     5.1122     5.0163     4.2438    95.9981   -60.4956     8.8933   -20.0000     0.2193     0.1595     2.5383
 2448.5000   106.0799   -56.0146   -20.1205     5.1142     5.0195     4.3706    97.5933   -60.4956     8.8817   -20.0000     0.2336     0.1415     2.5504
 2449.0000   109.4575   -56.5587   -20.4077     5.1167     5.0220     4.4844    97.1547   -60.4956     8.8633   -20.0000     0.2482     0.1174     2.5550
 2449.5000   110.0700   -71.8957   -20.3965     5.1186     5.0245     4.4863    95.8401   -60.4956     8.8635   -20.0000     0.2494     0.1053     2.5504
 2450.0000   108.9021   -72.4852   -20.9821     5.1908     5.0961     4.3681    94.1363   -60.4956     8.8333   -20.0000     0.2431     0.0934     2.5435
 2450.5000   103.5799   -73.0769   -21.0242     5.1929     5.0869     4.3106    93.5029   -60.4956     8.8335   -20.0000     0.2362     0.0962     2.5296
 2451.0000   105.4423   -73.6687   -21.6619     5.1950     5.0327     4.3124    94.0451   -60.4956     8.8336   -20.0000     0.2301     0.1217     2.5072
 2451.5000   109.9438   -74.2603   -22.1414     5.1971     5.0358     4.3849    96.7131   -60.4956     8.8338   -20.0000     0.2301     0.1176     2.5042
 2452.0000   111.9551   -74.8520   -22.7248     5.1995     5.0383     4.4348    96.8701   -60.4956     8.8339   -20.0000     0.2382     0.0995     2.5175
 2452.5000   112.5676   -75.4438   -22.7152     5.2015     4.9727     4.4366    96.1942   -60.4956     8.8341   -20.0000     0.2410     0.0935     2.5356
 2453.0000   113.3000   -76.0356   -22.7054     5.2035     4.9755     4.4993    94.2779   -60.4956     8.8343   -20.0000     0.2410     0.0967     2.5494
 2453.5000   115.9123   -61.7278   -22.6949     5.1171     4.9503     4.5626    91.2598   -60.4956     8.8344   -20.0000     0.2410     0.1026     2.5538
 2454.0000   115.6357   -62.5438   -22.6845     5.0376     4.8472     4.5643    87.5123   -60.4956     8.8648   -20.0000     0.2398     0.0794     2.5508
 2454.5000   114.4303   -48.2248   -22.9698     4.9336     4.7197     4.5822    87.0737   -75.0729     8.8701   -20.0000     0.2308     0.0726     2.5552
 2455.0000   116.8265   -48.8391   -23.2589     4.8690     4.6584     4.6305    87.5256   -75.0729     8.8955   -20.0000     0.2260     0.0816     2.5614
 2455.5000   122.7803   -34.5903   -23.2482     4.8049     4.5978     4.5699    88.1637   -75.0729     8.9097   -20.0000     0.2248     0.0937     2.5636
 2456.0000   120.6654   -35.2070   -23.5363     4.8068     4.6005     4.5720    88.7397   -60.3145     8.9261   -20.0000     0.2290     0.0937     2.5569
 2456.5000   118.0705   -35.7988   -23.6135     4.8088     4.6970     4.5120    89.1145   -58.6657     8.9262   -20.0000     0.2358     0.0941     2.5554
 2457.0000   119.8795   -36.4949   -23.8125     4.8108     4.7329     4.3172    89.4058   -57.0170     8.8961   -20.0000     0.2408     0.1006     2.5540
 2457.5000   133.5484   -37.0390   -24.3956     4.8790     4.7353     4.1444    89.6971   -55.3682     8.8962   -20.0000     0.2417     0.1101     2.5520
 2458.0000   132.9739   -37.5831   -24.6837     4.9478     4.8039     4.1635    90.0147   -53.7194     8.8964   -20.0000     0.2411     0.1212     2.5510
 2458.5000   130.4811   -38.1656   -24.6741     5.0217     4.8842     4.4586    90.3333   -52.0707     8.8965   -20.0000     0.2362     0.1330     2.5510
 2459.0000   121.1489   -38.7574   -24.9622     5.0885     4.9659     4.5831    90.1975   -50.4219     8.8814   -20.0000     0.2306     0.1391     2.5541
 2459.5000   118.2006   -39.3492   -24.8448     5.0906     5.0108     4.7111    89.5481   -48.7731     8.8665   -20.0000     0.2271     0.1391     2.5617
 2460.0000   116.4392   -40.0314   -24.6429     5.1629     5.0139     4.7130    88.9635   -47.1243     8.8667   -20.0000     0.2317     0.1199     2.5694
 2460.5000   115.2712   -40.5755   -24.3334     5.0948     5.0164     4.7150    88.3433   -47.2353     8.8668   -20.0000     0.2367     0.1061     2.5774
 2461.0000   115.5114   -41.1242   -24.0262     5.0969     5.0190     4.7169    88.0861   -52.1391     8.8670   -20.0000     0.2387     0.1061     2.5824
 2461.5000   116.2345   -41.7160   -23.7188     5.0989     5.0217     4.6551    87.9394   -57.0429     8.8671   -20.0000     0.2315     0.1061     2.5889
 2462.0000   120.0856   -42.3078   -23.7083     5.1010     5.0245     4.5942    87.9386   -61.9466     8.8673   -20.0000     0.2242     0.1001     2.5925
 2462.5000   120.7972   -42.8994   -23.8219     5.0341     5.0277     4.5961    87.9379   -66.8504     8.8674   -20.0000     0.2236     0.0941     2.5799
 2463.0000   118.2264   -43.5682   -24.2827     5.0364     5.0302     4.5979    87.9372   -71.7542     8.8373   -20.0000     0.2262     0.0942     2.5604
 2463.5000   115.8233   -44.1123   -24.2712     4.9700     4.9647     4.5998    88.0826   -75.0729     8.8374   -20.0000     0.2267     0.1058     2.5511
 2464.0000   118.3060   -44.6746   -24.5595     4.9720     4.8897     4.6020    88.2919   -75.0729     8.8073   -20.0000     0.2267     0.1243     2.5499
 2464.5000   121.9707   -45.2663   -24.8473     4.9065     4.7709     4.5416    88.6648   -75.0729     8.7771   -20.0000     0.2267     0.1081     2.5591
 2465.0000   121.9897   -45.8579   -24.8363     4.9087     4.7739     4.4820    89.1021   -75.0729     8.8076   -20.0000     0.2267     0.0883     2.5651
 2465.5000   120.7916   -46.5609   -24.5283     4.9111     4.7120     4.4232    89.5400   -75.0729     8.8077   -20.0000     0.2303     0.0823     2.5666
 2466.0000   117.8735   -47.1050   -24.5162     4.9130     4.7793     4.4251    89.6847   -75.0729     8.8079   -20.0000     0.2406     0.0793     2.5666
 2466.5000   125.4236   -47.6332   -24.8051     4.9148     4.7817     4.4875    89.1346   -75.0729     8.8081   -20.0000     0.2412     0.0795     2.5650
 2467.0000   132.7578   -48.2247   -24.4970     4.9925     4.8147     4.4290    88.8905   -75.0729     8.7779   -20.0000     0.2300     0.0836     2.5683
 2467.5000   133.9638   -48.8165   -24.4866     5.1665     5.0142     4.4913    88.9526   -75.0729     8.7780   -20.0000     0.2237     0.0977     2.5746
 2468.0000   132.7959   -49.4083   -24.1786     5.3375     5.3408     4.4946    89.3898   -75.0729     8.7782   -20.0000     0.2207     0.1186     2.5772
 2468.5000   118.1585   -50.0975   -24.0084     5.5654     5.6423     4.6315    89.5351   -60.4956     8.7783   -20.0000     0.2165     0.1065     2.5704
 2469.0000   112.1248   -50.5917   -22.9659     5.7998     5.8008     4.9556    88.9549   -60.4956     8.7785   -20.0000     0.2068     0.0945     2.5683
 2469.5000   109.1383   -51.1857   -22.3611     6.0474     5.9839     5.5022    87.9922   -60.4956     8.7787   -20.0000     0.1974     0.0705     2.5713
