~VERSION INFORMATION
 VERS.                2.0:   CWLS LOG ASCII STANDARD - VERSION 2.0
 WRAP.                 NO:   ONE LINE PER DEPTH STEP
~WELL INFORMATION
#MNEM.UNIT      DATA TYPE    INFORMATION
#----------   ------------   ------------------------------
 STRT.F          198.0000:   START DEPTH
 STOP.F         3252.0000:   STOP DEPTH
 STEP.F            0.5000:   STEP LENGTH
 NULL.          -999.2500:   NO VALUE
 COMP. FENIX & SCISSON - U.S. NAVY:   COMPANY
 WELL.   FENIX A X #21-33:   WELL
 FLD .              NPR-3:   FIELD
 LOC .      S33 T39N R78W:   LOCATION
 CNTY.            NATRONA:   COUNTY
 STAT.            WYOMING:   STATE
 CTRY. UNITED STATES OF AMERICA:   COUNTRY
 SRVC.              WELEX:   SERVICE COMPANY
 DATE.        06-JUN-1977:   LOGDATE
 API .     49025103750000:   API NUMBER
~CURVE INFORMATION
#MNEM.UNIT       API CODE    CURVE DESCRIPTION
#----------   ------------   ------------------------------
 DEPT.F                  :   
 CALD.IN     45 280 60 00:   CALIPER FROM DENSITY LOG
 GRD .GAPI   45 310 01 00:   GAMMA RAY FROM DENSITY LOG
 RHOB.G/C3   45 350 01 00:   BULK DENSITY
 CORR.G/C3   45 356 01 00:   DENSITY CORRECTION
 NPHI.DEC    42 890 01 00:   NEUTRON POROSITY LIMESTONE
 SPR .MV     07 010 01 00:   SPONTANEOUS POTENTIAL
 GURD.OHMM   07 220 05 00:   GUARD LOG RESISTIVITY
 FORX.OHMM   07 220 00 00:   FORMATION FACTOR
~PARAMETER INFORMATION
#MNEM.UNIT          VALUE    DESCRIPTION
#----------   ------------   ------------------------------
 EKB .F         5147.0000:   Kelly bushing
 EGL .F         5137.0000:   Ground level
 EDF .F            0.0000:   Drilling floor
 EPD .F            0.0000:   Permanent datum
 TD  .F         3254.0000:   Total depth
 CLNT.            A2DTECH:   Client Code
 SL  . 660' FNL & 1320' FWL:   Surface Location
 PD  .                 GL:   Permanent Datum
 DAPD.F                10:   Feet Above Permanent Datum
 DATE.        06-JUN-1977:   Date Logged [DD-MMM-YYYY]
 DD  .F              3249:   Depth driller
 DL  .F              3254:   Depth logger
 BLI .F              3252:   Bottom log interval
 TLI .F               200:   Top log interval
 CS1 .IN            8.625:   Casing size
 CBD1.      8.625" @ 204':   Casing driller 1
 CBL1.F               221:   Casing logger 1
 BS1 .IN            7.875:   Bit size
 BSD1.F              3249:   Depth drilled with bit1
 DFT .            KCL MUD:   Type fluid in hole
 DFD .                  9:   Density
 DFV .                134:   Viscosity
 DFPH.                7.5:   pH
 DFL .                7.8:   Fluid loss
 MSS .           FLOWLINE:   Source of sample
 RMS .OHMM           0.64:   Rm
 MST .F                85:   Rm Meas. temp.
 RMF .OHMM           0.61:   Rmf
 MFST.F                85:   Rmf Meas. temp.
 MFSS.           FANN KIT:   Source Rmf.
 RMC .OHMM              1:   Rmc
 MCST.F                85:   Rmc Meas. temp.
 MCSS.           FANN KIT:   Source Rmc.
 RMB .OHMM           0.46:   Rm. at BHT
 BHT .F               116:   BHT.
 TCS .HRS             2.5:   Time Circ. stopped
 MRT .F               116:   Maximum recorded temp.
 LUN .               8611:   Logging unit number
 LUL .             CASPER:   Logging unit location
 ENGI.            C. DOAK:   Recorded By
 WITN.      B. HARRINGTON:   Witnessed by
 ORIG.           5" PRINT:   Origin of data
 UWI .     49025103750000:   Unique Well ID
 DICO. A2D TECHNOLOGIES, INC.:   Digitizing Company
~OTHER INFORMATION
~A   DEPT     CALD         GRD      RHOB       CORR       NPHI        SPR       GURD       FORX   
# ...
  805.5000     9.5880    87.2019     2.4703     0.0364     0.2919   -47.3761     9.5441     6.2560
  806.0000     9.5895    89.6353     2.4741     0.0365     0.2910   -47.4019     9.5505     6.2160
  806.5000     9.5910    91.4735     2.4744     0.0382     0.2900   -47.4290     9.4881     6.2214
  807.0000     9.5924    93.3117     2.4781     0.0399     0.2888   -47.4570     9.4762     6.1806
  807.5000     9.5790    96.9356     2.4835     0.0415     0.2876   -47.4851     9.3248     6.1410
  808.0000     9.5503   106.5119     2.4836     0.0432     0.2866   -47.5132     9.1516     6.0585
  808.5000     9.4778   117.6770     2.4822     0.0449     0.2863   -47.5412     9.1149     6.0198
  809.0000     9.3900   121.3018     2.4801     0.0450     0.2863   -47.5693     9.5204     6.0250
  809.5000     9.3616   124.5396     2.4750     0.0407     0.2866   -47.5974    10.1570     6.0292
  810.0000     9.3482   128.4611     2.4699     0.0393     0.2865   -47.6254    10.4574     5.9906
  810.5000     9.3497   127.3231     2.4670     0.0395     0.2868   -47.6535    10.3789     5.9950
  811.0000     9.3512   125.2792     2.4716     0.0397     0.2874   -47.6816    10.0350     5.9575
  811.5000     9.3527   131.5948     2.4770     0.0428     0.2886   -47.7097     9.6218     5.9194
  812.0000     9.3542   137.8972     2.4831     0.0460     0.2906   -47.7358     9.3579     5.8815
  812.5000     9.3559   140.9259     2.4892     0.0462     0.2918   -47.7368     9.2303     5.8856
  813.0000     9.3574   144.2522     2.4960     0.0479     0.2926   -47.7360     9.1709     5.8470
  813.5000     9.3589   144.0070     2.5014     0.0495     0.2935   -47.6990     9.1118     5.8521
  814.0000     9.3752   144.0595     2.4990     0.0497     0.2941   -47.5205     9.0547     5.8561
  814.5000     9.3767   148.9741     2.4911     0.0468     0.2940   -47.3468     8.7439     5.8602
  815.0000     9.3781   154.0879     2.5002     0.0440     0.2937   -47.1735     8.1486     5.7815
  815.5000     9.3796   156.4193     2.5093     0.0472     0.2928   -47.0000     8.3931     5.7437
  816.0000     9.3811   144.2826     2.5177     0.0488     0.2910   -46.8267     9.0283     5.7036
  816.5000     9.3825   138.3827     2.5148     0.0490     0.2894   -46.6534     9.6186     5.6311
  817.0000     9.3840   126.5304     2.5052     0.0462     0.2882   -46.5521     9.6937     5.6762
  817.5000     9.3855   115.8686     2.4934     0.0448     0.2870   -46.5679     9.6298     5.8441
  818.0000     9.3869   111.1460     2.4882     0.0450     0.2872   -46.8433     9.3672     5.9743
  818.5000     9.3884   115.3783     2.4824     0.0452     0.2884   -46.9299     9.0457     6.0641
  819.0000     9.3899   118.7046     2.4922     0.0468     0.2899   -47.3330     8.9860     6.0242
  819.5000     9.3914   122.9237     2.4953     0.0470     0.2916   -47.3051     9.0577     5.9857
  820.0000     9.3931   153.0357     2.4984     0.0486     0.2937   -47.2556     9.0637     5.9474
  820.5000     9.3946   160.0089     2.4986     0.0503     0.2952   -47.2010     9.0697     5.9103
  821.0000     9.3808   162.9621     2.4957     0.0505     0.2963   -47.1470     9.2058     5.8310
  821.5000     9.3231   157.0753     2.4896     0.0477     0.2972   -47.0930     9.3441     5.7913
  822.0000     9.2945   143.4373     2.4808     0.0448     0.2975   -47.0390     9.3553     5.7566
  822.5000     9.3112   139.6207     2.4757     0.0450     0.2978   -46.9851     9.4247     5.7617
  823.0000     9.3127   143.8399     2.4745     0.0467     0.2977   -46.9311     9.4983     5.7657
  823.5000     9.3290   154.6067     2.4783     0.0468     0.2980   -46.8771     9.4372     5.7747
  824.0000     9.3453   161.5044     2.4792     0.0470     0.2983   -46.8231     9.3100     5.8149
  824.5000     9.3766   163.0450     2.4786     0.0472     0.2985   -46.7692     9.2485     5.8821
  825.0000     9.3929   162.5022     2.4839     0.0473     0.2985   -46.7152     9.1905     5.9061
  825.5000     9.4093   158.3880     2.4878     0.0475     0.2985   -46.6612     9.1966     5.9105
  826.0000     9.4107   154.5714     2.4759     0.0476     0.2969   -46.6073     9.2685     5.9147
  826.5000     9.4122   149.7640     2.4745     0.0478     0.2945   -46.5533     9.3408     5.8768
  827.0000     9.4137   147.1886     2.4754     0.0510     0.2915   -46.4993     9.4819     5.8809
  827.5000     9.4152   158.3134     2.4763     0.0511     0.2888   -46.4453     9.6991     5.8393
  828.0000     9.4017   177.7111     2.4794     0.0513     0.2863   -46.3917    10.1233     5.7658
  828.5000     9.4035   182.8231     2.4885     0.0530     0.2860   -46.3577    10.5720     5.8110
  829.0000     9.3901   186.1494     2.4976     0.0561     0.2875   -46.3588    10.7307     5.8566
  829.5000     9.4065   199.2971     2.4863     0.0518     0.2902   -46.3777    10.7378     5.9025
  830.0000     9.4228   197.5639     2.4774     0.0489     0.2928   -46.3976    10.5179     5.9912
  830.5000     9.4243   179.1640     2.4688     0.0446     0.2931   -46.4175    10.0133     5.9954
  831.0000     9.4257   173.8593     2.4697     0.0433     0.2930   -46.4373     9.7387     5.9570
  831.5000     9.4271   166.1737     2.4735     0.0434     0.2930   -46.4572     9.3377     5.9612
  832.0000     9.4287   162.0595     2.4759     0.0436     0.2927   -46.4770     9.1463     5.9229
  832.5000     9.4301   161.1955     2.4693     0.0438     0.2927   -46.4969     9.5519     5.8851
  833.0000     9.4316   159.6866     2.4619     0.0409     0.2938   -46.5167     9.8381     5.7220
  833.5000     9.4331   159.2408     2.4650     0.0366     0.2950   -46.5365    10.0532     5.6417
  834.0000     9.4345   160.7945     2.4749     0.0368     0.2956   -46.5564     9.7791     5.5328
  834.5000     9.4360   162.6327     2.4832     0.0430     0.2949   -46.5762     9.3764     5.5366
  835.0000     9.4375   154.9470     2.4840     0.0461     0.2943   -46.5961     9.1193     5.5405
  835.5000     9.4390   149.6424     2.4782     0.0432     0.2931   -46.6159     8.9325     5.5443
  836.0000     9.4556   140.4687     2.4806     0.0374     0.2921   -46.6358     8.8106     5.5874
  836.5000     9.4720   137.8295     2.4852     0.0391     0.2915   -46.6556     8.7539     5.5917
  837.0000     9.4883   146.2284     2.4898     0.0362     0.2918   -46.6755     8.7612     5.6355
  837.5000     9.4898   148.3642     2.4944     0.0334     0.2924   -46.6953     8.8296     5.6394
  838.0000     9.4913   147.8214     2.4873     0.0336     0.2926   -46.7152     9.0261     5.5242
  838.5000     9.4927   133.2156     2.4752     0.0338     0.2929   -46.7350     9.1616     5.4111
  839.0000     9.5091   120.8441     2.4671     0.0324     0.2932   -46.7527     9.0968     5.2974
  839.5000     9.4953   111.9801     2.4717     0.0341     0.2934   -46.7649     8.9051     5.3115
  840.0000     9.4819   112.3302     2.4845     0.0372     0.2928   -46.7785     8.7960     5.4236
  840.5000     9.4685   114.7636     2.4876     0.0404     0.2916   -46.7921     8.7394     5.5052
  841.0000     9.4256   118.9827     2.4863     0.0376     0.2901   -46.8058     8.8092     5.5879
  841.5000     9.3379   122.3090     2.4789     0.0347     0.2888   -46.8194     9.2653     5.5918
  842.0000     9.3093   124.4448     2.4738     0.0349     0.2873   -46.8331     9.4715     5.5167
  842.5000     9.2810   126.8783     2.4881     0.0411     0.2860   -46.8467     9.5439     5.4040
  843.0000     9.2676   132.8831     2.5032     0.0472     0.2842   -46.8603     9.0876     5.2927
  843.5000     9.2545   145.7332     2.5018     0.0489     0.2842   -46.8740     8.6516     5.1854
  844.0000     9.2560   160.0714     2.4982     0.0506     0.2845   -46.8876     8.7192     5.1158
  844.5000     9.2575   162.8284     2.4968     0.0507     0.2851   -46.9013     9.1738     5.1628
  845.0000     9.2589   164.0454     2.5060     0.0524     0.2856   -46.9149     9.5276     5.4616
  845.5000     9.2455   160.2420     2.5181     0.0526     0.2862   -46.9285     9.7209     5.1639
