~VERSION INFORMATION
 VERS.                2.0:   CWLS LOG ASCII STANDARD - VERSION 2.0
 WRAP.                 NO:   ONE LINE PER DEPTH STEP
~WELL INFORMATION
#MNEM.UNIT      DATA TYPE    INFORMATION
#----------   ------------   ------------------------------
 STRT.F           80.0000:   START DEPTH
 STOP.F         2730.0000:   STOP DEPTH
 STEP.F            0.5000:   STEP LENGTH
 NULL.          -999.2500:   NO VALUE
 COMP.          U.S. NAVY:   COMPANY
 WELL. US NPR 3 "AX" #57-20:   WELL
 FLD .             TEAPOT:   FIELD
 LOC .      S20 T39N R78W:   LOCATION
 CNTY.            NATRONA:   COUNTY
 STAT.            WYOMING:   STATE
 CTRY. UNITED STATES OF AMERICA:   COUNTRY
 SRVC.       SCHLUMBERGER:   SERVICE COMPANY
 DATE.        31-JUL-1964:   LOGDATE
 API .     49025066320000:   API NUMBER
~CURVE INFORMATION
#MNEM.UNIT       API CODE    CURVE DESCRIPTION
#----------   ------------   ------------------------------
 DEPT.F                  :   
 SPR .MV     01 010 01 00:   SPONTANEOUS POTENTIAL FROM RES.
 LN  .OHMM   01 060 39 00:   LONG NORMAL 39"
 ASN .OHMM   01 041 16 00:   AMPLIFIED SHORT NORMAL 16"
 LAT .OHMM   01 070 00 00:   LATERAL
 GRN .GAPI   35 310 30 00:   GAMMA RAY
 NEUT.NAPI   35 330 01 00:   NEUTRON
~PARAMETER INFORMATION
#MNEM.UNIT          VALUE    DESCRIPTION
#----------   ------------   ------------------------------
 EKB .F         5019.0000:   Kelly bushing
 EGL .F         5011.0000:   Ground level
 TD  .F         2696.0000:   Total depth
 DATE.        31-JUL-1964:   Date logged
 CLNT.            A2DTECH:   Client Code
 PD  .                 GL:   Permanent Datum
 EPD .F              5011:   Elevation Permanent Datum
 LMF .                 KB:   Log Measured From
 DMF .                 KB:   Drilling Measured From
 DAPD.F                 8:   Feet Above Permanent Datum
 DD  .F              2690:   Depth driller
 DL  .F              2696:   Depth logger
 BLI .F              2695:   Bottom log interval
 TLI .F                82:   Top log interval
 CS1 .IN            12.25:   Casing size
 CBD1.       12.25" @ 15':   Casing driller 1
 BS1 .IN               11:   Bit size
 BSD1.F              2690:   Depth drilled with bit1
 DFT .                GEL:   Type fluid in hole
 MSS .           FLOWLINE:   Source of sample
 RMS .OHMM           2.48:   Rm
 MST .F                83:   Rm Meas. temp.
 RMF .OHMM           1.87:   Rmf
 MFST.F                83:   Rmf Meas. temp.
 MFSS.                 FP:   Source Rmf.
 MCSS.                 FP:   Source Rmc.
 TCS .HRS               4:   Time Circ. stopped
 LUN .               3527:   Logging unit number
 LUL .               CSPR:   Logging unit location
 ENGI.            WINKLER:   Recorded By
 WITN.          GORGENSEN:   Witnessed by
 ORIG.         2.5" PRINT:   Origin of data
 UWI .     49025066320000:   Unique Well ID
 DICO.   A2D TECHNOLOGIES:   Digitizing Company
~OTHER INFORMATION
~A   DEPT      SPR         LN        ASN        LAT        GRN       NEUT   
# ...
  132.0000   -56.7180    22.4840    16.7730    24.9880  -999.2500  -999.2500
  132.5000   -56.6710    22.4200    16.7350    25.0940  -999.2500  -999.2500
  133.0000   -56.6240    22.3560    16.6620    25.2170  -999.2500  -999.2500
  133.5000   -56.5770    22.2910    16.5150    25.1250  -999.2500  -999.2500
  134.0000   -56.5290    22.2290    16.3850    24.9520  -999.2500  -999.2500
  134.5000   -56.4820    22.1510    16.2500    24.7880  -999.2500  -999.2500
  135.0000   -56.4350    22.0340    16.1160    24.6160  -999.2500  -999.2500
  135.5000   -56.3880    21.9170    15.9820    24.4540  -999.2500  -999.2500
  136.0000   -56.3410    21.8000    15.8480    24.2790  -999.2500  -999.2500
  136.5000   -56.2940    21.6830    15.7130    24.3560  -999.2500  -999.2500
  137.0000   -56.2470    21.5650    15.5810    24.4740  -999.2500  -999.2500
  137.5000   -56.2000    21.4480    15.4440    24.5940  -999.2500  -999.2500
  138.0000   -56.1530    21.3310    15.3140    24.7080  -999.2500  -999.2500
  138.5000   -56.1060    21.2130    15.1630    24.8260  -999.2500  -999.2500
  139.0000   -56.0590    21.0960    15.0930    24.9440  -999.2500  -999.2500
  139.5000   -56.0120    20.9780    15.0190    25.0540  -999.2500  -999.2500
  140.0000   -55.9650    20.8620    14.9490    25.1920  -999.2500  -999.2500
  140.5000   -55.9180    20.7430    14.8750    25.1610  -999.2500  -999.2500
  141.0000   -55.8700    20.6270    14.8030    24.9090  -999.2500  -999.2500
  141.5000   -55.8240    20.5100    14.7310    24.6840  -999.2500  -999.2500
  142.0000   -55.7760    20.3830    14.6580    24.4460  -999.2500  -999.2500
  142.5000   -55.7300    20.1900    14.5880    24.2130  -999.2500  -999.2500
  143.0000   -55.6810    20.0590    14.5120    23.9780  -999.2500  -999.2500
  143.5000   -55.6620    19.9410    14.4440    23.7450  -999.2500  -999.2500
  144.0000   -55.6220    19.8240    14.3640    23.5090  -999.2500  -999.2500
  144.5000   -55.5620    19.7060    14.3500    23.2730  -999.2500  -999.2500
  145.0000   -55.5050    19.5910    14.2620    23.0780  -999.2500  -999.2500
  145.5000   -55.4480    19.4680    14.1670    23.0720  -999.2500  -999.2500
  146.0000   -55.3900    19.3730    14.0680    23.0660  -999.2500  -999.2500
  146.5000   -55.3330    19.3110    13.9730    23.0720  -999.2500  -999.2500
  147.0000   -55.2760    19.2410    13.8760    23.0690  -999.2500  -999.2500
  147.5000   -55.2190    19.1780    13.7800    23.0450  -999.2500  -999.2500
  148.0000   -55.1610    19.1040    13.6830    22.7700  -999.2500  -999.2500
  148.5000   -55.1040    19.0530    13.5870    22.4860  -999.2500  -999.2500
  149.0000   -55.0470    18.8940    13.4900    22.2090  -999.2500  -999.2500
  149.5000   -54.9890    18.8030    13.3930    21.9110  -999.2500  -999.2500
  150.0000   -54.9310    18.8150    13.2980    21.8780  -999.2500  -999.2500
  150.5000   -54.8830    18.8110    13.1990    21.8850  -999.2500  -999.2500
  151.0000   -54.8610    18.8120    13.1070    21.8110  -999.2500  -999.2500
  151.5000   -54.8420    18.8120    13.0010    21.5690  -999.2500  -999.2500
  152.0000   -54.8230    18.8120    13.0170    21.3410  -999.2500  -999.2500
  152.5000   -54.8040    18.8120    13.1170    21.1050  -999.2500  -999.2500
  153.0000   -54.7840    18.8120    13.2010    20.8680  -999.2500  -999.2500
  153.5000   -54.7650    18.8120    13.2900    20.6420  -999.2500  -999.2500
  154.0000   -54.7460    18.8120    13.3780    20.3880  -999.2500  -999.2500
  154.5000   -54.7270    18.8130    13.4650    20.3570  -999.2500  -999.2500
  155.0000   -54.7080    18.8120    13.5530    20.5130  -999.2500  -999.2500
  155.5000   -54.6890    18.8120    13.6410    20.6370  -999.2500  -999.2500
  156.0000   -54.6700    18.8240    13.7290    20.7790  -999.2500  -999.2500
  156.5000   -54.6500    18.9410    13.8170    20.8990  -999.2500  -999.2500
  157.0000   -54.6310    19.0440    13.9040    21.0600  -999.2500  -999.2500
  157.5000   -54.6120    19.1530    13.9930    20.9120  -999.2500  -999.2500
  158.0000   -54.5930    19.2580    14.0810    20.5590  -999.2500  -999.2500
  158.5000   -54.5740    19.3660    14.1550    20.2900  -999.2500  -999.2500
  159.0000   -54.5550    19.4720    14.1420    20.0470  -999.2500  -999.2500
  159.5000   -54.5360    19.5780    14.0910    19.8280  -999.2500  -999.2500
  160.0000   -54.5170    19.6870    14.0390    19.6070  -999.2500  -999.2500
  160.5000   -54.4980    19.7910    13.9870    19.3860  -999.2500  -999.2500
  161.0000   -54.4920    19.8020    13.9360    19.1660  -999.2500  -999.2500
  161.5000   -54.4920    19.8360    13.8830    18.9450  -999.2500  -999.2500
  162.0000   -54.4920    20.1560    13.8330    18.7240  -999.2500  -999.2500
  162.5000   -54.4920    20.4320    13.7800    18.5040  -999.2500  -999.2500
  163.0000   -54.4920    20.7260    13.7630    18.2840  -999.2500  -999.2500
  163.5000   -54.4930    21.0030    13.7690    18.0650  -999.2500  -999.2500
  164.0000   -54.4930    21.3040    13.7560    17.8430  -999.2500  -999.2500
  164.5000   -54.4920    21.5600    13.9070    17.6250  -999.2500  -999.2500
  165.0000   -54.4960    21.9100    14.3910    17.4010  -999.2500  -999.2500
  165.5000   -54.4860    21.6000    14.8410    17.1920  -999.2500  -999.2500
  166.0000   -54.5710    20.8180    15.3220    17.3640  -999.2500  -999.2500
  166.5000   -54.7480    20.1530    15.8060    18.3340  -999.2500  -999.2500
  167.0000   -54.9110    19.4160    16.8190    19.4900  -999.2500  -999.2500
  167.5000   -55.0790    18.7660    17.7650    20.3090  -999.2500  -999.2500
  168.0000   -55.2450    17.9920    18.7450    20.5280  -999.2500  -999.2500
  168.5000   -55.4120    18.1340    19.7350    21.0190  -999.2500  -999.2500
  169.0000   -55.5780    18.5190    20.6930    21.1130  -999.2500  -999.2500
  169.5000   -55.7450    19.8340    21.4490    21.2540  -999.2500  -999.2500
  170.0000   -55.9140    21.1700    21.0540    20.9950  -999.2500  -999.2500
  170.5000   -56.0480    22.5770    20.7340    20.7810  -999.2500  -999.2500
  171.0000   -56.0530    23.9100    20.3690    20.5330  -999.2500  -999.2500
  171.5000   -56.0550    25.2630    20.0140    20.3080  -999.2500  -999.2500
  172.0000   -56.0530    25.8100    19.6650    20.0720  -999.2500  -999.2500
  172.5000   -56.0550    25.9850    19.3080    19.8360  -999.2500  -999.2500
  173.0000   -56.0540    25.4320    18.9590    19.6080  -999.2500  -999.2500
  173.5000   -56.0540    24.9250    18.6050    19.3660  -999.2500  -999.2500
  174.0000   -56.0550    24.3690    18.4800    19.1350  -999.2500  -999.2500
  174.5000   -56.0540    23.8580    18.4460    18.9550  -999.2500  -999.2500
  175.0000   -56.0550    23.2690    18.4100    19.3280  -999.2500  -999.2500
  175.5000   -56.0540    22.9410    18.3640    19.7090  -999.2500  -999.2500
  176.0000   -56.0460    23.0080    18.3410    20.1060  -999.2500  -999.2500
  176.5000   -55.9460    23.0590    18.1990    20.4950  -999.2500  -999.2500
  177.0000   -55.8500    23.1210    17.9850    20.8640  -999.2500  -999.2500
  177.5000   -55.7500    23.1190    17.7930    20.8270  -999.2500  -999.2500
  178.0000   -55.6530    22.6220    17.6000    20.1620  -999.2500  -999.2500
  178.5000   -55.5540    22.1680    17.3990    19.5550  -999.2500  -999.2500
  179.0000   -55.4560    21.6870    17.3210    18.9140  -999.2500  -999.2500
  179.5000   -55.3590    21.2290    17.3290    18.2960  -999.2500  -999.2500
  180.0000   -55.2590    20.7440    17.3260    17.7580  -999.2500  -999.2500
  180.5000   -55.1630    20.4070    17.3160    17.7930  -999.2500  -999.2500
  181.0000   -55.0630    20.4000    17.2660    17.8430  -999.2500  -999.2500
  181.5000   -54.9640    20.4880    17.2230    17.9110  -999.2500  -999.2500
  182.0000   -54.8940    20.8390    17.1740    17.9630  -999.2500  -999.2500
  182.5000   -54.9750    21.2450    17.1100    18.0260  -999.2500  -999.2500
  183.0000   -55.0480    21.5960    16.8430    18.0780  -999.2500  -999.2500
  183.5000   -55.1270    22.0170    16.5570    18.2210  -999.2500  -999.2500
