~VERSION INFORMATION
 VERS.                2.0:   CWLS LOG ASCII STANDARD - VERSION 2.0
 WRAP.                 NO:   ONE LINE PER DEPTH STEP
~WELL INFORMATION
#MNEM.UNIT      DATA TYPE    INFORMATION
#----------   ------------   ------------------------------
 STRT.F           85.5000:   START DEPTH
 STOP.F         2750.0000:   STOP DEPTH
 STEP.F            0.5000:   STEP LENGTH
 NULL.          -999.2500:   NO VALUE
 COMP.          INTEX OIL:   COMPANY
 WELL. INTEX NPR 3 "AX" #74-20:   WELL
 FLD .             TEAPOT:   FIELD
 LOC .      S20 T39N R78W:   LOCATION
 CNTY.            NATRONA:   COUNTY
 STAT.            WYOMING:   STATE
 CTRY. UNITED STATES OF AMERICA:   COUNTRY
 SRVC.       SCHLUMBERGER:   SERVICE COMPANY
 DATE.        08-MAY-1966:   LOGDATE
 API .     49025095210000:   API NUMBER
~CURVE INFORMATION
#MNEM.UNIT       API CODE    CURVE DESCRIPTION
#----------   ------------   ------------------------------
 DEPT.F                  :   
 CALD.IN     45 280 60 00:   CALIPER FROM DENSITY LOG
 GRD .GAPI   45 310 01 00:   GAMMA RAY FROM DENSITY LOG
 RHOB.G/C3   45 350 01 00:   BULK DENSITY
 CORR.G/C3   45 356 01 00:   DENSITY CORRECTION
 SPR .MV     05 010 01 00:   SPONTANEOUS POTENTIAL FROM RES.
 ILD .OHMM   05 120 46 00:   INDUCTION LOG DEEP
 SN  .OHMM   05 040 00 00:   SHORT NORMAL
~PARAMETER INFORMATION
#MNEM.UNIT          VALUE    DESCRIPTION
#----------   ------------   ------------------------------
 EKB .F         5018.3000:   Kelly bushing
 EGL .F         5008.0000:   Ground level
 EDF .F            0.0000:   Drilling floor
 EPD .F         5008.0000:   Permanent datum
 TD  .F         2750.0000:   Total depth
 DATE.        08-MAY-1966:   Date logged
 CLNT.            A2DTECH:   Client Code
 DAPD.F              10.3:   Feet Above Permanent Datum
 DD  .F              2750:   Depth driller
 DL  .F              2749:   Depth logger
 BLI .F              2748:   Bottom log interval
 TLI .F                87:   Top log interval
 CS1 .IN            10.75:   Casing size
 CBD1.       10.75" @ 30':   Casing driller 1
 BS1 .IN            7.875:   Bit size
 BSD1.F              2750:   Depth drilled with bit1
 DFT .           OIL EMUL:   Type fluid in hole
 DFD .               10.1:   Density
 DFV .                 54:   Viscosity
 MSS .         CIRCULATED:   Source of sample
 RMS .OHMM           1.90:   Rm
 MST .F                72:   Rm Meas. temp.
 RMF .OHMM           1.15:   Rmf
 MFST.F                72:   Rmf Meas. temp.
 MFSS.                 FP:   Source Rmf.
 RMB .OHMM           1.23:   Rm. at BHT
 BHT .F               111:   BHT.
 TCS .HRS             1.5:   Time Circ. stopped
 MRT .F               111:   Maximum recorded temp.
 LUN .               4507:   Logging unit number
 LUL .               CSPR:   Logging unit location
 ENGI.               HAUG:   Recorded By
 WITN.             TUTTLE:   Witnessed by
 ORIG.        2" 5" PRINT:   Origin of data
 UWI .     49025095210000:   Unique Well ID
 DICO. A2D TECHNOLOGIES, INC.:   Digitizing Company
~OTHER INFORMATION
~A   DEPT     CALD        GRD       RHOB       CORR        SPR        ILD         SN   
# ...
 2042.0000     9.2090   107.0980     2.5230     0.0430   -58.3380     4.4660     6.2280
 2042.5000     9.2090   108.8650     2.5400     0.0500   -58.3640     4.5230     6.2210
 2043.0000     9.2090   110.4940     2.5460     0.0400   -58.3880     4.5790     6.2830
 2043.5000     9.2090   111.9580     2.5450     0.0290   -58.4140     4.6360     6.3970
 2044.0000     9.2090   113.5730     2.5100     0.0090   -58.4380     4.6930     6.4990
 2044.5000     9.2090   113.5520     2.5180     0.0250   -58.4570     4.7500     6.6060
 2045.0000     9.2090   111.4230     2.5420     0.0460   -58.3850     4.8060     6.7100
 2045.5000     9.2100   112.6380     2.5470     0.0280   -58.3090     4.8520     6.8110
 2046.0000     9.2210   113.1550     2.5520     0.0330   -58.2300     4.7470     6.8110
 2046.5000     9.2330   111.6070     2.5620     0.0370   -58.1530     4.5640     6.8300
 2047.0000     9.2450   109.7530     2.5530     0.0290   -58.0750     4.3960     6.6830
 2047.5000     9.2570   109.9330     2.5300     0.0200   -57.9970     4.2250     6.4170
 2048.0000     9.2690   108.0200     2.5050     0.0250   -57.9190     4.0540     6.1760
 2048.5000     9.2810   106.1990     2.4980     0.0220   -57.8420     3.8840     5.9280
 2049.0000     9.2930   105.9440     2.5030     0.0280   -57.7640     3.7120     5.6830
 2049.5000     9.3050   106.6210     2.5160     0.0400   -57.6860     3.5420     5.4320
 2050.0000     9.3170   108.2910     2.5340     0.0430   -57.6080     3.3710     5.2270
 2050.5000     9.3290   109.8480     2.5500     0.0370   -57.5310     3.1970     5.0530
 2051.0000     9.3410   111.4230     2.5640     0.0400   -57.4510     3.0680     4.9050
 2051.5000     9.3530   113.1110     2.5640     0.0470   -57.3760     3.0580     4.7480
 2052.0000     9.3650   113.2320     2.5620     0.0360   -57.2920     3.0350     4.5980
 2052.5000     9.3770   112.2240     2.5360     0.0240   -57.2840     3.0170     4.4570
 2053.0000     9.3890   111.0780     2.5260     0.0150   -57.2830     2.9960     4.4490
 2053.5000     9.4010   112.5990     2.5130     0.0150   -57.2850     2.9760     4.4460
 2054.0000     9.4060   116.6120     2.5060     0.0170   -57.2830     2.9560     4.4480
 2054.5000     9.4050   115.8590     2.5140     0.0180   -57.2840     2.9360     4.4470
 2055.0000     9.4050   115.1830     2.5170     0.0180   -57.2840     2.9160     4.4470
 2055.5000     9.4050   114.3720     2.4980     0.0130   -57.2840     2.8970     4.4470
 2056.0000     9.4050   116.2100     2.4890     0.0070   -57.2830     2.8750     4.4470
 2056.5000     9.4050   118.2160     2.5180     0.0130   -57.2840     2.8760     4.4470
 2057.0000     9.4050   120.9820     2.5370     0.0300   -57.2840     2.9040     4.4470
 2057.5000     9.4060   121.1620     2.5320     0.0140   -57.2840     2.9300     4.4470
 2058.0000     9.4060   118.6780     2.5250     0.0200   -57.2840     2.9560     4.4470
 2058.5000     9.4060   114.6790     2.5430     0.0360   -57.2840     2.9820     4.4470
 2059.0000     9.4060   110.5620     2.5680     0.0500   -57.2840     3.0080     4.4470
 2059.5000     9.4060   109.8980     2.5840     0.0600   -57.2830     3.0340     4.4470
 2060.0000     9.4060   109.2000     2.5740     0.0520   -57.2950     3.0600     4.4470
 2060.5000     9.4060   106.4780     2.5660     0.0450   -57.3290     3.0860     4.4470
 2061.0000     9.4060   105.6590     2.5780     0.0510   -57.3610     3.1120     4.4480
 2061.5000     9.4060   109.3500     2.5740     0.0520   -57.3950     3.1380     4.4460
 2062.0000     9.4060   108.6040     2.5660     0.0370   -57.4280     3.1640     4.4470
 2062.5000     9.4060   112.6030     2.5580     0.0490   -57.4600     3.1900     4.4530
 2063.0000     9.4060   113.7340     2.5500     0.0400   -57.4940     3.2150     4.5390
 2063.5000     9.4060   116.6930     2.5510     0.0270   -57.5260     3.2460     4.6170
 2064.0000     9.4060   118.9660     2.5620     0.0410   -57.5590     3.2440     4.7030
 2064.5000     9.4060   114.4400     2.5730     0.0550   -57.5930     3.1830     4.7900
 2065.0000     9.4060   107.7550     2.5690     0.0440   -57.6230     3.1270     4.8360
 2065.5000     9.4060   105.1460     2.5900     0.0590   -57.6660     3.0670     4.6370
 2066.0000     9.4060   103.3550     2.5830     0.0650   -57.6090     3.0110     4.4240
 2066.5000     9.4060   105.8500     2.5640     0.0470   -57.4340     2.9510     4.1850
 2067.0000     9.4050   108.0860     2.5310     0.0290   -57.2710     2.8920     4.0310
 2067.5000     9.4060   113.2530     2.5420     0.0370   -57.1100     2.8770     4.1650
 2068.0000     9.4050   117.3960     2.5650     0.0560   -56.9370     3.0270     4.3940
 2068.5000     9.4060   121.5590     2.6000     0.0580   -56.9300     3.1590     4.6100
 2069.0000     9.4050   120.0700     2.5880     0.0390   -57.0130     3.3000     4.8330
 2069.5000     9.4050   117.0990     2.5740     0.0230   -57.0800     3.4350     5.0510
 2070.0000     9.4010   112.1830     2.5550     0.0170   -57.1520     3.5750     5.2690
 2070.5000     9.3960   107.3610     2.5550     0.0110   -57.2220     3.7100     5.5060
 2071.0000     9.3910   102.6790     2.5550     0.0170   -57.2800     3.8460     5.6360
 2071.5000     9.3860    97.9000     2.5440     0.0240   -57.2230     3.8910     5.4960
 2072.0000     9.3810    99.8740     2.5340     0.0220   -57.1410     3.9320     5.3660
 2072.5000     9.3760   104.1650     2.5290     0.0200   -57.0550     3.9700     5.2370
 2073.0000     9.3720   107.4460     2.5500     0.0280   -56.9770     4.0110     5.0800
 2073.5000     9.3670   106.0290     2.5490     0.0200   -56.9020     4.0500     5.1790
 2074.0000     9.3620   104.9270     2.5450     0.0090   -56.9880     4.0900     5.4860
 2074.5000     9.3570   109.3980     2.5560     0.0150   -57.0850     4.1290     5.7490
 2075.0000     9.3520   106.6430     2.5690     0.0320   -57.1860     4.1710     6.0100
 2075.5000     9.3470   102.0540     2.5830     0.0470   -57.2840     4.2090     6.0260
 2076.0000     9.3430   105.1530     2.5670     0.0350   -57.3810     4.2430     6.0290
 2076.5000     9.3380   102.2210     2.5950     0.0390   -57.4840     4.1990     6.0250
 2077.0000     9.3330   104.3770     2.5870     0.0340   -57.5790     4.1490     6.0280
 2077.5000     9.3280   104.9220     2.5650     0.0200   -57.6570     4.1020     6.0280
 2078.0000     9.3230   101.3330     2.5550     0.0120   -57.4800     4.0490     6.0270
 2078.5000     9.3180   102.6950     2.5620     0.0240   -57.3000     4.1130     6.0300
 2079.0000     9.3140   105.8610     2.5720     0.0450   -57.1100     4.2310     6.0270
 2079.5000     9.3090   106.3390     2.5690     0.0410   -56.9250     4.3380     6.0300
 2080.0000     9.3040   105.2410     2.5610     0.0330   -56.7440     4.4460     6.0460
 2080.5000     9.2990   105.6750     2.5660     0.0200   -56.5500     4.5560     6.2890
 2081.0000     9.2940   108.6930     2.5760     0.0260   -56.5450     4.6640     6.5310
 2081.5000     9.2900   107.3840     2.5780     0.0250   -56.6440     4.7730     6.7830
 2082.0000     9.2820   105.1740     2.5740     0.0310   -56.7260     4.8820     7.0320
 2082.5000     9.2710   102.7170     2.5690     0.0310   -56.8100     4.9910     7.2260
 2083.0000     9.2610   101.8530     2.5810     0.0340   -56.8960     5.0990     7.2800
 2083.5000     9.2500   102.7910     2.6050     0.0450   -56.9800     5.2080     7.3380
 2084.0000     9.2400   104.0400     2.6180     0.0510   -57.0650     5.3160     7.3920
 2084.5000     9.2290   102.7800     2.5970     0.0370   -57.1500     5.4250     7.4480
 2085.0000     9.2190   101.4590     2.5740     0.0210   -57.2350     5.5350     7.5030
 2085.5000     9.2090   103.2000     2.5790     0.0290   -57.3200     5.6390     7.5580
 2086.0000     9.2100   101.6540     2.6060     0.0440   -57.4030     5.7620     7.6130
 2086.5000     9.2120    99.1140     2.5980     0.0210   -57.4910     5.8350     7.6680
 2087.0000     9.2140    97.2410     2.5800     0.0170   -57.5710     5.8130     7.7220
