~VERSION INFORMATION
 VERS.                2.0:   CWLS LOG ASCII STANDARD - VERSION 2.0
 WRAP.                 NO:   ONE LINE PER DEPTH STEP
~WELL INFORMATION
#MNEM.UNIT      DATA TYPE    INFORMATION
#----------   ------------   ------------------------------
 STRT.F            0.0000:   START DEPTH
 STOP.F         3040.0000:   STOP DEPTH
 STEP.F            0.5000:   STEP LENGTH
 NULL.          -999.2500:   NO VALUE
 COMP.    FENIX & SCISSON:   COMPANY
 WELL.  FENIX "AX" #43-28:   WELL
 FLD .             TEAPOT:   FIELD
 LOC .      S28 T39N R78W:   LOCATION
 CNTY.            NATRONA:   COUNTY
 STAT.            WYOMING:   STATE
 CTRY. UNITED STATES OF AMERICA:   COUNTRY
 SRVC.              WELEX:   SERVICE COMPANY
 DATE.        20-JUL-1980:   LOGDATE
 API .     49025108450000:   API NUMBER
~CURVE INFORMATION
#MNEM.UNIT       API CODE    CURVE DESCRIPTION
#----------   ------------   ------------------------------
 DEPT.F                  :   
 GRD .GAPI   45 310 01 00:   GAMMA RAY FROM DENSITY LOG
 CALD.IN     45 280 60 00:   CALIPER FROM DENSITY LOG
 RHOB.G/C3   45 350 01 00:   BULK DENSITY
 CORR.G/C3   45 356 01 00:   DENSITY CORRECTION
 SPR .MV     07 010 01 00:   SPONTANEOUS POTENTIAL
 ILD .OHMM   07 120 46 00:   DEEP INDUCTION RESISTIVITY
 ILM .OHMM   07 120 44 00:   INDUCTION LOG MEDIUM RESISTIVITY
 SGRD.OHMM   07 220 05 00:   SHALLOW SHORT GUARD RESISTIVITY
 NEUT.CPS    35 330 30 00:   NEUTRON
~PARAMETER INFORMATION
#MNEM.UNIT          VALUE    DESCRIPTION
#----------   ------------   ------------------------------
 EKB .F         5042.0000:   Kelly bushing
 EGL .F         5032.0000:   Ground level
 EDF .F            0.0000:   Drilling floor
 TD  .F         3038.0000:   Total depth
 DATE.        20-JUL-1980:   Date logged
 CLNT.            A2DTECH:   Client Code
 SL  . 1500' FNL & 2500' FWL:   Surface Location
 PD  .                 GL:   Permanent Datum
 EPD .F              5032:   Elevation Permanent Datum
 LMF .                 KB:   Log Measured From
 DMF .                 KB:   Drilling Measured From
 DD  .F              3000:   Depth driller
 DL  .F              3038:   Depth logger
 BLI .F              3036:   Bottom log interval
 TLI .F               432:   Top log interval
 CS1 .IN            8.625:   Casing size
 CBD1.      8.625" @ 443':   Casing driller 1
 CBL1.F               432:   Casing logger 1
 BS1 .IN            7.875:   Bit size
 BSD1.F              3000:   Depth drilled with bit1
 DFT .     WATER BASE MUD:   Type fluid in hole
 DFD .                9.3:   Density
 DFV .                 45:   Viscosity
 DFPH.                  9:   pH
 DFL .                  8:   Fluid loss
 MSS .                PIT:   Source of sample
 RMS .OHMM           0.85:   Rm
 MST .F                75:   Rm Meas. temp.
 RMF .OHMM           0.68:   Rmf
 MFST.F                75:   Rmf Meas. temp.
 RMC .OHMM           1.02:   Rmc
 MCST.F                75:   Rmc Meas. temp.
 MFSS.               MEAS:   Source Rmf.
 MCSS.               MEAS:   Source Rmc.
 RMB .OHMM           0.57:   Rm. at BHT
 BHT .F               112:   BHT.
 TCS .HRS               3:   Time Circ. stopped
 MRT .F               112:   Maximum recorded temp.
 LUN .               9865:   Logging unit number
 LUL .             CASPER:   Logging unit location
 ENGI.            TOTHILL:   Recorded By
 WITN.           DINSMORE:   Witnessed by
 ORIG.     2.5", 5" PRINT:   Origin of data
 UWI .     49025108450000:   Unique Well ID
 DICO. A2D TECHNOLOGIES, INC.:   Digitizing Company
~OTHER INFORMATION
~A    DEPT     GRD       CALD       RHOB       CORR        SPR        ILD        ILM       SGRD        NEUT  
# ...
 2482.0000    83.5800    10.3410     2.5200    -0.0040   -17.6510     6.7520     7.5170     9.1140   280.4350
 2482.5000    84.2230    10.3410     2.5260    -0.0050   -17.3360     6.8080     7.3580     9.1420   277.6910
 2483.0000    84.8640    10.3410     2.5310    -0.0030   -16.8250     6.6120     7.2000     8.7730   272.3580
 2483.5000    85.1840    10.3410     2.5380    -0.0010   -16.4590     6.4400     7.0420     8.4920   267.7300
 2484.0000    85.1890    10.3410     2.5360     0.0010   -16.9900     6.3070     6.8830     8.0710   277.9910
 2484.5000    85.0060    10.3410     2.5280    -0.0010   -17.1830     6.2540     6.7730     7.4650   285.5220
 2485.0000    84.7480    10.3410     2.5200    -0.0060   -16.8680     6.2010     6.7060     7.7890   273.1040
 2485.5000    84.4960    10.3370     2.5150    -0.0110   -16.5830     6.1480     6.6390     8.1850   262.3910
 2486.0000    84.4340    10.3340     2.5100    -0.0140   -16.4410     6.0950     6.5720     7.9290   249.5850
 2486.5000    85.0170    10.3300     2.5090    -0.0110   -17.0760     6.0430     6.5050     7.5700   274.3900
 2487.0000    85.6020    10.3260     2.5150    -0.0080   -17.5290     5.9850     6.4380     7.4650   303.9060
 2487.5000    85.9650    10.3230     2.5200    -0.0040   -18.0320     5.9600     6.3720     7.4930   268.2760
 2488.0000    86.2630    10.3190     2.5260     0.0000   -18.5460     5.9320     6.3250     7.5480   272.3220
 2488.5000    86.5660    10.3150     2.5290     0.0010   -18.7950     5.9040     6.3250     7.6040   282.4900
 2489.0000    86.2180    10.3110     2.5310     0.0010   -18.7680     5.8770     6.3250     7.6600   295.5080
 2489.5000    85.5320    10.3080     2.5330     0.0010   -18.7680     5.8490     6.3250     7.7150   310.1960
 2490.0000    84.8480    10.3040     2.5300     0.0010   -18.6850     5.8210     6.3250     7.7710   324.8550
 2490.5000    84.2850    10.2980     2.5260    -0.0030   -18.6010     5.7940     6.3250     7.8260   348.2340
 2491.0000    84.3010    10.2810     2.5250    -0.0040   -18.5260     5.7660     6.3250     7.8890   342.3760
 2491.5000    84.3030    10.2640     2.5250    -0.0050   -18.4320     5.7390     6.2470     7.8890   325.6240
 2492.0000    84.2990    10.2470     2.5270     0.0000   -18.3590     5.7110     6.0820     7.4320   313.6060
 2492.5000    84.1600    10.2310     2.5330     0.0070   -17.8810     5.6830     5.9180     7.0640   303.7890
 2493.0000    83.3820    10.2140     2.5380     0.0130   -17.2690     5.6410     5.7530     7.0850   311.0470
 2493.5000    82.6090    10.1970     2.5390     0.0170   -16.6950     5.5560     5.6630     7.1680   317.4560
 2494.0000    81.8410    10.1810     2.5370     0.0170   -16.0870     5.4700     5.7320     7.2520   324.3120
 2494.5000    81.3770    10.1640     2.5290     0.0130   -15.9500     5.3850     5.8370     7.3350   332.5760
 2495.0000    81.4840    10.1460     2.5240     0.0130   -16.4680     5.3000     5.8750     7.4650   319.6870
 2495.5000    81.5800    10.1280     2.5230     0.0140   -16.8760     5.2140     5.8750     7.3780   285.9270
 2496.0000    81.6460    10.1110     2.5250     0.0160   -16.3530     5.1290     5.6720     7.1780   288.6970
 2496.5000    81.6430    10.0930     2.5190     0.0170   -15.5140     5.0440     5.4750     6.9740   308.8280
 2497.0000    81.5420    10.0750     2.5120     0.0130   -15.7690     4.9780     5.2780     6.7660   335.5090
 2497.5000    80.8110    10.0570     2.5030     0.0100   -16.2080     4.9780     5.1650     6.5620   326.9040
 2498.0000    80.1140    10.0390     2.5000     0.0070   -16.7020     4.9780     5.1650     6.4420   298.4210
 2498.5000    79.6800    10.0220     2.5010     0.0040   -17.2170     4.9780     5.1650     6.4420   302.3130
 2499.0000    79.2500    10.0020     2.5030     0.0130   -17.4600     5.0270     5.2390     6.9160   361.4430
 2499.5000    78.8300     9.9720     2.5050     0.0210   -16.9470     5.2620     5.3620     7.1950   332.5870
 2500.0000    77.6540     9.9420     2.5030     0.0240   -16.4420     5.4960     5.4850     7.4110   357.2000
 2500.5000    76.1890     9.9120     2.4950     0.0250   -15.9060     5.7310     5.9700     7.5470   396.9910
 2501.0000    74.7200     9.8820     2.4870     0.0260   -15.3970     5.9660     7.0140     7.6040   438.2340
 2501.5000    72.1350     9.8510     2.4790     0.0260   -14.8600     6.2090     8.0580     8.3650   415.7950
 2502.0000    68.3330     9.8210     2.4700     0.0270   -14.3870     7.1220     9.1020    10.7570   370.9180
 2502.5000    64.5460     9.7910     2.4610     0.0320   -13.7010     8.0690    10.2100    14.7580   317.6620
 2503.0000    61.1860     9.7600     2.4510     0.0390   -13.0940     9.0170    10.8950    17.7430   350.0000
 2503.5000    58.3550     9.6950     2.4390     0.0460   -12.4710     9.9640    11.6230    16.6160   338.8020
 2504.0000    55.5260     9.6120     2.4270     0.0500   -11.8490    10.9110    12.2750    15.0600   319.1040
 2504.5000    55.0600     9.5330     2.4240     0.0540   -11.6460    11.7190    12.8670    13.7100   292.7860
 2505.0000    56.2340     9.3720     2.4270     0.0550   -11.6630    12.4670    13.4030    13.7100   323.6320
 2505.5000    58.0860     9.2040     2.4270     0.0550   -11.6710    13.2160    13.9390    14.4440   315.0320
 2506.0000    59.9530     9.0850     2.4190     0.0420   -11.6250    13.9640    14.4750    15.5310   304.7200
 2506.5000    61.2900     9.0430     2.4100     0.0250   -12.0870    14.3490    15.0100    16.7890   324.5450
 2507.0000    62.2920     9.0040     2.4020     0.0130   -12.8000    14.5410    15.3430    16.6270   350.2970
 2507.5000    63.2890     9.0310     2.3970     0.0060   -13.0460    14.7330    15.4130    16.2550   323.6140
 2508.0000    63.7330     9.0610     2.4060     0.0140   -13.4420    14.9250    15.4830    15.8870   299.3000
 2508.5000    63.1670     9.0910     2.4240     0.0220   -13.8370    15.1170    15.5540    15.8870   274.7850
 2509.0000    62.6220     9.1200     2.4420     0.0300   -13.9780    15.3120    15.8130    16.2200   282.3400
 2509.5000    62.1520     9.1380     2.4520     0.0370   -13.7410    15.8710    16.3690    16.6410   298.7850
 2510.0000    62.8470     9.1310     2.4450     0.0360   -13.6330    16.4400    16.9250    17.0620   317.2800
 2510.5000    63.5830     9.1250     2.4390     0.0320   -13.7740    17.0080    17.4810    17.4190   306.2690
 2511.0000    64.3100     9.1180     2.4360     0.0280   -13.9080    17.5770    18.0730    19.0870   294.0500
 2511.5000    64.7580     9.1120     2.4360     0.0240   -14.0480    18.1450    19.3280    20.5370   275.8710
 2512.0000    64.2250     9.1060     2.4420     0.0200   -14.1860    18.7140    20.6700    21.2920   333.0850
 2512.5000    63.6960     9.0990     2.4480     0.0160   -14.3420    19.2820    22.0120    21.7290   328.6440
 2513.0000    63.1690     9.0930     2.4530     0.0140   -14.2500    19.4550    22.9630    30.3050   314.3760
 2513.5000    62.6390     9.0860     2.4590     0.0150   -13.6290    19.4550    22.9630    40.6470   300.1080
 2514.0000    62.1540     9.0800     2.4650     0.0160   -13.0300    19.1390    15.8870    31.7050   285.8400
 2514.5000    62.2130     9.0730     2.4650     0.0180   -12.4530    18.6690    15.8870    19.1000   273.8810
 2515.0000    63.0730     9.0670     2.4600     0.0190   -11.9080    18.2000    16.7430    18.7510   288.7050
 2515.5000    63.8190     9.0630     2.4530     0.0210   -11.6380    17.7430    18.0660    19.4930   301.1880
 2516.0000    64.5480     9.1060     2.4460     0.0210   -11.6770    17.1040    18.9020    20.1850   275.0090
 2516.5000    65.1700     9.1490     2.4390     0.0190   -11.6330    16.4820    17.9960    18.3580   282.6970
 2517.0000    65.3660     9.1920     2.4330     0.0120   -11.9480    15.8610    17.0900    14.7580   288.6560
 2517.5000    65.5720     9.2350     2.4330     0.0050   -12.5180    15.2390    16.1840    14.7580   298.1770
 2518.0000    65.5970     9.2770     2.4380     0.0090   -13.0460    14.6180    15.2780    14.9570   293.0530
