~VERSION INFORMATION
 VERS.                2.0:   CWLS LOG ASCII STANDARD - VERSION 2.0
 WRAP.                 NO:   ONE LINE PER DEPTH STEP
~WELL INFORMATION
#MNEM.UNIT      DATA TYPE    INFORMATION
#----------   ------------   ------------------------------
 STRT.F            0.0000:   START DEPTH
 STOP.F         3964.0000:   STOP DEPTH
 STEP.F            0.5000:   STEP LENGTH
 NULL.          -999.2500:   NO VALUE
 COMP. LAWRENCE ALLISON & ASSOCIATES:   COMPANY
 WELL. LAWRENCE NPR 3 "X" #43-10:   WELL
 FLD .              N P R:   FIELD
 LOC .      S10 T38N R78W:   LOCATION
 CNTY.            NATRONA:   COUNTY
 STAT.            WYOMING:   STATE
 CTRY. UNITED STATES OF AMERICA:   COUNTRY
 SRVC.      DRESSER ATLAS:   SERVICE COMPANY
 DATE.        07-AUG-1985:   LOGDATE
 API .     49025111390000:   API NUMBER
~CURVE INFORMATION
#MNEM.UNIT       API CODE    CURVE DESCRIPTION
#----------   ------------   ------------------------------
 DEPT.F                  :   
 CNC .DEC    42 890 03 00:   NEUTRON PORISITY SANDSTONE
 RHOB.G/C3   45 350 01 00:   BULK DENSITY
 CORR.G/C3   45 356 01 00:   DENSITY CORRECTION
 TEND.LBS    45 635 01 00:   TENSION FROM DENSITY LOG
 GRR .GAPI   07 310 01 00:   GAMMA RAY FROM RESISTIVITY
 CALR.IN     07 280 01 00:   CALIPER FROM RESISTIVITY
 SPR .MV     07 010 01 00:   SPONTANEOUS POTENTIAL
 TENR.LBS    07 635 01 00:   TENSION FROM RESISTIVITY
 RILD.OHMM   07 120 46 00:   DEEP INDUCTION RESISTIVITY
 RILM.OHMM   07 120 44 00:   INDUCTION LOG MEDIUM RESISTIVITY
 RFOC.OHMM   07 220 04 00:   RESISTIVITY FOCUSED LOG RES.
 DT  .US/F   60 520 00 00:   DELTA TIME
 TENS.LBS    60 635 01 00:   TENSION FROM SONIC
~PARAMETER INFORMATION
#MNEM.UNIT          VALUE    DESCRIPTION
#----------   ------------   ------------------------------
 EKB .F         5223.0000:   Kelly bushing
 EGL .F         5211.0000:   Ground level
 EDF .F            0.0000:   Drilling floor
 EPD .F         5211.0000:   Permanent datum
 TD  .F         3950.0000:   Total depth
 DATE.        07-AUG-1985:   Date logged
 CLNT.            A2DTECH:   Client Code
 SL  . 2016' FNL & 2230' FWL:   Surface Location
 PD  .                 GL:   Permanent Datum
 DD  .F              3950:   Depth driller
 DL  .F              3950:   Depth logger
 BLI .F              3948:   Bottom log interval
 CS1 .IN            8.625:   Casing size
 CBD1.      8.625" @ 518':   Casing driller 1
 CBL1.F               520:   Casing logger 1
 BS1 .IN            7.875:   Bit size
 DFT .            KCL-GEL:   Type fluid in hole
 DFD .                8.9:   Density
 DFV .                 40:   Viscosity
 DFPH.                  9:   pH
 DFL .                 12:   Fluid loss
 MSS .           FLOWLINE:   Source of sample
 RMS .OHMM           .318:   Rm
 MST .F                82:   Rm Meas. temp.
 RMF .OHMM            .24:   Rmf
 MFST.F                82:   Rmf Meas. temp.
 RMC .OHMM            .40:   Rmc
 MCST.F                82:   Rmc Meas. temp.
 MFSS.               CALC:   Source Rmf.
 RMB .OHMM            .19:   Rm. at BHT
 BHT .F               140:   BHT.
 TCS .HRS               4:   Time Circ. stopped
 MRT .F               140:   Maximum recorded temp.
 LUN .               6264:   Logging unit number
 LUL .               GLTE:   Logging unit location
 ENGI.           FAHLSING:   Recorded By
 WITN.             STRONG:   Witnessed by
 ORIG.           5" PRINT:   Origin of data
 UWI .     49025111390000:   Unique Well ID
 DICO. A2D TECHNOLOGIES, INC.:   Digitizing Company
 DAPD.                 12:   Feet Above Permanent Datum
 BSD1.               3950:   Depth drilled with bit1
 MCSS.               CALC:   Source Rmc.
~OTHER INFORMATION
~A    DEPT     CNC       RHOB       CORR       TEND         GRR      CALR        SPR       TENR       RILD       RILM       RFOC         DT       TENS   
# ...
 2340.0000  -999.2500  -999.2500  -999.2500  -999.2500   102.2400     8.8390   -77.8950   -56.1630     4.9300     5.2180     5.6280  -999.2500  -999.2500
 2340.5000  -999.2500  -999.2500  -999.2500  -999.2500   102.9820     8.8390   -77.8580   -56.1630     4.8560     5.1330     5.5280  -999.2500  -999.2500
 2341.0000  -999.2500  -999.2500  -999.2500  -999.2500   104.7640     8.8390   -77.8210   -56.1630     4.7820     5.0420     5.3760  -999.2500  -999.2500
 2341.5000  -999.2500  -999.2500  -999.2500  -999.2500   104.4180     8.8390   -77.7840   -56.1630     4.7070     4.9800     4.9750  -999.2500  -999.2500
 2342.0000  -999.2500  -999.2500  -999.2500  -999.2500   103.8040     8.8390   -77.7470   -56.1630     4.6390     4.9130     4.6860  -999.2500  -999.2500
 2342.5000  -999.2500  -999.2500  -999.2500  -999.2500   104.9060     8.8390   -77.7040   -56.1630     4.6030     4.8450     4.7290  -999.2500  -999.2500
 2343.0000  -999.2500  -999.2500  -999.2500  -999.2500   107.8440     8.8340   -77.9310   -56.1630     4.5680     4.7780     5.0630  -999.2500  -999.2500
 2343.5000  -999.2500  -999.2500  -999.2500  -999.2500   110.7460     8.8280   -78.2350   -56.1630     4.5330     4.7100     5.4250  -999.2500  -999.2500
 2344.0000  -999.2500  -999.2500  -999.2500  -999.2500   112.8840     8.8230   -78.5650   -56.1630     4.4980     4.6430     5.6800  -999.2500  -999.2500
 2344.5000  -999.2500  -999.2500  -999.2500  -999.2500   112.7530     8.8170   -78.9990   -56.1630     4.4600     4.5970     5.6800  -999.2500  -999.2500
 2345.0000  -999.2500  -999.2500  -999.2500  -999.2500   114.0610     8.8120   -79.4380   -56.1630     4.4160     4.5880     5.3920  -999.2500  -999.2500
 2345.5000  -999.2500  -999.2500  -999.2500  -999.2500   117.9050     8.8060   -79.8400   -56.1630     4.3550     4.5780     4.9720  -999.2500  -999.2500
 2346.0000  -999.2500  -999.2500  -999.2500  -999.2500   121.5420     8.8010   -79.5120   -56.1630     4.4000     4.5680     4.5970  -999.2500  -999.2500
 2346.5000  -999.2500  -999.2500  -999.2500  -999.2500   119.8040     8.8000   -79.1560   -56.1630     4.4730     4.5590     4.3950  -999.2500  -999.2500
 2347.0000  -999.2500  -999.2500  -999.2500  -999.2500   116.9210     8.8000   -78.8030   -56.1630     4.5460     4.8710     4.3150  -999.2500  -999.2500
 2347.5000  -999.2500  -999.2500  -999.2500  -999.2500   114.0540     8.8000   -78.4510   -56.1630     4.6490     5.1730     4.9120  -999.2500  -999.2500
 2348.0000  -999.2500  -999.2500  -999.2500  -999.2500   110.5790     8.7990   -78.0980   -56.1630     4.8410     5.4880     5.4770  -999.2500  -999.2500
 2348.5000  -999.2500  -999.2500  -999.2500  -999.2500   107.3380     8.7950   -77.7480   -56.1630     5.0320     5.8090     6.0720  -999.2500  -999.2500
 2349.0000  -999.2500  -999.2500  -999.2500  -999.2500    97.4480     8.7910   -77.6140   -56.1630     5.2240     6.1670     6.7470  -999.2500  -999.2500
 2349.5000  -999.2500  -999.2500  -999.2500  -999.2500    92.6190     8.7870   -77.5150   -56.1630     5.4160     6.1450     7.4220  -999.2500  -999.2500
 2350.0000  -999.2500  -999.2500  -999.2500  -999.2500    97.8320     8.7830   -77.4160   -56.1630     5.6160     6.1190     7.8970  -999.2500  -999.2500
 2350.5000  -999.2500  -999.2500  -999.2500  -999.2500   107.2400     8.7800   -77.3140   -56.1630     5.8380     6.0470     6.6790  -999.2500  -999.2500
 2351.0000  -999.2500  -999.2500  -999.2500  -999.2500   109.4570     8.7770   -77.3080   -56.1630     5.7650     5.9550     6.0980  -999.2500  -999.2500
 2351.5000  -999.2500  -999.2500  -999.2500  -999.2500   112.8070     8.7730   -77.3080   -56.1630     5.6860     5.8630     5.8380  -999.2500  -999.2500
 2352.0000  -999.2500  -999.2500  -999.2500  -999.2500   115.7580     8.7690   -77.3070   -56.1630     5.6060     5.7810     5.8800  -999.2500  -999.2500
 2352.5000  -999.2500  -999.2500  -999.2500  -999.2500   115.1610     8.7660   -77.3120   -56.1630     5.5260     5.7530     5.9250  -999.2500  -999.2500
 2353.0000  -999.2500  -999.2500  -999.2500  -999.2500   113.5170     8.7620   -77.4870   -56.1630     5.4750     5.7250     5.9970  -999.2500  -999.2500
 2353.5000  -999.2500  -999.2500  -999.2500  -999.2500   111.8720     8.7600   -77.6770   -56.1630     5.5420     5.6970     6.0910  -999.2500  -999.2500
 2354.0000  -999.2500  -999.2500  -999.2500  -999.2500   110.2690     8.7600   -77.8660   -56.1630     5.5910     5.6800     6.1670  -999.2500  -999.2500
 2354.5000  -999.2500  -999.2500  -999.2500  -999.2500   110.4390     8.7600   -78.0520   -56.1630     5.6400     5.7270     6.1320  -999.2500  -999.2500
 2355.0000  -999.2500  -999.2500  -999.2500  -999.2500   110.8420     8.7600   -78.3980   -56.1630     5.6800     5.7620     6.1030  -999.2500  -999.2500
 2355.5000  -999.2500  -999.2500  -999.2500  -999.2500   111.2510     8.7640   -78.7780   -56.1630     5.6800     5.7970     6.0730  -999.2500  -999.2500
 2356.0000  -999.2500  -999.2500  -999.2500  -999.2500   111.4440     8.7680   -79.0310   -56.1630     5.6790     5.8310     6.0550  -999.2500  -999.2500
 2356.5000  -999.2500  -999.2500  -999.2500  -999.2500   109.5620     8.7720   -78.7420   -56.1630     5.6800     5.8560     6.2060  -999.2500  -999.2500
 2357.0000  -999.2500  -999.2500  -999.2500  -999.2500   107.3190     8.7760   -78.4650   -56.1630     5.6800     5.8790     6.3750  -999.2500  -999.2500
 2357.5000  -999.2500  -999.2500  -999.2500  -999.2500   104.8560     8.7800   -78.1890   -56.1630     5.6790     5.9020     6.5440  -999.2500  -999.2500
 2358.0000  -999.2500  -999.2500  -999.2500  -999.2500   103.4750     8.7860   -77.9860   -56.1630     5.6800     5.9250     6.6360  -999.2500  -999.2500
 2358.5000  -999.2500  -999.2500  -999.2500  -999.2500   105.3490     8.7910   -77.8190   -56.1630     5.6790     5.9480     6.3980  -999.2500  -999.2500
 2359.0000  -999.2500  -999.2500  -999.2500  -999.2500   107.4550     8.7970   -77.6510   -56.1630     5.7340     5.9700     6.2240  -999.2500  -999.2500
 2359.5000  -999.2500  -999.2500  -999.2500  -999.2500   109.5950     8.7970   -77.5370   -56.1630     5.7720     5.9930     6.2240  -999.2500  -999.2500
 2360.0000  -999.2500  -999.2500  -999.2500  -999.2500   110.3760     8.7910   -78.0620   -56.1630     5.8090     6.0230     6.3330  -999.2500  -999.2500
 2360.5000  -999.2500  -999.2500  -999.2500  -999.2500   110.5900     8.7850   -78.0130   -56.1630     5.8460     6.0570     6.4060  -999.2500  -999.2500
 2361.0000  -999.2500  -999.2500  -999.2500  -999.2500   109.0150     8.7810   -77.9160   -56.1630     5.8830     6.0900     6.5290  -999.2500  -999.2500
 2361.5000  -999.2500  -999.2500  -999.2500  -999.2500   106.9880     8.7900   -77.8200   -56.1630     5.9210     6.1230     6.7590  -999.2500  -999.2500
 2362.0000  -999.2500  -999.2500  -999.2500  -999.2500   103.5200     8.7990   -77.7230   -56.1630     5.9490     6.1560     6.8210  -999.2500  -999.2500
 2362.5000  -999.2500  -999.2500  -999.2500  -999.2500   103.1850     8.8080   -77.5560   -56.1630     5.9600     6.1890     6.6830  -999.2500  -999.2500
 2363.0000  -999.2500  -999.2500  -999.2500  -999.2500   104.9070     8.8170   -77.2930   -56.1630     5.9700     6.2240     6.4640  -999.2500  -999.2500
 2363.5000  -999.2500  -999.2500  -999.2500  -999.2500   107.3960     8.8240   -77.0250   -56.1630     5.9810     6.2780     6.2450  -999.2500  -999.2500
 2364.0000  -999.2500  -999.2500  -999.2500  -999.2500   109.8240     8.8300   -77.0740   -56.1630     5.9920     6.3350     6.0260  -999.2500  -999.2500
 2364.5000  -999.2500  -999.2500  -999.2500  -999.2500   111.7190     8.8360   -77.3410   -56.6360     6.0140     6.3920     5.8910  -999.2500  -999.2500
 2365.0000  -999.2500  -999.2500  -999.2500  -999.2500   111.8340     8.8500   -77.6120   -57.2410     6.0850     6.4480     6.0390  -999.2500  -999.2500
 2365.5000  -999.2500  -999.2500  -999.2500  -999.2500   108.3610     8.8690   -77.8830   -57.8460     6.1560     6.5050     6.5140  -999.2500  -999.2500
