~VERSION INFORMATION
 VERS.                2.0:   CWLS LOG ASCII STANDARD - VERSION 2.0
 WRAP.                 NO:   ONE LINE PER DEPTH STEP
~WELL INFORMATION
#MNEM.UNIT      DATA TYPE    INFORMATION
#----------   ------------   ------------------------------
 STRT.F            0.0000:   START DEPTH
 STOP.F         3040.0000:   STOP DEPTH
 STEP.F            0.5000:   STEP LENGTH
 NULL.          -999.2500:   NO VALUE
 COMP. LAWRENCE ALLISON & ASSOCIATES:   COMPANY
 WELL. LAWRENCE NPR 3 "AX" #77-28:   WELL
 FLD .      NPR - WILDCAT:   FIELD
 LOC .      S28 T39N R78W:   LOCATION
 CNTY.            NATRONA:   COUNTY
 STAT.            WYOMING:   STATE
 CTRY. UNITED STATES OF AMERICA:   COUNTRY
 SRVC.      DRESSER ATLAS:   SERVICE COMPANY
 DATE.        19-OCT-1986:   LOGDATE
 API .     49025111150000:   API NUMBER
~CURVE INFORMATION
#MNEM.UNIT       API CODE    CURVE DESCRIPTION
#----------   ------------   ------------------------------
 DEPT.F                  :   
 TENR.LBS    07 635 01 00:   TENSION FROM RESISTIVITY
 RILD.OHMM   07 120 46 00:   DEEP INDUCTION RESISTIVITY
 RILM.OHMM   07 120 44 00:   INDUCTION LOG MEDIUM RESISTIVITY
 RFOC.OHMM   07 220 04 00:   RESISTIVITY FOCUSED LOG RES.
 SPR .MV     07 010 01 00:   SPONTANEOUS POTENTIAL
 GRR .GAPI   07 310 01 00:   GAMMA RAY FROM RESISTIVITY
 CNC .DEC    42 890 03 00:   NEUTRON POROSITY SANDSTONE
 RHOB.G/C3   45 350 01 00:   BULK DENSITY
 TEND.LBS    45 635 01 00:   TENSION FROM DENSITY LOG
 CORR.G/C3   45 356 01 00:   DENSITY CORRECTION
 CALD.IN     45 280 60 00:   CALIPER FROM DENSITY LOG
~PARAMETER INFORMATION
#MNEM.UNIT          VALUE    DESCRIPTION
#----------   ------------   ------------------------------
 EKB .F         5086.0000:   Kelly bushing
 EGL .F         5074.0000:   Ground level
 EDF .F            0.0000:   Drilling floor
 TD  .F         3025.0000:   Total depth
 DATE.        19-OCT-1986:   Date logged
 CLNT.            A2DTECH:   Client Code
 SL  . 967' FSL @ 763' FEL:   Surface Location
 PD  .                 GL:   Permanent Datum
 EPD .F              5074:   Elevation Permanent Datum
 LMF .                 KB:   Log Measured From
 DMF .                 KB:   Drilling Measured From
 DAPD.F                12:   Feet Above Permanent Datum
 DD  .F              3021:   Depth driller
 DL  .F              3025:   Depth logger
 BLI .F              3023:   Bottom log interval
 CS1 .IN            8.625:   Casing size
 CBD1.      8.625" @ 620':   Casing driller 1
 CBL1.F               615:   Casing logger 1
 BS1 .IN            7.875:   Bit size
 BSD1.F              3021:   Depth drilled with bit1
 DFT .        KCL/POLTMER:   Type fluid in hole
 DFD .                8.9:   Density
 DFV .                 38:   Viscosity
 DFPH.                9.5:   pH
 DFL .                 11:   Fluid loss
 MSS .           FLOWLINE:   Source of sample
 RMS .OHMM            .25:   Rm
 MST .F                65:   Rm Meas. temp.
 RMF .OHMM           .203:   Rmf
 MFST.F                65:   Rmf Meas. temp.
 RMC .OHMM            .31:   Rmc
 MCST.F                65:   Rmc Meas. temp.
 MFSS.               MEAS:   Source Rmf.
 MCSS.               CALC:   Source Rmc.
 RMB .OHMM           .136:   Rm. at BHT
 BHT .F               119:   BHT.
 TCS .HRS               5:   Time Circ. stopped
 MRT .F               119:   Maximum recorded temp.
 LUN .               6274:   Logging unit number
 LUL .               GLTE:   Logging unit location
 ENGI.             RAUTIO:   Recorded By
 WITN.             STRONG:   Witnessed by
 ORIG.         2.5" PRINT:   Origin of data
 UWI .     49025111150000:   Unique Well ID
 DICO. A2D TECHNOLOGIES, INC.:   Digitizing Company
~OTHER INFORMATION
~A    DEPT    TENR       RILD       RILM       RFOC        SPR         GRR       CNC       RHOB       TEND       CORR       CALD   
# ...
 2989.0000   251.3350     2.6050     2.7820     3.4660   -67.3340  -999.2500  -999.2500     2.4580   227.1740     0.0180     8.3330
 2989.5000   257.9980     2.5840     2.7090     3.3800   -67.3480  -999.2500  -999.2500     2.4480   232.6090     0.0200     8.3100
 2990.0000   264.6620     2.5630     2.6360     3.2940   -67.3610  -999.2500  -999.2500     2.4380   238.0430     0.0220     8.3030
 2990.5000   271.3260     2.5420     2.5750     3.2570   -67.3740  -999.2500  -999.2500     2.4320   243.4780     0.0260     8.2960
 2991.0000   277.9890     2.5180     2.5990     3.2570   -67.3880  -999.2500  -999.2500     2.4310   248.9130     0.0150     8.2900
 2991.5000   284.6530     2.4900     2.6190     3.2570   -67.4010  -999.2500  -999.2500     2.4330   254.3480     0.0040     8.2830
 2992.0000   291.3170     2.4610     2.6390     3.2570   -67.4140  -999.2500  -999.2500     2.4360   259.7830    -0.0100     8.2770
 2992.5000   297.9810     2.4330     2.6590     3.3250   -67.4280  -999.2500  -999.2500     2.4390   265.2170    -0.0140     8.2700
 2993.0000   304.6440     2.4040     2.6700     3.3630   -67.4410  -999.2500  -999.2500     2.4420   270.6520    -0.0140     8.2640
 2993.5000   311.3080     2.3760     2.6100     3.4020   -67.4550  -999.2500  -999.2500     2.4400   276.0870    -0.0100     8.2570
 2994.0000   317.9720     2.3470     2.5530     3.4380   -67.4690  -999.2500  -999.2500     2.4320   281.5220    -0.0030     8.2510
 2994.5000   324.6360     2.3180     2.4950     3.1820   -67.4790  -999.2500  -999.2500     2.4230   286.9570     0.0040     8.2450
 2995.0000   331.2990     2.2900     2.4370     2.9390   -67.5000  -999.2500  -999.2500     2.4120   292.3910     0.0240     8.2370
 2995.5000   337.9630     2.2610     2.3960     2.6700   -67.5050  -999.2500  -999.2500     2.4110   297.8260     0.0400     8.2330
 2996.0000   344.6270     2.2330     2.3960     2.7740   -67.4800  -999.2500  -999.2500     2.4110   303.2000     0.0600     8.2140
 2996.5000   351.2910     2.2040     2.3960     2.8910   -67.0400  -999.2500  -999.2500     2.4130   308.5340     0.0520     8.1850
 2997.0000   357.9540     2.1750     2.3960     3.0080   -66.6200  -999.2500  -999.2500     2.4170   313.8670     0.0390     8.1580
 2997.5000   364.6180     2.1470     2.3960     3.0850   -66.1790  -999.2500  -999.2500     2.4210   319.2010     0.0260     8.1300
 2998.0000   371.2190     2.1180     2.3960     3.0740   -65.7500  -999.2500  -999.2500     2.4250   324.5340     0.0130     8.1090
 2998.5000   377.7670     2.0950     2.3490     3.0620   -65.3170  -999.2500  -999.2500     2.4290   329.8680     0.0040     8.1090
 2999.0000   384.3150     2.0730     2.2860     3.0510   -64.8840  -999.2500  -999.2500  -999.2500   335.2010     0.0020     8.1080
 2999.5000   390.8630     2.0510     2.2230     3.0390   -64.4520  -999.2500  -999.2500  -999.2500   340.5350     0.0060     8.1090
 3000.0000   397.4110     2.0290     2.1600     3.0300   -64.0180  -999.2500  -999.2500  -999.2500   345.8680     0.0230     8.1080
 3000.5000   403.9590     2.0070     2.0980     2.8610   -63.5870  -999.2500  -999.2500  -999.2500   351.2020     0.0380     8.1090
 3001.0000   410.5070     1.9850     2.0000     2.7190   -63.1530  -999.2500  -999.2500  -999.2500   356.5360     0.0500     8.1080
 3001.5000   417.0550     1.9640     2.0350     2.5780   -62.7190  -999.2500  -999.2500  -999.2500   361.8690     0.0500     8.1080
 3002.0000   423.6030     1.9290     2.1140     2.5290   -62.2980  -999.2500  -999.2500  -999.2500   367.2030     0.0430     8.1080
 3002.5000   430.1510     1.9640     2.1930     2.6970   -61.8350  -999.2500  -999.2500  -999.2500   372.5360     0.0300     8.1080
 3003.0000   436.7000     2.0000     2.2720     2.8920   -61.7500  -999.2500  -999.2500  -999.2500   377.8700     0.0320     8.1080
 3003.5000   443.2480     2.0360     2.3510     3.1410   -61.9940  -999.2500  -999.2500  -999.2500   383.2030     0.0390     8.1080
 3004.0000   449.7960     2.2170     2.4300     3.1300   -61.9080  -999.2500  -999.2500  -999.2500   388.5370     0.0410     8.1080
 3004.5000   456.3440     2.3800     2.5090     3.0950   -61.5150  -999.2500  -999.2500  -999.2500   393.8700     0.0370     8.1080
 3005.0000   462.8920     2.5440     2.7060     3.0590   -61.1650  -999.2500  -999.2500  -999.2500   400.0000     0.0320     8.1080
 3005.5000   469.4400     2.7070     2.9420     3.0300   -60.7980  -999.2500  -999.2500  -999.2500   392.8750     0.0290     8.1080
 3006.0000   475.9880     2.8700     3.1780     3.6010   -60.4350  -999.2500  -999.2500  -999.2500   384.5000     0.0340     8.1080
 3006.5000   482.5360     3.0330     3.4140     4.0890   -60.1290  -999.2500  -999.2500  -999.2500   384.8660     0.0390     8.1080
 3007.0000   489.0840     3.1960     3.7690     4.5770   -60.1200  -999.2500  -999.2500  -999.2500   395.3840     0.0430     8.1080
 3007.5000   495.6320     3.3160     3.7630     4.9320   -60.1130  -999.2500  -999.2500  -999.2500   405.9010     0.0460     8.1080
 3008.0000   502.1800     3.1630     3.5250     5.3030   -60.1180  -999.2500  -999.2500  -999.2500   416.4190     0.0330     8.1080
 3008.5000   508.7280     2.9810     3.2420     5.1150   -60.1160  -999.2500  -999.2500  -999.2500   426.9360    -0.0120     8.1080
 3009.0000   515.2760     2.7990     2.9580     4.4310   -60.1160  -999.2500  -999.2500  -999.2500   437.4530    -0.0750     8.1080
 3009.5000   521.8250     2.6760     2.8190     3.3750   -60.1170  -999.2500  -999.2500  -999.2500   447.9710    -0.0590     8.1080
 3010.0000   528.3730     2.6970     2.8700     2.4400   -60.1170  -999.2500  -999.2500  -999.2500   458.4880     0.0100     8.1080
 3010.5000   534.9210     2.7180     3.0110     2.4400   -60.1170  -999.2500  -999.2500  -999.2500   469.0060     0.0310     8.1080
 3011.0000   541.4690     2.7390     3.2070     3.1930   -60.1170  -999.2500  -999.2500  -999.2500   479.5230  -999.2500     8.1080
 3011.5000   548.0170     2.7590     3.4030     4.0010   -60.1170  -999.2500  -999.2500  -999.2500   490.0410  -999.2500     8.1080
 3012.0000   554.5650     2.8700     3.5650     5.3030   -60.1170  -999.2500  -999.2500  -999.2500   500.5580  -999.2500     8.1080
 3012.5000   561.1130     3.4060     3.8660     5.2280   -60.1170  -999.2500  -999.2500  -999.2500   511.0760  -999.2500     8.1080
 3013.0000   569.7110     3.8630     4.4120     5.0340   -60.1170  -999.2500  -999.2500  -999.2500   521.5930  -999.2500     8.1080
 3013.5000   579.6700     4.3190     4.9580     4.8460   -60.1170  -999.2500  -999.2500  -999.2500   532.1100  -999.2500     8.1080
 3014.0000   589.6280     4.8460     5.8050     4.8460   -60.1170  -999.2500  -999.2500  -999.2500   542.6280  -999.2500     8.1080
 3014.5000   599.5870     4.9010     5.7950     5.3020   -60.1170  -999.2500  -999.2500  -999.2500   553.1450  -999.2500     8.1080
 3015.0000   609.5460     4.9670     5.7730     5.9100   -60.1170  -999.2500  -999.2500  -999.2500   564.3750  -999.2500     8.1080
 3015.5000   619.5050     5.0330     5.7510     6.1280   -60.1170  -999.2500  -999.2500  -999.2500   576.9370  -999.2500     8.1080
 3016.0000   629.4630     5.0990     5.7290     5.8050   -60.1170  -999.2500  -999.2500  -999.2500   589.5000  -999.2500     8.1080
 3016.5000   639.4220     5.1650     5.7080     5.8280   -60.1170  -999.2500  -999.2500  -999.2500   602.0620  -999.2500     8.1080
 3017.0000   649.3810     5.2090     5.6860     5.8720   -60.1170  -999.2500  -999.2500  -999.2500   614.6250  -999.2500     8.1080
 3017.5000   659.3400     5.1600     5.6640     5.9100   -60.1170  -999.2500  -999.2500  -999.2500   627.1870  -999.2500     8.1080
 3018.0000   672.1560     5.1080     5.6420     5.9100   -60.1170  -999.2500  -999.2500  -999.2500   639.7500  -999.2500     8.1080
 3018.5000   685.8920     5.0560     5.6210     5.6340   -60.1170  -999.2500  -999.2500  -999.2500   652.3120  -999.2500     8.1080
 3019.0000   699.6280     5.0040     5.5990     5.3480   -60.1170  -999.2500  -999.2500  -999.2500   664.8750  -999.2500     8.1080
