~VERSION INFORMATION
 VERS.                2.0:   CWLS LOG ASCII STANDARD - VERSION 2.0
 WRAP.                 NO:   ONE LINE PER DEPTH STEP
~WELL INFORMATION
#MNEM.UNIT      DATA TYPE    INFORMATION
#----------   ------------   ------------------------------
 STRT.F           15.0000:   START DEPTH
 STOP.F         2952.5000:   STOP DEPTH
 STEP.F            0.5000:   STEP LENGTH
 NULL.          -999.2500:   NO VALUE
 COMP.    FENIX & SCISSON:   COMPANY
 WELL.  FENIX "AX" #64-29:   WELL
 FLD .  TEAPOT DOME NPR-3:   FIELD
 LOC .      S29 T39N R78W:   LOCATION
 CNTY.            NATRONA:   COUNTY
 STAT.            WYOMING:   STATE
 CTRY. UNITED STATES OF AMERICA:   COUNTRY
 SRVC.           BIRDWELL:   SERVICE COMPANY
 DATE.        02-MAY-1978:   LOGDATE
 API .     49025106460000:   API NUMBER
~CURVE INFORMATION
#MNEM.UNIT       API CODE    CURVE DESCRIPTION
#----------   ------------   ------------------------------
 DEPT.F                  :   
 SPR .MV     05 010 01 00:   SPONTANEOUS POTENTIAL
 IL  .OHMM   05 120 00 00:   INDUCTION RESISTIVITY
 SN  .OHMM   05 040 16 00:   SHORT NORMAL 16"
 CALD.IN     45 280 60 00:   CALIPER FROM DENSITY LOG
 GRD .GAPI   45 310 01 00:   GAMMA RAY FROM DENSITY LOG
 CORR.G/C3   45 356 01 00:   DENSITY CORRECTION
 RHOB.G/C3   45 350 01 00:   BULK DENSITY
~PARAMETER INFORMATION
#MNEM.UNIT          VALUE    DESCRIPTION
#----------   ------------   ------------------------------
 EKB .F         4993.0000:   Kelly bushing
 EGL .F         4983.0000:   Ground level
 EDF .F            0.0000:   Drilling floor
 TD  .F         2952.0000:   Total depth
 DATE.        02-MAY-1978:   Date logged
 CLNT.            A2DTECH:   Client Code
 SL  . 2150' FNL & 1560' FEL:   Surface Location
 PD  .                 GL:   Permanent Datum
 DD  .F              2950:   Depth driller
 DL  .F              2952:   Depth logger
 BLI .F              2947:   Bottom log interval
 CBL1.F               150:   Casing logger 1
 BS1 .IN            7.875:   Bit size
 DFT .                GEL:   Type fluid in hole
 DFD .                8.7:   Density
 DFV .                 30:   Viscosity
 DFPH.                 10:   pH
 DFL .                7.6:   Fluid loss
 MSS .            MUD PIT:   Source of sample
 RMS .OHMM            1.3:   Rm
 MST .F                62:   Rm Meas. temp.
 RMF .OHMM            .95:   Rmf
 MFST.F                64:   Rmf Meas. temp.
 RMC .OHMM              1:   Rmc
 MCST.F                64:   Rmc Meas. temp.
 MFSS.               MEAS:   Source Rmf.
 RMB .OHMM            .73:   Rm. at BHT
 BHT .F               110:   BHT.
 TCS .HRS               3:   Time Circ. stopped
 MRT .F               110:   Maximum recorded temp.
 LUN .               2958:   Logging unit number
 LUL .               CASP:   Logging unit location
 ENGI.             MILLER:   Recorded By
 WITN.           MCGINLEY:   Witnessed by
 ORIG.         2.5" PRINT:   Origin of data
 UWI .     49025106460000:   Unique Well ID
 DICO. A2D TECHNOLOGIES, INC.:   Digitizing Company
 DAPD.                 10:   Feet Above Permanent Datum
 BSD1.F              2950:   Depth drilled with bit1
 EPD .F              4983:   Elevation Permanent Datum
 LMF .                 KB:   Log Measured From
 DMF .                 KB:   Drilling Measured From
 TLI .F               150:   Top log interval
~OTHER INFORMATION
~A   DEPT      SPR         IL         SN       CALD        GRD       CORR       RHOB   
# ...
 2927.0000   -34.7770     3.9900     4.9920     6.3730    81.5390     0.0640     2.5380
 2927.5000   -34.7590     3.8790     4.8140     6.3670    84.0650     0.0670     2.5410
 2928.0000   -34.7410     3.7540     4.5950     6.3620    86.8120     0.0700     2.5410
 2928.5000   -34.7230     3.7360     4.5120     6.3570    87.7830     0.0700     2.5400
 2929.0000   -34.7050     3.7150     4.5050     6.3520    91.3060     0.0690     2.5380
 2929.5000   -34.6870     3.6940     4.4950     6.3460    95.1150     0.0680     2.5470
 2930.0000   -34.6680     3.6730     4.4850     6.3410    96.4700     0.0670     2.5480
 2930.5000   -34.6500     3.6510     4.4750     6.3360    96.2690     0.0660     2.5490
 2931.0000   -34.6320     3.6300     4.4660     6.3410    97.3580     0.0650     2.5500
 2931.5000   -34.6140     3.6090     4.4560     6.3520   100.2250     0.0620     2.5480
 2932.0000   -34.5960     3.5880     4.4460     6.3620   102.7140     0.0690     2.5420
 2932.5000   -34.5770     3.5670     4.4360     6.3710    99.9560     0.0700     2.5340
 2933.0000   -34.5590     3.5230     4.3720     6.3810    97.2620     0.0700     2.5310
 2933.5000   -34.5410     3.4220     4.1760     6.3910   102.6790     0.0700     2.5310
 2934.0000   -34.5230     3.3210     3.9810     6.4010   108.4310     0.0700     2.5300
 2934.5000   -34.5050     3.2200     3.7540     6.4110   112.2650     0.0690     2.5290
 2935.0000   -34.4870     3.1190     3.6990     6.4210   111.0150     0.0690     2.5280
 2935.5000   -34.4680     3.0110     3.6330     6.4310   110.1750     0.0690     2.5290
 2936.0000   -34.4500     3.0010     3.5570     6.4410   110.0700     0.0680     2.5290
 2936.5000   -34.4320     2.9820     3.5650     6.4500   112.3630     0.0680     2.5360
 2937.0000   -34.4140     2.9640     3.5800     6.4690   113.1490     0.0680     2.5470
 2937.5000   -34.3960     2.9450     3.5960     6.4960   113.1550     0.0670     2.5530
 2938.0000   -34.3780     2.9260     3.6180     6.5250   113.0810     0.0670     2.5640
 2938.5000   -34.3590     2.9080     3.5650     6.5100   112.9860     0.0670     2.5150
 2939.0000   -34.3410     2.8890     3.4690     6.4550   111.5890     0.0680     2.5220
 2939.5000   -34.3230     2.8710     3.3620     6.4010   110.0330     0.0680     2.5270
 2940.0000   -34.3050     2.8520     3.3430     6.3740   115.1140     0.0690     2.5320
 2940.5000   -34.2870     2.8340     3.3220     6.3820   113.2050     0.0700     2.5270
 2941.0000   -34.2690     2.8150     3.3010     6.3860   108.7030     0.0700     2.5240
 2941.5000   -34.2500     2.7970     3.2800     6.3910   106.8700     0.0710     2.5130
 2942.0000   -34.2320     2.8150     3.2590     6.3950   106.2270     0.0740     2.5120
 2942.5000   -34.2140     2.8320     3.2400     6.3990   109.4540     0.0770     2.5120
 2943.0000   -34.1960     2.8490     3.2630     6.4070   114.1760     0.0810     2.5120
 2943.5000   -34.1780     2.8170     3.2820  -999.2500  -999.2500  -999.2500  -999.2500
 2944.0000   -34.1590     2.7840     3.3010  -999.2500  -999.2500  -999.2500  -999.2500
 2944.5000   -34.1410     2.7520     3.2680  -999.2500  -999.2500  -999.2500  -999.2500
 2945.0000   -34.1230     2.7190     3.2370  -999.2500  -999.2500  -999.2500  -999.2500
 2945.5000   -34.1050     2.6860     3.2060  -999.2500  -999.2500  -999.2500  -999.2500
 2946.0000   -34.0870     2.6540     3.1750  -999.2500  -999.2500  -999.2500  -999.2500
 2946.5000   -34.0690     2.5990     3.1440  -999.2500  -999.2500  -999.2500  -999.2500
 2947.0000   -34.0630     2.6000     3.1230  -999.2500  -999.2500  -999.2500  -999.2500
 2947.5000   -34.0640     2.6050     3.1230  -999.2500  -999.2500  -999.2500  -999.2500
 2948.0000   -34.0640     2.6090     3.1230  -999.2500  -999.2500  -999.2500  -999.2500
 2948.5000   -34.0630     2.6140     3.1230  -999.2500  -999.2500  -999.2500  -999.2500
 2949.0000   -34.0650     2.6180     3.1230  -999.2500  -999.2500  -999.2500  -999.2500
 2949.5000   -34.0650     2.6220     3.1230  -999.2500  -999.2500  -999.2500  -999.2500
 2950.0000   -34.0570     2.6270     3.1230  -999.2500  -999.2500  -999.2500  -999.2500
 2950.5000   -34.0760     2.6310     3.1240  -999.2500  -999.2500  -999.2500  -999.2500
 2951.0000   -34.0600     2.6360     3.1240  -999.2500  -999.2500  -999.2500  -999.2500
 2951.5000   -33.9920     2.6400     3.1240  -999.2500  -999.2500  -999.2500  -999.2500
 2952.0000   -33.6230     2.6450     3.1240  -999.2500  -999.2500  -999.2500  -999.2500
 2952.5000  -999.2500  -999.2500     3.1240  -999.2500  -999.2500  -999.2500  -999.2500
