~VERSION INFORMATION
 VERS.                2.0:   CWLS LOG ASCII STANDARD - VERSION 2.0
 WRAP.                 NO:   ONE LINE PER DEPTH STEP
~WELL INFORMATION
#MNEM.UNIT      DATA TYPE    INFORMATION
#----------   ------------   ------------------------------
 STRT.F            0.0000:   START DEPTH
 STOP.F         4152.0000:   STOP DEPTH
 STEP.F            0.5000:   STEP LENGTH
 NULL.          -999.2500:   NO VALUE
 COMP. LAWRENCE ALLISON & ASSOCIATES:   COMPANY
 WELL. LAWRENCE "X" #28-27:   WELL
 FLD .             NPR #3:   FIELD
 LOC .      S27 T39N R78W:   LOCATION
 CNTY.            NATRONA:   COUNTY
 STAT.            WYOMING:   STATE
 CTRY. UNITED STATES OF AMERICA:   COUNTRY
 SRVC.      DRESSER ATLAS:   SERVICE COMPANY
 DATE.        26-FEB-1984:   LOGDATE
 API .     49025109630000:   API NUMBER
~CURVE INFORMATION
#MNEM.UNIT       API CODE    CURVE DESCRIPTION
#----------   ------------   ------------------------------
 DEPT.F                  :   
 GRR .GAPI   07 310 01 00:   GAMMA RAY FROM RES.
 TENR.LBS    07 635 01 00:   TENSION FROM RES.
 SPR .MV     07 010 01 00:   SPONTANEOUS POTENTIAL
 RILD.OHMM   07 120 46 00:   RESISTIVITY INDUCTION LOG DEEP
 RILM.OHMM   07 120 44 00:   RESISTIIVTY INDUCTION LOG MEDIUM
 RFOC.OHMM   07 220 04 00:   RESISTIVITY FOCUSED LOG
 DT  .US/F   60 520 00 00:   DELTA TIME
 TENS.LBS    60 635 01 00:   TENSION FROM SONIC
 CALD.IN     45 280 60 00:   CALIPER FROM DENSITY LOG
 TEND.LBS    45 635 01 00:   TENSION FORM DENSITY LOG
 CNC .DEC    42 890 03 00:   NEUTRON POROSITY SANDSTONE
 CORR.G/C3   45 356 01 00:   DENSITY CORRECTION
 DENS.G/C3   45 350 01 00:   DENSITY
~PARAMETER INFORMATION
#MNEM.UNIT          VALUE    DESCRIPTION
#----------   ------------   ------------------------------
 EKB .F         5088.0000:   Kelly bushing
 EGL .F         5078.0000:   Ground level
 EDF .F            0.0000:   Drilling floor
 TD  .F         4154.0000:   Total depth
 CLNT.            A2DTECH:   Client Code
 SL  . 250' FSL & 810' FWL:   Surface Location
 PD  .                 GL:   Permanent Datum
 EPD .F              5078:   Elevation Permanent Datum
 LMF .                 KB:   Log Measured From
 DMF .                 KB:   Drilling Measured From
 DAPD.F                10:   Feet Above Permanent Datum
 DATE.        26-FEB-1984:   Date Logged [DD-MMM-YYYY]
 DD  .F              4154:   Depth driller
 DL  .F              4148:   Depth logger
 BLI .F              4146:   Bottom log interval
 TLI .F                 0:   Top log interval
 CS1 .IN            8.625:   Casing size
 CBD1.      8.625" @ 537':   Casing driller 1
 CBL1.F               540:   Casing logger 1
 BS1 .IN            7.875:   Bit size
 BSD1.F              4154:   Depth drilled with bit1
 DFT .            GEL KCL:   Type fluid in hole
 DFD .                  9:   Density
 DFV .                 45:   Viscosity
 DFPH.                  8:   pH
 DFL .                 14:   Fluid loss
 MSS .           FLOWLINE:   Source of sample
 RMS .OHMM          0.595:   Rm
 MST .F                60:   Rm Meas. temp.
 RMF .OHMM          0.446:   Rmf
 MFST.F                60:   Rmf Meas. temp.
 MFSS.               CALC:   Source Rmf.
 RMC .OHMM          0.744:   Rmc
 MCST.F                60:   Rmc Meas. temp.
 MCSS.               CALC:   Source Rmc.
 RMB .OHMM           0.26:   Rm. at BHT
 BHT .F               138:   BHT.
 TCS .HRS               4:   Time Circ. stopped
 MRT .F               138:   Maximum recorded temp.
 LUN .               6307:   Logging unit number
 LUL .               GLTE:   Logging unit location
 ENGI.           FAHLSING:   Recorded By
 WITN.           JENNINGS:   Witnessed by
 ORIG.      1" 2.5" PRINT:   Origin of data
 UWI .     49025109630000:   Unique Well ID
 DICO. A2D TECHNOLOGIES, INC.:   Digitizing Company
~OTHER INFORMATION
~A    DEPT       GRR     TENR        SPR       RILD       RILM       RFOC         DT       TENS       CALD       TEND        CNC       CORR       DENS   
# ...
  546.0000    96.1905   -64.4531   -48.3926     5.8467    11.9820     4.3089  -999.2500  -999.2500    10.3988     0.0000     0.2615     0.2082     2.3631
  546.5000    99.0039   -64.4531   -50.9951     5.7773    12.3156     4.3089  -999.2500  -999.2500    10.4003     0.0000     0.2534     0.2054     2.3587
  547.0000   102.3788   -64.4531   -52.1719     5.8119    12.2858     4.4348  -999.2500  -999.2500     9.9507     0.0000     0.2540     0.1712     2.3512
  547.5000   101.8351   -64.4531   -53.3486     5.9517     9.8019     4.5661  -999.2500  -999.2500     9.5879     0.0000     0.2472    -0.0202     2.3542
  548.0000    98.0309   -64.4531   -53.3333     6.2750     7.3662     4.7280  -999.2500  -999.2500     9.5893     0.0000     0.2420    -0.0237     2.3923
  548.5000    96.8526   -64.4531   -52.9006     6.5385     5.6589     4.7314  -999.2500  -999.2500     9.6209     0.0000     0.2696     0.0011     2.4660
  549.0000    97.4934   -64.4531   -51.8126     6.5401     4.8898     4.4881  -999.2500  -999.2500     9.6224     0.0000     0.2817     0.0042     2.4585
  549.5000    98.8017   -64.4531   -49.4179     6.3353     4.7596     4.0259  -999.2500  -999.2500     9.6239     0.0000     0.2810    -0.0131     2.4431
  550.0000   100.1102   -64.4531   -45.2375     5.9760     4.9593     3.5626  -999.2500  -999.2500     9.6254     0.0000     0.2766    -0.0266     2.4399
  550.5000   102.8597   -64.4531   -34.3232     5.7901     5.1079     3.5770  -999.2500  -999.2500     9.6126     0.0000     0.2742    -0.0257     2.4737
  551.0000   105.2528   -64.4531   -22.4925     5.7133     5.3112     3.9284  -999.2500  -999.2500     9.6287     0.0000     0.2732    -0.0102     2.4797
  551.5000   104.6697   -64.4531   -17.3857     5.7934     5.5270     4.4699  -999.2500  -999.2500     9.6905     0.0000     0.2678    -0.0071     2.4845
  552.0000   102.7647   -64.4531   -14.8187     5.8744     5.9254     5.0718  -999.2500  -999.2500     9.7221     0.0000     0.2570    -0.0040     2.4920
  552.5000   100.0167   -64.4531   -14.2097     5.9647     6.1739     5.1411  -999.2500  -999.2500     9.6933     0.0000     0.2492    -0.0038     2.5167
  553.0000    96.4198   -64.4531   -13.6008     6.2068     6.4327     5.0718  -999.2500  -999.2500     9.6896     0.0000     0.2431    -0.0007     2.5214
  553.5000    91.6292   -64.4531   -12.9576     6.4155     6.6210     5.0718  -999.2500  -999.2500     9.6567     0.0000     0.2371     0.0025     2.5101
  554.0000    89.8556   -64.4531   -12.2123     6.6083     6.9080     5.0718  -999.2500  -999.2500     9.6375     0.0000     0.2439     0.0068     2.4860
  554.5000    88.6773   -64.4531   -11.3380     6.8337     6.8584     5.1636  -999.2500  -999.2500     9.6393     0.0000     0.2555     0.0118     2.4816
  555.0000    90.0793   -64.4531   -10.2653     7.0242     6.6625     5.3165  -999.2500  -999.2500     9.6103     0.0000     0.2591     0.0179     2.4832
  555.5000    92.8870   -64.4531    -9.0611     7.3192     6.6190     5.6540  -999.2500  -999.2500     9.6119     0.0000     0.2600     0.0241     2.4927
  556.0000    96.4770   -64.4531    -7.8569     7.5234     6.6210     5.6540  -999.2500  -999.2500     9.6133     0.0000     0.2582     0.0242     2.4992
  556.5000    99.4463   -64.4531    -6.3132     7.5592     6.6227     5.6540  -999.2500  -999.2500     9.6148     0.0000     0.2564     0.0274     2.5029
  557.0000    97.6727   -64.4531    -6.0417     7.7355     6.6335     5.6540  -999.2500  -999.2500     9.6163     0.0000     0.2588     0.0136     2.4999
  557.5000    95.8992   -64.4531    -6.7647     7.7379     6.8090     5.6540  -999.2500  -999.2500     9.6148     0.0000     0.2600    -0.0075     2.4879
  558.0000    97.0373   -64.4531    -7.2024     7.7399     6.9041     5.6276  -999.2500  -999.2500     9.5890    -0.6867     0.2570    -0.0218     2.4608
  558.5000   103.6585   -64.4531    -7.4851     7.7418     6.9060     5.5777  -999.2500  -999.2500     9.5489   -20.6692     0.2524    -0.0444     2.4578
  559.0000   106.6560   -64.4531    -7.7678     7.9578     7.0028     5.6540  -999.2500  -999.2500     9.5160   -20.5571     0.2533    -0.0503     2.4578
  559.5000   106.0729   -64.4531    -7.7530     7.9600     7.0046     5.6540  -999.2500  -999.2500     9.5030   -20.3947     0.2636    -0.0230     2.4598
  560.0000   104.2994   -64.4531    -8.0380     7.9621     7.0063     5.6540  -999.2500  -999.2500     9.4743   -20.2312     0.2816    -0.0048     2.4624
  560.5000    94.6062   -64.4531    -8.3185     7.9643     7.0082     5.8161  -999.2500  -999.2500     9.4759   -20.1062     0.2788    -0.0081     2.4572
  561.0000    92.0899   -64.4531    -8.5990     7.9668     7.0101     5.9698  -999.2500  -999.2500     9.4471   -20.0353     0.2732    -0.0106     2.4520
  561.5000    89.7827   -64.4531    -8.8839     7.9688     7.0121     6.0514  -999.2500  -999.2500     9.4486   -20.0081     0.2794    -0.0075     2.4460
  562.0000    88.8757   -64.4531    -9.1716     7.7565     7.0143     6.0090  -999.2500  -999.2500     9.4502   -20.0000     0.2756    -0.0179     2.4430
  562.5000    89.4853   -64.4531    -9.8028     7.7587     7.0161     5.8097  -999.2500  -999.2500     9.4517   -20.0000     0.2617    -0.0192     2.4478
  563.0000    91.2832   -64.4531   -10.8382     7.6555     6.9230     5.6540  -999.2500  -999.2500     9.4534   -20.0000     0.2587    -0.0251     2.4540
  563.5000    93.8644   -64.4531   -12.2730     7.5542     6.8312     5.5777  -999.2500  -999.2500     9.4548   -20.0000     0.2605    -0.0340     2.4573
  564.0000    95.1786   -64.4531   -13.8670     7.5566     6.7964     5.5777  -999.2500  -999.2500     9.4563   -20.0000     0.2629    -0.0463     2.4605
  564.5000    97.2860   -64.4531   -15.6390     7.4563     6.6512     5.5777  -999.2500  -999.2500     9.4595   -20.0000     0.2627    -0.0548     2.4659
  565.0000    99.6712   -64.4531   -16.2326     7.3572     6.6084     5.5777  -999.2500  -999.2500     9.4894   -20.0000     0.2573    -0.0406     2.4704
  565.5000   100.0215   -64.4531   -16.8638     7.3592     6.3029     5.6540  -999.2500  -999.2500     9.4605   -20.0000     0.2574    -0.0128     2.4780
  566.0000    99.6738   -64.4531   -17.9068     7.3612     6.3045     5.5777  -999.2500  -999.2500     9.4622   -20.0000     0.2635     0.0059     2.4901
  566.5000    98.5172   -64.4531   -18.8864     7.3632     6.2209     5.5025  -999.2500  -999.2500     9.4640   -20.0000     0.2689     0.0068     2.4836
  567.0000   100.5489   -64.4531   -20.3255     7.3652     6.2226     5.3550  -999.2500  -999.2500     9.4654   -20.0000     0.2803     0.0031     2.4797
  567.5000   101.1850   -64.4531   -21.2046     7.3675     6.2456     5.3550  -999.2500  -999.2500     9.4668   -20.0000     0.2797    -0.0058     2.4826
  568.0000    99.7503   -64.4531   -22.4008     7.2695     6.3112     5.3755  -999.2500  -999.2500     9.4683   -20.0000     0.2722    -0.0117     2.4903
  568.5000    94.4053   -64.4531   -23.4004     7.2715     6.3130     5.5025  -999.2500  -999.2500     9.4698   -20.0000     0.2779     0.0135     2.4979
  569.0000    92.6317   -64.4531   -24.6776     7.1749     6.3149     5.3550  -999.2500  -999.2500     9.4713   -20.0000     0.2923     0.0247     2.4995
  569.5000    93.8360   -64.4531   -26.2025     7.1770     6.3165     5.3550  -999.2500  -999.2500     9.4867   -20.0000     0.2919     0.0082     2.4965
  570.0000    95.8334   -64.4531   -27.0816     7.1789     6.4924     5.3550  -999.2500  -999.2500     9.5048   -20.0000     0.2773     0.0039     2.4873
  570.5000    98.6266   -64.4531   -27.9608     7.1812     6.5075     5.3550  -999.2500  -999.2500     9.5062   -20.0000     0.2647     0.0041     2.4875
  571.0000    98.7588   -64.4531   -28.5690     7.1830     6.6751     5.3550  -999.2500  -999.2500     9.5076   -20.0000     0.2611     0.0102     2.4891
  571.5000    98.0557   -64.4531   -29.2001     7.2834     6.6769     5.3550  -999.2500  -999.2500     9.5393   -20.0000     0.2592     0.0228     2.4899
