~VERSION INFORMATION
 VERS.                2.0:   CWLS LOG ASCII STANDARD - VERSION 2.0
 WRAP.                 NO:   ONE LINE PER DEPTH STEP
~WELL INFORMATION
#MNEM.UNIT      DATA TYPE    INFORMATION
#----------   ------------   ------------------------------
 STRT.F          407.0000:   START DEPTH
 STOP.F         3228.0000:   STOP DEPTH
 STEP.F            0.5000:   STEP LENGTH
 NULL.          -999.2500:   NO VALUE
 COMP.    FENIX & SCISSON:   COMPANY
 WELL.   FENIX "A" #21-34:   WELL
 FLD .             N.P.R.:   FIELD
 LOC .      S34 T39N R78W:   LOCATION
 CNTY.            NATRONA:   COUNTY
 STAT.            WYOMING:   STATE
 CTRY. UNITED STATES OF AMERICA:   COUNTRY
 SRVC.       SCHLUMBERGER:   SERVICE COMPANY
 DATE.        05-MAY-1977:   LOGDATE
 API .     49025103710000:   API NUMBER
~CURVE INFORMATION
#MNEM.UNIT       API CODE    CURVE DESCRIPTION
#----------   ------------   ------------------------------
 DEPT.F                  :   
 SPR .MV     11 010 01 00:   SPONTANEOUS POTENTIAL FROM RES.
 LLS .OHMM   11 220 09 00:   LATEROLOG LOG SHALLOW
 LLD .OHMM   11 220 10 00:   LATEROLOG DEEP
 MSFL.OHMM   11 270 04 00:   MICRO SPHERICALLY FOCUSED
 CALD.IN     45 280 60 00:   CALIPER FROM DENSITY LOG
 NPHI.DEC    42 890 03 00:   NEUTRON POROSITY SANDSTONE
 GRD .GAPI   45 310 01 00:   GAMMA RAY FROM DENSITY LOG
 CORR.G/C3   45 356 01 00:   DENSITY CORRECTION
 RHOB.G/C3   45 350 01 00:   BULK DENSITY
~PARAMETER INFORMATION
#MNEM.UNIT          VALUE    DESCRIPTION
#----------   ------------   ------------------------------
 EKB .F         5086.0000:   Kelly bushing
 EGL .F         5074.0000:   Ground level
 TD  .F         3226.0000:   Total depth
 CLNT.            A2DTECH:   Client Code
 SL  . 990' FWL & 330' FNL:   Surface Location
 PD  .                 GL:   Permanent Datum
 EPD .F              5074:   Elevation Permanent Datum
 LMF .                 KB:   Log Measured From
 DMF .                 KB:   Drilling Measured From
 DAPD.F                12:   Feet Above Permanent Datum
 DATE.        05-MAY-1977:   Date Logged [DD-MMM-YYYY]
 DD  .F              3226:   Depth driller
 DL  .F              3229:   Depth logger
 BLI .F              3227:   Bottom log interval
 TLI .F               430:   Top log interval
 CS1 .IN            8.625:   Casing size
 CBD1.      8.625" @ 424':   Casing driller 1
 CBL1.F               430:   Casing logger 1
 BS1 .IN            7.875:   Bit size
 BSD1.F              3226:   Depth drilled with bit1
 DFT .                KCL:   Type fluid in hole
 DFD .                9.4:   Density
 DFV .                 31:   Viscosity
 DFPH.                  8:   pH
 DFL .                9.6:   Fluid loss
 MSS .           MUD TANK:   Source of sample
 RMS .OHMM          0.202:   Rm
 MST .F                78:   Rm Meas. temp.
 RMF .OHMM          0.191:   Rmf
 MFST.F                76:   Rmf Meas. temp.
 MFSS.               MEAS:   Source Rmf.
 RMC .OHMM           0.30:   Rmc
 MCST.F                78:   Rmc Meas. temp.
 MCSS.               CALC:   Source Rmc.
 RMB .OHMM          0.123:   Rm. at BHT
 BHT .F               128:   BHT.
 TCS .HRS            1400:   Time Circ. stopped
 TLAB.HRS            0300:   Time logger at bottom
 MRT .F               128:   Maximum recorded temp.
 LUN .               5642:   Logging unit number
 LUL .               CSPR:   Logging unit location
 ENGI.                FIX:   Recorded By
 WITN.         HARRINGTON:   Witnessed by
 ORIG.           5" PRINT:   Origin of data
 UWI .     49025103710000:   Unique Well ID
 DICO. A2D TECHNOLOGIES, INC.:   Digitizing Company
~OTHER INFORMATION
~A   DEPT      SPR        LLS        LLD       MSFL       CALD       NPHI         GRD      CORR       RHOB   
# ...
 1684.5000   -62.9104     8.0200     6.3086     8.5630     8.4291     0.3507   139.8465    -0.0037     2.5036
 1685.0000   -62.1969     7.9732     6.3171     8.7374     8.4333     0.3459   141.9054     0.0070     2.5020
 1685.5000   -62.7442     7.9268     6.3240     8.8044     8.4376     0.3524   143.2876     0.0170     2.5166
 1686.0000   -64.0911     7.9909     6.4193     8.8502     8.4418     0.3548   141.7374     0.0086     2.5213
 1686.5000   -64.3741     8.0570     6.5681     9.0047     8.4460     0.3538   138.3756    -0.0002     2.5089
 1687.0000   -64.0570     8.0657     6.7081     9.0746     8.4503     0.3529   142.0207     0.0045     2.5109
 1687.5000   -63.9234     8.1306     6.8091     9.0820     8.4460     0.3538   140.2450     0.0121     2.5202
 1688.0000   -63.5693     8.1960     6.9116     9.0894     8.4401     0.3700   138.4693     0.0115     2.5128
 1688.5000   -63.2394     8.3193     7.0156     9.1601     8.4341     0.3766   142.1586     0.0154     2.5136
 1689.0000   -62.2608     8.3862     7.1213     9.1692     8.4282     0.3684   143.7149     0.0215     2.5273
 1689.5000   -62.8868     8.4531     7.2285     9.1767     8.4223     0.3572   131.3449     0.0246     2.5319
 1690.0000   -62.9688     8.5216     7.2867     9.1841     8.4164     0.3481   120.7722     0.0066     2.5012
 1690.5000   -62.5007     8.5308     7.3453     9.1916     8.4105     0.3441   119.2221     0.0158     2.5134
 1691.0000   -61.5515     8.4811     7.3532     9.1337     8.4046     0.3413   123.7622     0.0340     2.5331
 1691.5000   -62.4351     8.4241     7.3612     9.1430     8.3987     0.3372   130.3323     0.0338     2.5310
 1692.0000   -63.3603     8.3270     7.2678     9.1504     8.3928     0.3434   132.8424     0.0186     2.5236
 1692.5000   -64.0366     8.2763     7.1755     9.0316     8.3868     0.3560   131.5178     0.0071     2.5176
 1693.0000   -64.7168     8.1713     7.0374     8.9149     8.3809     0.3693   132.6744     0.0065     2.5268
 1693.5000   -63.6738     8.1259     6.8982     8.7903     8.3751     0.3752   136.5378     0.0111     2.5164
 1694.0000   -62.9830     8.0764     6.7187     8.6154     8.3710     0.3716   139.7245     0.0180     2.5252
 1694.5000   -64.8067     8.0315     6.4075     8.3983     8.3710     0.3685   140.7015     0.0226     2.5205
 1695.0000   -65.7680     7.9847     6.1943     8.2306     8.3710     0.3760   137.3010     0.0084     2.5146
 1695.5000   -65.5318     7.9934     6.1170     8.0139     8.3710     0.3739   133.4623     0.0047     2.5041
 1696.0000   -65.0508     7.9467     6.3398     7.9085     8.3710     0.3633   130.8173     0.0056     2.5133
 1696.5000   -64.9099     7.9005     6.4806     7.7002     8.3710     0.3584   130.6205     0.0110     2.5193
 1697.0000   -66.4999     7.8545     6.5302     7.6517     8.3710     0.3583   133.1378     0.0141     2.5248
 1697.5000   -66.8719     7.8088     6.4064     7.7663     8.3710     0.3674   135.8733     0.0158     2.5333
 1698.0000   -68.0483     7.7097     6.3251     7.8810     8.3710     0.3743   137.2556     0.0174     2.5266
 1698.5000   -67.2768     7.6140     6.2865     8.0000     8.3710     0.3760   137.7355     0.0197     2.5335
 1699.0000   -67.2105     7.6222     6.2499     8.1158     8.3710     0.3724   135.5087     0.0085     2.5156
 1699.5000   -68.4088     7.6305     6.2584     8.1802     8.3710     0.3687   135.7631    -0.0005     2.5104
 1700.0000   -69.7200     7.5840     6.2651     8.3011     8.3710     0.3663   137.3708     0.0034     2.5151
 1700.5000   -71.3777     7.5398     6.2719     8.3655     8.3710     0.3638   139.6553     0.0118     2.5212
 1701.0000   -72.1544     7.5897     6.2831     8.3723     8.3710     0.3620   141.2630     0.0187     2.5281
 1701.5000   -72.5106     7.6406     6.3002     8.3213     8.3710     0.3589   140.2304     0.0241     2.5320
 1702.0000   -72.7429     7.6915     6.3173     8.2592     8.3710     0.3556   131.3817     0.0243     2.5344
 1702.5000   -73.3927     7.7424     6.3344     8.1909     8.3710     0.3528   128.6992     0.0211     2.5232
 1703.0000   -74.6714     7.7969     6.3540     8.1437     8.3710     0.3582   129.6258     0.0170     2.5196
 1703.5000   -75.1056     7.9143     6.0601     8.0349     8.3710     0.3563   131.4547     0.0111     2.4909
 1704.0000   -75.0500     8.0334     5.3928     7.5184     8.3710     0.3518   132.6069     0.0051     2.4714
 1704.5000   -74.8049     5.6885     4.7330     6.3763     8.3710     0.3454   132.1801    -0.0016     2.4791
 1705.0000   -74.5708     4.5313     4.3003     5.1518     8.3710     0.3502   129.4977     0.0039     2.4882
 1705.5000   -74.3387     4.0597     3.8802     5.0863     8.3710     0.3565   125.2363     0.0100     2.4913
 1706.0000   -74.3049     4.0368     3.5500     5.4608     8.3710     0.3618   121.8772     0.0132     2.4824
 1706.5000   -74.3063     4.1685     3.3624     6.0254     8.3710     0.3672   122.8038     0.0095     2.4870
 1707.0000   -74.3050     4.7127     3.6025     6.5568     8.3710     0.3786   122.1021     0.0566     2.4938
 1707.5000   -74.2748     5.2707     4.4473     7.0370     8.3710     0.4062   119.6616     0.0839     2.4729
 1708.0000   -75.1310     6.3613     5.2581     7.5003     8.3710     0.4592   119.9506     0.0417     2.3864
 1708.5000   -75.6418     7.1638     5.9224     7.9389     8.3710     0.4411   121.5539    -0.0089     2.3902
 1709.0000   -76.5142     7.6859     6.3990     8.3451     8.3710     0.3984   123.3827    -0.0035     2.4352
 1709.5000   -76.5626     8.1326     6.8661     8.6515     8.3710     0.3832   125.2116     0.0034     2.4642
 1710.0000   -77.2824     8.2550     7.0674     8.9735     8.3710     0.3735   125.4554     0.0119     2.4960
 1710.5000   -78.3098     8.2070     7.0758     9.1076     8.3710     0.3551   122.9985     0.0165     2.5104
 1711.0000   -79.2240     7.7195     6.9862     8.6918     8.3710     0.3496   127.7658     0.0212     2.5157
 1711.5000   -81.1256     7.2610     6.7113     8.1218     8.3710     0.3490   125.5345     0.0213     2.5038
 1712.0000   -81.7704     7.0212     6.2692     7.6420     8.3710     0.3489   127.5889     0.0224     2.5122
 1712.5000   -81.8603     6.7431     5.7756     7.3898     8.3710     0.3483   125.3577     0.0216     2.5062
 1713.0000   -82.2457     6.5660     5.6634     7.3493     8.3710     0.3476   121.5474     0.0126     2.5003
 1713.5000   -82.6662     6.5752     5.6291     7.5170     8.3710     0.3467   123.6494     0.0188     2.5215
 1714.0000   -83.6767     6.8699     5.8766     7.8472     8.3710     0.3466   128.0449     0.0249     2.5095
 1714.5000   -84.0233     7.3773     6.1332     8.1918     8.3710     0.3469   131.3258     0.0107     2.4930
 1715.0000   -84.0076     7.7893     6.4010     8.4925     8.3710     0.3518   132.4780     0.0078     2.5142
 1715.5000   -83.7061     7.9615     6.6344     8.7435     8.3725     0.3618   130.6917     0.0215     2.5288
 1716.0000   -81.3103     8.0255     6.7816     8.9398     8.3744     0.3606   135.4590     0.0345     2.5486
 1716.5000   -79.7338     8.1463     6.8843     8.9526     8.3763     0.3503   137.0623     0.0566     2.5680
 1717.0000   -80.3574     8.2690     6.9885     8.6006     8.3781     0.3545   133.4776     0.0391     2.5508
 1717.5000   -80.2992     8.2780     7.0025     8.6202     8.3800     0.3481   135.0809     0.0311     2.5418
 1718.0000   -80.4488     8.2298     7.0554     8.7486     8.3819     0.3592   137.5864     0.0403     2.5480
 1718.5000   -80.4915     8.1797     7.0128     8.7611     8.3838     0.3649   137.1596     0.0389     2.5390
 1719.0000   -79.6685     8.1909     6.9242     8.7736     8.3857     0.3642   131.3193     0.0247     2.5218
 1719.5000   -79.2870     8.0870     6.8844     8.7256     8.3876     0.3606   128.4113     0.0104     2.4993
 1720.0000   -79.9735     8.0397     6.7505     8.6178     8.3894     0.3702   130.5113     0.0029     2.4911
 1720.5000   -80.8896     7.9931     6.6673     8.5115     8.3913     0.3677   132.0699    -0.0030     2.4965
