~VERSION INFORMATION
 VERS.                2.0:   CWLS LOG ASCII STANDARD - VERSION 2.0
 WRAP.                 NO:   ONE LINE PER DEPTH STEP
~WELL INFORMATION
#MNEM.UNIT      DATA TYPE    INFORMATION
#----------   ------------   ------------------------------
 STRT.F          172.0000:   START DEPTH
 STOP.F         3376.0000:   STOP DEPTH
 STEP.F            0.5000:   STEP LENGTH
 NULL.          -999.2500:   NO VALUE
 COMP.    FENIX & SCISSON:   COMPANY
 WELL. FENIX NPR 3 "AX" #23-2:   WELL
 FLD .                NPR:   FIELD
 LOC .       S2 T38N R78W:   LOCATION
 CNTY.            NATRONA:   COUNTY
 STAT.            WYOMING:   STATE
 CTRY. UNITED STATES OF AMERICA:   COUNTRY
 SRVC.              WELEX:   SERVICE COMPANY
 DATE.        02-DEC-1980:   LOGDATE
 API .     49025108740000:   API NUMBER
~CURVE INFORMATION
#MNEM.UNIT       API CODE    CURVE DESCRIPTION
#----------   ------------   ------------------------------
 DEPT.F                  :   
 CALD.IN     45 280 60 00:   CALIPER FROM DENSITY LOG
 CORR.G/C3   45 356 01 00:   DENSITY CORRECTION
 GRD .GAPI   45 310 01 00:   GAMMA RAY FROM DENSITY LOG
 RHOB.G/C3   45 350 01 00:   BULK DENSITY
 TENR.LBS    07 635 01 00:   TENSION
 SPR .MV     07 010 01 00:   SPONTANEOUS POTENTIAL
 SGRD.OHMM   07 220 05 00:   SHALLOW GUARD
 ILD .OHMM   07 120 46 00:   INDUCTION LOG DEEP RESISTIVITY
 ILM .OHMM   07 120 44 00:   INDUCTION LOG MEDIUM RESISTIVITY
~PARAMETER INFORMATION
#MNEM.UNIT          VALUE    DESCRIPTION
#----------   ------------   ------------------------------
 EKB .F         5133.0000:   Kelly bushing
 EGL .F         5123.0000:   Ground level
 EDF .F            0.0000:   Drilling floor
 TD  .F         3375.0000:   Total depth
 DATE.        02-DEC-1980:   Date logged
 CLNT.            A2DTECH:   Client Code
 SL  . 3800' FSL & 827' FWL:   Surface Location
 PD  .                 GL:   Permanent Datum
 EPD .F              5123:   Elevation Permanent Datum
 LMF .                 KB:   Log Measured From
 DMF .                 KB:   Drilling Measured From
 DAPD.F                10:   Feet Above Permanent Datum
 DD  .F              3375:   Depth driller
 DL  .F              3373:   Depth logger
 BLI .F              3371:   Bottom log interval
 TLI .F               181:   Top log interval
 CS1 .IN            8.625:   Casing size
 CBD1.      8.625" @ 181':   Casing driller 1
 CBL1.F               181:   Casing logger 1
 BS1 .IN            7.875:   Bit size
 BSD1.F              3375:   Depth drilled with bit1
 DFT .           CHEM/GEL:   Type fluid in hole
 DFD .                8.8:   Density
 DFV .                 45:   Viscosity
 DFPH.                  9:   pH
 DFL .                 16:   Fluid loss
 MSS .           FLOWLINE:   Source of sample
 RMS .OHMM           1.25:   Rm
 MST .F                64:   Rm Meas. temp.
 RMF .OHMM           1.17:   Rmf
 MFST.F                64:   Rmf Meas. temp.
 RMC .OHMM            1.1:   Rmc
 MCST.F                64:   Rmc Meas. temp.
 MFSS.               MEAS:   Source Rmf.
 MCSS.               MEAS:   Source Rmc.
 RMB .OHMM            .67:   Rm. at BHT
 BHT .F               120:   BHT.
 TCS .HRS               2:   Time Circ. stopped
 MRT .F               120:   Maximum recorded temp.
 LUN .               1892:   Logging unit number
 LUL .             CASPER:   Logging unit location
 ENGI.  PFRIMMER/MONNAHAN:   Recorded By
 WITN.              FIVAS:   Witnessed by
 ORIG.           5" PRINT:   Origin of data
 UWI .     49025108740000:   Unique Well ID
 DICO. A2D TECHNOLOGIES, INC.:   Digitizing Company
~OTHER INFORMATION
~A   DEPT     CALD       CORR         GRD      RHOB       TENR        SPR       SGRD        ILD        ILM   
# ...
 2289.0000     9.0470     0.0280   144.4130     2.5080   448.6420   -17.9440    12.0510     8.5090     8.8280
 2289.5000     9.0480     0.0280   142.5320     2.5130   454.4770   -18.0920    11.8220     8.3990     8.7140
 2290.0000     9.0500     0.0290   140.8000     2.5060   460.3120   -18.2390    11.6150     8.3280     8.6400
 2290.5000     9.0510     0.0290   140.4920     2.5000   466.1470   -18.3830    11.4610     8.3050     8.6170
 2291.0000     9.0520     0.0280   141.0090     2.4930   471.8880   -18.5360    11.3130     8.2830     8.5940
 2291.5000     9.0530     0.0270   140.8470     2.4870   469.9900   -18.6090    11.1950     8.2610     8.5710
 2292.0000     9.0550     0.0270   140.7030     2.4870   466.8860   -18.5450    11.2290     8.2390     8.5480
 2292.5000     9.0560     0.0260   140.5950     2.4880   463.7820   -18.3780    11.3150     8.2170     8.5250
 2293.0000     9.0570     0.0250   140.5940     2.4880   460.6780   -18.2160    11.4030     8.1850     8.4920
 2293.5000     9.0580     0.0250   140.6140     2.4890   457.5740   -18.0490    10.9150     8.2140     8.5220
 2294.0000     9.0600     0.0240   141.1890     2.4860   454.4700   -17.8840    10.7900     8.2660     8.5760
 2294.5000     9.0610     0.0230   142.8160     2.4880   451.3670   -17.7190    12.0510     8.3170     8.6290
 2295.0000     9.0620     0.0230   143.3630     2.4960   448.2630   -17.5530    12.3120     8.3690     8.6830
 2295.5000     9.0630     0.0220   142.2130     2.4970   445.1590   -17.3870    12.5030     8.4200     8.7360
 2296.0000     9.0650     0.0220   140.9510     2.4860   442.0550   -17.2260    12.4320     8.4720     8.7900
 2296.5000     9.0660     0.0220   139.2290     2.4750   438.9510   -17.0520    12.1950     8.5230     8.8430
 2297.0000     9.0670     0.0220   136.7150     2.4630   435.8470   -17.0370    11.8310     8.5750     8.8970
 2297.5000     9.0680     0.0220   135.7610     2.4550   432.7430   -17.1190    12.0940     8.6270     8.9500
 2298.0000     9.0700     0.0220   137.1600     2.4540   429.6390   -17.1890    12.6580     8.6780     9.0040
 2298.5000     9.0710     0.0230   138.7650     2.4670   426.5350   -17.2580    12.9730     8.7300     9.0580
 2299.0000     9.0720     0.0240   138.8250     2.4800   423.4310   -17.3300    12.7180     8.7820     9.1110
 2299.5000     9.0730     0.0260   138.6300     2.4930   420.3270   -17.4010    12.3150     8.8220     9.1530
 2300.0000     9.0750     0.0270   138.5980     2.5070   417.2240   -17.4710    11.8310     8.8490     9.1820
 2300.5000     9.0760     0.0280   138.0790     2.5130   414.1200   -17.5430    11.9410     8.8760     9.2100
 2301.0000     9.0770     0.0270   137.7840     2.4950   411.0160   -17.6130    12.0790     8.9040     9.2380
 2301.5000     9.0780     0.0250   138.6590     2.4820   407.9120   -17.6830    12.2750     8.9310     9.2660
 2302.0000     9.0800     0.0230   139.7290     2.4760   404.8080   -17.7610    12.1960     8.9580     9.2940
 2302.5000     9.0810     0.0210   138.0940     2.4830   401.7040   -17.7920    12.0510     8.9940     9.3310
 2303.0000     9.0820     0.0200   135.5350     2.4770   398.6000   -17.7520    12.8410     9.0460     9.3860
 2303.5000     9.0830     0.0180   131.7360     2.4750   395.4960   -17.7190    13.7100     9.0980     9.4400
 2304.0000     9.0850     0.0180   127.9800     2.4800   392.3920   -17.6850    13.2980     9.1500     9.4940
 2304.5000     9.0890     0.0180   126.1140     2.4850   394.3110   -17.6500    13.4770     9.2030     9.5480
 2305.0000     9.1060     0.0180   126.7800     2.4830   402.6100   -17.6170    13.8350     9.2550     9.6020
 2305.5000     9.1230     0.0180   127.4330     2.4790   410.9100   -17.5820    14.2240     9.3120     9.6610
 2306.0000     9.1400     0.0190   126.7650     2.4740   419.2100   -17.5490    13.7020     9.3120     9.6610
 2306.5000     9.1570     0.0190   124.6540     2.4730   427.5100   -17.5140    13.1840     9.1720     9.5160
 2307.0000     9.1740     0.0200   122.5460     2.4860   438.2600   -17.4790    12.6660     8.9720     9.3090
 2307.5000     9.1910     0.0210   120.4240     2.4970   451.5390   -17.4480    12.2580     8.7730     9.1020
 2308.0000     9.2080     0.0230   118.2640     2.4960   464.8190   -17.4060    11.3890     8.5730     8.8950
 2308.5000     9.2250     0.0240   117.7080     2.4890   478.0990   -17.4530    10.4000     8.3740     8.6880
 2309.0000     9.2420     0.0250   117.4240     2.4810   491.3790   -17.5520    10.2400     8.1850     8.4920
 2309.5000     9.2450     0.0250   117.1650     2.4740   504.6590   -17.6410    10.4110     8.1850     8.6330
 2310.0000     9.2390     0.0250   117.4740     2.4670   512.0480   -17.7300    11.2150     8.1850     8.7660
 2310.5000     9.2340     0.0260   118.6410     2.4710   512.0480   -17.8220    11.8310     8.1850     8.8990
 2311.0000     9.2280     0.0290   119.8340     2.4910   512.0480   -17.9100    11.8310     8.1850     8.9750
 2311.5000     9.2220     0.0310   120.8610     2.5060   512.0480   -18.0040    11.8080     8.1850     8.8280
 2312.0000     9.2160     0.0330   121.9180     2.5170   512.0480   -18.0870    11.7010     8.1630     8.6840
 2312.5000     9.2110     0.0390   122.9990     2.5450   512.0480   -18.1890    11.6150     8.1110     8.5400
 2313.0000     9.2050     0.0440   124.0830     2.5640   512.0480   -18.0910    11.0880     8.0580     8.3970
 2313.5000     9.1990     0.0490   124.5950     2.5710   512.0480   -17.9550    10.4280     8.0360     8.3370
 2314.0000     9.1930     0.0500   124.6000     2.5630   504.5570   -17.8160     9.4850     8.1860     8.4940
 2314.5000     9.1880     0.0480   124.6420     2.5520   494.9800   -17.6810    10.4750     8.3130     8.6250
 2315.0000     9.1820     0.0470   123.2810     2.5410   485.4030   -17.5430    12.9730     8.4400     8.7570
 2315.5000     9.1760     0.0450   121.5790     2.5340   475.8260   -17.4070    12.8650     8.5670     8.8890
 2316.0000     9.1700     0.0430   119.8590     2.5390   466.2500   -17.2700    12.6710     8.6500     8.9750
 2316.5000     9.1620     0.0400   118.2210     2.5420   456.6730   -17.1320    12.5030     8.8110     9.1420
 2317.0000     9.1500     0.0370   117.7750     2.5290   447.0960   -16.9980    13.3120     8.9750     9.3120
 2317.5000     9.1370     0.0340   117.3720     2.5170   437.5190   -16.8560    14.0240     8.9750     9.3120
 2318.0000     9.1250     0.0310   116.9610     2.5060   427.9430   -16.7240    14.2240     9.2110     9.5570
 2318.5000     9.1130     0.0330   116.6150     2.5140   418.3660   -16.6180    13.6640     9.4220     9.7760
 2319.0000     9.1000     0.0350   117.1870     2.5280   411.6470   -16.7960    13.0480     9.4850     9.8410
 2319.5000     9.0880     0.0370   118.9990     2.5220   415.7830   -16.9590    12.7080     9.4850     9.8410
 2320.0000     9.0760     0.0340   120.8850     2.5110   420.4030   -17.1370    12.6500     9.4850     9.8410
 2320.5000     9.0730     0.0290   123.1910     2.5000   425.0240   -17.3080    12.5920     9.4850     9.8410
 2321.0000     9.1250     0.0250   125.7400     2.4900   429.6440   -17.4810    12.5030     9.4850     9.8410
 2321.5000     9.1780     0.0230   128.8510     2.5040   434.2650   -17.6520    12.9200     9.4850     9.8410
 2322.0000     9.2250     0.0210   131.9300     2.5160   438.8850   -17.8290    13.9650     9.4400     9.8020
 2322.5000     9.1670     0.0170   133.7890     2.4600   443.5060   -17.9920    13.7860     9.2610     9.6470
 2323.0000     9.1690     0.0120   133.8580     2.4530   448.1270   -18.1890    13.3220     9.0820     9.4910
 2323.5000     9.0670     0.0070   131.9690     2.4580   452.7470   -18.1450    12.9730     8.9030     9.3360
 2324.0000     8.9070     0.0080   129.8050     2.4660   457.3680   -18.0120    11.5200     8.7240     9.1800
 2324.5000     8.8390     0.0110   127.7810     2.4740   461.9880   -17.8770    11.0850     8.5450     9.0250
 2325.0000     8.8040     0.0140   127.0310     2.4820   466.6090   -17.7470    10.6490     8.3660     8.8700
