~VERSION INFORMATION
 VERS.                2.0:   CWLS LOG ASCII STANDARD - VERSION 2.0
 WRAP.                 NO:   ONE LINE PER DEPTH STEP
~WELL INFORMATION
#MNEM.UNIT      DATA TYPE    INFORMATION
#----------   ------------   ------------------------------
 STRT.F          180.0000:   START DEPTH
 STOP.F         3044.0000:   STOP DEPTH
 STEP.F            0.5000:   STEP LENGTH
 NULL.          -999.2500:   NO VALUE
 COMP.    FENIX & SCISSON:   COMPANY
 WELL.   FENIX "A" #55-29:   WELL
 FLD .           N P R #3:   FIELD
 LOC .      S29 T39N R78W:   LOCATION
 CNTY.            NATRONA:   COUNTY
 STAT.            WYOMING:   STATE
 CTRY. UNITED STATES OF AMERICA:   COUNTRY
 SRVC.              WELEX:   SERVICE COMPANY
 DATE.        21-JUL-1977:   LOGDATE
 API .     49025104020000:   API NUMBER
~CURVE INFORMATION
#MNEM.UNIT       API CODE    CURVE DESCRIPTION
#----------   ------------   ------------------------------
 DEPT.F                  :   
 CALD.IN     45 280 60 00:   CALIPER FROM DENSITY LOG
 RHOB.G/C3   45 350 01 00:   BULK DENSITY
 CORR.G/C3   45 356 01 00:   DENSITY CORRECTION
 GRD .GAPI   45 310 01 00:   GAMMA RAY FROM DENSITY LOG
 SPR .MV     07 010 01 00:   SPONTANEOUS POTENTIAL
 ILD .OHMM   07 120 46 00:   DEEP INDUCTION RESISTIVITY
 ILM .OHMM   07 120 44 00:   INDUCTION LOG MEDIUM RESISTIVITY
 SGRD.OHMM   07 220 05 00:   SHALLOW SHORT GUARD RESISTIVITY
~PARAMETER INFORMATION
#MNEM.UNIT          VALUE    DESCRIPTION
#----------   ------------   ------------------------------
 EKB .F         4995.0000:   Kelly bushing
 EGL .F         4985.0000:   Ground level
 EDF .F            0.0000:   Drilling floor
 EPD .F         4985.0000:   Permanent datum
 TD  .F         3045.0000:   Total depth
 DATE.        21-JUL-1977:   Date logged
 CLNT.            A2DTECH:   Client Code
 SL  . 2310' FSL & 2310' FEL:   Surface Location
 PD  .                 GL:   Permanent Datum
 DD  .F              3045:   Depth driller
 DL  .F              3045:   Depth logger
 BLI .F              3043:   Bottom log interval
 CS1 .IN            8.625:   Casing size
 CBD1.      8.625" @ 230':   Casing driller 1
 CBL1.F               216:   Casing logger 1
 BS1 .IN            7.875:   Bit size
 DFT .            KCL-MUD:   Type fluid in hole
 DFD .                8.8:   Density
 DFV .                 45:   Viscosity
 DFPH.                7.5:   pH
 DFL .                8.4:   Fluid loss
 MSS .           FLOWLINE:   Source of sample
 RMS .OHMM            .45:   Rm
 MST .F                86:   Rm Meas. temp.
 RMF .OHMM            .33:   Rmf
 MFST.F                86:   Rmf Meas. temp.
 RMC .OHMM            .72:   Rmc
 MCST.F                86:   Rmc Meas. temp.
 MFSS.               MEAS:   Source Rmf.
 RMB .OHMM            .30:   Rm. at BHT
 BHT .F               127:   BHT.
 TCS .HRS             2.5:   Time Circ. stopped
 MRT .F               127:   Maximum recorded temp.
 LUN .               8611:   Logging unit number
 LUL .             CASPER:   Logging unit location
 ENGI.            C. DOAK:   Recorded By
 WITN.      W. PETTINGILL:   Witnessed by
 ORIG.           5" PRINT:   Origin of data
 UWI .     49025104020000:   Unique Well ID
 DICO. A2D TECHNOLOGIES, INC.:   Digitizing Company
 DAPD.                 10:   Feet Above Permanent Datum
 BSD1.               3045:   Depth drilled with bit1
 MCSS.               MEAS:   Source Rmc.
 LMF .                 KB:   Log Measured From
 DMF .                 KB:   Drilling Measured From
 TLI .                200:   Top log interval
~OTHER INFORMATION
~A   DEPT       CALD     RHOB       CORR         GRD       SPR        ILD        ILM       SGRD   
# ...
 2286.0000     8.2390     2.4620     0.0240   110.1370   -72.8230     5.0810     6.1310     8.5420
 2286.5000     8.2430     2.4610     0.0240   109.1340   -72.8930     5.0230     6.0380     9.0940
 2287.0000     8.2380     2.4600     0.0260   107.8700   -72.9630     4.8700     5.8540     8.9290
 2287.5000     8.2320     2.4590     0.0280   105.7180   -73.0320     4.6940     5.5770     8.1850
 2288.0000     8.2250     2.4560     0.0290   106.8130   -73.1020     4.5180     5.3010     6.9860
 2288.5000     8.2180     2.4530     0.0310   109.2580   -73.1720     4.3420     5.0240     6.3030
 2289.0000     8.2110     2.4500     0.0310   111.6900   -73.2410     4.1660     4.8350     6.6410
 2289.5000     8.2040     2.4470     0.0300   114.0770   -73.3110     3.9900     4.6680     6.7820
 2290.0000     8.1710     2.4460     0.0290   114.1110   -73.3810     3.8140     4.5020     6.6910
 2290.5000     8.1330     2.4470     0.0280   114.0910   -73.4510     3.6370     4.3350     6.2890
 2291.0000     8.1040     2.4490     0.0270   112.1140   -73.5200     3.6040     4.1690     5.5500
 2291.5000     8.1050     2.4500     0.0260   109.8050   -73.5520     3.5730     4.0600     4.8110
 2292.0000     8.1050     2.4400     0.0260   109.9680   -73.5170     3.5960     4.0230     4.4900
 2292.5000     8.1210     2.4340     0.0250   111.3920   -73.4820     3.6140     4.1450     5.2620
 2293.0000     8.1600     2.4310     0.0240   112.7760   -73.4470     3.6320     4.3290     6.4190
 2293.5000     8.1990     2.4300     0.0240   113.6580   -73.4120     3.6760     4.3590     6.1170
 2294.0000     8.2100     2.4340     0.0230   111.2340   -73.3770     3.7280     4.4140     5.8570
 2294.5000     8.1770     2.4430     0.0230   109.2820   -73.3430     3.7810     4.4690     6.4790
 2295.0000     8.1450     2.4640     0.0220   110.0190   -73.3080     3.8330     4.5240     5.9660
 2295.5000     8.1120     2.4760     0.0210   110.2520   -73.2730     3.8820     4.5790     6.2350
 2296.0000     8.0850     2.4690     0.0200   108.8230   -73.2380     3.9130     4.6150     6.6590
 2296.5000     8.0900     2.4670     0.0200   112.7990   -73.2030     3.9430     4.4090     5.6300
 2297.0000     8.0940     2.4650     0.0190   117.9820   -73.1690     3.9740     4.3690     5.1990
 2297.5000     8.0980     2.4640     0.0180   119.1050   -73.1340     4.0040     4.3690     5.6460
 2298.0000     8.1020     2.4670     0.0170   117.3240   -73.0990     4.0350     4.4290     5.4430
 2298.5000     8.1050     2.4610     0.0160   115.2770   -73.0640     4.0660     4.5130     6.1880
 2299.0000     8.1050     2.4540     0.0150   116.4540   -73.0290     4.0960     4.5980     5.7470
 2299.5000     8.1050     2.4540     0.0150   118.1630   -72.9950     4.1270     4.6820     5.2260
 2300.0000     8.1050     2.4540     0.0140   119.8680   -72.9700     4.1730     4.7660     5.0120
 2300.5000     8.1050     2.4580     0.0130   120.7530   -72.9860     4.1260     4.8760     7.9260
 2301.0000     8.1180     2.4640     0.0130   117.1970   -73.0000     4.0310     4.8320     7.7550
 2301.5000     8.1450     2.4670     0.0120   111.8810   -73.0150     3.9370     4.5870     7.4090
 2302.0000     8.1840     2.4680     0.0120   109.3130   -73.0290     3.8420     4.3630     6.4900
 2302.5000     8.2170     2.4810     0.0130   109.5160   -73.0430     3.7480     4.1400     5.5520
 2303.0000     8.2070     2.4770     0.0150   110.7360   -73.0570     3.6530     3.9690     5.3070
 2303.5000     8.1880     2.4500     0.0160   116.0100   -73.0720     3.5580     3.8570     4.7320
 2304.0000     8.1650     2.4390     0.0170   121.2710   -73.0860     3.4640     3.8420     4.1350
 2304.5000     8.1450     2.4310     0.0200   122.1330   -73.1000     3.3690     3.8420     5.1850
 2305.0000     8.1650     2.4300     0.0230   120.9700   -73.1140     3.3180     3.8420     5.8360
 2305.5000     8.1870     2.4320     0.0250   119.7870   -73.1290     3.3180     3.8420     6.1880
 2306.0000     8.2100     2.4350     0.0270   120.7190   -73.1430     3.3180     3.8420     5.6460
 2306.5000     8.2320     2.4440     0.0300   123.7600   -73.1570     3.3180     3.8420     4.3690
 2307.0000     8.2550     2.4500     0.0330   126.2620   -73.1690     3.3180     3.8810     4.3690
 2307.5000     8.2780     2.4450     0.0340   127.3920   -73.1110     3.4000     3.9690     5.9660
 2308.0000     8.3010     2.4410     0.0350   127.2570   -73.0180     3.4790     4.0560     5.5700
 2308.5000     8.2970     2.4560     0.0370   123.3480   -72.9260     3.5580     4.1440     5.0580
 2309.0000     8.2740     2.4700     0.0380   119.9690   -72.8330     3.7080     4.2570     5.4610
 2309.5000     8.2520     2.4850     0.0390   119.9160   -72.7400     3.8730     4.4580     5.8900
 2310.0000     8.2310     2.4860     0.0410   117.2420   -72.6470     4.0390     4.6590     6.0210
 2310.5000     8.1820     2.4800     0.0420   112.4720   -72.5540     4.2480     4.8600     5.9660
 2311.0000     8.1910     2.4750     0.0430   112.5320   -72.4610     4.5190     5.0580     6.6010
 2311.5000     8.2020     2.4710     0.0420   111.8350   -72.3690     4.7880     5.5440     8.0330
 2312.0000     8.2130     2.4760     0.0410   107.2750   -72.2760     4.8690     5.5350     9.2620
 2312.5000     8.2230     2.4840     0.0400   102.9070   -72.1830     4.9500     5.5140     8.9650
 2313.0000     8.2340     2.4780     0.0390    99.6710   -72.0900     4.9790     5.4930     8.3090
 2313.5000     8.2450     2.4840     0.0380   100.3970   -71.9970     4.9940     5.3560     7.7110
 2314.0000     8.2550     2.4900     0.0380   102.4700   -71.9040     5.0090     5.2180     8.1470
 2314.5000     8.2630     2.4950     0.0350   104.5370   -71.8120     5.0250     5.1050     6.9980
 2315.0000     8.2680     2.4980     0.0310   106.6350   -71.7190     5.0400     5.1810     5.3940
 2315.5000     8.2730     2.5000     0.0270   108.7930   -71.6260     5.0550     5.3410     5.7570
 2316.0000     8.2780     2.5010     0.0230   108.6500   -71.5330     5.0710     5.5010     7.5550
 2316.5000     8.2830     2.4910     0.0180   106.2180   -71.4400     5.0860     5.6610     9.1770
 2317.0000     8.2830     2.4760     0.0170   101.5770   -71.3470     5.1010     5.6980     9.0110
 2317.5000     8.2820     2.4680     0.0170    96.9320   -71.2550     5.1050     5.6980     8.0010
 2318.0000     8.2660     2.4640     0.0170    94.5760   -71.1790     5.0710     5.6390     6.9080
 2318.5000     8.2470     2.4600     0.0170    97.2000   -71.1520     5.0430     5.6170     7.4350
 2319.0000     8.2290     2.4610     0.0170   105.4590   -71.1240     5.0120     5.5950     8.1470
 2319.5000     8.2100     2.4650     0.0170   106.1270   -71.0960     4.9510     5.5950     8.0370
 2320.0000     8.1920     2.4610     0.0170   104.9580   -71.0680     4.8860     5.4650     7.9990
 2320.5000     8.1730     2.4570     0.0180   104.1200   -71.0410     4.8220     5.3270     8.2970
 2321.0000     8.1630     2.4590     0.0190   104.6170   -71.0130     4.7570     5.1890     7.8530
 2321.5000     8.1610     2.4610     0.0190   107.8120   -70.9850     4.6580     5.0120     6.6110
 2322.0000     8.1580     2.4530     0.0200   111.4260   -70.9570     4.6150     4.9670     5.3440
 2322.5000     8.1560     2.4430     0.0200   115.0190   -70.9290     4.6150     4.9210     5.2470
 2323.0000     8.1530     2.4340     0.0210   117.6250   -70.9010     4.7760     5.7250     8.2750
 2323.5000     8.1510     2.4320     0.0210   115.5910   -70.8730     4.9500     5.9490     9.2750
 2324.0000     8.1490     2.4340     0.0210   111.6420   -70.8450     5.1240     6.1730     9.9660
 2324.5000     8.1460     2.4510     0.0200   107.7080   -70.8170     5.2980     6.4190    10.0580
 2325.0000     8.1440     2.4680     0.0190   103.7820   -70.7890     5.4720     6.5500     8.8470
 2325.5000     8.1360     2.4770     0.0180   100.8920   -70.7610     5.6460     6.6510     8.3570
 2326.0000     8.1290     2.4700     0.0180   102.9930   -70.7330     5.8040     6.7530     8.2220
