~VERSION INFORMATION
 VERS.                2.0:   CWLS LOG ASCII STANDARD - VERSION 2.0
 WRAP.                 NO:   ONE LINE PER DEPTH STEP
~WELL INFORMATION
#MNEM.UNIT      DATA TYPE    INFORMATION
#----------   ------------   ------------------------------
 STRT.F           35.5000:   START DEPTH
 STOP.F         6235.5000:   STOP DEPTH
 STEP.F            0.5000:   STEP LENGTH
 NULL.          -999.2500:   NO VALUE
 COMP. LAWRENCE-ALLISON ASSOCIATES:   COMPANY
 WELL. LAWRENCE-ALLISON "X" #62-11:   WELL
 FLD .                NPR:   FIELD
 LOC .      S11 T38N R78W:   LOCATION
 CNTY.            NATRONA:   COUNTY
 STAT.            WYOMING:   STATE
 CTRY. UNITED STATES OF AMERICA:   COUNTRY
 SRVC.      DRESSER ATLAS:   SERVICE COMPANY
 DATE.        18-DEC-1982:   LOGDATE
 API .     49025109020000:   API NUMBER
~CURVE INFORMATION
#MNEM.UNIT       API CODE    CURVE DESCRIPTION
#----------   ------------   ------------------------------
 DEPT.F                  :   
 ILM .OHMM   07 120 44 00:   INDUCTION LOG MEDIUM
 ILD .OHMM   07 120 46 00:   DEEP RESISTIVITY
 RFOC.OHMM   07 220 04 00:   RESISTIVITY FOCUSED LOG RES.
 DT  .US/F   60 520 00 00:   DELTA TIME
 TENS.LBS    60 635 01 00:   TENSION FROM SONIC LOG.
 RS  .OHMM   11 220 09 00:   RESISTIVITY SHALLOW
 RD  .OHMM   11 220 10 00:   RESISTIVITY DEEP
 RLL .OHMM   11 220 00 00:   LATEROLOG RESISTIVITY
 SPR .MV     07 010 01 00:   SPONTANEOUS POTENTIAL
 TENR.LBS    07 635 01 00:   TENSION FROM RES. LOG
 CALD.IN     45 280 60 00:   CALIPER FROM DENSITY LOG
 GRD .GAPI   45 310 01 00:   GAMMA RAY FROM DENSITY LOG
 DEN .G/C3   45 350 01 00:   FORMATION FACTOR DENSITY
 DRHO.G/C3   45 356 01 00:   DENSITY CORRECTION
 TEND.LBS    45 635 01 00:   TENSION FROM DENSITY LOG
 CN  .DEC    42 890 00 00:   NEUTRON POROSITY
~PARAMETER INFORMATION
#MNEM.UNIT          VALUE    DESCRIPTION
#----------   ------------   ------------------------------
 EKB .F         5218.0000:   Kelly bushing
 EGL .F         5208.0000:   Ground level
 EDF .F            0.0000:   Drilling floor
 TD  .F         6232.0000:   Total depth
 DATE.        18-DEC-1982:   Date logged
 CLNT.            A2DTECH:   Client Code
 SL  . 971' FNL & 1898' FEL:   Surface Location
 PD  .                 GL:   Permanent Datum
 EPD .F              5208:   Elevation Permanent Datum
 LMF .                 KB:   Log Measured From
 DMF .                 KB:   Drilling Measured From
 DAPD.F                10:   Feet Above Permanent Datum
 DD  .F              6222:   Depth driller
 DL  .F              6232:   Depth logger
 BLI .F              6230:   Bottom log interval
 CS1 .IN            9.625:   Casing size
 CBD1.     9.625" @ 1002':   Casing driller 1
 CBL1.F              1002:   Casing logger 1
 BS1 .IN             8.75:   Bit size
 BSD1.F              6222:   Depth drilled with bit1
 DFT .                KCL:   Type fluid in hole
 DFD .                  9:   Density
 DFV .                 37:   Viscosity
 DFPH.                  8:   pH
 DFL .                8.4:   Fluid loss
 MSS .           FLOWLINE:   Source of sample
 RMS .OHMM            .25:   Rm
 MST .F                60:   Rm Meas. temp.
 RMF .OHMM            .18:   Rmf
 MFST.F                62:   Rmf Meas. temp.
 RMC .OHMM            .32:   Rmc
 MCST.F                60:   Rmc Meas. temp.
 MFSS.               MEAS:   Source Rmf.
 MCSS.               CALC:   Source Rmc.
 RMB .OHMM            .09:   Rm. at BHT
 BHT .F               166:   BHT.
 TCS .HRS               6:   Time Circ. stopped
 MRT .F               166:   Maximum recorded temp.
 LUN .               6274:   Logging unit number
 LUL .               GLTE:   Logging unit location
 ENGI.             RAUTIO:   Recorded By
 WITN.           JENNINGS:   Witnessed by
 ORIG.           5" PRINT:   Origin of data
 UWI .     49025109020000:   Unique Well ID
 DICO. A2D TECHNOLOGIES, INC.:   Digitizing Company
~OTHER INFORMATION
~A  DEPTH      ILM        ILD       RFOC         DT       TENS         RS         RD        RLL        SPR       TENR       CALD        GRD        DEN       DRHO       TEND         CN
# ...
   57.0000     3.8505     3.6058  -999.2500  -999.2500  -999.2500  -999.2500  -999.2500  -999.2500  -999.2500   -20.7333    12.4961    76.7877     2.3588    -0.0027   -41.9907     0.3628
   57.5000     3.6395     3.4093  -999.2500  -999.2500  -999.2500  -999.2500  -999.2500  -999.2500  -999.2500   -18.5517    12.4793    78.0053     2.3510     0.0005   -41.9907     0.3837
   58.0000     3.5860     3.3116  -999.2500  -999.2500  -999.2500  -999.2500  -999.2500  -999.2500  -999.2500   -14.6526    12.4701    78.9880     2.3432     0.0005   -45.8787     0.3631
   58.5000     3.6587     3.2899  -999.2500  -999.2500  -999.2500  -999.2500  -999.2500  -999.2500  -999.2500   -12.6511    12.4693    79.6768     2.3354    -0.0026   -49.7667     0.3462
   59.0000     3.9456     3.3343  -999.2500  -999.2500  -999.2500  -999.2500  -999.2500  -999.2500  -999.2500    -8.2075    12.4686    79.8514     2.3276    -0.0073   -51.8954     0.3588
   59.5000     4.0536     3.4267  -999.2500  -999.2500  -999.2500  -999.2500  -999.2500  -999.2500  -999.2500     2.8385    12.4678    79.2672     2.3219    -0.0104   -53.6547     0.3444
   60.0000     4.1172     3.6208  -999.2500  -999.2500  -999.2500  -999.2500  -999.2500  -999.2500  -999.2500     6.8211    12.4819    77.7796     2.3089    -0.0151   -53.6547     0.3366
   60.5000     4.2189     3.8364  -999.2500  -999.2500  -999.2500  -999.2500  -999.2500  -999.2500  -999.2500    14.5508    12.4812    75.6915     2.2964    -0.0214   -49.7667     0.3331
   61.0000     4.4257     4.0998  -999.2500  -999.2500  -999.2500  -999.2500  -999.2500  -999.2500  -999.2500    14.7281    12.4955    74.2017     2.2925    -0.0277   -49.7667     0.3363
   61.5000     4.7727     4.3623  -999.2500  -999.2500  -999.2500  -999.2500  -999.2500  -999.2500  -999.2500    10.5992    12.4948    73.9177     2.3011    -0.0339   -41.9907     0.3369
   62.0000     5.0066     4.5859  -999.2500  -999.2500  -999.2500  -999.2500  -999.2500  -999.2500  -999.2500     3.7764    12.4968    74.5347     2.3199    -0.0370   -41.9907     0.3282
   62.5000     5.2149     4.7706  -999.2500  -999.2500  -999.2500  -999.2500  -999.2500  -999.2500  -999.2500    -3.6244    12.5233    76.0525     2.3316    -0.0346   -41.9907     0.3106
   63.0000     5.3213     4.9116  -999.2500  -999.2500  -999.2500  -999.2500  -999.2500  -999.2500  -999.2500   -10.9711    12.5225    78.1709     2.3370    -0.0333   -41.9907     0.3031
   63.5000     5.3644     5.0386  -999.2500  -999.2500  -999.2500  -999.2500  -999.2500  -999.2500  -999.2500   -10.7354    12.5170    79.0858     2.3402    -0.0306   -45.8787     0.3263
   64.0000     5.3866     5.1421  -999.2500  -999.2500  -999.2500  -999.2500  -999.2500  -999.2500  -999.2500   -10.5740    12.5060    79.3994     2.3480    -0.0275   -49.7667     0.3370
   64.5000     5.3817     5.2122  -999.2500  -999.2500  -999.2500  -999.2500  -999.2500  -999.2500  -999.2500   -10.3525    12.5052    79.4144     2.3574    -0.0259   -49.7667     0.3398
   65.0000     5.3768     5.2464  -999.2500  -999.2500  -999.2500  -999.2500  -999.2500  -999.2500  -999.2500    -6.4199    12.5045    79.4305     2.3613    -0.0243   -49.7667     0.3404
   65.5000     5.3321     5.2431  -999.2500  -999.2500  -999.2500  -999.2500  -999.2500  -999.2500  -999.2500    -6.2311    12.4947    79.7471     2.3605    -0.0242   -53.6547     0.3351
   66.0000     5.2944     5.2410  -999.2500  -999.2500  -999.2500  -999.2500  -999.2500  -999.2500  -999.2500    -2.2547    12.4677    79.7611     2.3597    -0.0242   -53.6547     0.3270
   66.5000     5.2899     5.2383  -999.2500  -999.2500  -999.2500  -999.2500  -999.2500  -999.2500   -71.1174    -2.0632    12.4573    79.4771     2.3582    -0.0242   -49.7667     0.3286
   67.0000     5.2485     5.2361  -999.2500  -999.2500  -999.2500  -999.2500  -999.2500  -999.2500   -58.7444    -1.8882    12.4415    79.1908     2.3543    -0.0241   -49.7667     0.3374
   67.5000     5.2447     5.2336  -999.2500  -999.2500  -999.2500  -999.2500  -999.2500  -999.2500   -54.8186    -1.6802    12.4408    78.9022     2.3512    -0.0241   -49.7667     0.3274
   68.0000     5.2400     5.2312  -999.2500  -999.2500  -999.2500  -999.2500  -999.2500  -999.2500   -49.5346    -1.5035    12.4401    78.6182     2.3481    -0.0241   -53.6547     0.3192
   68.5000     5.2361     5.2285  -999.2500  -999.2500  -999.2500  -999.2500  -999.2500  -999.2500   -48.4749    -1.3218    12.4394    78.9349     2.3465    -0.0240   -53.6547     0.3211
   69.0000     5.2318     5.2626  -999.2500  -999.2500  -999.2500  -999.2500  -999.2500  -999.2500   -55.3900    -1.1329    12.4386    79.8521     2.3453    -0.0272   -53.6547     0.3312
   69.5000     5.2642     5.3336  -999.2500  -999.2500  -999.2500  -999.2500  -999.2500  -999.2500   -58.4861    -0.9438    12.4379    80.7670     2.3473    -0.0271   -53.6547     0.3327
   70.0000     5.3701     5.3688  -999.2500  -999.2500  -999.2500  -999.2500  -999.2500  -999.2500   -61.5823    -0.7523    12.4331    80.7833     2.3496    -0.0287   -57.5428     0.3259
   70.5000     5.5164     5.4791  -999.2500  -999.2500  -999.2500  -999.2500  -999.2500  -999.2500   -64.5959    -0.5609    12.4214    80.1944     2.3512    -0.0286   -57.5428     0.3193
   71.0000     5.7069     5.4981  -999.2500  -999.2500  -999.2500  -999.2500  -999.2500  -999.2500   -47.6449    -0.3547    12.4207    79.6078     2.3520    -0.0286   -57.5428     0.3400
   71.5000     5.7429     5.4739  -999.2500  -999.2500  -999.2500  -999.2500  -999.2500  -999.2500   -26.4224    -0.1779    12.4199    79.3215     2.3559    -0.0286   -57.5428     0.3447
   72.0000     5.6972     5.4331  -999.2500  -999.2500  -999.2500  -999.2500  -999.2500  -999.2500    -7.7186     0.0000    12.4192    79.3402     2.3692    -0.0301   -57.5428     0.3456
   72.5000     5.6020     5.3864  -999.2500  -999.2500  -999.2500  -999.2500  -999.2500  -999.2500    28.4605     0.1888    12.4184    80.2574     2.3747    -0.0301   -57.5428     0.3428
   73.0000     5.4938     5.3163  -999.2500  -999.2500  -999.2500  -999.2500  -999.2500  -999.2500    41.6105     0.4112    12.4177    81.4726     2.3731    -0.0300   -57.5428     0.3422
   73.5000     5.3381     5.2242  -999.2500  -999.2500  -999.2500  -999.2500  -999.2500  -999.2500    28.9465     0.5665    12.4169    82.9904     2.3708    -0.0332   -57.5428     0.3447
   74.0000     5.2245     5.1658  -999.2500  -999.2500  -999.2500  -999.2500  -999.2500  -999.2500    13.5661     0.7794    12.4161    83.9053     2.3684    -0.0331   -57.5428     0.3460
   74.5000     5.1478     5.1276  -999.2500  -999.2500  -999.2500  -999.2500  -999.2500  -999.2500     3.3140     0.9709    12.4154    84.5223     2.3606    -0.0331   -57.5428     0.3429
   75.0000     5.0722     5.0894  -999.2500  -999.2500  -999.2500  -999.2500  -999.2500  -999.2500    -2.3831     1.1329    12.4296    85.4372     2.3482    -0.0329   -57.5428     0.3329
   75.5000     5.0686     5.0872  -999.2500  -999.2500  -999.2500  -999.2500  -999.2500  -999.2500    -6.9332     5.0982    12.4439    83.9497     2.3416    -0.0299   -57.5428     0.2981
   76.0000     5.0989     5.1559  -999.2500  -999.2500  -999.2500  -999.2500  -999.2500  -999.2500    -5.2691     5.2870    12.4431    80.9630     2.3404    -0.0251   -57.5428     0.2931
   76.5000     5.1247     5.1896  -999.2500  -999.2500  -999.2500  -999.2500  -999.2500  -999.2500    32.8947     5.4985    12.4424    79.9917     2.3451    -0.0214   -57.5428     0.2983
   77.0000     5.2869     5.3057  -999.2500  -999.2500  -999.2500  -999.2500  -999.2500  -999.2500    18.1184     5.6647    12.4416    79.4872     2.3560    -0.0171   -57.5428     0.3166
   77.5000     5.6058     5.4464  -999.2500  -999.2500  -999.2500  -999.2500  -999.2500  -999.2500     7.4134     5.8667    12.4409    79.8062     2.3787    -0.0109   -57.5428     0.3210
   78.0000     5.8685     5.6333  -999.2500  -999.2500  -999.2500  -999.2500  -999.2500  -999.2500     5.9086     2.2376    12.4401    80.1205     2.4060    -0.0045   -57.5428     0.2897
