~VERSION INFORMATION
 VERS.                2.0:   CWLS LOG ASCII STANDARD - VERSION 2.0
 WRAP.                 NO:   ONE LINE PER DEPTH STEP
~WELL INFORMATION
#MNEM.UNIT      DATA TYPE    INFORMATION
#----------   ------------   ------------------------------
 STRT.F          172.0000:   START DEPTH
 STOP.F         3376.0000:   STOP DEPTH
 STEP.F            0.5000:   STEP LENGTH
 NULL.          -999.2500:   NO VALUE
 COMP.    FENIX & SCISSON:   COMPANY
 WELL. FENIX NPR 3 "AX" #23-2:   WELL
 FLD .                NPR:   FIELD
 LOC .       S2 T38N R78W:   LOCATION
 CNTY.            NATRONA:   COUNTY
 STAT.            WYOMING:   STATE
 CTRY. UNITED STATES OF AMERICA:   COUNTRY
 SRVC.              WELEX:   SERVICE COMPANY
 DATE.        02-DEC-1980:   LOGDATE
 API .     49025108740000:   API NUMBER
~CURVE INFORMATION
#MNEM.UNIT       API CODE    CURVE DESCRIPTION
#----------   ------------   ------------------------------
 DEPT.F                  :   
 CALD.IN     45 280 60 00:   CALIPER FROM DENSITY LOG
 CORR.G/C3   45 356 01 00:   DENSITY CORRECTION
 GRD .GAPI   45 310 01 00:   GAMMA RAY FROM DENSITY LOG
 RHOB.G/C3   45 350 01 00:   BULK DENSITY
 TENR.LBS    07 635 01 00:   TENSION
 SPR .MV     07 010 01 00:   SPONTANEOUS POTENTIAL
 SGRD.OHMM   07 220 05 00:   SHALLOW GUARD
 ILD .OHMM   07 120 46 00:   INDUCTION LOG DEEP RESISTIVITY
 ILM .OHMM   07 120 44 00:   INDUCTION LOG MEDIUM RESISTIVITY
~PARAMETER INFORMATION
#MNEM.UNIT          VALUE    DESCRIPTION
#----------   ------------   ------------------------------
 EKB .F         5133.0000:   Kelly bushing
 EGL .F         5123.0000:   Ground level
 EDF .F            0.0000:   Drilling floor
 TD  .F         3375.0000:   Total depth
 DATE.        02-DEC-1980:   Date logged
 CLNT.            A2DTECH:   Client Code
 SL  . 3800' FSL & 827' FWL:   Surface Location
 PD  .                 GL:   Permanent Datum
 EPD .F              5123:   Elevation Permanent Datum
 LMF .                 KB:   Log Measured From
 DMF .                 KB:   Drilling Measured From
 DAPD.F                10:   Feet Above Permanent Datum
 DD  .F              3375:   Depth driller
 DL  .F              3373:   Depth logger
 BLI .F              3371:   Bottom log interval
 TLI .F               181:   Top log interval
 CS1 .IN            8.625:   Casing size
 CBD1.      8.625" @ 181':   Casing driller 1
 CBL1.F               181:   Casing logger 1
 BS1 .IN            7.875:   Bit size
 BSD1.F              3375:   Depth drilled with bit1
 DFT .           CHEM/GEL:   Type fluid in hole
 DFD .                8.8:   Density
 DFV .                 45:   Viscosity
 DFPH.                  9:   pH
 DFL .                 16:   Fluid loss
 MSS .           FLOWLINE:   Source of sample
 RMS .OHMM           1.25:   Rm
 MST .F                64:   Rm Meas. temp.
 RMF .OHMM           1.17:   Rmf
 MFST.F                64:   Rmf Meas. temp.
 RMC .OHMM            1.1:   Rmc
 MCST.F                64:   Rmc Meas. temp.
 MFSS.               MEAS:   Source Rmf.
 MCSS.               MEAS:   Source Rmc.
 RMB .OHMM            .67:   Rm. at BHT
 BHT .F               120:   BHT.
 TCS .HRS               2:   Time Circ. stopped
 MRT .F               120:   Maximum recorded temp.
 LUN .               1892:   Logging unit number
 LUL .             CASPER:   Logging unit location
 ENGI.  PFRIMMER/MONNAHAN:   Recorded By
 WITN.              FIVAS:   Witnessed by
 ORIG.           5" PRINT:   Origin of data
 UWI .     49025108740000:   Unique Well ID
 DICO. A2D TECHNOLOGIES, INC.:   Digitizing Company
~OTHER INFORMATION
~A   DEPT     CALD       CORR         GRD      RHOB       TENR        SPR       SGRD        ILD        ILM   
# ...
 3128.5000     8.7160     0.0380   127.2210     2.5560   -90.3610   -18.7470     6.9350     4.9950     5.9850
 3129.0000     8.7420     0.0380   128.0890     2.5620   -90.3610   -18.9460     6.6480     5.2610     5.8750
 3129.5000     8.7490     0.0380   128.9970     2.5710   -90.3610   -19.0040     6.4030     5.3400     5.7680
 3130.0000     8.7560     0.0400   132.3790     2.5810   -90.3610   -18.9980     6.1590     5.4580     5.7680
 3130.5000     8.7640     0.0430   137.2460     2.5880   -90.3610   -19.0040     5.9140     5.3210     5.6100
 3131.0000     8.7710     0.0460   142.1110     2.5790   -90.3610   -18.9530     5.6690     5.1560     5.4450
 3131.5000     8.7780     0.0490   146.6870     2.5920   -90.3610   -18.8450     5.5590     5.0180     5.2810
 3132.0000     8.7850     0.0520   150.2100     2.6090   -90.3610   -18.7450     5.4370     4.8800     5.1160
 3132.5000     8.7930     0.0540   153.6350     2.6190   -90.3610   -18.6430     5.3310     4.7420     4.9510
 3133.0000     8.8000     0.0550   157.7110     2.6120   -90.3610   -18.5410     5.2610     4.6040     4.7870
 3133.5000     8.8070     0.0560   163.5930     2.6040   -90.3610   -18.4400     5.0700     4.3850     4.5490
 3134.0000     8.8140     0.0560   173.8350     2.5970   -90.3610   -18.3380     4.8370     4.0940     4.2480
 3134.5000     8.8220     0.0560   184.9730     2.5690   -90.3610   -18.2360     4.4090     3.8040     3.9470
 3135.0000     8.8290     0.0560   193.3260     2.5360   -90.3610   -18.1340     3.9810     3.5140     3.6460
 3135.5000     8.8350     0.0550   201.4060     2.5090   -90.3610   -18.0330     3.5530     3.2240     3.3440
 3136.0000     8.8250     0.0520   208.3150     2.4680   -90.3610   -17.9310     3.2240     3.0100     3.1230
 3136.5000     8.8300     0.0430   214.4370     2.4290   -90.3610   -17.8300     3.1150     2.9180     3.0270
 3137.0000     8.8420     0.0350   218.2460     2.3890   -90.3610   -17.7270     3.5200     2.9460     3.1750
 3137.5000     8.8820     0.0260   211.8860     2.3490   -90.3610   -17.6250     4.1390     3.0410     3.6610
 3138.0000     9.0230     0.0280   205.8150     2.3490   -90.3610   -17.5260     4.7570     3.1350     4.1470
 3138.5000     9.1620     0.0320   167.4300     2.5480   -90.3610   -17.4190     5.3750     3.2290     4.6320
 3139.0000     9.2630     0.0370   151.6510     2.5860   -90.3610   -17.4610     5.9940     3.5230     4.9780
 3139.5000     8.5910     0.0400   147.8670     2.5950   -90.3610   -17.6400     6.8080     3.9070     5.3660
 3140.0000     8.4270     0.0420   148.9180     2.6000   -90.3610   -17.8110     6.7580     4.2900     5.8050
 3140.5000     8.4250     0.0410   150.4500     2.5950   -90.3610   -17.9830     6.5810     4.6730     6.2090
 3141.0000     8.4200     0.0390   151.0520     2.5860   -90.3610   -18.1560     6.4040     4.8870     6.2090
 3141.5000     8.4130     0.0380   151.6330     2.5780   -90.3610   -18.3290     6.2260     4.9780     6.1680
 3142.0000     8.4070     0.0400   152.8650     2.5750   -90.3610   -18.4980     6.1240     5.2610     6.1210
 3142.5000     8.4010     0.0430   153.6480     2.5800   -90.3610   -18.6770     6.2280     5.3180     6.0960
 3143.0000     8.3960     0.0440   153.1540     2.5850   -90.3610   -18.8440     6.3330     5.4440     6.0960
 3143.5000     8.3570     0.0440   152.6640     2.5760   -90.3610   -18.9780     6.4370     5.5690     6.1290
 3144.0000     8.3180     0.0440   153.0560     2.5560   -90.3610   -18.7750     6.5420     5.6630     6.1690
 3144.5000     8.2790     0.0440   153.6160     2.5410   -90.3610   -18.5870     6.6840     5.6630     6.2080
 3145.0000     8.2400     0.0430   154.7140     2.5480   -90.3610   -18.3820     6.6680     5.6630     6.2470
 3145.5000     8.2000     0.0430   156.9080     2.5580   -90.3610   -18.1850     6.6420     5.6630     6.2860
 3146.0000     8.1890     0.0440   159.9750     2.5670   -90.3610   -17.9900     6.6170     5.6630     6.3250
 3146.5000     8.1870     0.0460   161.7990     2.5770   -90.3610   -17.7840     6.5920     5.6630     6.3650
 3147.0000     8.1850     0.0480   162.5730     2.5860   -90.3610   -17.5940     6.5620     5.6630     6.4040
 3147.5000     8.1830     0.0490   163.3500     2.5840   -90.3610   -17.4250     6.7930     5.6630     6.4420
 3148.0000     8.1810     0.0480   165.3290     2.5780   -90.3610   -17.6650     7.0740     5.6630     6.3410
 3148.5000     8.1800     0.0470   169.2750     2.5670   -90.3610   -17.8980     7.4650     5.6630     6.2410
 3149.0000     8.1780     0.0460   169.6310     2.5640   -90.3610   -18.1600     7.2600     5.6620     6.1420
 3149.5000     8.1760     0.0460   168.1740     2.5690   -90.3610   -18.4020     6.9330     5.6650     6.0420
 3150.0000     8.1740     0.0450   166.6900     2.5740   -90.3610   -18.5800     6.6050     5.5890     5.9430
 3150.5000     8.1720     0.0440   165.4660     2.5690   -90.3610   -18.3940     6.2770     5.5180     5.8430
 3151.0000     8.1710     0.0430   166.4710     2.5620   -90.3610   -18.2410     5.9500     5.4450     5.7440
 3151.5000     8.1690     0.0430   167.3160     2.5550   -90.3610   -18.0680     5.8750     5.3720     5.6440
 3152.0000     8.1670     0.0430   164.6610     2.5480   -90.3610   -17.9060     5.8750     5.3000     5.5440
 3152.5000     8.1650     0.0430   161.8020     2.5420   -90.3610   -17.7400     5.9720     5.2280     5.4450
 3153.0000     8.1630     0.0430   158.9560     2.5360   -90.3610   -17.5750     6.2520     5.1650     5.3580
 3153.5000     8.1620     0.0430   156.1130     2.5360   -90.3610   -17.4100     6.4420     5.1650     5.3580
 3154.0000     8.1600     0.0440   153.2440     2.5360   -90.3610   -17.2430     6.2350     5.1650     5.3580
 3154.5000     8.1580     0.0450   150.3150     2.5440   -90.3610   -17.0820     5.8750     5.3030     5.5690
 3155.0000     8.1560     0.0450   150.7010     2.5530   -90.3610   -16.9090     6.0690     5.5000     5.8700
 3155.5000     8.1550     0.0460   149.9440     2.5620   -90.3610   -16.7510     6.4690     5.6980     6.1710
 3156.0000     8.1530     0.0470   148.0950     2.5710   -90.3610   -16.6240     7.2840     5.8950     6.4720
 3156.5000     8.1510     0.0470   146.2290     2.5760   -90.3610   -16.8840     8.5830     6.0930     6.7730
 3157.0000     8.1490     0.0470   144.3450     2.5790   -90.3610   -17.1130     9.8410     6.2900     7.0640
 3157.5000     8.1470     0.0470   142.6510     2.5860   -90.3610   -17.3880     9.4720     6.4880     7.0940
 3158.0000     8.1460     0.0460   143.3630     2.5930   -90.3610   -17.5430     8.8110     6.6840     7.1240
 3158.5000     8.1440     0.0460   144.1890     2.5980   -90.3610   -17.7100     8.8720     6.6840     7.1530
 3159.0000     8.1420     0.0460   146.9900     2.5920   -90.3610   -17.8800     8.9750     6.5620     7.1830
 3159.5000     8.1400     0.0460   150.1850     2.5790   -90.3610   -18.0370     8.2750     6.4450     7.1950
 3160.0000     8.1380     0.0450   154.9350     2.5650   -90.3610   -18.1730     7.3490     6.3260     6.4940
 3160.5000     8.1370     0.0420   159.7090     2.5500   -90.3610   -17.8860     6.5620     6.2070     5.8960
 3161.0000     8.1350     0.0380   160.7020     2.5390   -90.3610   -17.5950     6.4640     6.0880     5.2610
 3161.5000     8.1330     0.0350   158.8790     2.5300   -90.3610   -17.2980     6.1760     5.9850     5.5580
 3162.0000     8.1310     0.0340   157.1290     2.5280   -90.3610   -17.0090     6.7670     5.9850     5.8770
 3162.5000     8.1300     0.0320   155.3930     2.5400   -90.3610   -17.0930     7.6040     5.9850     6.1960
 3163.0000     8.1380     0.0310   153.8880     2.5490   -90.3610   -17.2630     7.6180     5.9850     6.5140
 3163.5000     8.1720     0.0290   153.7320     2.5530   -90.3610   -17.4340     7.6680     6.0300     6.8330
 3164.0000     8.2060     0.0270   154.3330     2.5580   -90.3610   -17.5920     7.7180     6.0810     7.1950
 3164.5000     8.2390     0.0250   154.9190     2.5620   -90.3610   -17.7590     7.7450     6.1330     7.1850
