~VERSION INFORMATION
 VERS.                2.0:   CWLS LOG ASCII STANDARD - VERSION 2.0
 WRAP.                 NO:   ONE LINE PER DEPTH STEP
~WELL INFORMATION
#MNEM.UNIT      DATA TYPE    INFORMATION
#----------   ------------   ------------------------------
 STRT.F          540.0000:   START DEPTH
 STOP.F         4100.0000:   STOP DEPTH
 STEP.F            0.5000:   STEP LENGTH
 NULL.          -999.2500:   NO VALUE
 COMP. LAWRENCE ALISON & ASSOC.,WEST:   COMPANY
 WELL. LAWRENCE "X" #15-11:   WELL
 FLD .              N P R:   FIELD
 LOC .      S11 T38N R78W:   LOCATION
 CNTY.            NATRONA:   COUNTY
 STAT.            WYOMING:   STATE
 CTRY. UNITED STATES OF AMERICA:   COUNTRY
 SRVC.      DRESSER ATLAS:   SERVICE COMPANY
 DATE.        18-MAY-1985:   LOGDATE
 API .     49025110220000:   API NUMBER
~CURVE INFORMATION
#MNEM.UNIT       API CODE    CURVE DESCRIPTION
#----------   ------------   ------------------------------
 DEPT.F                  :   
 NPHI.DEC    42 890 03 00:   NEUTRON POROSITY SANDSTONE
 RHOB.G/C3   45 350 01 00:   BULK DENSITY
 CORR.G/C3   45 356 01 00:   DENSITY CORRECTION
 TEND.LBS    45 635 01 00:   TENSION FROM DENSITY LOG
 GRD .GAPI   45 310 01 00:   GAMMA RAY FROM DENSITY LOG
 CALD.IN     45 280 60 00:   CALIPER FROM DENSITY LOG
 SPR .MV     07 010 01 00:   SPONTANEOUS POTENTIAL
 RILD.OHMM   07 120 46 00:   DEEP INDUCTION RESISTIVITY
 RILM.OHMM   07 120 44 00:   INDUCTION LOG MEDIUM RESISTIVITY
 RFOC.OHMM   07 220 04 00:   RESISTIVITY FOCUSED LOG RES.
 TENR.LBS    07 635 01 00:   TENSION FROM RESISTIVITY
~PARAMETER INFORMATION
#MNEM.UNIT          VALUE    DESCRIPTION
#----------   ------------   ------------------------------
 EKB .F         5201.0000:   Kelly bushing
 EGL .F         5189.0000:   Ground level
 EDF .F         5200.0000:   Drilling floor
 TD  .F         4095.0000:   Total depth
 DATE.        18-MAY-1985:   Date logged
 CLNT.            A2DTECH:   Client Code
 SL  . 2203' FSL & 377' FWL:   Surface Location
 PD  .                 GL:   Permanent Datum
 EPD .F              5189:   Elevation Permanent Datum
 LMF .                 KB:   Log Measured From
 DMF .                 KB:   Drilling Measured From
 DAPD.F                12:   Feet Above Permanent Datum
 DD  .F              4095:   Depth driller
 DL  .F              4093:   Depth logger
 BLI .F              4091:   Bottom log interval
 TLI .F                 0:   Top log interval
 CS1 .IN            8.625:   Casing size
 CBD1.      8.625" @ 565':   Casing driller 1
 CBL1.F               565:   Casing logger 1
 BS1 .IN            7.875:   Bit size
 BSD1.F              4095:   Depth drilled with bit1
 DFT .            GEL KCL:   Type fluid in hole
 DFD .                9.2:   Density
 DFV .                 40:   Viscosity
 DFPH.                8.0:   pH
 DFL .                9.0:   Fluid loss
 MSS .            MUDTANK:   Source of sample
 RMS .OHMM            .57:   Rm
 MST .F                69:   Rm Meas. temp.
 RMF .OHMM            .49:   Rmf
 MFST.F                69:   Rmf Meas. temp.
 RMC .OHMM            .71:   Rmc
 MCST.F                69:   Rmc Meas. temp.
 MFSS.               MEAS:   Source Rmf.
 MCSS.               CALC:   Source Rmc.
 RMB .OHMM            .30:   Rm. at BHT
 BHT .F               139:   BHT.
 TCS .HRS               4:   Time Circ. stopped
 MRT .F               139:   Maximum recorded temp.
 LUN .            HL 6302:   Logging unit number
 LUL .               CODY:   Logging unit location
 ENGI.              GETTY:   Recorded By
 WITN.              FIVAS:   Witnessed by
 ORIG.           5" PRINT:   Origin of data
 UWI .     49025110220000:   Unique Well ID
 DICO. A2D TECHNOLOGIES, INC.:   Digitizing Company
~OTHER INFORMATION
~A   DEPT     NPHI       RHOB       CORR        TEND        GRD      CALD        SPR       RILD       RILM       RFOC       TENR   
# ...
 1485.5000     0.3140     2.5270     0.0120   -65.9200    90.9000    11.7570    -2.7990     6.7220     6.7270     6.6720   -86.0800
 1486.0000     0.2940     2.5280     0.0140   -65.9200    90.5400    11.7510    -2.8480     6.7160     6.6130     6.6810   -85.6430
 1486.5000     0.3170     2.5380     0.0160   -65.9200    90.0260    11.7450    -2.8970     6.7100     6.4990     6.6870   -84.3530
 1487.0000     0.3370     2.5450     0.0180   -65.9200    89.7710    11.7390    -2.9470     6.7040     6.3900     6.7390   -83.0630
 1487.5000     0.3140     2.5360     0.0270   -65.9200    90.5920    11.7330    -2.9960     6.6970     6.3900     6.8000   -81.7740
 1488.0000     0.2740     2.5200     0.0360   -65.9200    91.2330    11.7270    -3.0440     6.6910     6.4400     6.8600   -80.4840
 1488.5000     0.2600     2.5050     0.0450   -65.9200    91.0510    11.7240    -3.0680     6.6880     6.4790     6.9210   -79.1940
 1489.0000     0.2580     2.5040     0.0570   -65.9200    90.3700    11.7200    -3.0010     6.7400     6.5190     6.9810   -77.9050
 1489.5000     0.2750     2.5150     0.0440   -65.9200    88.9720    11.7170    -2.9370     6.7890     6.5590     7.0420   -76.6150
 1490.0000     0.2910     2.5260     0.0180   -65.9200    87.1950    11.7130    -2.8720     6.8390     6.5990     7.1020   -75.3250
 1490.5000     0.2860     2.5370     0.0340   -65.9200    87.5210    11.7090    -2.8080     6.8880     6.6380     7.1620   -74.0360
 1491.0000     0.2740     2.5480     0.0470   -65.9200    87.8160    11.7060    -2.7440     6.9370     6.6780     7.1950   -72.7460
 1491.5000     0.2640     2.5580     0.0530   -65.9200    88.0000    11.7020    -2.6800     6.9870     6.7180     7.1950   -71.4560
 1492.0000     0.2660     2.5650     0.0530   -65.9200    87.8960    11.6990    -2.6150     7.0360     6.7580     7.2210   -70.1670
 1492.5000     0.2680     2.5660     0.0520   -65.9200    87.4040    11.6950    -2.5510     7.0850     6.7980     7.2510   -68.8770
 1493.0000     0.2680     2.5630     0.0500   -65.9200    85.8760    11.6910    -2.4870     7.1340     6.8370     7.2800   -67.5870
 1493.5000     0.2830     2.5580     0.0460   -65.9200    84.4040    11.6880    -2.4230     7.1840     6.8770     7.3100   -67.1030
 1494.0000     0.2980     2.5540     0.0290   -65.9200    83.9060    11.6910    -2.3570     7.2330     6.9170     7.3400   -68.7580
 1494.5000     0.2830     2.5590     0.0140   -65.9200    87.4700    11.6950    -2.2950     7.2820     6.9570     7.3700   -70.4130
 1495.0000     0.2680     2.5640     0.0200   -65.9200    89.3290    11.6990    -2.5050     7.3270     6.9960     7.4000   -72.0680
 1495.5000     0.2580     2.5680     0.0300   -65.9200    87.6740    11.7030    -2.7540     7.3270     7.0360     7.4300   -73.7230
 1496.0000     0.2600     2.5630     0.0380   -65.9200    86.2470    11.7070    -3.0030     7.3280     7.0650     7.4600   -75.3780
 1496.5000     0.2600     2.5550     0.0330   -65.9200    88.0390    11.7110    -3.2520     7.3280     7.0650     7.4890   -75.2260
 1497.0000     0.2600     2.5490     0.0230   -65.9200    88.4850    11.7160    -3.5000     7.3270     7.0650     7.5190   -70.5470
 1497.5000     0.2600     2.5510     0.0180   -63.3790    87.6020    11.7210    -3.6820     7.3280     7.0650     7.5490   -65.8690
 1498.0000     0.2720     2.5560     0.0210   -59.6270    86.8240    11.7260    -3.6110     7.3270     6.8840     7.5790   -61.1900
 1498.5000     0.2690     2.5600     0.0280   -55.8740    87.0280    11.7180    -3.5360     7.3270     6.7170     7.6000   -56.5120
 1499.0000     0.2890     2.5570     0.0380   -52.1220    87.2490    11.7070    -3.4620     7.3270     6.5670     7.4210   -51.8330
 1499.5000     0.2990     2.5450     0.0480   -48.3690    87.4660    11.6970    -3.3870     7.2510     6.5730     7.2830   -47.1550
 1500.0000     0.3020     2.5320     0.0480   -44.6170    87.6730    11.6870    -3.3120     7.1810     6.5780     7.1450   -42.4770
 1500.5000     0.3000     2.5340     0.0460   -40.8650    88.4610    11.6940    -3.2370     7.1120     6.5840     7.0060   -37.7980
 1501.0000     0.2970     2.5470     0.0340   -37.1120    89.5210    11.7020    -3.1620     7.0420     6.5890     6.9370   -33.1200
 1501.5000     0.2930     2.5580     0.0190   -33.3600    90.4150    11.7090    -3.0870     6.9720     6.5940     6.9180   -28.4410
 1502.0000     0.2880     2.5600     0.0170   -29.6080    90.3880    11.7170    -3.0120     6.9370     6.5990     6.9000   -28.4770
 1502.5000     0.2850     2.5460     0.0160   -26.1190    89.8620    11.7250    -2.9380     6.9520     6.6050     6.8830   -30.5960
 1503.0000     0.3060     2.5310     0.0330   -27.1280    89.2570    11.7200    -2.8630     6.9830     6.6100     6.8740   -32.7160
 1503.5000     0.3200     2.5170     0.0530   -28.0700    88.6520    11.7040    -2.7880     7.0140     6.6150     6.9860   -34.8350
 1504.0000     0.3350     2.5160     0.0430   -29.0120    88.0480    11.6890    -2.7130     7.0450     6.6210     7.0890   -36.9550
 1504.5000     0.3200     2.5260     0.0240   -29.9540    87.5430    11.6730    -2.6380     7.0760     6.6270     7.1920   -39.0740
 1505.0000     0.3000     2.5370     0.0180   -30.8960    87.0990    11.6800    -2.5630     7.1070     6.6070     7.2940   -41.1940
 1505.5000     0.2900     2.5490     0.0140   -31.8370    86.6050    11.7060    -2.4880     7.1300     6.5770     7.3270   -43.3130
 1506.0000     0.2790     2.5500     0.0160   -32.7790    88.0440    11.6860    -2.4130     7.0330     6.5470     7.1950   -45.4330
 1506.5000     0.2660     2.5460     0.0180   -33.7210    90.9530    11.6650    -2.3400     6.9570     6.5170     7.1340   -47.5520
 1507.0000     0.2660     2.5420     0.0090   -34.6630    89.6950    11.6440    -2.3290     6.8820     6.5080     7.0010   -49.6720
 1507.5000     0.2950     2.5400     0.0100   -35.6050    88.0180    11.6230    -2.4960     6.8110     6.5080     7.0170   -51.7910
 1508.0000     0.2950     2.5450     0.0300   -36.5470    88.5050    11.6020    -2.6570     6.8190     6.5890     7.0410   -53.9110
 1508.5000     0.2840     2.5500     0.0500   -37.4890    89.8640    11.5810    -2.8180     6.8360     6.6210     7.0650   -56.0300
 1509.0000     0.2760     2.5480     0.0570   -38.4310    91.2530    11.5650    -2.9790     6.8520     6.6530     7.0900   -57.0300
 1509.5000     0.2680     2.5470     0.0490   -39.3730    92.4980    11.5560    -3.1410     6.8690     6.6850     7.1140   -57.4660
 1510.0000     0.2720     2.5490     0.0350   -40.3150    92.4880    11.5470    -3.3040     6.8850     6.7170     7.1380   -57.9020
 1510.5000     0.2790     2.5540     0.0200   -41.2570    91.4370    11.5390    -3.4710     6.9020     6.7490     7.1620   -58.3390
 1511.0000     0.2860     2.5540     0.0190   -42.1990    90.3490    11.5300    -3.4550     6.9190     6.7810     7.1870   -58.7750
 1511.5000     0.2720     2.5510     0.0220   -43.1410    90.4310    11.5200    -3.4260     6.9350     6.8110     7.1950   -59.2120
 1512.0000     0.2780     2.5480     0.0270   -44.0830    90.8830    11.5100    -3.3970     6.9520     6.9370     7.1950   -59.6480
 1512.5000     0.2880     2.5440     0.0380   -45.0250    91.2240    11.4990    -3.3680     6.9680     6.9100     7.1950   -60.0840
 1513.0000     0.2940     2.5440     0.0390   -45.9670    89.9430    11.4880    -3.3400     6.9850     6.8890     7.1950   -60.5210
 1513.5000     0.2820     2.5460     0.0080   -46.9090    88.6490    11.4780    -3.3120     7.0010     6.8680     7.1950   -60.9570
 1514.0000     0.2680     2.5520    -0.0050   -47.8510    88.5690    11.4680    -3.2830     7.0130     6.8470     7.1950   -61.3930
 1514.5000     0.2700     2.5570    -0.0070   -48.7930    89.1740    11.4680    -3.2550     7.0280     6.8250     7.1950   -61.8300
 1515.0000     0.2720     2.5630    -0.0040   -49.7350    89.4800    11.4680    -3.2260     7.0420     6.8040     7.1950   -62.2660
 1515.5000     0.2700     2.5620     0.0020   -50.6770    89.6310    11.4680    -3.1980     7.0570     6.7830     7.1950   -62.7020
