~VERSION INFORMATION
 VERS.                2.0:   CWLS LOG ASCII STANDARD - VERSION 2.0
 WRAP.                 NO:   ONE LINE PER DEPTH STEP
~WELL INFORMATION
#MNEM.UNIT      DATA TYPE    INFORMATION
#----------   ------------   ------------------------------
 STRT.F            0.0000:   START DEPTH
 STOP.F         5786.0000:   STOP DEPTH
 STEP.F            0.5000:   STEP LENGTH
 NULL.          -999.2500:   NO VALUE
 COMP. U.S. DEPARTMENT OF ENERGY:   COMPANY
 WELL. DEPARTMENT "X" #2-3:   WELL
 FLD .           N P R #3:   FIELD
 LOC .       S3 T38N R78W:   LOCATION
 CNTY.            NATRONA:   COUNTY
 STAT.            WYOMING:   STATE
 CTRY. UNITED STATES OF AMERICA:   COUNTRY
 SRVC.       BAKER HUHGES:   SERVICE COMPANY
 DATE.        14-JUL-2002:   LOGDATE
 API .     49025230540000:   API NUMBER
~CURVE INFORMATION
#MNEM.UNIT       API CODE    CURVE DESCRIPTION
#----------   ------------   ------------------------------
 DEPT.F                  :   
 TEND.LBS    45 635 01 00:   TENSION FROM DENSITY LOG
 CALD.IN     45 280 60 00:   CALIPER FROM DENSITY LOG
 ZCOR.G/C3   45 356 01 00:   DENSITY CORRECTION
 PE  .B/E    45 358 01 00:   PHOTOELECTRIC FACTOR
 ZDEN.G/C3   45 350 01 00:   BULK DENSITY
 CNCF.DEC    42 890 03 00:   NEUTRON POROSITY
 TENS.LBS    60 635 01 00:   TENSION FROM SONIC
 DT  .US/F   60 520 00 00:   DELTA TIME
 RD  .OHMM   11 220 10 00:   RESISTIVITY DEEP
 TENR.LBS    11 635 01 00:   TENSION FROM RES. LOG
 RS  .OHMM   11 220 09 00:   RESISTIVITY SHALLOW
 GRR .GAPI   11 310 01 00:   GAMMA RAY FROM RES.
 RMLL.OHMM   11 270 04 00:   MICRO LATEROLOG
 SPR .MV     11 010 01 00:   SPONTANEOUS POTENTIAL FROM RES.
~PARAMETER INFORMATION
#MNEM.UNIT          VALUE    DESCRIPTION
#----------   ------------   ------------------------------
 EKB .F         5164.7000:   Kelly bushing
 EGL .F         5154.7000:   Ground level
 EDF .F         5163.7000:   Drilling floor
 TD  .F         5773.0000:   Total depth
 DATE.        14-JUL-2002:   Date logged
 CLNT.            A2DTECH:   Client Code
 SL  . 838' FNL & 2128' FWL:   Surface Location
 PD  .                 GL:   Permanent Datum
 EPD .F            5154.7:   Elevation Permanent Datum
 LMF .                 KB:   Log Measured From
 DMF .                 KB:   Drilling Measured From
 DD  .F              5770:   Depth driller
 DL  .F              5773:   Depth logger
 BLI .F              5770:   Bottom log interval
 CS1 .IN            9.625:   Casing size
 CBD1.       9.625 @ 578':   Casing driller 1
 CBL1.F               578:   Casing logger 1
 BS1 .IN             8.75:   Bit size
 DFT .       GEL/CHEMICAL:   Type fluid in hole
 DFD .                  9:   Density
 DFV .                 45:   Viscosity
 DFPH.                8.5:   pH
 DFL .                9.6:   Fluid loss
 MSS .           FLOWLINE:   Source of sample
 RMS .OHMM          0.568:   Rm
 MST .F                91:   Rm Meas. temp.
 RMF .OHMM          0.490:   Rmf
 MFST.F                92:   Rmf Meas. temp.
 RMC .OHMM          1.072:   Rmc
 MCST.F                90:   Rmc Meas. temp.
 MFSS.               MEAS:   Source Rmf.
 RMB .OHMM          0.291:   Rm. at BHT
 BHT .F               184:   BHT.
 TCS .HRS               8:   Time Circ. stopped
 MRT .F               184:   Maximum recorded temp.
 LUN .            HL-6530:   Logging unit number
 LUL .             CASPER:   Logging unit location
 ENGI.           VERCIMAK:   Recorded By
 WITN.              HARDY:   Witnessed by
 ORIG.           5" PRINT:   Origin of data
 UWI .     49025230540000:   Unique Well ID
 DICO. A2D TECHNOLOGIES, INC.:   Digitizing Company
~OTHER INFORMATION
~A    DEPT    TEND       CALD       ZCOR         PE       ZDEN       CNCF       TENS         DT         RD       TENR         RS         GRR      RMLL        SPR   
# ...
 4704.0000   -80.9600    10.3540     0.0110     3.1770     2.6280     0.1210   -34.5690    61.2480    25.2830    14.4710    28.2470    87.6530    32.6820     2.8710
 4704.5000   -75.0000    10.3570     0.0120     3.1520     2.6270     0.1220   -34.5690    61.3270    25.8370     4.4910    29.2050    87.1780    31.8150     3.1560
 4705.0000   -59.8680    10.3600     0.0210     3.1260     2.6290     0.1220   -34.5690    61.3870    25.9900     1.8850    29.8320    85.9160    34.5590     3.4660
 4705.5000   -53.3680    10.3630     0.0250     3.1080     2.6360     0.1220   -34.5690    61.3550    25.7720    -0.8430    29.1120    84.4480    30.9490     3.7760
 4706.0000   -46.8680    10.3650     0.0230     3.1030     2.6420     0.1210   -34.5690    61.3230    25.1120    -3.5710    28.3460    84.9890    31.6850     4.0740
 4706.5000   -40.3680    10.3680     0.0200     3.0980     2.6410     0.1220   -34.5690    61.2930    24.4510    -5.4890    27.5790    86.4190    32.7040     4.3650
 4707.0000   -33.8680    10.3710     0.0190     3.0930     2.6390     0.1240   -34.5690    61.5110    23.7910     4.4910    26.8130    87.5160    30.9490     4.6460
 4707.5000   -27.3680    10.3740     0.0210     3.1060     2.6390     0.1280   -34.5690    61.7380    22.6930    -5.4890    25.7120    87.0430    30.3860     4.9270
 4708.0000   -20.8680    10.3760     0.0270     3.1340     2.6420     0.1390   -34.5690    62.1530    20.9200    -5.4890    24.5780    86.7570    25.9000     5.2070
 4708.5000   -15.0000    10.3790     0.0330     3.1630     2.6470     0.1490   -34.5690    63.2570    19.3120    -5.4890    23.2750    87.7980    23.9260     5.4880
 4709.0000   -18.3880    10.3810     0.0230     3.1930     2.6480     0.1600   -34.5690    64.7050    17.4900    -5.4890    20.9080    91.3680    22.9340     5.7710
 4709.5000   -21.4750    10.3810     0.0120     3.2720     2.6460     0.1860   -34.5690    67.0740    15.6680    -5.4890    18.6070   100.0410    20.3510     6.0600
 4710.0000   -24.5630    10.3810     0.0090     3.3740     2.6450     0.2140   -34.5690    69.9580    13.8460    -5.4890    16.3050   108.3830    17.7680     6.0740
 4710.5000   -25.0000    10.3810     0.0120     3.4250     2.6450     0.2430   -34.5690    72.8420    12.0240    -5.4890    14.0040   116.0480    15.1850     6.0720
 4711.0000   -25.0000    10.3810     0.0170     3.4160     2.6440     0.2560   -34.5690    74.6280    10.2020    -5.4890    11.7020   118.8460    12.6020     6.0750
 4711.5000   -25.0000    10.3810     0.0190     3.4060     2.6410     0.2390   -35.5100    73.6170     8.5460    -5.4890     9.7200   121.0110    10.2710     5.8730
 4712.0000   -25.0000    10.3810     0.0140     3.3970     2.6390     0.2110   -42.2280    70.9120     8.4680    -5.4890     9.7200   118.3070     9.9920     5.5710
 4712.5000   -36.7650    10.3810     0.0150     3.3870     2.6410     0.1840   -48.9460    68.0510    10.4430    -5.4890    12.9590   113.8940    15.8930     5.2700
 4713.0000   -48.3880    10.3810     0.0180     3.3770     2.6450     0.1660   -55.6640    65.1890    13.2190    -8.6380    15.9230   106.6830    20.0920     5.5540
 4713.5000   -60.0120    10.3810     0.0190     3.3680     2.6440     0.1580   -62.3810    63.0950    15.9960   -19.5500    18.6330    99.0030    21.7940     5.9110
 4714.0000   -52.2600    10.3810     0.0110     3.3580     2.6420     0.1540   -58.9180    62.2910    18.7720   -25.4490    21.3420    95.2770    23.8250     6.0590
 4714.5000   -17.6800    10.3810     0.0080     3.3470     2.6400     0.1450   -50.3340    61.8570    20.3230   -14.1610    23.5100    93.3380    26.7160     5.9850
 4715.0000     5.0000    10.3810     0.0080     3.3320     2.6380     0.1360   -41.7500    61.4230    21.8020    -8.7050    25.3730    91.3630    27.2120     5.9130
 4715.5000     1.1330    10.3810     0.0120     3.3160     2.6370     0.1290   -34.5690    60.9900    23.2750    -5.4890    26.7160    88.2360    27.9900     5.9620
 4716.0000    -2.9830    10.3810     0.0170     3.3010     2.6410     0.1270   -34.5690    60.9800    23.2750    -2.5890    26.4490    85.7350    29.2890     6.3180
 4716.5000    45.0000    10.3810     0.0210     3.2850     2.6500     0.1340   -34.5690    61.0920    23.0120     0.2990    25.9900    88.5140    28.7840     6.6650
 4717.0000    39.6770    10.3810     0.0200     3.2700     2.6580     0.1420   -34.5690    62.6140    21.5060     3.1880    24.7080    95.1310    27.4280     7.0110
 4717.5000    32.0770    10.3810     0.0170     3.2540     2.6580     0.1570   -34.5690    64.4810    19.9080    -5.4890    22.4730   101.2070    25.9900     7.1270
 4718.0000    25.0000    10.3810     0.0120     3.2390     2.6550     0.1890   -34.5690    67.3880    17.5190    -5.4890    20.2380   104.4190    25.2830     7.1930
 4718.5000    26.4670    10.3810     0.0150     3.2450     2.6550     0.2200   -34.5690    70.4310    14.9750    -5.4890    18.0030   107.7580    21.4030     7.2600
 4719.0000    27.8390    10.3800     0.0240     3.2790     2.6560     0.2290   -36.3930    71.8140    12.4310    -5.4890    15.7690   112.8250    17.1980     7.2740
 4719.5000    29.2110    10.3760     0.0330     3.2730     2.6580     0.2270   -41.5430    71.6170    10.0840   -15.4690    13.5340   118.7440    12.9930     7.2760
 4720.0000    30.5830    10.3720     0.0310     3.2560     2.6570     0.2220   -46.6930    71.1120     9.9000   -21.4570    12.3440   121.2550    10.6560     7.2800
 4720.5000    31.9560    10.3680     0.0190     3.4130     2.6520     0.2170   -51.8440    71.9420     9.6310   -30.3850    12.1630   123.7440    13.9820     7.2430
 4721.0000    33.3280    10.3640     0.0060     3.6010     2.6470     0.2170   -51.9590    73.2580     9.5430   -35.4290    11.8980   125.9910    15.8210     6.4930
 4721.5000    34.7000    10.3590     0.0030     3.5700     2.6450     0.2310   -46.2370    73.2050     9.3690   -23.8220    11.6810   127.5820    14.1990     5.7570
 4722.0000    18.9170    10.3550     0.0110     3.4400     2.6440     0.2330   -40.5140    70.4020     9.3690   -16.2670    11.7890   125.9710    11.5920     5.0260
 4722.5000    -1.6670    10.3510     0.0170     3.2570     2.6490     0.1960   -34.5690    66.5910    11.2590    -8.7130    13.2040   110.0090     9.9920     4.2970
 4723.0000   -22.2500    10.3470     0.0170     3.2700     2.6500     0.1480   -34.5690    63.1750    15.2440    -5.4890    17.4710    93.6910    27.4630     3.5670
 4723.5000   -42.8330    10.3430     0.0170     3.2900     2.6460     0.1170   -35.8470    61.5140    19.2300    -6.1980    22.6420    82.8780    27.2120     2.8340
 4724.0000   -65.0000    10.3390     0.0190     3.2900     2.6380     0.1060   -37.4560    61.1110    23.4900    -8.2020    23.9890    78.4290    27.2120     2.0850
 4724.5000   -51.3200    10.3340     0.0210     3.2900     2.6280     0.1010   -39.0660    61.1500    24.1140   -10.2060    25.5170    75.9950    27.2690     1.6340
 4725.0000   -36.5000    10.3300     0.0120     3.2940     2.6180     0.1000   -40.6750    61.4930    24.8890   -12.2100    27.0460    74.1150    27.4630     1.1870
 4725.5000   -21.6800    10.3260     0.0070     3.3100     2.6070     0.1010   -42.2850    61.8360    25.2830   -14.2140    28.7550    73.8580    25.5580     0.8540
 4726.0000    -6.8600    10.3220     0.0040     3.3270     2.6030     0.1040   -43.8940    62.0340    24.9590   -16.2190    28.4920    75.1640    23.4370     0.8660
 4726.5000     2.8550    10.3240     0.0030     3.2460     2.6030     0.1080   -46.2620    62.0940    24.6610   -18.2230    27.9680    76.3050    21.2310     0.8620
 4727.0000    11.8360    10.3270     0.0050     3.1700     2.6070     0.1100   -50.7410    62.0940    24.3630   -20.2270    27.3950    75.6880    21.4270     1.0740
 4727.5000    13.5450    10.3310     0.0070     3.1010     2.6090     0.1120   -55.2190    62.0940    24.0650   -22.2310    26.8210    75.2740    21.4270     1.0120
 4728.0000    11.3000    10.3340     0.0090     3.0780     2.6090     0.1140   -59.6980    62.0940    23.7670   -24.2350    26.4590    76.0200    20.0920     0.9660
