~VERSION INFORMATION
 VERS.                2.0:   CWLS LOG ASCII STANDARD - VERSION 2.0
 WRAP.                 NO:   ONE LINE PER DEPTH STEP
~WELL INFORMATION
#MNEM.UNIT      DATA TYPE    INFORMATION
#----------   ------------   ------------------------------
 STRT.F          218.0000:   START DEPTH
 STOP.F         3062.0000:   STOP DEPTH
 STEP.F            0.5000:   STEP LENGTH
 NULL.          -999.2500:   NO VALUE
 COMP.    FEXIN & SCISSON:   COMPANY
 WELL. FEXIN 32 "A" #3-34:   WELL
 FLD .              N P R:   FIELD
 LOC .      S34 T39N R78W:   LOCATION
 CNTY.            NATRONA:   COUNTY
 STAT.            WYOMING:   STATE
 CTRY. UNITED STATES OF AMERICA:   COUNTRY
 SRVC.              WELEX:   SERVICE COMPANY
 DATE.        18-JUL-1977:   LOGDATE
 API .     49025103960000:   API NUMBER
~CURVE INFORMATION
#MNEM.UNIT       API CODE    CURVE DESCRIPTION
#----------   ------------   ------------------------------
 DEPT.F                  :   
 CALD.IN     45 280 60 00:   CALIPER FROM DENSITY LOG
 RHOB.G/C3   45 350 01 00:   BULK DENSITY
 GRD .GAPI   45 310 01 00:   GAMMA RAY FROM DENSITY LOG
 CORR.G/C3   45 356 01 00:   DENSITY CORRECTION
 SPR .MV     07 010 01 00:   SPONTANEOUS POTENTIAL
 SGRD.OHMM   07 220 05 00:   SHALLOW SHORT GUARD RESISTIVITY
 ILM .OHMM   07 120 44 00:   INDUCTION LOG MEDIUM RESISTIVITY
 ILD .OHMM   07 120 46 00:   DEEP INDUCTION RESISTIVITY
~PARAMETER INFORMATION
#MNEM.UNIT          VALUE    DESCRIPTION
#----------   ------------   ------------------------------
 EKB .F         5080.0000:   Kelly bushing
 EGL .F         5070.0000:   Ground level
 TD  .F         3070.0000:   Total depth
 DATE.        18-JUL-1977:   Date logged
 CLNT.            A2DTECH:   Client Code
 SL  . 900' FNL & 1650'FWL:   Surface Location
 PD  .                 GL:   Permanent Datum
 DD  .F              3070:   Depth driller
 DL  .F              3063:   Depth logger
 BLI .F              3061:   Bottom log interval
 CS1 .IN            8.625:   Casing size
 CBD1.      8.625" @ 212':   Casing driller 1
 CBL1.F               222:   Casing logger 1
 BS1 .IN            7.875:   Bit size
 DFT .           CEHM-GEL:   Type fluid in hole
 DFD .                8.8:   Density
 DFV .                 42:   Viscosity
 DFPH.                7.5:   pH
 DFL .                  8:   Fluid loss
 MSS .           FLOWLINE:   Source of sample
 RMS .OHMM            .89:   Rm
 MST .F                94:   Rm Meas. temp.
 RMF .OHMM            .54:   Rmf
 MFST.F                94:   Rmf Meas. temp.
 RMC .OHMM           1.24:   Rmc
 MCST.F                94:   Rmc Meas. temp.
 MFSS.               FANN:   Source Rmf.
 RMB .OHMM            .67:   Rm. at BHT
 BHT .F               122:   BHT.
 TCS .HRS               4:   Time Circ. stopped
 MRT .F               122:   Maximum recorded temp.
 LUN .               8611:   Logging unit number
 LUL .             CASPER:   Logging unit location
 ENGI.          C.A. DOAK:   Recorded By
 WITN.         PETTINGILL:   Witnessed by
 ORIG.           5" PRINT:   Origin of data
 UWI .     49025103960000:   Unique Well ID
 DICO. A2D TECHNOLOGIES, INC.:   Digitizing Company
 DAPD.                 12:   Feet Above Permanent Datum
 BSD1.F              3950:   Depth drilled with bit1
 MCSS.                KIT:   Source Rmc.
 EPD .F              5070:   Elevation Permanent Datum
 LMF .                 KB:   Log Measured From
 DMF .                 KB:   Drilling Measured From
 TLI .F               200:   Top log interval
~OTHER INFORMATION
~A   DEPT     CALD       RHOB        GRD       CORR        SPR       SGRD        ILM        ILD   
# ...
 1352.0000     8.3340     2.5070    99.0220     0.0200   -68.7720    41.7990    30.1870    28.7300
 1352.5000     8.3340     2.5140    97.9530     0.0200   -68.7050    40.9230    29.8220    28.5720
 1353.0000     8.3350     2.5290    96.8790     0.0240   -68.6380    40.0240    29.3710    28.4150
 1353.5000     8.3360     2.5440    95.8130     0.0300   -68.5710    40.1740    29.3940    28.2570
 1354.0000     8.3370     2.5520    96.0410     0.0360   -68.5040    40.4820    29.4230    28.0990
 1354.5000     8.3360     2.5370    96.4810     0.0340   -68.4350    40.5790    29.4530    27.9860
 1355.0000     8.3330     2.5230    96.9260     0.0320   -68.4320    39.8330    29.4820    27.9990
 1355.5000     8.3310     2.5170    97.3670     0.0300   -68.4630    39.7500    29.5120    28.0080
 1356.0000     8.3290     2.5220    97.8080     0.0270   -68.4960    40.8190    29.5420    28.0180
 1356.5000     8.3260     2.5240    98.2800     0.0270   -68.5280    41.4250    29.5710    28.0270
 1357.0000     8.3240     2.5200    95.8590     0.0260   -68.5600    40.7660    29.6010    28.0370
 1357.5000     8.3220     2.5150    96.8790     0.0220   -68.5920    40.0240    29.6310    28.0460
 1358.0000     8.3190     2.5150    98.8230     0.0180   -68.6250    41.8520    29.6600    28.0560
 1358.5000     8.3170     2.5230   100.7960     0.0210   -68.6570    42.2890    29.6900    28.0650
 1359.0000     8.3150     2.5310   102.7280     0.0250   -68.6890    41.2350    29.7190    28.0750
 1359.5000     8.3120     2.5320   102.0200     0.0280   -68.7210    39.7500    29.7490    28.0850
 1360.0000     8.3100     2.5270   101.0710     0.0320   -68.7540    39.9500    29.7790    28.0940
 1360.5000     8.3080     2.5210   100.1200     0.0290   -68.7860    40.1380    29.8080    28.1040
 1361.0000     8.3050     2.5210    99.1750     0.0250   -68.8180    40.3260    29.8380    28.1130
 1361.5000     8.3030     2.5250    98.2260     0.0240   -68.8500    40.5140    29.8680    28.1230
 1362.0000     8.3010     2.5230    97.1980     0.0230   -68.8820    40.5790    29.8970    28.1320
 1362.5000     8.2980     2.5190    97.0740     0.0220   -68.9150    41.7110    29.9270    28.1420
 1363.0000     8.2950     2.5160    98.5310     0.0210   -68.9470    41.4860    29.9560    28.1510
 1363.5000     8.2920     2.5170   100.0320     0.0200   -68.9790    40.9830    29.9860    28.1610
 1364.0000     8.2890     2.5170   100.3730     0.0190   -69.0100    40.3010    30.0160    28.1710
 1364.5000     8.2860     2.5170    98.9940     0.0170   -69.0370    40.4440    30.0450    28.1800
 1365.0000     8.2830     2.5170    96.3960     0.0130   -69.0630    40.7660    30.0750    28.0490
 1365.5000     8.2800     2.5110    93.7720     0.0090   -69.0890    41.1410    30.1050    27.9240
 1366.0000     8.2800     2.5040    92.2150     0.0050   -69.1150    40.3040    30.1340    27.7990
 1366.5000     8.2860     2.4970    92.6520     0.0020   -69.1410    39.0550    30.1640    27.6740
 1367.0000     8.2920     2.4910    94.7540     0.0020   -69.1670    39.5180    30.1850    27.5490
 1367.5000     8.2980     2.4840    96.8030     0.0010   -69.1930    40.4340    30.0960    27.4240
 1368.0000     8.3050     2.4760    98.8410     0.0010   -69.2190    41.1410    30.0220    27.2990
 1368.5000     8.3110     2.4760   100.8650     0.0010   -69.2450    39.4700    29.9550    27.1740
 1369.0000     8.3170     2.4860   102.4790     0.0010   -69.2710    39.2070    29.8450    27.0490
 1369.5000     8.3150     2.4960   102.3840     0.0000   -69.2970    40.3890    29.7350    26.9240
 1370.0000     8.3100     2.5070   101.9890     0.0000   -69.3230    41.1410    29.6260    26.7990
 1370.5000     8.3060     2.5170   101.5780     0.0040   -69.3490    38.9610    29.5160    26.6740
 1371.0000     8.3010     2.5280   101.1640     0.0080   -69.3750    36.7940    29.4060    26.5490
 1371.5000     8.2970     2.5140   100.7510     0.0120   -69.4020    34.6400    29.2960    26.4240
 1372.0000     8.2920     2.4930   100.3380     0.0130   -69.3920    33.4680    29.1660    26.2990
 1372.5000     8.2880     2.4930    99.9250     0.0140   -69.3750    38.0610    29.2440    26.1430
 1373.0000     8.2830     2.4940    99.5130     0.0150   -69.3570    40.5790    29.3410    26.3880
 1373.5000     8.2790     2.4960    99.1000     0.0160   -69.3400    39.6180    29.4380    26.8200
 1374.0000     8.2800     2.4940    98.6870     0.0140   -69.3220    38.6710    29.5340    27.2520
 1374.5000     8.2830     2.4910    98.2740     0.0120   -69.3050    38.6710    29.6310    27.6830
 1375.0000     8.2860     2.4880    97.8620     0.0100   -69.2880    39.9060    29.7280    28.1150
 1375.5000     8.2890     2.4830    97.4490     0.0080   -69.2700    41.1410    29.8240    28.3740
 1376.0000     8.2920     2.4790    97.0320     0.0070   -69.2530    39.7830    29.9210    28.3740
 1376.5000     8.2940     2.4840    96.6160     0.0050   -69.2360    38.4060    30.2880    28.3740
 1377.0000     8.2970     2.4960    95.7420     0.0060   -69.2190    40.2050    30.6890    28.3740
 1377.5000     8.3010     2.5070    94.5520     0.0110   -69.2040    41.4250    30.8310    28.3740
 1378.0000     8.3040     2.5080    93.3490     0.0160   -69.1950    40.6040    30.9730    28.3740
 1378.5000     8.3080     2.5030    92.1550     0.0190   -69.1870    39.9150    31.1150    28.3740
 1379.0000     8.3120     2.4990    92.3040     0.0150   -69.1780    39.2250    31.2570    28.4760
 1379.5000     8.3150     2.4990    93.6430     0.0140   -69.1690    38.9380    31.4590    28.6490
 1380.0000     8.3190     2.5030    94.9820     0.0140   -69.1600    40.0580    31.3770    28.8230
 1380.5000     8.3230     2.5100    96.3160     0.0150   -69.1510    41.4910    31.2370    28.9660
 1381.0000     8.3270     2.5180    97.6480     0.0180   -69.1420    42.9240    31.0970    28.9130
 1381.5000     8.3300     2.5250    98.8130     0.0210   -69.1330    44.3580    30.9570    28.8200
 1382.0000     8.3340     2.5200    98.7650     0.0200   -69.1240    44.9910    30.8170    28.7280
 1382.5000     8.3370     2.5150    98.6840     0.0200   -69.1150    43.2780    30.6770    28.6360
 1383.0000     8.3320     2.5130    98.6070     0.0190   -69.1060    41.0580    30.5370    28.5440
 1383.5000     8.3270     2.5150    98.5310     0.0190   -69.0970    38.6710    30.3970    28.4520
 1384.0000     8.3220     2.5170    98.4540     0.0190   -69.0880    39.7120    30.2570    28.3590
 1384.5000     8.3160     2.5160    98.3770     0.0180   -69.0790    40.4720    30.1160    28.2670
 1385.0000     8.3110     2.5130    98.3000     0.0180   -69.0700    38.8050    29.9760    28.1750
 1385.5000     8.3060     2.5180    98.2240     0.0180   -69.0610    38.9380    29.7740    28.0830
 1386.0000     8.3000     2.5160    98.1400     0.0170   -69.0520    40.8620    29.8650    27.9860
 1386.5000     8.2950     2.5100    98.0560     0.0170   -69.0430    43.7690    30.0280    28.1820
 1387.0000     8.2890     2.5140    96.6760     0.0160   -69.0350    42.7440    30.1910    28.3870
 1387.5000     8.2840     2.5190    93.7270     0.0210   -69.0260    40.8890    30.3540    28.5930
 1388.0000     8.2790     2.5240    90.7970     0.0260   -69.0170    38.9380    30.3950    28.7670
 1388.5000     8.2730     2.5230    88.4230     0.0240   -69.0080    39.3140    30.4260    28.7460
 1389.0000     8.2680     2.5130    89.2820     0.0210   -68.9990    40.0010    30.4680    28.7280
 1389.5000     8.2620     2.5070    91.0420     0.0180   -68.9900    40.6880    30.5090    28.7100
 1390.0000     8.2560     2.5070    92.7990     0.0160   -68.9810    41.4250    30.5510    28.6920
 1390.5000     8.2790     2.5120    94.5590     0.0160   -68.9720    40.5420    30.5930    28.6730
 1391.0000     8.2800     2.5160    96.3100     0.0160   -68.9630    39.7500    30.6340    28.6550
 1391.5000     8.2820     2.5130    98.7490     0.0160   -68.9540    42.0840    30.6760    28.6370
 1392.0000     8.2840     2.5110    96.4150     0.0160   -68.9450    44.5770    30.7180    28.6190
