~VERSION INFORMATION
 VERS.                2.0:   CWLS LOG ASCII STANDARD - VERSION 2.0
 WRAP.                 NO:   ONE LINE PER DEPTH STEP
~WELL INFORMATION
#MNEM.UNIT      DATA TYPE    INFORMATION
#----------   ------------   ------------------------------
 STRT.F           14.0000:   START DEPTH
 STOP.F         3030.0000:   STOP DEPTH
 STEP.F            0.5000:   STEP LENGTH
 NULL.          -999.2500:   NO VALUE
 COMP. LAWRENCE ALLISON & ASSOC. WEST:   COMPANY
 WELL. LAWRENCE "X" #37-28:   WELL
 FLD .          N.P.R. #3:   FIELD
 LOC .      S28 T39N R78W:   LOCATION
 CNTY.            NATRONA:   COUNTY
 STAT.            WYOMING:   STATE
 CTRY. UNITED STATES OF AMERICA:   COUNTRY
 SRVC.      DRESSER ATLAS:   SERVICE COMPANY
 DATE.        22-SEP-1986:   LOGDATE
 API .     49025111090000:   API NUMBER
~CURVE INFORMATION
#MNEM.UNIT       API CODE    CURVE DESCRIPTION
#----------   ------------   ------------------------------
 DEPT.F                  :   
 GRR .GAPI   07 310 01 00:   GAMMA RAY FROM RESISTIVITY
 SPR .MV     07 010 01 00:   SPONTANEOUS POTENTIAL
 TENR.LBS    07 635 01 00:   TENSION FROM RESISTIVITY
 RILD.OHMM   07 120 46 00:   DEEP INDUCTION RESISTIVITY
 RILM.OHMM   07 120 44 00:   INDUCTION LOG MEDIUM RESISTIVITY
 RFOC.OHMM   07 220 04 00:   RESISTIVITY FOCUSED LOG RES.
 CNC .DEC    42 890 03 00:   NEUTRON PORISITY SANDSTONE
 RHOB.G/C3   45 350 01 00:   BULK DENSITY
 CORR.G/C3   45 356 01 00:   DENSITY CORRECTION
 TEND.LBS    45 635 01 00:   TENSION FROM DENSITY LOG
 CALD.IN     45 280 60 00:   CALIPER FROM DENSITY LOG
~PARAMETER INFORMATION
#MNEM.UNIT          VALUE    DESCRIPTION
#----------   ------------   ------------------------------
 EKB .F         5124.0000:   Kelly bushing
 EGL .F         5113.0000:   Ground level
 EDF .F         5123.0000:   Drilling floor
 TD  .F         3026.0000:   Total depth
 DATE.        22-SEP-1986:   Date logged
 CLNT.            A2DTECH:   Client Code
 SL  . 1097' FSL & 1722' FWL:   Surface Location
 PD  .                 GL:   Permanent Datum
 EPD .F              5113:   Elevation Permanent Datum
 LMF .                 KB:   Log Measured From
 DMF .                 KB:   Drilling Measured From
 DAPD.F                11:   Feet Above Permanent Datum
 DD  .F              3026:   Depth driller
 DL  .F              3023:   Depth logger
 BLI .F              3020:   Bottom log interval
 CS1 .IN            8.625:   Casing size
 CBD1.      8.625" @ 517':   Casing driller 1
 CBL1.F               518:   Casing logger 1
 BS1 .IN            7.875:   Bit size
 BSD1.F              3026:   Depth drilled with bit1
 DFT .            KCL-GEL:   Type fluid in hole
 DFD .                8.6:   Density
 DFV .                 41:   Viscosity
 DFPH.                9.5:   pH
 DFL .                6.8:   Fluid loss
 MSS .           FLOWLINE:   Source of sample
 RMS .OHMM           0.37:   Rm
 MST .F                58:   Rm Meas. temp.
 RMF .OHMM           0.33:   Rmf
 MFST.F                63:   Rmf Meas. temp.
 RMC .OHMM           0.59:   Rmc
 MCST.F                58:   Rmc Meas. temp.
 MFSS.               MEAS:   Source Rmf.
 MCSS.               CALC:   Source Rmc.
 RMB .OHMM           0.16:   Rm. at BHT
 BHT .F               131:   BHT.
 TCS .HRS               3:   Time Circ. stopped
 MRT .F               131:   Maximum recorded temp.
 LUN .            HL 6426:   Logging unit number
 LUL .                 RS:   Logging unit location
 ENGI.               RALL:   Recorded By
 WITN.             STRONG:   Witnessed by
 ORIG.           5" PRINT:   Origin of data
 UWI .     49025111090000:   Unique Well ID
 DICO. A2D TECHNOLOGIES, INC.:   Digitizing Company
~OTHER INFORMATION
~A   DEPT      GRR        SPR       TENR       RILD       RILM       RFOC        CNC       RHOB       CORR       TEND       CALD   
# ...
 1661.0000   115.7040   -15.4490   -87.7790     7.2920     7.9990     8.5850  -999.2500  -999.2500  -999.2500  -999.2500  -999.2500
 1661.5000   111.6290   -15.4050   -85.2360     6.9150     7.7130     8.6280  -999.2500  -999.2500  -999.2500  -999.2500  -999.2500
 1662.0000   109.4870   -15.3180   -82.6930     6.5110     6.6470     8.4500  -999.2500  -999.2500  -999.2500  -999.2500  -999.2500
 1662.5000   112.0690   -15.2880   -80.1510     6.2680     6.5250     8.1410  -999.2500  -999.2500  -999.2500  -999.2500  -999.2500
 1663.0000   114.9610   -15.1990   -77.6080     6.1360     6.5860     7.4280  -999.2500  -999.2500  -999.2500  -999.2500  -999.2500
 1663.5000   113.8730   -15.1640   -75.0650     6.0480     6.7060     6.5270  -999.2500  -999.2500  -999.2500  -999.2500  -999.2500
 1664.0000   111.1120   -15.0830   -75.7440     6.0200     6.8470     5.8720  -999.2500  -999.2500  -999.2500  -999.2500  -999.2500
 1664.5000   108.3170   -15.0580   -79.5110     5.9910     6.9880     5.8840  -999.2500  -999.2500  -999.2500  -999.2500  -999.2500
 1665.0000   107.0110   -15.1970   -83.2770     5.9630     7.0920     6.5430  -999.2500  -999.2500  -999.2500  -999.2500  -999.2500
 1665.5000   107.5740   -15.3280   -87.0440     6.0250     7.3110     7.3690  -999.2500  -999.2500  -999.2500  -999.2500  -999.2500
 1666.0000   110.1180   -15.4360   -90.8110     6.1910     7.4850     8.0370  -999.2500  -999.2500  -999.2500  -999.2500  -999.2500
 1666.5000   115.0010   -15.5600   -94.2210     6.4060     7.6590     8.4560  -999.2500  -999.2500  -999.2500  -999.2500  -999.2500
 1667.0000   117.0880   -15.6570   -92.2330     6.6300     7.7800     8.5350  -999.2500  -999.2500  -999.2500  -999.2500  -999.2500
 1667.5000   113.7820   -15.7450   -90.4160     6.9500     7.8890     8.4490  -999.2500  -999.2500  -999.2500  -999.2500  -999.2500
 1668.0000   109.0060   -15.8270   -88.6000     7.2920     7.9870     8.3280  -999.2500  -999.2500  -999.2500  -999.2500  -999.2500
 1668.5000   106.7930   -15.8990   -86.7840     7.2920     8.0850     8.2240  -999.2500  -999.2500  -999.2500  -999.2500  -999.2500
 1669.0000   108.5210   -15.9810   -84.9680     7.2740     8.1370     8.2700  -999.2500  -999.2500  -999.2500  -999.2500  -999.2500
 1669.5000   110.0060   -16.0570   -85.8500     7.2250     8.1060     8.3010  -999.2500  -999.2500  -999.2500  -999.2500  -999.2500
 1670.0000   113.0740   -16.1310   -88.8410     7.1750     8.0740     8.4800  -999.2500  -999.2500  -999.2500  -999.2500  -999.2500
 1670.5000   119.6310   -16.2150   -91.8330     7.1250     8.0430     8.6140  -999.2500  -999.2500  -999.2500  -999.2500  -999.2500
 1671.0000   121.4970   -16.2820   -94.2210     7.0760     8.0110     8.5800  -999.2500  -999.2500  -999.2500  -999.2500  -999.2500
 1671.5000   119.0190   -16.3730   -83.2810     7.0270     7.8950     8.5350  -999.2500  -999.2500  -999.2500  -999.2500  -999.2500
 1672.0000   118.3290   -16.4550   -72.3830     6.9870     7.7250     8.3380  -999.2500  -999.2500  -999.2500  -999.2500  -999.2500
 1672.5000   122.2680   -16.3730   -64.0700     6.9380     7.5550     8.1440  -999.2500  -999.2500  -999.2500  -999.2500  -999.2500
 1673.0000   127.3030   -16.2150   -64.0700     6.8890     7.3600     7.9990  -999.2500  -999.2500  -999.2500  -999.2500  -999.2500
 1673.5000   125.5700   -16.0920   -64.0700     6.8410     7.3400     7.9990  -999.2500  -999.2500  -999.2500  -999.2500  -999.2500
 1674.0000   120.1660   -15.9400   -64.0700     6.7920     7.3170     7.9990  -999.2500  -999.2500  -999.2500  -999.2500  -999.2500
 1674.5000   118.6230   -15.9460   -64.0700     6.7430     7.2920     8.0230  -999.2500  -999.2500  -999.2500  -999.2500  -999.2500
 1675.0000   120.4600   -16.1850   -64.0700     6.7090     7.3450     8.0450  -999.2500  -999.2500  -999.2500  -999.2500  -999.2500
 1675.5000   120.6700   -16.4000   -64.0700     6.7720     7.4520     8.0730  -999.2500  -999.2500  -999.2500  -999.2500  -999.2500
 1676.0000   118.4060   -16.6610   -64.0700     6.8340     7.5670     8.1280  -999.2500  -999.2500  -999.2500  -999.2500  -999.2500
 1676.5000   116.7560   -16.8480   -64.0700     7.0580     7.6370     8.2050  -999.2500  -999.2500  -999.2500  -999.2500  -999.2500
 1677.0000   114.4550   -16.6690   -64.0700     7.3600     7.7330     8.3010  -999.2500  -999.2500  -999.2500  -999.2500  -999.2500
 1677.5000   110.3280   -16.4240   -66.9080     7.5590     7.8520     8.5660  -999.2500  -999.2500  -999.2500  -999.2500  -999.2500
 1678.0000   109.4870   -16.2420   -69.8990     7.7800     7.8000     8.9180  -999.2500  -999.2500  -999.2500  -999.2500  -999.2500
 1678.5000   113.4610   -16.0150   -72.8910     7.8370     7.7310     9.2760  -999.2500  -999.2500  -999.2500  -999.2500  -999.2500
 1679.0000   117.7940   -15.8130   -74.1210     7.8860     7.6620     9.2760  -999.2500  -999.2500  -999.2500  -999.2500  -999.2500
 1679.5000   121.5930   -15.6050   -74.1210     7.9250     7.5940     9.1060  -999.2500  -999.2500  -999.2500  -999.2500  -999.2500
 1680.0000   125.6820   -15.3880   -74.1210     7.7840     7.3830     8.6560  -999.2500  -999.2500  -999.2500  -999.2500  -999.2500
 1680.5000   129.1410   -15.1890   -74.1210     7.6450     7.1580     8.2240  -999.2500  -999.2500  -999.2500  -999.2500  -999.2500
 1681.0000   128.9850   -14.9530   -74.1210     7.5050     7.2250     8.0440  -999.2500  -999.2500  -999.2500  -999.2500  -999.2500
 1681.5000   124.0640   -14.7040   -73.2720     7.2910     7.4970     7.9120  -999.2500  -999.2500  -999.2500  -999.2500  -999.2500
 1682.0000   119.4180   -14.4480   -71.3880     6.9880     7.6370     7.8810  -999.2500  -999.2500  -999.2500  -999.2500  -999.2500
 1682.5000   117.2710   -14.1820   -69.5050     6.7090     7.3600     7.8520  -999.2500  -999.2500  -999.2500  -999.2500  -999.2500
 1683.0000   116.0320   -13.9740   -67.6210     5.8470     6.7950     8.0030  -999.2500  -999.2500  -999.2500  -999.2500  -999.2500
 1683.5000   115.2390   -13.7530   -65.7380     5.1300     6.3470     8.0730  -999.2500  -999.2500  -999.2500  -999.2500  -999.2500
 1684.0000   114.6940   -13.5920   -64.0700     4.2620     4.8980     7.9250  -999.2500  -999.2500  -999.2500  -999.2500  -999.2500
 1684.5000   115.7150   -13.4270   -64.0700     3.5750     3.9380     7.2180  -999.2500  -999.2500  -999.2500  -999.2500  -999.2500
 1685.0000   115.9740   -12.9910   -64.0700     3.2450     3.2590     5.3710  -999.2500  -999.2500  -999.2500  -999.2500  -999.2500
 1685.5000   112.3420   -12.4920   -64.0700     3.0860     3.2590     3.6270  -999.2500  -999.2500  -999.2500  -999.2500  -999.2500
 1686.0000   108.4150   -11.9440   -64.0700     3.0260     3.6190     2.8830  -999.2500  -999.2500  -999.2500  -999.2500  -999.2500
 1686.5000   109.2520   -11.6490   -65.0970     3.1140     4.2230     2.8360  -999.2500  -999.2500  -999.2500  -999.2500  -999.2500
 1687.0000   113.1120   -12.1060   -66.4350     3.2280     4.6450     3.2590  -999.2500  -999.2500  -999.2500  -999.2500  -999.2500
 1687.5000   110.6180   -12.7700   -67.7730     3.3200     5.1360     6.1760  -999.2500  -999.2500  -999.2500  -999.2500  -999.2500
 1688.0000   103.9740   -13.3210   -69.1110     3.7120     5.5750     8.4470  -999.2500  -999.2500  -999.2500  -999.2500  -999.2500
 1688.5000   104.1690   -13.8530   -70.4500     4.0320     6.2210     8.9390  -999.2500  -999.2500  -999.2500  -999.2500  -999.2500
 1689.0000   109.4050   -14.2340   -71.7880     5.3310     6.9620     8.5240  -999.2500  -999.2500  -999.2500  -999.2500  -999.2500
 1689.5000   113.7940   -14.5840   -73.1260     6.2880     7.2770     8.3520  -999.2500  -999.2500  -999.2500  -999.2500  -999.2500
 1690.0000   116.6020   -14.9230   -74.1210     7.1320     7.6540     8.2920  -999.2500  -999.2500  -999.2500  -999.2500  -999.2500
 1690.5000   119.8450   -15.1480   -74.7730     7.5460     7.9020     8.2240  -999.2500  -999.2500  -999.2500  -999.2500  -999.2500
 1691.0000   119.0030   -15.3080   -75.2920     7.7080     8.0850     8.3520  -999.2500  -999.2500  -999.2500  -999.2500  -999.2500
