~VERSION INFORMATION
 VERS.                2.0:   CWLS LOG ASCII STANDARD - VERSION 2.0
 WRAP.                 NO:   ONE LINE PER DEPTH STEP
~WELL INFORMATION
#MNEM.UNIT      DATA TYPE    INFORMATION
#----------   ------------   ------------------------------
 STRT.F            0.0000:   START DEPTH
 STOP.F         4000.0000:   STOP DEPTH
 STEP.F            0.5000:   STEP LENGTH
 NULL.          -999.2500:   NO VALUE
 COMP. LAWRENCE &  ALLISON ASSOC.:   COMPANY
 WELL. LAWRENCE NPR 3 "TX" #14-28:   WELL
 FLD .              N P R:   FIELD
 LOC .      S28 T39N R78W:   LOCATION
 CNTY.            NATRONA:   COUNTY
 STAT.            WYOMING:   STATE
 CTRY. UNITED STATES OF AMERICA:   COUNTRY
 SRVC.      DRESSER ATLAS:   SERVICE COMPANY
 DATE.        11-APR-1984:   LOGDATE
 API .     49025109710000:   API NUMBER
~CURVE INFORMATION
#MNEM.UNIT       API CODE    CURVE DESCRIPTION
#----------   ------------   ------------------------------
 DEPT.F                  :   
 RHOB.G/C3   45 350 01 00:   BULK DENSITY
 CORR.G/C3   45 356 01 00:   DENSITY CORRECTION
 TEND.LBS    45 635 01 00:   TENSION FROM DENSITY LOG
 CNC .DEC    42 890 03 00:   NEUTRON PORISITY SANDSTONE
 DT  .US/F   60 520 00 00:   DELTA TIME
 TENS.LBS    60 635 01 00:   TENSION FROM SONIC LOG
 GRR .GAPI   07 310 01 00:   GAMMA RAY FROM RESISTIVITY
 SPR .MV     07 010 01 00:   SPONTANEOUS POTENTIAL
 CALR.IN     07 280 01 00:   CALIPER FROM RESISTIVITY
 TENR.LBS    07 635 01 00:   TENSION
 RILD.OHMM   07 120 46 00:   INDUCTION LOG DEEP RESISTIVITY
 RILM.OHMM   07 120 44 00:   INDUCTION LOG MEDIUM RESISTIVITY
 RFOC.OHMM   07 220 01 00:   RESISTIVITY FOCUSED LOG RES.
~PARAMETER INFORMATION
#MNEM.UNIT          VALUE    DESCRIPTION
#----------   ------------   ------------------------------
 EKB .F         5024.0000:   Kelly bushing
 EGL .F         5014.0000:   Ground level
 TD  .F         3996.0000:   Total depth
 DATE.        11-APR-1984:   Date logged
 CLNT.            A2DTECH:   Client Code
 SL  . 250' FWL & 2100' FNL:   Surface Location
 PD  .                 GL:   Permanent Datum
 EPD .F              5014:   Elevation Permanent Datum
 LMF .                 KB:   Log Measured From
 DMF .                 KB:   Drilling Measured From
 DD  .F              3996:   Depth driller
 DL  .F              3994:   Depth logger
 BLI .F              3992:   Bottom log interval
 CS1 .IN            8.625:   Casing size
 CBD1.      8.625" @ 404':   Casing driller 1
 CBL1.F               404:   Casing logger 1
 BS1 .IN            7.875:   Bit size
 DFT .            GEL/KCL:   Type fluid in hole
 DFD .                9.1:   Density
 DFV .                 38:   Viscosity
 DFPH.                  8:   pH
 DFL .                 14:   Fluid loss
 MSS .           FLOWLINE:   Source of sample
 RMS .OHMM           .417:   Rm
 MST .F                90:   Rm Meas. temp.
 RMF .OHMM           .313:   Rmf
 MFST.F                90:   Rmf Meas. temp.
 RMC .OHMM           .521:   Rmc
 MCST.F                90:   Rmc Meas. temp.
 MFSS.               CALC:   Source Rmf.
 RMB .OHMM            .25:   Rm. at BHT
 BHT .F               150:   BHT.
 TCS .HRS               3:   Time Circ. stopped
 MRT .F               150:   Maximum recorded temp.
 LUN .               6307:   Logging unit number
 LUL .               GLTE:   Logging unit location
 ENGI.           FAHLSING:   Recorded By
 WITN.             STRONG:   Witnessed by
 ORIG.           5" PRINT:   Origin of data
 UWI .     49025109710000:   Unique Well ID
 DICO. A2D TECHNOLOGIES, INC.:   Digitizing Company
 DAPD.F                10:   Feet Above Permanent Datum
 BSD1.F              3996:   Depth drilled with bit1
 MCSS.               CALC:   Source Rmc.
~OTHER INFORMATION
~A    DEPT    RHOB       CORR       TEND        CNC         DT       TENS         GRR       SPR       CALR       TENR       RILD       RILM       RFOC   
# ...
 1378.0000  -999.2500  -999.2500  -999.2500  -999.2500  -999.2500  -999.2500   105.0090   -49.3520     8.5100   -43.8350     9.5420     8.9200     8.4820
 1378.5000  -999.2500  -999.2500  -999.2500  -999.2500  -999.2500  -999.2500   109.1640   -49.5110     8.5100   -43.6230     9.6010     8.9370     8.4540
 1379.0000  -999.2500  -999.2500  -999.2500  -999.2500  -999.2500  -999.2500   108.9700   -49.6700     8.5100   -43.4100     9.6450     8.9530     8.4080
 1379.5000  -999.2500  -999.2500  -999.2500  -999.2500  -999.2500  -999.2500   107.5390   -49.8290     8.5100   -43.1970     9.5590     8.9620     8.3630
 1380.0000  -999.2500  -999.2500  -999.2500  -999.2500  -999.2500  -999.2500   107.0160   -49.9890     8.5100   -42.9840     9.4770     8.8880     8.3180
 1380.5000  -999.2500  -999.2500  -999.2500  -999.2500  -999.2500  -999.2500   109.5280   -50.1490     8.5100   -42.7710     9.3960     8.8360     8.2730
 1381.0000  -999.2500  -999.2500  -999.2500  -999.2500  -999.2500  -999.2500   110.8670   -50.2900     8.5100   -42.5580     9.3140     8.7850     8.2280
 1381.5000  -999.2500  -999.2500  -999.2500  -999.2500  -999.2500  -999.2500   108.8350   -50.2210     8.5100   -42.3450     9.2320     8.7340     8.1820
 1382.0000  -999.2500  -999.2500  -999.2500  -999.2500  -999.2500  -999.2500   105.9710   -50.1490     8.5100   -42.1320     9.1500     8.6820     8.1770
 1382.5000  -999.2500  -999.2500  -999.2500  -999.2500  -999.2500  -999.2500   103.0090   -50.0780     8.5100   -41.9190     9.0690     8.6310     8.1770
 1383.0000  -999.2500  -999.2500  -999.2500  -999.2500  -999.2500  -999.2500   103.0130   -50.0070     8.5100   -41.7060     8.9870     8.5800     8.1770
 1383.5000  -999.2500  -999.2500  -999.2500  -999.2500  -999.2500  -999.2500   104.2420   -49.9370     8.5100   -41.4940     8.9050     8.5280     8.1770
 1384.0000  -999.2500  -999.2500  -999.2500  -999.2500  -999.2500  -999.2500   103.4880   -49.8660     8.5100   -41.2810     8.7990     8.4820     8.1770
 1384.5000  -999.2500  -999.2500  -999.2500  -999.2500  -999.2500  -999.2500   102.0390   -49.7950     8.5100   -41.0680     8.8340     8.5000     8.1770
 1385.0000  -999.2500  -999.2500  -999.2500  -999.2500  -999.2500  -999.2500   100.5670   -49.7200     8.5100   -40.8550     8.8820     8.5170     8.1770
 1385.5000  -999.2500  -999.2500  -999.2500  -999.2500  -999.2500  -999.2500    99.1020   -49.7740     8.5100   -40.6420     8.9300     8.5330     8.1770
 1386.0000  -999.2500  -999.2500  -999.2500  -999.2500  -999.2500  -999.2500    97.7680   -49.8690     8.5100   -40.4290     8.9780     8.5490     8.1770
 1386.5000  -999.2500  -999.2500  -999.2500  -999.2500  -999.2500  -999.2500    98.4960   -49.9640     8.5100   -40.2160     9.0260     8.5660     8.1770
 1387.0000  -999.2500  -999.2500  -999.2500  -999.2500  -999.2500  -999.2500   100.3460   -50.0600     8.5100   -40.0030     9.0740     8.5820     8.1770
 1387.5000  -999.2500  -999.2500  -999.2500  -999.2500  -999.2500  -999.2500   102.2230   -50.1550     8.5100   -39.7900     9.1230     8.5980     8.1770
 1388.0000  -999.2500  -999.2500  -999.2500  -999.2500  -999.2500  -999.2500   104.1170   -50.2510     8.5100   -39.5770     9.1710     8.6150     8.2040
 1388.5000  -999.2500  -999.2500  -999.2500  -999.2500  -999.2500  -999.2500   104.8440   -50.3460     8.5100   -39.3650     9.2190     8.6310     8.2330
 1389.0000  -999.2500  -999.2500  -999.2500  -999.2500  -999.2500  -999.2500   103.2020   -50.4420     8.5100   -39.1520     9.2670     8.6470     8.2620
 1389.5000  -999.2500  -999.2500  -999.2500  -999.2500  -999.2500  -999.2500   101.5030   -50.5370     8.5090   -38.9390     9.3050     8.6640     8.2910
 1390.0000  -999.2500  -999.2500  -999.2500  -999.2500  -999.2500  -999.2500    99.8210   -50.6330     8.5290   -38.7260     9.3260     8.6800     8.3200
 1390.5000  -999.2500  -999.2500  -999.2500  -999.2500  -999.2500  -999.2500    98.1280   -50.7280     8.5240   -38.5130     9.3470     8.6960     8.3490
 1391.0000  -999.2500  -999.2500  -999.2500  -999.2500  -999.2500  -999.2500    97.3380   -50.8230     8.5200   -38.3000     9.3690     8.7130     8.3780
 1391.5000  -999.2500  -999.2500  -999.2500  -999.2500  -999.2500  -999.2500    97.6960   -50.9190     8.5160   -38.0870     9.3900     8.7410     8.4070
 1392.0000  -999.2500  -999.2500  -999.2500  -999.2500  -999.2500  -999.2500    98.4850   -51.0140     8.5110   -37.8740     9.4110     8.7780     8.4360
 1392.5000  -999.2500  -999.2500  -999.2500  -999.2500  -999.2500  -999.2500    99.2930   -51.1100     8.5070   -37.6610     9.4320     8.8150     8.4650
 1393.0000  -999.2500  -999.2500  -999.2500  -999.2500  -999.2500  -999.2500   100.0980   -51.2050     8.5030   -37.4480     9.4530     8.8520     8.5010
 1393.5000  -999.2500  -999.2500  -999.2500  -999.2500  -999.2500  -999.2500   100.9030   -51.2850     8.4990   -37.2360     9.4700     8.8890     8.5440
 1394.0000  -999.2500  -999.2500  -999.2500  -999.2500  -999.2500  -999.2500   101.7180   -51.3010     8.4950   -37.0230     9.4700     8.9270     8.5880
 1394.5000  -999.2500  -999.2500  -999.2500  -999.2500  -999.2500  -999.2500   102.9550   -51.3180     8.4910   -36.8100     9.4700     8.9620     8.6390
 1395.0000  -999.2500  -999.2500  -999.2500  -999.2500  -999.2500  -999.2500   104.8080   -51.3350     8.4910   -36.5970     9.4690     8.9300     8.5780
 1395.5000  -999.2500  -999.2500  -999.2500  -999.2500  -999.2500  -999.2500   106.6300   -51.3530     8.4910   -36.3840     9.4710     8.8780     8.5050
 1396.0000  -999.2500  -999.2500  -999.2500  -999.2500  -999.2500  -999.2500   107.5470   -51.3700     8.4920   -36.1710     9.3460     8.8270     8.4320
 1396.5000  -999.2500  -999.2500  -999.2500  -999.2500  -999.2500  -999.2500   104.8910   -51.3880     8.4930   -35.9580     9.2460     8.7760     8.3580
 1397.0000  -999.2500  -999.2500  -999.2500  -999.2500  -999.2500  -999.2500    99.5910   -51.4050     8.4940   -35.7450     9.1910     8.7240     8.2850
 1397.5000  -999.2500  -999.2500  -999.2500  -999.2500  -999.2500  -999.2500    94.3390   -51.4220     8.4940   -35.5320     9.1590     8.6730     8.2120
 1398.0000  -999.2500  -999.2500  -999.2500  -999.2500  -999.2500  -999.2500    91.9230   -51.4400     8.4950   -35.3190     9.1270     8.6220     8.1390
 1398.5000  -999.2500  -999.2500  -999.2500  -999.2500  -999.2500  -999.2500    91.8070   -51.4570     8.4960   -35.1070     9.0940     8.5700     8.0650
 1399.0000  -999.2500  -999.2500  -999.2500  -999.2500  -999.2500  -999.2500    96.4110   -51.4730     8.4970   -34.8940     9.0620     8.5190     7.9920
 1399.5000  -999.2500  -999.2500  -999.2500  -999.2500  -999.2500  -999.2500   101.4980   -51.5300     8.4970   -34.6810     9.0300     8.4820     7.9550
 1400.0000  -999.2500  -999.2500  -999.2500  -999.2500  -999.2500  -999.2500   106.5240   -51.5910     8.4980   -34.4680     8.9970     8.4820     7.9740
 1400.5000  -999.2500  -999.2500  -999.2500  -999.2500  -999.2500  -999.2500   107.4910   -51.6520     8.4990   -34.2550     8.9630     8.4820     7.9870
 1401.0000  -999.2500  -999.2500  -999.2500  -999.2500  -999.2500  -999.2500   101.3730   -51.7120     8.5000   -34.0420     8.9420     8.4820     8.0000
 1401.5000  -999.2500  -999.2500  -999.2500  -999.2500  -999.2500  -999.2500    96.8970   -51.7730     8.5000   -33.8290     8.9200     8.4820     8.0130
 1402.0000  -999.2500  -999.2500  -999.2500  -999.2500  -999.2500  -999.2500    98.2250   -51.8340     8.5010   -33.6160     8.8980     8.4820     8.0260
 1402.5000  -999.2500  -999.2500  -999.2500  -999.2500  -999.2500  -999.2500   104.1410   -51.8950     8.5020   -33.4030     8.8760     8.4820     8.0390
 1403.0000  -999.2500  -999.2500  -999.2500  -999.2500  -999.2500  -999.2500   110.1620   -51.9560     8.5020   -33.1900     8.8530     8.4820     8.0520
 1403.5000  -999.2500  -999.2500  -999.2500  -999.2500  -999.2500  -999.2500   113.1470   -52.0160     8.5030   -32.9780     8.8310     8.4820     8.0650
