~VERSION INFORMATION
 VERS.                2.0:   CWLS LOG ASCII STANDARD - VERSION 2.0
 WRAP.                 NO:   ONE LINE PER DEPTH STEP
~WELL INFORMATION
#MNEM.UNIT      DATA TYPE    INFORMATION
#----------   ------------   ------------------------------
 STRT.F           16.0000:   START DEPTH
 STOP.F         2834.0000:   STOP DEPTH
 STEP.F            0.5000:   STEP LENGTH
 NULL.          -999.2500:   NO VALUE
 COMP.    FENIX & SCISSON:   COMPANY
 WELL. FENIX NPR 3 "AX" #14-21:   WELL
 FLD .              N P R:   FIELD
 LOC .      S21 T39N R78W:   LOCATION
 CNTY.            NATRONA:   COUNTY
 STAT.            WYOMING:   STATE
 CTRY. UNITED STATES OF AMERICA:   COUNTRY
 SRVC.           BIRDWELL:   SERVICE COMPANY
 DATE.        26-JUL-1978:   LOGDATE
 API .     49025106740000:   API NUMBER
~CURVE INFORMATION
#MNEM.UNIT       API CODE    CURVE DESCRIPTION
#----------   ------------   ------------------------------
 DEPT.F                  :   
 GRD .GAPI   45 310 01 00:   GAMMA RAY FROM DENSITY LOG
 CALD.IN     45 280 60 00:   CALIPER FROM DENSITY LOG
 RHOB.G/C3   45 350 01 00:   BULK DENSITY
 CORR.G/C3   45 356 01 00:   DENSITY CORRECTION
 SPR .MV     05 010 01 00:   SPONTANEOUS POTENTIAL
 ILD .OHMM   05 120 46 00:   DEEP INDUCTION RESISTIVITY
 SN  .OHMM   05 040 00 00:   SHORT NORMAL
~PARAMETER INFORMATION
#MNEM.UNIT          VALUE    DESCRIPTION
#----------   ------------   ------------------------------
 EKB .F         4998.0000:   Kelly bushing
 EGL .F         4988.0000:   Ground level
 EDF .F            0.0000:   Drilling floor
 EPD .F            0.0000:   Permanent datum
 TD  .F         2850.0000:   Total depth
 DATE.        26-JUL-1978:   Date logged
 CLNT.            A2DTECH:   Client Code
 SL  . 2640' FNL & 500' FWL:   Surface Location
 PD  .                 GL:   Permanent Datum
 DD  .F              2850:   Depth driller
 DL  .F              2838:   Depth logger
 BLI .F              2832:   Bottom log interval
 CS1 .IN            8.625:   Casing size
 CBD1.      8.625" @ 208':   Casing driller 1
 BS1 .IN            7.875:   Bit size
 DFT .            MUD/GEL:   Type fluid in hole
 DFD .                9.4:   Density
 DFV .                 37:   Viscosity
 DFPH.                 11:   pH
 TCS .HRS               4:   Time Circ. stopped
 LUN .               2958:   Logging unit number
 LUL .               CASP:   Logging unit location
 ENGI.             MILLER:   Recorded By
 WITN.           MCGINLEY:   Witnessed by
 ORIG.           5" PRINT:   Origin of data
 UWI .     49025106740000:   Unique Well ID
 DICO. A2D TECHNOLOGIES, INC.:   Digitizing Company
 DAPD.                 12:   Feet Above Permanent Datum
 BSD1.               3950:   Depth drilled with bit1
 MCSS.               CALC:   Source Rmc.
 TLI .F               230:   Top log interval
~OTHER INFORMATION
~A   DEPT       GRD      CALD       RHOB       CORR        SPR        ILD         SN   
# ...
 1426.5000    99.3100     8.1030     2.5560     0.2440   -41.2550     6.3910     7.8170
 1427.0000    96.6900     8.1350     2.5560     0.2440   -41.3210     6.3910     7.8290
 1427.5000    96.2060     8.1400     2.5730     0.2440   -41.3860     6.3970     7.8410
 1428.0000    98.2380     8.1450     2.5760     0.2420   -41.4380     6.4030     7.8530
 1428.5000   101.0580     8.1490     2.5730     0.2380   -41.4370     6.4090     7.8650
 1429.0000   103.8740     8.1540     2.5710     0.2310   -41.4370     6.4140     7.8770
 1429.5000   103.9110     8.1590     2.5600     0.2270   -41.4370     6.4200     7.8850
 1430.0000   102.3140     8.1630     2.5450     0.2270   -41.4370     6.4260     7.8850
 1430.5000   100.9510     8.1670     2.5410     0.2260   -41.4370     6.4320     7.8620
 1431.0000   100.7720     8.1730     2.5440     0.2260   -41.4370     6.4380     7.8380
 1431.5000   100.8930     8.2770     2.5450     0.2270   -41.4370     6.4440     7.8140
 1432.0000   102.1650     8.3100     2.5420     0.2280   -41.4370     6.4500     7.7910
 1432.5000   103.9480     8.2330     2.5400     0.2290   -41.4370     6.4390     7.7670
 1433.0000   104.2860     8.2430     2.5490     0.2270   -41.4370     6.4270     7.7420
 1433.5000   102.0420     8.2750     2.5590     0.2270   -41.4370     6.4150     7.8030
 1434.0000   100.8330     8.3390     2.5600     0.2270   -41.4370     6.4030     7.8650
 1434.5000   102.8480     8.5420     2.5610     0.2270   -41.4370     6.3920     7.9280
 1435.0000   105.7180     8.2670     2.5630     0.2270   -41.4370     6.3910     7.9910
 1435.5000   108.6270     8.2550     2.5650     0.2270   -41.4370     6.3910     8.0300
 1436.0000   109.9890     8.2580     2.5700     0.2280   -41.4370     6.3910     7.9930
 1436.5000   109.8530     8.2630     2.5750     0.2270   -41.4370     6.3920     7.9450
 1437.0000   108.9120     8.2660     2.5810     0.2250   -41.4370     6.3900     7.8980
 1437.5000   107.7680     8.2690     2.5850     0.2230   -41.4370     6.3910     7.8510
 1438.0000   106.1850     8.2670     2.5730     0.2230   -41.4370     6.2770     7.8130
 1438.5000   105.2870     8.2400     2.5600     0.2240   -41.4370     6.2050     7.7420
 1439.0000   104.9350     8.2120     2.5480     0.2260   -41.4370     6.1620     7.7410
 1439.5000   107.3450     8.1850     2.5500     0.2280   -41.4370     6.1620     7.7420
 1440.0000   111.1830     8.1580     2.5570     0.2260   -41.4370     6.1980     7.7420
 1440.5000   114.9190     8.1310     2.5640     0.2250   -41.4320     6.2560     7.7420
 1441.0000   115.5470     8.1130     2.5700     0.2240   -41.4190     6.3130     7.7420
 1441.5000   114.6920     8.1140     2.5700     0.2230   -41.4060     6.3710     7.7440
 1442.0000   112.3830     8.0910     2.5690     0.2220   -41.3930     6.4290     7.7390
 1442.5000   109.2560     8.0540     2.5650     0.2220   -41.3810     6.5090     7.8160
 1443.0000   106.0770     8.0780     2.5580     0.2230   -41.3680     6.5110     7.8150
 1443.5000   104.7260     8.1110     2.5520     0.2230   -41.3550     6.5200     7.8120
 1444.0000   105.7290     8.1270     2.5480     0.2240   -41.3420     6.5280     7.8130
 1444.5000   107.7080     8.0960     2.5510     0.2250   -41.3290     6.5370     7.8130
 1445.0000   109.6970     8.1100     2.5580     0.2250   -41.3160     6.5450     7.8130
 1445.5000   109.8590     8.1180     2.5660     0.2260   -41.3030     6.5540     7.8130
 1446.0000   109.6980     8.1210     2.5620     0.2260   -41.2910     6.5630     7.8130
 1446.5000   109.1380     8.1240     2.5540     0.2250   -41.2780     6.5690     7.8200
 1447.0000   107.8170     8.1270     2.5460     0.2240   -41.2650     6.5690     7.8280
 1447.5000   106.2960     8.1310     2.5400     0.2260   -41.2530     6.5630     7.8350
 1448.0000   105.4880     8.1340     2.5440     0.2260   -41.2330     6.5400     7.8420
 1448.5000   105.4790     8.1370     2.5490     0.2260   -41.0560     6.5170     7.8490
 1449.0000   105.4920     8.1410     2.5490     0.2250   -40.8830     6.4940     7.8560
 1449.5000   107.2360     8.1440     2.5470     0.2250   -40.7110     6.4710     7.8630
 1450.0000   109.2090     8.1470     2.5490     0.2250   -40.5390     6.4500     7.8700
 1450.5000   111.1840     8.1510     2.5530     0.2240   -40.4460     6.4440     7.8760
 1451.0000   111.9400     8.1540     2.5510     0.2250   -40.4160     6.4220     7.8810
 1451.5000   110.1840     8.1570     2.5450     0.2260   -40.3870     6.4000     7.8100
 1452.0000   108.7460     8.1610     2.5440     0.2290   -40.3590     6.3780     7.8210
 1452.5000   109.6160     8.1640     2.5490     0.2330   -40.3300     6.3570     7.8300
 1453.0000   110.3720     8.1670     2.5550     0.2340   -40.3020     6.3330     7.8400
 1453.5000   110.2280     8.1710     2.5600     0.2340   -40.2740     6.3880     7.8490
 1454.0000   110.0770     8.1690     2.5660     0.2320   -40.2450     6.4470     7.8580
 1454.5000   109.9290     8.1550     2.5710     0.2300   -40.2170     6.5060     7.8680
 1455.0000   109.7140     8.1420     2.5690     0.2280   -40.1880     6.5690     7.8770
 1455.5000   109.1610     8.1330     2.5620     0.2280   -40.1600     6.5690     7.8850
 1456.0000   108.1020     8.1390     2.5540     0.2280   -40.1320     6.5690     7.8850
 1456.5000   106.1120     8.1460     2.5450     0.2280   -40.1030     6.5690     7.8880
 1457.0000   104.1450     8.1530     2.5480     0.2280   -40.0750     6.5690     7.9140
 1457.5000   102.7710     8.1530     2.5530     0.2280   -40.0790     6.5690     7.9400
 1458.0000   102.9670     8.1530     2.5550     0.2290   -40.1230     6.5690     7.9650
 1458.5000   104.0850     8.1530     2.5550     0.2290   -40.1660     6.5690     7.9910
 1459.0000   104.6340     8.1530     2.5550     0.2290   -40.2100     6.5690     8.0160
 1459.5000   104.6220     8.1530     2.5570     0.2290   -40.2540     6.5690     8.0420
 1460.0000   103.8490     8.1530     2.5570     0.2280   -40.2980     6.5690     8.0670
 1460.5000   102.6760     8.1530     2.5550     0.2280   -40.3420     6.5690     8.0930
 1461.0000   101.4990     8.1530     2.5550     0.2270   -40.3860     6.5710     8.1780
 1461.5000   100.3890     8.1530     2.5560     0.2270   -40.4290     6.5820     8.1780
 1462.0000   100.8690     8.1490     2.5590     0.2270   -40.4730     6.5930     8.1690
 1462.5000   101.9590     8.1310     2.5590     0.2270   -40.5170     6.6050     8.1600
 1463.0000   102.9940     8.1140     2.5570     0.2280   -40.5610     6.6160     8.1510
 1463.5000   104.7500     8.1140     2.5560     0.2300   -40.6050     6.6270     8.1420
 1464.0000   106.9210     8.1140     2.5570     0.2320   -40.6480     6.6380     8.1340
 1464.5000   109.1440     8.1140     2.5620     0.2310   -40.6250     6.6500     8.1250
 1465.0000   110.3670     8.1140     2.5740     0.2300   -40.5990     6.6610     8.1160
 1465.5000   110.9630     8.1140     2.5840     0.2290   -40.5740     6.6720     8.1070
 1466.0000   110.5250     8.1140     2.5850     0.2280   -40.5480     6.6830     8.1040
 1466.5000   109.4430     8.1140     2.5850     0.2270   -40.5230     6.6900     8.0870
 1467.0000   107.8710     8.1140     2.5790     0.2270   -40.4970     6.6240     8.0600
 1467.5000   106.1250     8.1140     2.5740     0.2270   -40.4720     6.5600     8.0330
 1468.0000   105.6950     8.1140     2.5720     0.2270   -40.4520     6.4960     8.0060
 1468.5000   106.2670     8.1140     2.5630     0.2270   -40.4530     6.4320     7.9790
 1469.0000   107.4040     8.1140     2.5530     0.2300   -40.4530     6.3680     7.9530
 1469.5000   107.6100     8.1140     2.5520     0.2310   -40.4530     6.3330     7.9260
 1470.0000   107.7710     8.1150     2.5580     0.2310   -40.4530     6.3260     7.8990
 1470.5000   108.5450     8.1300     2.5640     0.2310   -40.4530     6.3110     7.8740
 1471.0000   109.8270     8.1350     2.5620     0.2320   -40.4530     6.2960     7.8520
 1471.5000   110.5070     8.1360     2.5610     0.2320   -40.4530     6.2810     7.8300
