~VERSION INFORMATION
 VERS.                2.0:   CWLS LOG ASCII STANDARD - VERSION 2.0
 WRAP.                 NO:   ONE LINE PER DEPTH STEP
~WELL INFORMATION
#MNEM.UNIT      DATA TYPE    INFORMATION
#----------   ------------   ------------------------------
 STRT.F          197.0000:   START DEPTH
 STOP.F         3238.5000:   STOP DEPTH
 STEP.F            0.5000:   STEP LENGTH
 NULL.          -999.2500:   NO VALUE
 COMP.    FENIX & SCISSON:   COMPANY
 WELL. FENIX 28 "A" #28-11:   WELL
 FLD .              NPR-3:   FIELD
 LOC .      S11 T38N R78W:   LOCATION
 CNTY.            NATRONA:   COUNTY
 STAT.            WYOMING:   STATE
 CTRY. UNITED STATES OF AMERICA:   COUNTRY
 SRVC.              WELEX:   SERVICE COMPANY
 DATE.        25-OCT-1977:   LOGDATE
 API .     49025104350000:   API NUMBER
~CURVE INFORMATION
#MNEM.UNIT       API CODE    CURVE DESCRIPTION
#----------   ------------   ------------------------------
 DEPT.F                  :   
 SPR .MV     07 010 01 00:   SPONTANEOUS POTENTIAL
 TENR.LBS    07 635 01 00:   TENSION FROM RESISTIVITY
 ILM .OHMM   07 120 44 00:   INDUCTION LOG MEDIUM RESISTIVITY
 SGRD.OHMM   07 220 05 00:   SHALLOW SHORT GUARD RESISTIVITY
 ILD .OHMM   07 120 46 00:   INDUCTION LOG DEEP RESISTIVITY
 GRD .GAPI   45 310 01 00:   GAMMA RAY FROM DENSITY LOG
 CALD.IN     45 280 60 00:   CALIPER FROM DENSITY LOG
 CORR.G/C3   45 356 01 00:   DENSITY CORRECTION
 RHOB.G/C3   45 350 01 00:   BULK DENSITY
~PARAMETER INFORMATION
#MNEM.UNIT          VALUE    DESCRIPTION
#----------   ------------   ------------------------------
 EKB .F         5211.0000:   Kelly bushing
 EGL .F         5201.0000:   Ground level
 EDF .F            0.0000:   Drilling floor
 EPD .F         5201.0000:   Permanent datum
 TD  .F         3235.0000:   Total depth
 CLNT.            A2DTECH:   Client Code
 SL  . 330' FSL & 990' FWL:   Surface Location
 PD  .                 GL:   Permanent Datum
 DAPD.F                10:   Feet Above Permanent Datum
 DATE.        25-OCT-1977:   Date Logged [DD-MMM-YYYY]
 DD  .F              3235:   Depth driller
 DL  .F              3231:   Depth logger
 BLI .F              3229:   Bottom log interval
 TLI .F               200:   Top log interval
 CS1 .IN            8.625:   Casing size
 CBD1.      8.625" @ 217':   Casing driller 1
 CBL1.F               217:   Casing logger 1
 BS1 .              7.875:   Bit size
 BSD1.IN             3235:   Depth drilled with bit1
 DFT .            KCL MUD:   Type fluid in hole
 DFD .                8.9:   Density
 DFV .                 35:   Viscosity
 DFPH.               11.5:   pH
 DFL .               16.4:   Fluid loss
 MSS .           FLOWLINE:   Source of sample
 RMS .OHMM           1.18:   Rm
 MST .F                74:   Rm Meas. temp.
 RMF .OHMM           1.74:   Rmf
 MFST.F                74:   Rmf Meas. temp.
 MFSS.               MEAS:   Source Rmf.
 MCSS.               MEAS:   Source Rmc.
 RMB .OHMM           1.15:   Rm. at BHT
 BHT .F               116:   BHT.
 TCS .HRS               3:   Time Circ. stopped
 MRT .F               116:   Maximum recorded temp.
 LUN .               8611:   Logging unit number
 LUL .             CASPER:   Logging unit location
 ENGI.            C. DOAK:   Recorded By
 WITN.      W. PETTINGILL:   Witnessed by
 ORIG.           5" PRINT:   Origin of data
 UWI .     49025104350000:   Unique Well ID
 DICO. A2D TECHNOLOGIES, INC.:   Digitizing Company
~OTHER INFORMATION
~A   DEPT      SPR       TENR        ILM       SGRD        ILD         GRD      CALD       CORR       RHOB   
# ...
  379.5000   -89.5818   714.0981     5.2314     5.6342     4.1565   108.9775    10.4631    -0.0043     2.4288
  380.0000   -89.5920   714.5280     5.1574     5.7501     4.3008   106.7810    10.4667    -0.0028     2.4363
  380.5000   -89.4508   714.9577     5.1201     5.9104     4.4501   109.7531    10.4775     0.0018     2.4408
  381.0000   -89.4705   715.3961     5.1540     6.0311     4.5729   112.3856    10.4769     0.0049     2.4355
  381.5000   -89.6228   715.9248     5.2644     6.0715     4.6704   114.0954    10.4762     0.0033     2.4333
  382.0000   -89.4818   716.3546     5.3317     6.1114     4.7620   116.4301    10.4913     0.0001     2.4318
  382.5000   -89.3624   716.7844     5.4041     6.1091     4.8263   117.8296    10.4906     0.0000     2.4430
  383.0000   -89.0501   717.2142     5.4019     6.1071     4.8914   117.8183    10.4941    -0.0046     2.4475
  383.5000   -88.6065   717.6440     5.4380     6.1902     4.9234   117.4967    10.5206    -0.0093     2.4385
  384.0000   -89.2749   716.2930     5.4357     6.2744     4.9556   116.5208    10.5200    -0.0109     2.4250
  384.5000   -89.5348   703.5560     5.4339     6.3154     4.9878   115.2889    10.5193    -0.0218     2.4180
  385.0000   -88.7886   704.0932     5.5523     6.4013     4.9858   114.0299    10.5188    -0.0311     2.4115
  385.5000   -89.2553   689.4678     5.8186     6.4442     4.9834   113.3959    10.5181    -0.0389     2.4250
  386.0000   -89.4168   690.0051     6.0631     6.4868     4.9814   112.4493    10.5175    -0.0266     2.4400
  386.5000   -89.2732   675.4858     5.8551     6.5746     4.9794   111.7539    10.5012    -0.0189     2.4468
  387.0000   -89.1346   675.9343     5.6935     6.6180     4.9774   111.4917    10.5006    -0.0143     2.4528
  387.5000   -89.2965   676.4543     5.6523     6.6618     4.9754   111.0807    10.5000    -0.0112     2.4558
  388.0000   -89.3091   661.8289     5.6897     6.7053     4.9734   110.8500    10.4993    -0.0066     2.4528
  388.5000   -89.1681   677.3139     5.7272     6.7031     5.0059   110.8394    10.4987    -0.0020     2.4535
  389.0000   -89.0245   677.7437     5.7248     6.7480     5.0380   111.1452    10.4981    -0.0005     2.4558
  389.5000   -88.7348   678.1764     5.6835     6.7926     5.0714   112.0714    10.4975     0.0010     2.4588
  390.0000   -88.7450   663.6556     5.6425     6.7898     5.1040   113.3123    10.4969     0.0009     2.4648
  390.5000   -88.7553   664.1929     5.6406     6.8347     5.1020   114.9063    10.4961    -0.0007     2.4686
  391.0000   -88.9168   664.6227     5.5998     6.7847     5.0999   116.7295    10.4799    -0.0023     2.4655
  391.5000   -89.0974   665.0525     5.5979     6.7824     5.1332   118.5955    10.4793    -0.0070     2.4415
  392.0000   -89.3937   665.4823     5.5571     6.7801     5.1307   119.9927    10.4788    -0.0134     2.4385
  392.5000   -89.5553   665.9193     5.5170     6.7779     5.1286   120.9212    10.4781    -0.0163     2.4520
  393.0000   -89.8681   666.4493     5.4771     6.7756     5.0913   121.8497    10.4619    -0.0071     2.4625
  393.5000   -89.7271   666.8792     5.5137     6.6799     5.0195   122.3104    10.4455    -0.0015     2.4693
  394.0000   -89.7373   667.3090     5.6660     6.5860     4.9487   122.7691    10.4137     0.0058     2.4700
  394.5000   -89.7476   667.7388     5.7835     6.4480     4.9126   122.9163    10.4089     0.0073     2.4633
  395.0000   -90.0605   668.1686     5.8681     6.4014     4.8433   121.9675    10.3969     0.0026     2.4550
  395.5000   -90.2471   683.5576     5.5437     6.2677     4.8745   119.4585    10.3962    -0.0020     2.4453
  396.0000   -90.6887   699.0311     5.3166     6.1794     4.9068   117.1057    10.3956     0.0026     2.4385
  396.5000   -90.6989   699.4608     5.2419     6.0503     4.9043   114.9092    10.3950     0.0056     2.4325
  397.0000   -90.7092   684.8355     5.2401     5.9206     4.9368   113.1187    10.3944     0.0118     2.4265
  397.5000   -91.1733   685.3727     5.0603     5.7997     4.9344   108.7951    10.3937     0.0164     2.4205
  398.0000   -91.3348   685.8026     4.9184     5.6786     4.8625   111.7549    10.3931     0.0211     2.4115
  398.5000   -91.3451   686.2481     4.8176     5.2969     4.6973   114.2458    10.3925     0.0226     2.4040
  399.0000   -91.9607   686.7696     4.6846     4.9752     4.5361   116.4243    10.3919     0.0256     2.4033
  399.5000   -92.2759   672.1443     4.3702     4.6730     4.3204   117.0406    10.3755     0.0256     2.3923
  400.0000   -92.4374   672.6815     3.9383     4.4197     3.9479   113.7500    10.3734     0.0240     2.3763
  400.5000   -92.5990   673.1113     3.5247     3.9931     3.5315   108.5873    10.3528     0.0209     2.3568
  401.0000   -92.9778   703.4379     3.2206     3.5631     3.2037   107.3292    10.3416     0.0178     2.3253
  401.5000   -93.5178   718.9214     2.9560     3.2328     2.7993   106.0738    10.3403     0.0162     2.2924
  402.0000   -94.1402   719.3513     2.6517     2.9288     2.4771   105.5990    10.3392     0.0099     2.2639
  402.5000   -93.9738   719.7811     2.4062     2.5013     2.2472   106.9993    10.3225     0.0037     2.2455
  403.0000   -93.8422   705.1558     2.2293     2.2383     2.0813   108.5558    10.3215    -0.0025     2.2301
  403.5000   -94.3052   685.1372     2.1087     2.1171     1.9819   110.1123    10.3204    -0.0056     2.2129
  404.0000   -94.7664   685.8192     2.2902     2.1020     2.0224   112.1584    10.2881    -0.0107     2.2226
  404.5000   -94.1685   686.5012     2.5221     2.1753     2.1363   114.9425    10.2712    -0.0197     2.2485
  405.0000   -93.1168   687.1832     2.8555     2.4978     2.2609   116.4991    10.2545    -0.0228     2.2923
  405.5000   -92.2164   687.8651     3.3235     3.0105     2.4336   118.5243    10.2535    -0.0228     2.3328
  406.0000   -92.2038   688.5476     3.8733     3.5294     2.6066   120.5496    10.2524    -0.0213     2.3740
  406.5000   -91.6276   689.2300     4.0584     3.9692     2.8112   122.4186    10.2514    -0.0197     2.4017
  407.0000   -91.0298   689.9137     4.1139     4.5576     3.0110   123.0376    10.2503    -0.0152     2.4099
  407.5000   -90.7345   690.0004     4.1122     5.0903     3.3156   120.6863    10.2490    -0.0105     2.4159
  408.0000   -90.5887   690.0000     4.2555     5.2682     3.7288   119.2741    10.2480    -0.0075     2.4219
  408.5000   -90.5978   690.0000     4.4342     5.2665     4.0245   119.7368    10.2469    -0.0044     2.4287
  409.0000   -90.6051   690.0000     4.5571     5.2287     4.2168   121.2933    10.2459    -0.0029     2.4346
  409.5000   -90.4611   690.0000     4.5555     5.1554     4.2739   122.4352    10.2448     0.0002     2.4414
  410.0000   -90.3189   690.0000     4.6175     5.2263     4.3013   122.8438    10.2438     0.0002     2.4474
  410.5000   -90.0236   690.0000     4.6798     5.2977     4.2984   121.5864    10.2427     0.0001     2.4429
  411.0000   -89.8778   690.0000     4.5506     5.4071     4.2078   122.2054    10.2414     0.0016     2.4284
  411.5000   -89.8869   690.0000     4.3342     5.5217     4.1478   123.4494    10.2404     0.0018     2.4196
  412.0000   -89.8942   690.0000     4.2145     5.5560     4.0319   124.6934    10.2238     0.0015     2.4121
  412.5000   -90.0656   690.0000     4.1553     4.9373     3.9197   125.9374    10.2227     0.0000     2.4024
  413.0000   -90.3645   690.0000     4.0926     4.3878     3.8638   125.9313    10.2216    -0.0016     2.3926
  413.5000   -90.3718   690.0000     4.0110     4.0931     3.7824   124.8301    10.2046    -0.0032     2.3776
  414.0000   -90.3791   690.0000     3.9546     4.0641     3.7284   123.8866    10.2036    -0.0156     2.3808
  414.5000   -90.5376   690.0000     3.8990     4.8307     3.7264   122.7869    10.1869    -0.0218     2.4008
  415.0000   -90.3936   690.0000     4.0628     4.4136     3.7780   121.9996    10.1859    -0.0219     2.4173
  415.5000   -90.4009   690.0000     4.3223     4.3216     3.8797   120.8999    10.1848    -0.0141     2.4316
