~VERSION INFORMATION
 VERS.                2.0:   CWLS LOG ASCII STANDARD - VERSION 2.0
 WRAP.                 NO:   ONE LINE PER DEPTH STEP
~WELL INFORMATION
#MNEM.UNIT      DATA TYPE    INFORMATION
#----------   ------------   ------------------------------
 STRT.F          508.0000:   START DEPTH
 STOP.F         3170.0000:   STOP DEPTH
 STEP.F            0.5000:   STEP LENGTH
 NULL.          -999.2500:   NO VALUE
 COMP. FENIX & SCISSON - U.S. NAVY:   COMPANY
 WELL. FENIX NPR-3 "A" #58-34:   WELL
 FLD .                NPR:   FIELD
 LOC .      S34 T39N R78W:   LOCATION
 CNTY.            NATRONA:   COUNTY
 STAT.            WYOMING:   STATE
 CTRY. UNITED STATES OF AMERICA:   COUNTRY
 SRVC.       SCHLUMBERGER:   SERVICE COMPANY
 DATE.        15-MAR-1977:   LOGDATE
 API .     49025103180000:   API NUMBER
~CURVE INFORMATION
#MNEM.UNIT       API CODE    CURVE DESCRIPTION
#----------   ------------   ------------------------------
 DEPT.F                  :   
 CALD.IN     45 280 60 00:   CALIPER FROM DENSITY LOG
 GRD .GAPI   45 310 01 00:   GAMMA RAY FROM DENSITY LOG
 RHOB.G/C3   45 350 01 00:   BULK DENSITY
 CORR.G/C3   45 356 01 00:   DENSITY CORRECTION
 SPR .MV     07 010 01 00:   SPONTANEOUS POTENTIAL
 LL8 .OHMM   07 220 08 00:   LATEROLOG-8 RES.
 ILD .OHMM   07 120 46 00:   DEEP INDUCTION RESISTIVITY
 ILM .OHMM   07 120 44 00:   INDUCTION LOG MEDIUM RESISTIVITY
~PARAMETER INFORMATION
#MNEM.UNIT          VALUE    DESCRIPTION
#----------   ------------   ------------------------------
 EKB .F         5129.0000:   Kelly bushing
 EGL .F         5117.0000:   Ground level
 EDF .F            0.0000:   Drilling floor
 EPD .F            0.0000:   Permanent datum
 TD  .F         3170.0000:   Total depth
 DATE.        15-MAR-1977:   Date logged
 CLNT.            A2DTECH:   Client Code
 SL  . 2310' FEL & 330' FSL:   Surface Location
 PD  .                 GL:   Permanent Datum
 DAPD.F                12:   Feet Above Permanent Datum
 DD  .F              3170:   Depth driller
 DL  .F              3170:   Depth logger
 BLI .F              3169:   Bottom log interval
 TLI .F               508:   Top log interval
 CS1 .IN            8.625:   Casing size
 CBD1.      8.625" @ 524':   Casing driller 1
 CBL1.F               522:   Casing logger 1
 BS1 .IN            7.875:   Bit size
 BSD1.F              3170:   Depth drilled with bit1
 DFT .                KCL:   Type fluid in hole
 DFD .                9.2:   Density
 DFV .                 36:   Viscosity
 DFPH.                  9:   pH
 DFL .                  9:   Fluid loss
 MSS .                PIT:   Source of sample
 RMS .OHMM             .3:   Rm
 MST .F                58:   Rm Meas. temp.
 RMF .OHMM            .29:   Rmf
 MFST.F                58:   Rmf Meas. temp.
 MFSS.               MEAS:   Source Rmf.
 RMB .OHMM            .15:   Rm. at BHT
 BHT .F               120:   BHT.
 TCS .HRS               6:   Time Circ. stopped
 MRT .F               120:   Maximum recorded temp.
 LUN .               7711:   Logging unit number
 LUL .               CSPR:   Logging unit location
 ENGI.             SAYLER:   Recorded By
 WITN.               JAPP:   Witnessed by
 ORIG.           5" PRINT:   Origin of data
 UWI .     49025103180000:   Unique Well ID
 DICO. A2D TECHNOLOGIES, INC.:   Digitizing Company
~OTHER INFORMATION
~A   DEPT       CALD       GRD      RHOB        CORR       SPR        LL8        ILD        ILM   
  508.0000     8.4818    72.6984  -999.2500    -0.1478  -999.2500  -999.2500  -999.2500  -999.2500
  508.5000     8.4832    75.9379     2.0022    -0.1477  -999.2500  -999.2500  -999.2500  -999.2500
  509.0000     8.4692    78.8204     2.0353    -0.1484  -999.2500  -999.2500  -999.2500  -999.2500
  509.5000     8.4554    79.8069     2.0783    -0.1491  -999.2500  -999.2500  -999.2500  -999.2500
  510.0000     8.4568    79.2120     2.1129    -0.1490  -999.2500  -999.2500  -999.2500  -999.2500
  510.5000     8.4428    78.4196     2.1378    -0.1482  -999.2500  -999.2500  -999.2500  -999.2500
  511.0000     8.4442    78.0224     2.1733    -0.1473  -999.2500  -999.2500  -999.2500  -999.2500
  511.5000     8.4455    80.9847     2.2012    -0.1450  -999.2500  -999.2500  -999.2500  -999.2500
  512.0000     8.4467    83.1566     2.2268    -0.1472  -999.2500  -999.2500  -999.2500  -999.2500
  512.5000     8.4478    83.1546     2.2314    -0.1547  -999.2500  -999.2500  -999.2500  -999.2500
  513.0000     8.4492    81.9669     2.2397    -0.1599  -999.2500  -999.2500  -999.2500  -999.2500
  513.5000     8.4503    80.3839     2.2548    -0.1583  -999.2500  -999.2500  -999.2500  -999.2500
  514.0000     8.4515    77.2200     2.2707    -0.1567  -999.2500  -999.2500  -999.2500  -999.2500
  514.5000     8.4526    76.8228     2.2978    -0.1574  -999.2500  -999.2500  -999.2500  -999.2500
  515.0000     8.4540    76.4255     2.3145    -0.1641  -999.2500  -999.2500  -999.2500  -999.2500
  515.5000     8.4551    75.2378     2.3160    -0.1739  -999.2500  -999.2500  -999.2500  -999.2500
  516.0000     8.4563    75.4335     2.3379    -0.1829  -999.2500  -999.2500  -999.2500  -999.2500
  516.5000     8.4574    76.6172     2.3575    -0.1911  -999.2500  -999.2500  -999.2500  -999.2500
  517.0000     8.4586    77.4057     2.3576    -0.1926  -999.2500  -999.2500  -999.2500  -999.2500
  517.5000     8.4446    77.4037     2.3780    -0.1887  -999.2500  -999.2500  -999.2500  -999.2500
  518.0000     8.4308    75.2279     2.3818    -0.1947  -999.2500  -999.2500  -999.2500  -999.2500
  518.5000     8.4173    76.2141     2.3818    -0.1977  -999.2500  -999.2500  -999.2500  -999.2500
  519.0000     8.4035    76.8049     2.3857    -0.1976  -999.2500  -999.2500  -999.2500  -999.2500
  519.5000     8.4048    77.5934     2.3948    -0.1967  -999.2500  -999.2500  -999.2500  -999.2500
  520.0000     8.3994    79.1728     2.4121    -0.1951  -999.2500  -999.2500  -999.2500  -999.2500
  520.5000     8.4171    84.7043     2.3791    -0.1883  -999.2500  -999.2500  -999.2500  -999.2500
  521.0000     8.4787    93.0024     2.3611    -0.1247  -999.2500  -999.2500  -999.2500  -999.2500
  521.5000     8.6146    98.5343     2.3762     0.1016  -999.2500  -999.2500  -999.2500  -999.2500
  522.0000     9.8503   102.0895     2.3973     0.1569  -999.2500    29.5861  -999.2500  -999.2500
  522.5000    11.3978   105.2495     2.2409     0.1592  -999.2500    11.9710  -999.2500  -999.2500
  523.0000    11.4594   106.8281     2.2296     0.1767  -999.2500    10.6505  -999.2500  -999.2500
  523.5000    11.0005   105.8384     2.2380     0.1934  -999.2500    10.8133  -999.2500     3.3471
  524.0000    11.0480   104.6507     2.2418     0.1678  -999.2500    11.2826     3.9754     4.7560
  524.5000    11.2879   102.6725     2.2689     0.1300  -999.2500    11.3742    11.1213     7.4424
  525.0000    11.7209    99.5085     2.2269     0.0507  -999.2500    11.6243   106.3328    10.0082
  525.5000    12.1391    96.9375     2.2209     0.0205  -999.2500    11.7167  1445.7742    11.9713
  526.0000    12.3641    95.7478     2.2142     0.0092  -999.2500    12.3101   891.6725    14.0266
  526.5000    12.3815    98.5145     2.1909     0.0063  -999.2500    13.1137    15.8154    12.7371
  527.0000    12.2648    99.8958     2.1421     0.0306  -999.2500    12.3349    12.3349    12.2213
  527.5000    11.6577   100.4867     2.1301     0.0874  -999.2500    11.8475    12.1657    12.5628
  528.0000    10.5306   103.2515     2.1550     0.0065  -999.2500    12.1079    12.2500    13.5517
  528.5000     9.9090   104.4352     2.2544     0.0058     0.7001    12.8094    13.2166    15.2354
  529.0000     9.8365   103.2475     2.3628     0.0097    -1.2798    12.7318    16.1464    18.8625
  529.5000     9.8392   100.4756     2.3636     0.0151    -4.6777    12.0628    20.7025    21.2061
  530.0000     9.8258   101.8602     2.3719     0.0174    -8.0756    11.9877    21.4296    18.7330
  530.5000     9.8286   104.2297     2.3780     0.0205   -10.9619    12.3404    20.7025    18.6044
  531.0000     9.8155   106.4019     2.3691     0.0221   -12.2777    12.0971    19.1884    18.9929
  531.5000     9.7887   108.5738     2.3706     0.0244   -13.5934    11.4595    16.7136    19.3895
  532.0000     9.7908   110.5480     2.3917     0.0185   -14.4677    11.2337    14.8626    19.1242
  532.5000     9.8078   110.9413     2.4076     0.0132   -15.5627    11.4845    14.1614    18.7330
  533.0000     9.7948   109.9512     2.4107     0.0110   -17.0992    11.8184    13.6808    17.9745
  533.5000     9.8121   106.9849     2.4047     0.0073   -19.7396    12.1621    12.9504    16.8940
  534.0000     9.9038   104.4130     2.4048     0.0014   -22.3800    12.2588    12.4906    16.0986
  534.5000     9.9501   106.7833     2.4116     0.0007   -27.2263    12.2731    12.2705    14.5182
  535.0000     9.9226   107.7694     2.4169     0.0106   -29.6460    12.1967    12.0544    13.5517
  535.5000     9.9548   107.7675     2.4178     0.0167   -30.7409    11.7759    11.8421    12.8408
  536.0000     9.9272   107.7655     2.4170     0.0123   -31.8359    11.5691    11.5271    12.1806
  536.5000     9.9145   108.3564     2.4149     0.0078   -32.7101    11.2622    11.2205    11.3241
  537.0000     9.9170   109.5401     2.4119     0.0026   -34.2467    11.1663    10.9221    10.8222
  537.5000     9.9192   110.7239     2.4105    -0.0004   -35.5624    11.0712    10.6316    10.3425
  538.0000     9.9217   111.3152     2.4173     0.0095   -36.6574    11.0780    10.4444     9.9753
  538.5000     9.9238   108.1508     2.4377     0.0111   -37.7524    11.2897     9.8021     9.7100
  539.0000     9.9259   104.1964     2.4475     0.0180   -38.6266    11.2966     9.7160     9.6271
  539.5000     9.9281   103.6016     2.4506     0.0234   -39.5008    11.3035     9.8117     9.6330
  540.0000     9.9306   104.1924     2.4537     0.0341   -40.3750    11.1050    10.0922     9.7279
  540.5000     9.9327   104.3881     2.4545     0.0326   -41.9115    10.9100    10.4764     9.8238
  541.0000     9.9943   104.1885     2.4417     0.0319   -42.5650    10.8132    10.6773     9.9205
  541.5000    10.0559   103.7913     2.4320     0.0237   -43.4392    10.7250    10.8820    10.1107
  542.0000    10.1175   103.7869     2.4268     0.0162   -43.8718    10.6337    10.9892    10.2103
  542.5000    10.1345   106.7516     2.4246     0.0087   -44.3045    10.5432    10.9959    10.3109
  543.0000    10.0033   108.3306     2.4344     0.0088   -44.7371    10.5496    11.1042    10.3172
  543.5000     9.9014   108.3286     2.4360     0.0119   -45.3906    10.5561    11.1096    10.3236
  544.0000     9.8441   108.5243     2.4391     0.0173   -45.8232    10.5625    11.1164    10.3299
  544.5000     9.8310   109.3128     2.4391     0.0173   -47.3597    10.5690    11.0215    10.3362
  545.0000     9.8339   110.2989     2.4400     0.0174   -47.7924    10.2887    11.0282    10.2480
  545.5000     9.8360   111.4827     2.4445     0.0145   -48.2251    10.1081    10.9341    10.1605
  546.0000     9.8085   112.4688     2.4363     0.0145   -48.6577    10.1143    10.9408    10.1667
  546.5000     9.7961   112.8621     2.4394     0.0207   -48.8696    10.3076    10.9475    10.1729
  547.0000     9.7982   113.8486     2.4522     0.0192   -49.3023    10.4076    10.9542    10.1792
  547.5000     9.8001   114.6371     2.4704     0.0208   -49.5142    10.5110    10.9609    10.1829
  548.0000     9.8025   115.2280     2.4787     0.0239   -49.5053    10.4216    10.9676    10.1916
