~VERSION INFORMATION
 VERS.                2.0:   CWLS LOG ASCII STANDARD - VERSION 2.0
 WRAP.                 NO:   ONE LINE PER DEPTH STEP
~WELL INFORMATION
#MNEM.UNIT      DATA TYPE    INFORMATION
#----------   ------------   ------------------------------
 STRT.F           41.0000:   START DEPTH
 STOP.F          925.0000:   STOP DEPTH
 STEP.F            0.5000:   STEP LENGTH
 NULL.          -999.2500:   NO VALUE
 COMP. LAWRENCE ALLISON & ASSOCIATION:   COMPANY
 WELL. LAWRENCE ALLISON #48-2:   WELL
 FLD .       N.P.R. NO. 3:   FIELD
 LOC .       S2 T38N R78W:   LOCATION
 CNTY.            NATRONA:   COUNTY
 STAT.            WYOMING:   STATE
 CTRY. UNITED STATES OF AMERICA:   COUNTRY
 SRVC.       SCHLUMBERGER:   SERVICE COMPANY
 DATE.        06-SEP-1982:   LOGDATE
 API .     49025109110000:   API NUMBER
~CURVE INFORMATION
#MNEM.UNIT       API CODE    CURVE DESCRIPTION
#----------   ------------   ------------------------------
 DEPT.F                  :   
 ILM .OHMM   07 120 44 00:   INDUCTION LOG MEDIUM RESISTIVITY
 ILD .OHMM   07 120 46 00:   DEEP INDUCTION RESISTIVITY
 CALD.IN     45 280 60 00:   CALIPER FROM DENSITY LOG
 GRD .GAPI   45 310 01 00:   GAMMA RAY FROM DENSITY LOG
 TEND.LBS    45 635 01 00:   TENSION FROM DENSITY LOG
 CORR.G/C3   45 356 01 00:   DENSITY CORRECTION
 RHOB.G/C3   45 350 01 00:   BULK DENSITY
 NPHI.DEC    42 890 03 00:   NEUTRON POROSITY SANDSTONE
~PARAMETER INFORMATION
#MNEM.UNIT          VALUE    DESCRIPTION
#----------   ------------   ------------------------------
 EKB .F         5192.0000:   Kelly bushing
 EGL .F         5182.0000:   Ground level
 TD  .F          920.0000:   Total depth
 CLNT.            A2DTECH:   Client Code
 DATE.         6-SEP-1982:   Date Logged [DD-MMM-YYYY]
 DD  .F               920:   Depth driller
 DL  .F               918:   Depth logger
 BLI .F               908:   Bottom log interval
 TLI .F                49:   Top log interval
 CBL1.IN               49:   Casing logger 1
 BSD1.F               920:   Depth drilled with bit1
 DFT .                AIR:   Type fluid in hole
 TCS .HRS            0730:   Time Circ. stopped
 TLAB.HRS            0900:   Time logger at bottom
 LUN .               8035:   Logging unit number
 LUL .               CSPR:   Logging unit location
 ENGI.              PENNY:   Recorded By
 WITN.           JENNINGS:   Witnessed by
 ORIG.           5" PRINT:   Origin of data
 UWI .     49025109110000:   Unique Well ID
 DICO. A2D TECHNOLOGIES, INC.:   Digitizing Company
 PD  .                 GL:   Permanent Datum
 EPD .               5180:   Elevation Permanent Datum
 LMF .                 KB:   Log Measured From
 DMF .                 KB:   Drilling Measured From
 DAPD.                 10:   Feet Above Permanent Datum
~OTHER INFORMATION
~A   DEPT      ILM        ILD       CALD         GRD      TEND       CORR       RHOB       NPHI   
   41.0000  -999.2500  -999.2500  -999.2500    82.9455  -999.2500  -999.2500  -999.2500  -999.2500
   41.5000  -999.2500  -999.2500  -999.2500    83.0132  -999.2500  -999.2500  -999.2500  -999.2500
   42.0000  -999.2500  -999.2500  -999.2500    83.0810  -999.2500  -999.2500  -999.2500  -999.2500
   42.5000  -999.2500  -999.2500  -999.2500    83.1487  -999.2500  -999.2500  -999.2500  -999.2500
   43.0000  -999.2500  -999.2500  -999.2500    84.7381  -999.2500  -999.2500  -999.2500  -999.2500
   43.5000  -999.2500  -999.2500  -999.2500    88.3058  -999.2500  -999.2500  -999.2500  -999.2500
   44.0000  -999.2500  -999.2500  -999.2500    90.9860  -999.2500  -999.2500  -999.2500  -999.2500
   44.5000  -999.2500  -999.2500  -999.2500    93.0005  -999.2500  -999.2500  -999.2500  -999.2500
   45.0000  -999.2500  -999.2500  -999.2500    95.0149  -999.2500  -999.2500  -999.2500  -999.2500
   45.5000  -999.2500  -999.2500  -999.2500    94.7944  -999.2500  -999.2500  -999.2500  -999.2500
   46.0000  -999.2500  -999.2500  -999.2500    92.7604  -999.2500  -999.2500  -999.2500  -999.2500
   46.5000  -999.2500  -999.2500  -999.2500    87.3668  -999.2500  -999.2500  -999.2500  -999.2500
   47.0000  -999.2500  -999.2500  -999.2500    85.7652  -999.2500  -999.2500  -999.2500  -999.2500
   47.5000  -999.2500  -999.2500  -999.2500    86.8965  -999.2500  -999.2500  -999.2500  -999.2500
   48.0000  -999.2500  -999.2500  -999.2500    89.7926  -999.2500  -999.2500  -999.2500  -999.2500
   48.5000  -999.2500  -999.2500  -999.2500   101.4550  -999.2500  -999.2500  -999.2500  -999.2500
   49.0000     3.7120  2000.0000    13.1975   113.1173   449.6560     0.0090     2.5098  -999.2500
   49.5000     1.0127  1595.0417    13.2729   124.7797   448.9081     0.1558     2.4992  -999.2500
   50.0000     1.9610  1062.2938    13.2149   137.1302   448.1602     0.1739     2.4343  -999.2500
   50.5000     3.1280   603.8322    13.0381   137.1476   417.4294     0.1559     2.3606  -999.2500
   51.0000     2.9333    10.2863    13.0398   134.1258   416.9774     0.1101     2.3411  -999.2500
   51.5000     2.2988     2.4598    13.0114   127.2017   416.5255     0.0805     2.3377  -999.2500
   52.0000     3.4876     2.2404    12.9533   121.6718   431.6663     0.0726     2.3611  -999.2500
   52.5000     3.8576     5.1592    12.8955   124.3519   431.1013     0.0750     2.3815  -999.2500
   53.0000     4.6844   289.2345    12.8675   127.0321   430.6494     0.0750     2.3846  -999.2500
   53.5000     6.2896  1017.9545    12.8244   123.4993   430.1857     0.0726     2.3884  -999.2500
   54.0000     6.4751   318.1396    12.8257   119.0745   429.6325     0.0695     2.3914  -999.2500
   54.5000     6.4310     6.4493    12.8418   121.3152   429.1805     0.0663     2.3854  -999.2500
   55.0000     6.3355     6.1773    12.8431   123.9954   428.7285     0.0624     2.3703  -999.2500
   55.5000     6.0768     6.1335    12.8444   127.5631   412.7967     0.0561     2.3620  -999.2500
   56.0000     6.2560     5.6676    12.8457   129.5776   412.3447     0.0506     2.3560  -999.2500
   56.5000     7.8180     5.7501    12.8470   128.9294   411.8928     0.0530     2.3538  -999.2500
   57.0000     9.6299     6.3139    12.8483   128.2812   411.4408     0.0561     2.3591  -999.2500
   57.5000     7.8798     6.9330    12.8496   126.3016   410.9888     0.0600     2.3644  -999.2500
   58.0000     7.2312     7.3970    12.8509   126.7899   410.5263     0.0640     2.3629  -999.2500
   58.5000     6.9137     6.3609    12.8523   127.2284   409.9719     0.0656     2.3675  -999.2500
   59.0000     6.5455     6.1809    12.8539   125.9145   409.5200     0.0679     2.3706  -999.2500
   59.5000     6.4539     6.2709    12.8552   123.0473   393.5881     0.0687     2.3675  -999.2500
   60.0000     6.6448     6.5479    12.8713   121.0677   393.1361     0.0687     2.3653  -999.2500
   60.5000     6.8407     6.7394    12.8575   118.2005   392.6841     0.0710     2.3660  -999.2500
   61.0000     7.0424     6.8868    12.7995   115.9947   392.2322     0.0695     2.3668  -999.2500
   61.5000     7.0449     7.0374    12.7564   118.0135   407.2601     0.0679     2.3676  -999.2500
   62.0000     6.9474     6.8385    12.7580   123.1345   391.3282     0.0608     2.3706  -999.2500
   62.5000     6.8502     6.7899    12.7889   126.4804   406.3562     0.0600     2.3782  -999.2500
   63.0000     6.9025     6.8888    12.8051   126.0540   405.7912     0.0648     2.3835  -999.2500
   63.5000     7.0048     6.9390    12.8064   124.0744   405.3392     0.0624     2.3767  -999.2500
   64.0000     7.1085     7.0400    12.7929   121.8730   404.8873     0.0530     2.3692  -999.2500
   64.5000     7.3181     7.1425    12.7916   120.3173   404.4353     0.0518     2.3677  -999.2500
   65.0000     7.4800     7.3514    12.7365   118.5132   403.9833     0.0624     2.3829  -999.2500
   65.5000     7.6462     7.4656    12.7523   116.7847   403.5314     0.0718     2.3845  -999.2500
   66.0000     7.7039     7.6217    12.7540   116.6173   403.0794     0.0661     2.3715  -999.2500
   66.5000     7.9311     7.7326    12.7553   118.8580   402.6274     0.0458     2.3639  -999.2500
   67.0000     7.9910     7.9018    12.7566   121.7601   402.1672     0.0436     2.3603  -999.2500
   67.5000     7.9938     7.9593    12.7579   123.7746   417.2034     0.0561     2.3716  -999.2500
   68.0000     7.9393     7.7900    12.7592   123.3439   416.6384     0.0632     2.3679  -999.2500
   68.5000     7.4938     7.6243    12.7605   125.5846   416.1864     0.0530     2.3641  -999.2500
   69.0000     7.3945     7.5160    12.7914   126.4896   415.7345     0.0389     2.3604  -999.2500
   69.5000     7.5047     7.4627    12.7927   125.8414   415.2825     0.0373     2.3596  -999.2500
   70.0000     7.6048     7.3752    12.7644   122.0867   414.8305     0.0428     2.3619  -999.2500
   70.5000     7.8227     7.5894    12.7660   122.3260   414.3786     0.0475     2.3650  -999.2500
   71.0000     7.8253     7.8087    12.7673   125.2281   413.9266     0.0593     2.3733  -999.2500
   71.5000     7.8279     7.8696    12.7686   130.5754   428.9545     0.0710     2.3862  -999.2500
   72.0000     7.7756     7.8189    12.7699   130.5356   446.6469     0.0742     2.3832  -999.2500
   72.5000     7.6712     7.6626    12.7713   126.9565   459.0103     0.0640     2.3681  -999.2500
   73.0000     7.6207     7.5107    12.7726   123.3052   458.4454     0.0514     2.3568  -999.2500
   73.5000     7.5704     7.4119    12.7739   123.0964   457.9934     0.0483     2.3530  -999.2500
   74.0000     7.5204     7.3156    12.7752   125.3371   457.5414     0.0531     2.3623  -999.2500
   74.5000     7.4707     7.3205    12.7765   123.8013   457.0895     0.0601     2.3753  -999.2500
   75.0000     7.4738     7.3253    12.7630   120.7122   456.6375     0.0633     2.3858  -999.2500
   75.5000     7.4763     7.2792    12.7656   117.1750   456.1855     0.0640     2.3803  -999.2500
   76.0000     7.2742     7.2306    12.7805   117.8625   455.7276     0.0522     2.3675  -999.2500
   76.5000     7.1263     7.1386    12.7820   122.7616   470.7615     0.0428     2.3622  -999.2500
   77.0000     6.9331     6.9971    12.7833   130.5453   470.1965     0.0404     2.3660  -999.2500
   77.5000     6.7450     6.8097    12.7846   133.0036   469.7446     0.0459     2.3744  -999.2500
   78.0000     6.6541     6.6736    12.7859   129.4708   469.2926     0.0522     2.3744  -999.2500
   78.5000     6.5188     6.5373    12.7872   124.3847   468.8406     0.0577     2.3669  -999.2500
   79.0000     6.3868     6.4552    12.7885   122.8358   468.3887     0.0624     2.3691  -999.2500
   79.5000     6.3441     6.3693    12.7898   121.9787   467.9367     0.0640     2.3767  -999.2500
   80.0000     6.3022     6.4729    12.7912   121.7743   467.4847     0.0593     2.3813  -999.2500
   80.5000     6.3489     6.4270    12.7925   122.0180   467.0279     0.0538     2.3836  -999.2500
   81.0000     6.3953     6.4739    12.7938   122.0354   466.5634     0.0522     2.3858  -999.2500
