~VERSION INFORMATION
 VERS.                2.0:   CWLS LOG ASCII STANDARD - VERSION 2.0
 WRAP.                 NO:   ONE LINE PER DEPTH STEP
~WELL INFORMATION
#MNEM.UNIT      DATA TYPE    INFORMATION
#----------   ------------   ------------------------------
 STRT.F          186.0000:   START DEPTH
 STOP.F         3060.0000:   STOP DEPTH
 STEP.F            0.5000:   STEP LENGTH
 NULL.          -999.2500:   NO VALUE
 COMP.    FENIX & SCISSON:   COMPANY
 WELL. FENIX NPR 3 "AX" #63-29:   WELL
 FLD .              N P R:   FIELD
 LOC .      S29 T39N R78W:   LOCATION
 CNTY.            NATRONA:   COUNTY
 STAT.            WYOMING:   STATE
 CTRY. UNITED STATES OF AMERICA:   COUNTRY
 SRVC.           BIRDWELL:   SERVICE COMPANY
 DATE.        28-FEB-1978:   LOGDATE
 API .     49025105960000:   API NUMBER
~CURVE INFORMATION
#MNEM.UNIT       API CODE    CURVE DESCRIPTION
#----------   ------------   ------------------------------
 DEPT.F                  :   
 CALD.IN     45 280 60 00:   CALIPER FROM DENSITY LOG
 GRD .GAPI   45 310 01 00:   GAMMA RAY FROM DENSITY LOG
 DEN .LBS    07 635 01 00:   
 CORR.G/C3   45 356 01 00:   DENSITY CORRECTION
 SPR .MV     05 010 01 00:   SPONTANEOUS POTENTIAL
 SN  .OHMM   05 040 00 00:   SHORT NORMAL
 ILD .OHMM   05 120 46 00:   DEEP INDUCTION RESISTIVITY
~PARAMETER INFORMATION
#MNEM.UNIT          VALUE    DESCRIPTION
#----------   ------------   ------------------------------
 EKB .F         4993.0000:   Kelly bushing
 EGL .F         4983.0000:   Ground level
 EDF .F            0.0000:   Drilling floor
 TD  .F         3060.0000:   Total depth
 DATE.        28-FEB-1978:   Date logged
 CLNT.            A2DTECH:   Client Code
 SL  . 1300' FNL & 1050' FEL:   Surface Location
 PD  .                 GL:   Permanent Datum
 DD  .F              3060:   Depth driller
 DL  .F              3056:   Depth logger
 BLI .F              5050:   Bottom log interval
 CS1 .IN            8.625:   Casing size
 CBD1.      8.625" @ 214':   Casing driller 1
 CBL1.F               218:   Casing logger 1
 BS1 .IN            7.875:   Bit size
 DFT .     LIGNOSULFONATE:   Type fluid in hole
 DFD .                  9:   Density
 DFV .                 34:   Viscosity
 DFPH.               10.5:   pH
 DFL .                  9:   Fluid loss
 MSS .           FLOWLINE:   Source of sample
 RMS .OHMM            1.8:   Rm
 MST .F                58:   Rm Meas. temp.
 RMF .OHMM             .9:   Rmf
 MFST.F                65:   Rmf Meas. temp.
 RMC .OHMM            2.5:   Rmc
 MCST.F                70:   Rmc Meas. temp.
 MFSS.               MEAS:   Source Rmf.
 RMB .OHMM             88:   Rm. at BHT
 BHT .F               118:   BHT.
 TCS .HRS               8:   Time Circ. stopped
 MRT .F               118:   Maximum recorded temp.
 LUN .               2959:   Logging unit number
 LUL .               CASP:   Logging unit location
 ENGI.             MILLER:   Recorded By
 WITN.         HARRINGTON:   Witnessed by
 ORIG.           5" PRINT:   Origin of data
 UWI .     49025105960000:   Unique Well ID
 DICO. A2D TECHNOLOGIES, INC.:   Digitizing Company
 BSD1.F              3060:   Depth drilled with bit1
 EPD .F              4983:   Elevation Permanent Datum
 LMF .                 KB:   Log Measured From
 DMF .                 KB:   Drilling Measured From
 TLI .F               800:   Top log interval
~OTHER INFORMATION
~A   DEPT     CALD         GRD       DEN       CORR        SPR         SN        ILD   
# ...
 2461.0000     9.3800    75.9220     2.4620     0.0580   -29.9200    17.0420    14.3650
 2461.5000     9.3730    76.0640     2.4650     0.0540   -29.9200    17.1150    14.3650
 2462.0000     9.3640    73.4810     2.4740     0.0460   -29.9200    17.1880    14.3650
 2462.5000     9.3730    70.3450     2.4860     0.0390   -29.9200    17.2620    14.3650
 2463.0000     9.3910    68.6330     2.4980     0.0320   -29.9200    17.3350    14.3650
 2463.5000     9.4090    72.9560     2.5080     0.0290   -29.9200    17.4190    14.6320
 2464.0000     9.4260    79.2380     2.5010     0.0330   -29.9200    17.7610    14.7380
 2464.5000     9.4430    80.0590     2.4770     0.0340   -29.9200    18.1620    14.9680
 2465.0000     9.4610    80.0770     2.4520     0.0340   -29.9200    18.5620    15.1980
 2465.5000     9.4780    79.9210     2.4300     0.0340   -29.9120    18.9630    15.4280
 2466.0000     9.5090    75.9680     2.4170     0.0340   -29.8870    19.3640    15.6580
 2466.5000     9.5430    70.4250     2.4040     0.0320   -29.8630    19.8170    15.8870
 2467.0000     9.5780    64.6360     2.4000     0.0310   -29.8380    19.7940    16.1170
 2467.5000     9.6130    60.7580     2.3980     0.0300   -29.8140    19.7550    16.3380
 2468.0000     9.6420    63.5440     2.3980     0.0300   -29.7890    19.7170    16.3380
 2468.5000     9.6520    66.0690     2.3980     0.0320   -29.7650    19.6790    16.3380
 2469.0000     9.6600    67.9980     2.3970     0.0360   -29.7400    19.6410    16.3380
 2469.5000     9.6690    66.4840     2.3970     0.0410   -29.7160    19.6020    16.3380
 2470.0000     9.6780    64.2980     2.3990     0.0420   -29.6910    19.5640    16.3380
 2470.5000     9.6860    65.8970     2.4040     0.0410   -29.6670    19.5260    16.3380
 2471.0000     9.6950    69.4760     2.4080     0.0400   -29.6420    19.4880    16.6350
 2471.5000     9.7040    73.1100     2.4130     0.0390   -29.6170    19.4500    16.8870
 2472.0000     9.7120    73.4980     2.4180     0.0380   -29.5930    19.4110    17.1390
 2472.5000     9.7210    71.1400     2.4230     0.0400   -29.5670    19.3730    17.3900
 2473.0000     9.7180    68.9770     2.4250     0.0440   -29.5450    19.3350    17.6420
 2473.5000     9.7140    67.0090     2.4240     0.0490   -29.5230    19.2980    17.9110
 2474.0000     9.7110    66.5800     2.4230     0.0540   -29.6250    19.2570    17.5330
 2474.5000     9.7070    66.5070     2.4260     0.0580   -29.7370    19.2140    17.4360
 2475.0000     9.7040    66.0370     2.4330     0.0580   -29.8530    19.1530    17.3400
 2475.5000     9.7000    64.7030     2.4330     0.0560   -29.9660    19.1610    17.2430
 2476.0000     9.6970    64.0570     2.4340     0.0530   -30.0840    19.0860    17.1460
 2476.5000     9.6940    65.7330     2.4350     0.0510   -30.1930    19.4930    17.0500
 2477.0000     9.6900    69.5140     2.4350     0.0480   -30.3110    19.4400    16.9530
 2477.5000     9.6860    73.3340     2.4360     0.0460   -30.2400    19.4650    16.8570
 2478.0000     9.6840    76.3770     2.4360     0.0430   -30.1550    19.4580    16.7600
 2478.5000     9.6700    76.3200     2.4330     0.0410   -30.0620    19.4560    16.6630
 2479.0000     9.6450    69.4330     2.4290     0.0380   -29.9740    19.4540    16.9500
 2479.5000     9.6200    64.0900     2.4250     0.0380   -29.8840    19.4550    16.9630
 2480.0000     9.5960    48.2610     2.4250     0.0420   -29.7940    19.4550    16.9430
 2480.5000     9.5710    43.9800     2.4250     0.0530   -29.7050    19.4550    16.9490
 2481.0000     9.5470    41.9780     2.4260     0.0630   -29.6150    19.4550    16.9490
 2481.5000     9.5230    39.5560     2.4260     0.0660   -29.5260    19.4550    16.9500
 2482.0000     9.5250    38.1380     2.4260     0.0570   -29.4360    19.4550    16.9510
 2482.5000     9.5370    38.1880     2.4420     0.0490   -29.3470    19.6240    16.9520
 2483.0000     9.5490    38.0010     2.4720     0.0400   -29.2570    20.1030    16.9530
 2483.5000     9.5620    38.7300     2.5020     0.0310   -29.1670    20.5830    16.9500
 2484.0000     9.5740    39.9050     2.5330     0.0260   -29.0780    21.0630    17.0030
 2484.5000     9.5870    48.5250     2.5570     0.0260   -28.9890    21.5420    17.2350
 2485.0000     9.5990    57.5030     2.5510     0.0280   -28.8940    22.0220    17.4670
 2485.5000     9.6120    66.8000     2.5200     0.0290   -28.8150    22.5020    18.0360
 2486.0000     9.6240    75.8620     2.5020     0.0300   -28.7320    22.9810    18.9540
 2486.5000     9.6370    85.0810     2.4970     0.0320   -29.0360    23.3900    19.8710
 2487.0000     9.6430    89.2780     2.4980     0.0330   -29.3700    24.2680    20.7880
 2487.5000     9.6460    87.0780     2.4990     0.0340   -29.7220    24.0460    21.5260
 2488.0000     9.6490    84.6290     2.5000     0.0340   -30.0660    23.1460    20.7490
 2488.5000     9.6520    82.1260     2.5010     0.0340   -30.3190    22.1460    19.1600
 2489.0000     9.6550    80.3430     2.5010     0.0330   -30.3050    20.5030    17.6080
 2489.5000     9.6580    80.1320     2.5010     0.0330   -30.2930    18.8600    16.0550
 2490.0000     9.6610    83.1340     2.5010     0.0320   -30.2740    17.2170    14.5030
 2490.5000     9.6640    85.1960     2.5010     0.0320   -30.2570    15.5740    12.8650
 2491.0000     9.6670    81.6010     2.5010     0.0320   -30.2400    13.9310    11.2030
 2491.5000     9.6700    82.0410     2.5010     0.0310   -30.2230    12.2750     9.4450
 2492.0000     9.6730    82.4940     2.5010     0.0310   -30.2060    11.7810     8.7450
 2492.5000     9.6760    81.1100     2.5010     0.0300   -30.1890    10.9910     8.7450
 2493.0000     9.6790    79.4820     2.5010     0.0300   -30.1720    10.7900     8.7450
 2493.5000     9.6820    79.1320     2.5000     0.0290   -30.1550    10.5930     8.7450
 2494.0000     9.6870    78.6180     2.5000     0.0290   -30.1380    10.5930     8.7450
 2494.5000     9.6920    78.0660     2.5000     0.0280   -30.1210    10.5930     8.7450
 2495.0000     9.6970    77.5460     2.5000     0.0280   -30.1050    10.5930     8.7450
 2495.5000     9.7020    77.1450     2.5000     0.0270   -30.0880    10.5930     8.7450
 2496.0000     9.7070    78.1310     2.5000     0.0270   -30.0710    10.5930     8.7450
 2496.5000     9.7130    80.4580     2.5000     0.0260   -30.0540    10.5930     8.7450
 2497.0000     9.7180    82.6800     2.5000     0.0260   -30.0370    10.5930     8.7450
 2497.5000     9.7230    84.9630     2.5000     0.0250   -30.0200    10.5930     8.7450
 2498.0000     9.7280    87.1690     2.5000     0.0250   -30.0030    10.5930     8.7450
 2498.5000     9.7330    88.2810     2.5000     0.0240   -29.9860    10.5930     8.7450
 2499.0000     9.7380    85.7210     2.5000     0.0230   -29.9700    10.5940     8.7440
 2499.5000     9.7430    82.6000     2.5000     0.0230   -29.9520    10.5970     8.7450
 2500.0000     9.7480    82.0120     2.5000     0.0220   -29.9360    10.5870     8.7450
 2500.5000     9.7530    83.2590     2.5000     0.0220   -29.9210    10.4880     8.7460
 2501.0000     9.7580    85.5030     2.5000     0.0220   -29.9410    10.4070     8.7420
 2501.5000     9.7630    87.2750     2.4990     0.0220   -29.9610    10.3230     8.6600
 2502.0000     9.7680    89.4330     2.4990     0.0220   -29.9820    10.2350     8.5660
 2502.5000     9.7730    84.3670     2.4990     0.0220   -30.0020    10.1510     8.4710
 2503.0000     9.7780    84.2010     2.4990     0.0220   -30.0230    10.0660     8.3760
 2503.5000     9.7830    83.8880     2.4990     0.0220   -30.0430     9.9810     8.2820
 2504.0000     9.7880    83.9130     2.4990     0.0220   -30.0640     9.8410     8.1870
 2504.5000     9.7930    81.6550     2.4990     0.0220   -30.0840    10.0240     8.1250
 2505.0000     9.7980    79.6770     2.4990     0.0220   -30.1050    10.0530     8.1250
 2505.5000     9.8000    77.5460     2.4990     0.0220   -30.1250    10.0840     8.1250
 2506.0000     9.7970    76.4450     2.4990     0.0220   -30.1460    10.1140     8.1250
