~VERSION INFORMATION
 VERS.                2.0:   CWLS LOG ASCII STANDARD - VERSION 2.0
 WRAP.                 NO:   ONE LINE PER DEPTH STEP
~WELL INFORMATION
#MNEM.UNIT      DATA TYPE    INFORMATION
#----------   ------------   ------------------------------
 STRT.F          492.0000:   START DEPTH
 STOP.F         3008.0000:   STOP DEPTH
 STEP.F            0.5000:   STEP LENGTH
 NULL.          -999.2500:   NO VALUE
 COMP.    FENIX & SCISSON:   COMPANY
 WELL. FENIX & SCISSON AX #24-28:   WELL
 FLD .             TEAPOT:   FIELD
 LOC .      S28 T39N R78W:   LOCATION
 CNTY.            NATRONA:   COUNTY
 STAT.            WYOMING:   STATE
 CTRY. UNITED STATES OF AMERICA:   COUNTRY
 SRVC.              WELEX:   SERVICE COMPANY
 DATE.        03-AUG-1980:   LOGDATE
 API .     49025108490000:   API NUMBER
~CURVE INFORMATION
#MNEM.UNIT       API CODE    CURVE DESCRIPTION
#----------   ------------   ------------------------------
 DEPT.F                  :   
 SPR .MV     07 010 01 00:   SPONTANEOUS POTENTIAL
 ILD .OHMM   07 120 46 00:   DEEP INDUCTION RESISTIVITY
 ILM .OHMM   07 120 44 00:   INDUCTION LOG MEDIUM RESISTIVITY
 SGRD.OHMM   07 220 05 00:   SHALLOW SHORT GUARD RESISTIVITY
 GRD .GAPI   45 310 01 00:   GAMMA RAY FROM DENSITY LOG
 CALD.IN     45 280 60 00:   CALIPER FROM DENSITY LOG
 CORR.G/C3   45 356 01 00:   DENSITY CORRECTION
 RHOB.G/C3   45 350 01 00:   BULK DENSITY
~PARAMETER INFORMATION
#MNEM.UNIT          VALUE    DESCRIPTION
#----------   ------------   ------------------------------
 EKB .F         5061.0000:   Kelly bushing
 EGL .F         5051.0000:   Ground level
 TD  .F         3000.0000:   Total depth
 CLNT.            A2DTECH:   Client Code
 SL  . 2350' FNL & 1000' FWL:   Surface Location
 DATE.         3-AUG-1980:   Date Logged [DD-MMM-YYYY]
 DD  .F              3000:   Depth driller
 DL  .F              3010:   Depth logger
 BLI .F              3008:   Bottom log interval
 TLI .F               308:   Top log interval
 CS1 .              8.625:   Casing size
 CBD1.      8.625" @ 393':   Casing driller 1
 BS1 .IN            7.875:   Bit size
 BSD1.F              3000:   Depth drilled with bit1
 DFT .     WATER BASE MUD:   Type fluid in hole
 DFD .                8.9:   Density
 TCS .HRS               8:   Time Circ. stopped
 MRT .F               115:   Maximum recorded temp.
 ENGI.           WACHTELL:   Recorded By
 WITN.           DINSMORE:   Witnessed by
 ORIG.      2.5" 5" PRINT:   Origin of data
 UWI .     49025108490000:   Unique Well ID
 DICO. A2D TECHNOLOGIES, INC.:   Digitizing Company
 PD  .                 GL:   Permanent Datum
 EPD .F              3051:   Elevation Permanent Datum
 LMF .                 KB:   Log Measured From
 DMF .                 KB:   Drilling Measured From
 DAPD.F                10:   Feet Above Permanent Datum
 DFV .                 43:   Viscosity
 DFPH.                9.5:   pH
 DFL .                7.2:   Fluid loss
 MSS .           FLOWLINE:   Source of sample
 RMS .OHMM             .9:   Rm
 MST .F                80:   Rm Meas. temp.
 RMF .OHMM            .72:   Rmf
 MFST.F                80:   Rmf Meas. temp.
 MFSS.               MEAS:   Source Rmf.
 RMC .OHMM           1.08:   Rmc
 MCST.F                80:   Rmc Meas. temp.
 MCSS.               MEAS:   Source Rmc.
 RMB .OHMM            .06:   Rm. at BHT
 BHT .F               115:   BHT.
 LUN .               1892:   Logging unit number
 LUL .             CASPER:   Logging unit location
~OTHER INFORMATION
~A   DEPT      SPR        ILD        ILM       SGRD        GRD       CALD       CORR       RHOB   
# ...
 2638.5000   -23.5530     6.6402     7.7061     7.8705    87.4112     9.5653     0.1126     2.5523
 2639.0000   -24.0154     6.6348     7.9269     7.8645    86.5052     9.5481     0.1067     2.5418
 2639.5000   -24.0327     6.6295     8.1540     8.0048    87.2071     9.5659     0.1066     2.5440
 2640.0000   -24.0499     6.8113     8.5052     8.2318    88.2898     9.5797     0.1096     2.5499
 2640.5000   -24.0672     6.9015     8.7944     8.5836    88.7347     9.5796     0.1186     2.5630
 2641.0000   -24.0844     6.8957     9.0363     8.9504    88.7266     9.5794     0.1246     2.5708
 2641.5000   -24.1016     6.8900     9.0296     9.2521    88.7202     9.5495     0.1306     2.5708
 2642.0000   -24.1189     6.8842     8.7750     9.5053    88.7136     9.5332     0.1321     2.5730
 2642.5000   -23.8385     6.8784     8.4095     9.4983    89.1555     9.5044     0.1260     2.5812
 2643.0000   -23.5581     6.8727     8.2843     9.4914    89.6004     9.4745     0.1185     2.5887
 2643.5000   -23.5774     6.8308     8.0531     9.2249    89.5923     9.4296     0.1168     2.5990
 2644.0000   -23.2950     6.7663     8.0680     8.9659    88.6863     9.3699     0.1432     2.6072
 2644.5000   -23.0146     6.6671     8.4155     8.5887    87.5554     9.3250     0.1650     2.6154
 2645.0000   -23.0357     6.5683     8.6996     8.2241    87.0992     9.3100     0.1604     2.6214
 2645.5000   -22.7560     6.5630     9.0295     8.0059    87.7674     9.2949     0.1424     2.5997
 2646.0000   -22.4797     6.5577     9.2217     8.0289    88.2108     9.2948     0.1406     2.5914
 2646.5000   -22.4969     6.5524     9.2133     8.2953    88.6541     9.2946     0.1559     2.6273
 2647.0000   -22.5142     6.5471     9.2065     8.7792    89.0958     9.3094     0.1618     2.6250
 2647.5000   -22.5314     6.5418     8.9469     9.1028    93.1936     9.3092     0.1362     2.6108
 2648.0000   -22.5487     6.5329     8.8166     9.3610    95.1532     9.2942     0.1061     2.5764
 2648.5000   -22.5659     6.5310     8.4494     9.5428    95.8231     9.2940     0.0881     2.5819
 2649.0000   -22.5833     6.5255     8.0972     9.5357    95.5901     9.3237     0.0593     2.5920
 2649.5000   -22.6012     6.4305     7.9794     9.6618    95.3588     9.3683     0.0248     2.5486
 2650.0000   -22.6190     6.5155     8.0108     9.5217    95.8021     9.1147    -0.0008     2.5202
 2650.5000   -22.9345     6.5092     8.3362     9.2544    97.5931     9.0550     0.0022     2.5216
 2651.0000   -23.2500     6.5037     8.6952     8.8706    98.7111     9.0847     0.0022     2.5337
 2651.5000   -23.2679     6.4983     8.9964     8.7418    99.1561     9.0994     0.0051     2.5492
 2652.0000   -23.5833     6.4919     9.4606     8.8576    95.5498     9.0993     0.0562     2.5716
 2652.5000   -23.6012     6.4867     9.6536     8.9747    93.0696     9.1140     0.1013     2.5791
 2653.0000   -23.6225     6.4814     9.3799     9.0002    91.4887     9.1288     0.1027     2.5873
 2653.5000   -23.3421     6.5675     8.8649     9.2555    90.8062     9.1394     0.1328     2.6014
 2654.0000   -23.3594     6.6539     8.3782     9.3354    90.5749     9.1385     0.1568     2.6130
 2654.5000   -23.3766     6.7418     8.1419     9.4571    91.2431     9.1378     0.1673     2.6268
 2655.0000   -23.3939     6.7362     8.1359     9.4499    91.3725     9.1371     0.1702     2.6357
 2655.5000   -23.4111     6.7305     8.1297     9.3113    92.0538     9.1363     0.1640     2.6215
 2656.0000   -23.1307     6.7249     8.1235     8.9252    92.9599     9.1505     0.1485     2.5893
 2656.5000   -23.1488     6.7193     8.1173     8.5551    93.4163     9.1498     0.1325     2.5751
 2657.0000   -22.8676     6.7137     8.2258     8.4311    93.4235     9.1640     0.1204     2.6079
 2657.5000   -22.8869     6.8022     8.2186     8.4249    92.9717     9.1929     0.1144     2.6042
 2658.0000   -22.9048     6.7965     8.2123     8.4187    91.3646     9.2072     0.1143     2.5900
 2658.5000   -23.0373     6.7908     8.2699     8.5360    90.9689     9.2363     0.1203     2.6034
 2659.0000   -23.5357     6.8804     8.3148     8.7782    93.2261     9.2652     0.1338     2.6063
 2659.5000   -24.0084     6.9711     8.5423     9.0519    94.3571     9.2796     0.1277     2.5846
 2660.0000   -24.4677     7.1615     8.7772     9.4130    95.7130     9.3086     0.1081     2.5906
 2660.5000   -24.7826     7.2561     9.0186     9.6800    97.2938     9.3375     0.0900     2.6055
 2661.0000   -24.7998     7.4552     9.2667     9.9547    99.5493     9.3666     0.0795     2.6107
 2661.5000   -24.8171     7.5537     9.7966    10.0286   101.3550     9.3808     0.0674     2.5875
 2662.0000   -24.8343     7.5476    10.0953     9.8829    98.4381     9.3650     0.0463     2.5845
 2662.5000   -24.8516     7.7722    10.5426     9.8740    93.9469     9.2897     0.0357     2.5994
 2663.0000   -24.8690     7.9934    11.0092    10.0057    91.7019     9.1996     0.0312     2.6053
 2663.5000   -24.5884     8.2208    11.4366    10.1377    90.3405     9.1542     0.0407     2.6023
 2664.0000   -24.5554     8.5010    11.6757    10.4143    89.2457     9.1236     0.0596     2.5918
 2664.5000   -24.2543     8.8173    12.2709    10.8488    88.5760     9.0931     0.0671     2.5852
 2665.0000   -23.7473     9.1271    12.5141    11.3015    88.1328     9.0775     0.0776     2.5705
 2665.5000   -23.6522     9.1181    12.5031    11.7819    87.6897     9.0618     0.0851     2.5645
 2666.0000   -23.3512     9.2397    12.3210    12.2853    87.4714     9.0611     0.0429     2.5705
 2666.5000   -23.2083     9.2311    11.8079    12.6340    87.4796     9.0753     0.0519     2.5974
 2667.0000   -23.5272     9.2237    10.8529    12.7665    87.0364     9.1191     0.0940     2.6161
 2667.5000   -23.8421     9.2162    10.3973    12.6365    85.2439     9.1482     0.1150     2.6333
 2668.0000   -24.1569     9.2088    10.0775    11.4663    83.0017     9.1773     0.1284     2.6514
 2668.5000   -24.4718     9.2012     9.6860    10.7112    81.6589     9.1916     0.1449     2.6604
 2669.0000   -24.7867     9.0663     9.6424    10.4801    82.1352     9.2058     0.1584     2.6572
 2669.5000   -25.1015     8.9095     9.3596    10.3265    83.0613     9.2198     0.1660     2.6131
 2670.0000   -25.1290     8.5856     9.0850    10.3189    84.3790     9.2489     0.1072     2.5930
 2670.5000   -25.4345     7.9988     8.6966    10.1692    85.9598     9.2786     0.0935     2.6505
 2671.0000   -25.1532     7.4387     8.2765     9.8837    87.3158     9.3241     0.0938     2.6662
 2671.5000   -25.1726     6.8786     7.9319     9.6062    89.5712     9.4403     0.1116     2.6573
 2672.0000   -25.1905     6.3185     7.6015     9.2079    86.4294     9.4546     0.1191     2.6080
 2672.5000   -25.2083     5.9339     7.2850     8.8188    82.8378     9.3941     0.0995     2.5990
 2673.0000   -24.9286     5.6444     6.9816     8.5475    81.2702     9.3039     0.0844     2.5816
 2673.5000   -24.9464     5.3503     6.5973     8.3136    80.6019     9.2436     0.0738     2.5452
 2674.0000   -24.6667     5.0561     6.2209     8.0720    82.8576     9.2280     0.0663     2.5243
 2674.5000   -24.6873     4.7619     5.8659     7.7295    87.1885     9.2422     0.1008     2.5572
 2675.0000   -24.4048     4.4678     5.5257     7.4620    89.9555     9.2712     0.1128     2.6319
 2675.5000   -24.1250     4.1736     5.1578     6.9472    93.6736     9.3333     0.1188     2.5901
 2676.0000   -23.8462     3.8930     4.7899     6.1881    95.4793     9.3890     0.1142     2.4981
 2676.5000   -23.5658     3.6336     4.4472     5.3977    96.6104     9.4181     0.0525     2.5348
 2677.0000   -23.5833     3.3742     4.1141     5.1739    97.7414     9.4768     0.0269     2.5413
 2677.5000   -23.6012     3.1147     3.7581     5.0988   101.1213     9.5359     0.0133     2.4653
 2678.0000   -23.6191     2.8553     3.4022     4.9557   110.3483     9.3561     0.0103     2.4695
 2678.5000   -23.6369     2.6040     3.0462     4.8165   115.7522     9.2958     0.0759     2.4832
