~VERSION INFORMATION
 VERS.                2.0:   CWLS LOG ASCII STANDARD - VERSION 2.0
 WRAP.                 NO:   ONE LINE PER DEPTH STEP
~WELL INFORMATION
#MNEM.UNIT      DATA TYPE    INFORMATION
#----------   ------------   ------------------------------
 STRT.F            0.5000:   START DEPTH
 STOP.F         4149.0000:   STOP DEPTH
 STEP.F            0.5000:   STEP LENGTH
 NULL.          -999.2500:   NO VALUE
 COMP. LAWRENCE ALLISON & ASSOSCIATES:   COMPANY
 WELL. LAWRENCE "X" #34-3:   WELL
 FLD .             NPR #3:   FIELD
 LOC .       S3 T38N R78W:   LOCATION
 CNTY.            NATRONA:   COUNTY
 STAT.            WYOMING:   STATE
 CTRY. UNITED STATES OF AMERICA:   COUNTRY
 SRVC.      DRESSER ATLAS:   SERVICE COMPANY
 DATE.        19-NOV-1983:   LOGDATE
 API .     49025109500000:   API NUMBER
~CURVE INFORMATION
#MNEM.UNIT       API CODE    CURVE DESCRIPTION
#----------   ------------   ------------------------------
 DEPT.F                  :   
 CALD.IN     45 280 60 00:   CALIPER FROM DENSITY LOG
 TEND.LBS    45 635 01 00:   TENSION FORM DENSITY LOG
 DEN .G/C3   45 350 01 00:   BULK DENSITY
 CNC .DEC    42 890 01 00:   NEUTRON POROSITY LIMESTONE
 CORR.G/C3   45 356 01 00:   DENSITY CORRECTION
 TENR.LBS    06 635 01 00:   TENSION FROM RESISTIVITY
 GRR .GAPI   07 310 01 00:   GAMMA RAY FROM RESISTIVITY
 RFOC.OHMM   07 220 04 00:   RESISTIVITY FOCUSED LOG RES.
 RILD.OHMM   07 120 46 00:   DEEP INDUCTION RESISTIVITY
 RILM.OHMM   07 120 44 00:   INDUCTION LOG MEDIUM RESISTIVITY
 SPR .MV     07 010 01 00:   SPONTANEOUS POTENTIAL
 TENS.LBS    60 635 01 00:   TENSION FROM SONIC
 DT  .US/F   60 520 00 00:   DELTA TIME
~PARAMETER INFORMATION
#MNEM.UNIT          VALUE    DESCRIPTION
#----------   ------------   ------------------------------
 EKB .F         5187.0000:   Kelly bushing
 EGL .F         5174.0000:   Ground level
 TD  .F         4140.0000:   Total depth
 CLNT.            A2DTECH:   Client Code
 SL  . 1621' FWL & 1958' FNL:   Surface Location
 PD  .                 GL:   Permanent Datum
 EPD .F              5174:   Elevation Permanent Datum
 LMF .                 KB:   Log Measured From
 DMF .                 KB:   Drilling Measured From
 DAPD.F                13:   Feet Above Permanent Datum
 DATE.        19-NOV-1983:   Date Logged [DD-MMM-YYYY]
 DD  .F              4136:   Depth driller
 DL  .F              4140:   Depth logger
 BLI .F              4138:   Bottom log interval
 TLI .F                 0:   Top log interval
 CS1 .IN            8.625:   Casing size
 CBD1.      8.625" @ 615':   Casing driller 1
 CBL1.F               615:   Casing logger 1
 BS1 .IN            7.875:   Bit size
 BSD1.F              4136:   Depth drilled with bit1
 DFT .            GEL-KCL:   Type fluid in hole
 DFD .                  9:   Density
 DFV .                 45:   Viscosity
 DFPH.                8.5:   pH
 DFL .                 12:   Fluid loss
 MSS .           FLOWLINE:   Source of sample
 RMS .OHMM          0.768:   Rm
 MST .F                74:   Rm Meas. temp.
 RMF .OHMM          0.576:   Rmf
 MFST.F                74:   Rmf Meas. temp.
 MFSS.               CALC:   Source Rmf.
 RMC .OHMM           0.96:   Rmc
 MCST.F                74:   Rmc Meas. temp.
 MCSS.               CALC:   Source Rmc.
 RMB .OHMM          0.418:   Rm. at BHT
 BHT .F               136:   BHT.
 TCS .HRS               4:   Time Circ. stopped
 MRT .F               136:   Maximum recorded temp.
 LUN .               6307:   Logging unit number
 LUL .               GLTE:   Logging unit location
 ENGI.           FAHLSING:   Recorded By
 WITN.           JENNINGS:   Witnessed by
 ORIG.      2.5" 5" PRINT:   Origin of data
 UWI .     49025109500000:   Unique Well ID
 DICO. A2D TECHNOLOGIES, INC.:   Digitizing Company
~OTHER INFORMATION
~A    DEPT    CALD       TEND        DEN        CNC       CORR       TENR         GRR      RFOC       RILD       RILM        SPR       TENS         DT   
# ...
 1326.5000     9.7490     0.0000     2.5843     0.2450     0.0733   -55.6427   101.3092     7.9929     7.8876     7.9778   -80.7835  -999.2500  -999.2500
 1327.0000     9.7301     0.0000     2.5754     0.2432     0.0753   -55.1947   102.9164     8.1066     7.9990     8.0674   -80.7946  -999.2500  -999.2500
 1327.5000     9.7209     0.0000     2.5769     0.2415     0.0701   -54.7840   104.0917     8.1632     8.1120     8.1811   -80.8035  -999.2500  -999.2500
 1328.0000     9.7218     0.0000     2.5859     0.2408     0.0666   -54.2986   106.3043     8.2208     8.1091     8.3060   -80.8124  -999.2500  -999.2500
 1328.5000     9.7227     0.0000     2.5935     0.2354     0.0697   -53.8506   102.8765     8.2194     8.2237     8.4844   -81.7303  -999.2500  -999.2500
 1329.0000     9.7236     0.0000     2.5995     0.2306     0.0698   -53.3951    99.6784     8.3364     8.3398     8.5321   -82.3455  -999.2500  -999.2500
 1329.5000     9.7245     0.0000     2.5995     0.2277     0.0626   -52.8425    96.9361     8.3352     8.3374     8.5291   -82.5061  -999.2500  -999.2500
 1330.0000     9.7254     0.0000     2.5936     0.2278     0.0625   -52.3945    96.2455     8.3940     8.3346     8.5267   -82.8198  -999.2500  -999.2500
 1330.5000     9.7263     0.0000     2.5846     0.2284     0.0701   -52.0061    96.6948     8.3329     8.2729     8.4035   -83.1317  -999.2500  -999.2500
 1331.0000     9.7272     0.0000     2.5787     0.2257     0.0763   -51.5432    98.5118     8.0973     8.0950     8.2820   -83.4436  -999.2500  -999.2500
 1331.5000     9.7281     0.0000     2.5787     0.2203     0.0764   -51.0504   100.1009     7.9815     7.9779     8.1623   -83.7556  -999.2500  -999.2500
 1332.0000     9.7290     0.0000     2.5787     0.2183     0.0765   -50.6023   101.6899     7.8673     7.8624     8.0443   -83.9160  -999.2500  -999.2500
 1332.5000     9.7299     0.0000     2.5788     0.2239     0.0766   -50.1543   102.5951     7.8660     7.7486     7.9281   -84.2279  -999.2500  -999.2500
 1333.0000     9.7307     0.0000     2.5833     0.2316     0.0972   -49.6913   102.5517     7.8649     7.6912     7.8135   -84.3883  -999.2500  -999.2500
 1333.5000     9.7484     0.0000     2.5848     0.2320     0.1158   -49.1463   102.3521     7.8638     7.6343     7.8112   -84.3971  -999.2500  -999.2500
 1334.0000     9.7624     0.0000     2.5819     0.2298     0.1095   -48.7654   102.5750     7.8627     7.6321     7.8086   -84.2524  -999.2500  -999.2500
 1334.5000     9.7635     0.0000     2.5804     0.2201     0.1023   -48.2502   102.5667     7.8616     7.4681     7.8064   -83.6415  -999.2500  -999.2500
 1335.0000     9.7642     0.0000     2.5820     0.2246     0.0892   -47.8022   101.4202     7.8605     7.6279     7.8042   -82.9109  -999.2500  -999.2500
 1335.5000     9.7951     0.0000     2.5836     0.2316     0.0774   -47.3542    96.8542     7.8592     7.7357     7.8021   -82.4652  -999.2500  -999.2500
 1336.0000     9.7960     0.0000     2.5881     0.2345     0.0655   -46.9136    95.0255     7.8581     7.7885     7.7999   -82.3226  -999.2500  -999.2500
 1336.5000     9.7969     0.0000     2.5896     0.2327     0.0477   -46.4506    97.2968     7.8570     7.8423     7.7977   -82.3315  -999.2500  -999.2500
 1337.0000     9.7977     0.0000     2.5879     0.2275     0.0239   -45.8980    98.2020     7.8559     7.8400     7.7955   -82.3403  -999.2500  -999.2500
 1337.5000     9.7986     0.0000     2.5842     0.2256     0.0210   -45.5246    97.7394     7.7990     7.8379     7.7934   -82.1955  -999.2500  -999.2500
 1338.0000     9.8294     0.0000     2.5681     0.2220     0.0241   -37.2859    95.4101     7.7425     7.8356     7.7912   -82.2066  -999.2500  -999.2500
 1338.5000     9.8303     0.0000     2.5613     0.2281     0.0452   -29.1219    94.3049     7.7414     7.8334     7.8448   -82.2155  -999.2500  -999.2500
 1339.0000     9.8013     0.0000     2.5648     0.2300     0.0633   -28.6738    94.5262     7.7403     7.8307     7.8421   -82.0727  -999.2500  -999.2500
 1339.5000     9.8022     0.0000     2.5703     0.2331     0.0604   -28.2258    96.3432     7.7392     7.8286     7.8966   -81.9242  -999.2500  -999.2500
 1340.0000     9.8031     0.0000     2.5704     0.2393     0.0545   -20.0617    99.0721     7.8159     7.8264     7.8939   -81.6361  -999.2500  -999.2500
 1340.5000     9.7741     0.0000     2.5704     0.2391     0.0456   -18.5710   102.2569     7.8483     7.8242     7.8917   -81.4934  -999.2500  -999.2500
 1341.0000     9.7750     0.0000     2.5704     0.2307     0.0488   -11.4198   105.2137     7.8469     7.8220     7.8895   -81.5045  -999.2500  -999.2500
 1341.5000     9.7759     0.0000     2.5720     0.2205     0.0668   -10.8896   102.9274     7.8459     7.8198     7.8873   -81.6636  -999.2500  -999.2500
 1342.0000     9.7768     0.0000     2.5693     0.2167     0.1029   -10.4416   101.3250     7.8449     7.7620     7.8851   -81.7111  -999.2500  -999.2500
 1342.5000     9.7777     0.0000     2.5622     0.2214     0.0820    -9.9936   102.2301     7.8437     7.7598     7.8829   -81.9857  -999.2500  -999.2500
 1343.0000     9.7785     0.0000     2.5567     0.2289     0.0283    -9.5455   103.3692     7.8987     7.7576     7.8807   -82.1461  -999.2500  -999.2500
 1343.5000     9.7794     0.0000     2.5541     0.2351     0.0224    -9.1049   104.2956     7.8976     7.8110     7.8785   -82.3065  -999.2500  -999.2500
 1344.0000     9.7505     0.0000     2.5537     0.2361     0.0375    -8.6420   104.4897     7.8965     7.8084     7.8762   -82.7700  -999.2500  -999.2500
 1344.5000     9.7514     0.0000     2.5422     0.2311     0.0496    -8.0894   104.7110     7.8393     7.8062     7.8736   -83.2334  -999.2500  -999.2500
 1345.0000     9.7522     0.0000     2.5348     0.2299     0.0527    -7.6414   103.7908     7.8380     7.8606     7.8714   -83.8485  -999.2500  -999.2500
 1345.5000     9.7233     0.0000     2.5354     0.2293     0.0438    -7.1933    99.9087     7.8369     7.8021     7.8692   -84.1606  -999.2500  -999.2500
 1346.0000     9.7242     0.0000     2.5390     0.2479     0.0260    -6.7901    93.5191     7.8358     7.7997     7.8670   -84.1714  -999.2500  -999.2500
 1346.5000     9.7251     0.0000     2.5445     0.2529     0.0087    -6.2973    92.3742     7.8347     7.7976     7.8650   -83.7257  -999.2500  -999.2500
 1347.0000     9.7260     0.0000     2.5482     0.2413    -0.0007    -5.8493    97.1531     7.9028     7.7954     7.8626   -83.1788  -999.2500  -999.2500
 1347.5000     9.7269     0.0000     2.5506     0.2324    -0.0006    -5.4012   101.2498     7.9451     7.7932     7.8604   -82.3798  -999.2500  -999.2500
 1348.0000     9.7278     0.0000     2.5537     0.2288     0.0085    -4.9383   101.2431     7.9440     7.8470     7.8582   -82.0835  -999.2500  -999.2500
 1348.5000     9.7287     0.0000     2.5538     0.2294     0.0206    -4.4753   100.7804     7.9429     7.9011     7.8560   -81.9408  -999.2500  -999.2500
 1349.0000     9.7296     0.0000     2.5473     0.2306     0.0327    -3.9451   101.2297     7.8853     7.8983     7.8537   -81.7982  -999.2500  -999.2500
 1349.5000     9.7603     0.0000     2.5434     0.2306     0.0388    -3.4972   101.6790     7.9406     7.7840     7.7398   -81.5061  -999.2500  -999.2500
 1350.0000     9.7612     0.0000     2.5442     0.2306     0.0449    -3.0118   102.1282     7.9393     7.7818     7.7376   -81.2121  -999.2500  -999.2500
 1350.5000     9.7621     0.0000     2.5465     0.2295     0.0450    -2.6011   101.4360     7.9382     7.7797     7.7355   -81.2212  -999.2500  -999.2500
 1351.0000     9.7630     0.0000     2.5572     0.2271     0.0421    -2.1531   100.2895     7.8806     7.7775     7.7333   -80.9291  -999.2500  -999.2500
 1351.5000     9.7639     0.0000     2.5660     0.2247     0.0393    -9.4211    98.9150     7.9360     7.8311     7.7311   -80.9380  -999.2500  -999.2500
 1352.0000     9.7648     0.0000     2.5706     0.2247     0.0455   -15.8194   101.1880     7.9349     7.7199     7.5158   -80.9446  -999.2500  -999.2500
