~VERSION INFORMATION
 VERS.                2.0:   CWLS LOG ASCII STANDARD - VERSION 2.0
 WRAP.                 NO:   ONE LINE PER DEPTH STEP
~WELL INFORMATION
#MNEM.UNIT      DATA TYPE    INFORMATION
#----------   ------------   ------------------------------
 STRT.F            0.5000:   START DEPTH
 STOP.F         5758.0000:   STOP DEPTH
 STEP.F            0.5000:   STEP LENGTH
 NULL.          -999.2500:   NO VALUE
 COMP.   LAWRENCE ALLISON:   COMPANY
 WELL. LAWRENCE "X" #51-10:   WELL
 FLD .          NPR NO. 3:   FIELD
 LOC .      S10 T38N R78W:   LOCATION
 CNTY.            NATRONA:   COUNTY
 STAT.            WYOMING:   STATE
 CTRY. UNITED STATES OF AMERICA:   COUNTRY
 SRVC.      DRESSER ATLAS:   SERVICE COMPANY
 DATE.        31-JAN-1987:   LOGDATE
 API .     49025111230000:   API NUMBER
~CURVE INFORMATION
#MNEM.UNIT       API CODE    CURVE DESCRIPTION
#----------   ------------   ------------------------------
 DEPT.F                  :   
 GRR .GAPI   07 310 01 00:   GAMMA RAY FROM RESISTIVITY
 TENR.LBS    07 635 01 00:   TENSION FROM RESISTIVITY
 SPR .MV     07 010 01 00:   SPONTANEOUS POTENTIAL
 RD  .OHMM   11 220 10 00:   RESISTIVITY DEEP
 RS  .OHMM   11 220 09 00:   RESISTIVITY SHALLOW
 CNC .DEC    42 890 03 00:   NEUTRON POROSITY
 CALD.IN     45 280 60 00:   CALIPER FROM DENSITY LOG
 DEN .G/C3   45 350 01 00:   BULK DENSITY
 CORR.G/C3   45 356 01 00:   DENSITY CORRECTION
 TEND.LBS    45 635 01 00:   TENSION FORM DENSITY LOG
~PARAMETER INFORMATION
#MNEM.UNIT          VALUE    DESCRIPTION
#----------   ------------   ------------------------------
 EKB .F         5227.0000:   Kelly bushing
 EGL .F         5215.0000:   Ground level
 EDF .F            0.0000:   Drilling floor
 TD  .F         5750.0000:   Total depth
 CLNT.            A2DTECH:   Client Code
 SL  . 2356' FEL & 170' FNL:   Surface Location
 PD  .                 GL:   Permanent Datum
 EPD .F              5215:   Elevation Permanent Datum
 LMF .                 KB:   Log Measured From
 DMF .                 KB:   Drilling Measured From
 DAPD.F                12:   Feet Above Permanent Datum
 DATE.        31-JAN-1987:   Date Logged [DD-MMM-YYYY]
 DD  .F              5747:   Depth driller
 DL  .F              5750:   Depth logger
 BLI .F              5748:   Bottom log interval
 CS1 .IN            9.625:   Casing size
 CBD1.      9.625" @ 511':   Casing driller 1
 CBL1.F               512:   Casing logger 1
 BS1 .IN             8.75:   Bit size
 BSD1.F              5747:   Depth drilled with bit1
 DFT .        KCL POLYMER:   Type fluid in hole
 DFD .                9.3:   Density
 DFV .                 43:   Viscosity
 DFPH.                9.5:   pH
 MSS .           FLOWLINE:   Source of sample
 RMS .OHMM          0.247:   Rm
 MST .F                74:   Rm Meas. temp.
 RMF .OHMM          0.162:   Rmf
 MFST.F                74:   Rmf Meas. temp.
 MFSS.               MEAS:   Source Rmf.
 RMC .OHMM          0.310:   Rmc
 MCST.F                74:   Rmc Meas. temp.
 MCSS.               CALC:   Source Rmc.
 RMB .OHMM          0.109:   Rm. at BHT
 BHT .F               167:   BHT.
 TCS .HRS               5:   Time Circ. stopped
 MRT .F               167:   Maximum recorded temp.
 LUN .            HL-6274:   Logging unit number
 LUL .           GILLETTE:   Logging unit location
 ORIG.        2" 5" PRINT:   Origin of data
 UWI .     49025111230000:   Unique Well ID
 DICO. A2D TECHNOLOGIES, INC.:   Digitizing Company
 ENGI.             RAUTIO:   Recorded By
 WITN.             STRONG:   Witnessed by
 DFL .                7.8:   Fluid loss
~OTHER INFORMATION
~A  DEPTH      GRR       TENR        SPR         RD         RS        CNC       CALD        DEN       CORR       TEND
# ...
 1608.5000    99.0739   -95.0000   -60.3441     9.1137     7.5597  -999.2500  -999.2500  -999.2500  -999.2500  -999.2500
 1609.0000    97.8576   -95.0000   -60.6409     9.2419     7.6150  -999.2500  -999.2500  -999.2500  -999.2500  -999.2500
 1609.5000    97.8762   -95.0000   -60.9399     9.3072     7.6139  -999.2500  -999.2500  -999.2500  -999.2500  -999.2500
 1610.0000    99.1364   -95.0000   -61.2391     9.3730     7.5090  -999.2500  -999.2500  -999.2500  -999.2500  -999.2500
 1610.5000    99.7734   -95.0000   -61.2261     9.3743     7.4565  -999.2500  -999.2500  -999.2500  -999.2500  -999.2500
 1611.0000    99.4817   -95.0000   -61.2157     9.3691     7.4578  -999.2500  -999.2500  -999.2500  -999.2500  -999.2500
 1611.5000    95.4748   -95.0000   -60.8957     9.3769     7.5123  -999.2500  -999.2500  -999.2500  -999.2500  -999.2500
 1612.0000    92.3966   -95.0000   -60.5756     9.4434     7.5672  -999.2500  -999.2500  -999.2500  -999.2500  -999.2500
 1612.5000    93.7048   -95.0000   -60.0877     9.5101     7.5683  -999.2500  -999.2500  -999.2500  -999.2500  -999.2500
 1613.0000    97.3904   -95.0000   -59.7782     9.5114     7.6236  -999.2500  -999.2500  -999.2500  -999.2500  -999.2500
 1613.5000    99.2658   -95.0000   -59.6130     9.3800     7.6796  -999.2500  -999.2500  -999.2500  -999.2500  -999.2500
 1614.0000    99.9028   -95.0000   -59.2956     9.1909     7.6806  -999.2500  -999.2500  -999.2500  -999.2500  -999.2500
 1614.5000    98.3727   -95.0000   -59.9018     9.0657     7.6817  -999.2500  -999.2500  -999.2500  -999.2500  -999.2500
 1615.0000    94.3658   -95.0000   -59.8914     9.0043     7.6828  -999.2500  -999.2500  -999.2500  -999.2500  -999.2500
 1615.5000    90.0099   -95.0000   -60.2002     9.0058     7.5748  -999.2500  -999.2500  -999.2500  -999.2500  -999.2500
 1616.0000    88.8287   -95.0000   -60.4872     9.0070     7.5219  -999.2500  -999.2500  -999.2500  -999.2500  -999.2500
 1616.5000    93.4950   -95.0000   -60.4767     9.0707     7.4694  -999.2500  -999.2500  -999.2500  -999.2500  -999.2500
 1617.0000    98.1568   -95.0000   -60.3115     9.0097     7.4706  -999.2500  -999.2500  -999.2500  -999.2500  -999.2500
 1617.5000   101.8898   -95.0000   -60.3011     8.8868     7.4717  -999.2500  -999.2500  -999.2500  -999.2500  -999.2500
 1618.0000   102.2173   -95.0000   -60.4458     8.8883     7.4727  -999.2500  -999.2500  -999.2500  -999.2500  -999.2500
 1618.5000   100.0411   -95.0000   -60.4350     8.8895     7.4737  -999.2500  -999.2500  -999.2500  -999.2500  -999.2500
 1619.0000    98.2282   -95.0000   -60.5795     8.9550     7.5284  -999.2500  -999.2500  -999.2500  -999.2500  -999.2500
 1619.5000    99.7985   -95.0000   -60.7239     9.0783     7.5836  -999.2500  -999.2500  -999.2500  -999.2500  -999.2500
 1620.0000    98.5779   -95.0000   -60.7109     9.1427     7.5307  -999.2500  -999.2500  -999.2500  -999.2500  -999.2500
 1620.5000    95.8094   -95.0000   -60.5457     9.2280     7.5317  -999.2500  -999.2500  -999.2500  -999.2500  -999.2500
 1621.0000    95.7398   -95.0000   -60.3804     9.2725     7.5327  -999.2500  -999.2500  -999.2500  -999.2500  -999.2500
 1621.5000    98.3437   -95.0000   -60.3700     9.3380     7.5338  -999.2500  -999.2500  -999.2500  -999.2500  -999.2500
 1622.0000   100.8210   -95.0000   -60.3570     9.3396     7.5348  -999.2500  -999.2500  -999.2500  -999.2500  -999.2500
 1622.5000   100.2196   -95.0000   -60.1918     9.2761     7.5902  -999.2500  -999.2500  -999.2500  -999.2500  -999.2500
 1623.0000    99.6138   -95.0000   -60.1814     9.1802     7.5912  -999.2500  -999.2500  -999.2500  -999.2500  -999.2500
 1623.5000    99.6361   -95.0000   -60.3284     9.1273     7.5922  -999.2500  -999.2500  -999.2500  -999.2500  -999.2500
 1624.0000   100.8924   -95.0000   -60.4706     9.0896     7.4855  -999.2500  -999.2500  -999.2500  -999.2500  -999.2500
 1624.5000   104.6304   -95.0000   -60.6146     9.0282     7.3803  -999.2500  -999.2500  -999.2500  -999.2500  -999.2500
 1625.0000   108.4107   -95.0000   -60.7589     8.9674     7.1734  -999.2500  -999.2500  -999.2500  -999.2500  -999.2500
 1625.5000   107.4519   -95.0000   -60.9033     8.9065     7.0726  -999.2500  -999.2500  -999.2500  -999.2500  -999.2500
 1626.0000   101.5874   -95.0000   -60.8903     8.9080     7.1756  -999.2500  -999.2500  -999.2500  -999.2500  -999.2500
 1626.5000    99.7432   -95.0000   -60.8799     8.9091     7.3847  -999.2500  -999.2500  -999.2500  -999.2500  -999.2500
 1627.0000    99.1419   -95.0000   -60.8695     9.0055     7.1265  -999.2500  -999.2500  -999.2500  -999.2500  -999.2500
 1627.5000    98.5450   -95.0000   -60.7043     9.0359     7.0765  -999.2500  -999.2500  -999.2500  -999.2500  -999.2500
 1628.0000    97.3244   -95.0000   -60.3612     9.0998     7.3351  -999.2500  -999.2500  -999.2500  -999.2500  -999.2500
 1628.5000    94.5604   -95.0000   -60.0617     9.2918     7.6161  -999.2500  -999.2500  -999.2500  -999.2500  -999.2500
 1629.0000    91.7918   -95.0000   -59.7417     9.5536     7.8808  -999.2500  -999.2500  -999.2500  -999.2500  -999.2500
 1629.5000    93.0481   -95.0000   -59.7313     9.6886     8.1686  -999.2500  -999.2500  -999.2500  -999.2500  -999.2500
 1630.0000    96.4715   -95.0000   -59.8756     9.9613     7.8269  -999.2500  -999.2500  -999.2500  -999.2500  -999.2500
 1630.5000    95.8701   -95.0000   -60.0201     9.6240     7.3930  -999.2500  -999.2500  -999.2500  -999.2500  -999.2500
 1631.0000    93.9916   -95.0000   -60.1836     9.1705     7.0333  -999.2500  -999.2500  -999.2500  -999.2500  -999.2500
 1631.5000    93.7386   -95.0000   -60.6184     8.9215     6.9345  -999.2500  -999.2500  -999.2500  -999.2500  -999.2500
 1632.0000    93.4514   -95.0000   -60.7628     8.8002     7.0859  -999.2500  -999.2500  -999.2500  -999.2500  -999.2500
 1632.5000    93.1551   -95.0000   -60.9072     8.8970     7.1889  -999.2500  -999.2500  -999.2500  -999.2500  -999.2500
 1633.0000    93.7966   -94.9885   -60.8942     9.1124     7.3984  -999.2500  -999.2500  -999.2500  -999.2500  -999.2500
 1633.5000    95.0529   -94.9886   -60.8838     9.3692     7.7235  -999.2500  -999.2500  -999.2500  -999.2500  -999.2500
 1634.0000    97.5480   -94.9269   -60.8731     9.6333     8.1208  -999.2500  -999.2500  -999.2500  -999.2500  -999.2500
 1634.5000    95.0930  -107.6000   -60.8603     9.7014     8.0640  -999.2500  -999.2500  -999.2500  -999.2500  -999.2500
 1635.0000    93.2533  -124.6667   -60.6951     9.7027     7.8382  -999.2500  -999.2500  -999.2500  -999.2500  -999.2500
 1635.5000    93.8903  -141.7333   -60.6847     9.1820     7.6184  -999.2500  -999.2500  -999.2500  -999.2500  -999.2500
 1636.0000    96.3850  -137.3333   -60.6743     8.8712     7.2997  -999.2500  -999.2500  -999.2500  -999.2500  -999.2500
 1636.5000    99.4988  -127.8873   -60.6639     8.6899     6.9445  -999.2500  -999.2500  -999.2500  -999.2500  -999.2500
 1637.0000    97.2696  -118.3708   -60.6533     8.5720     6.8469  -999.2500  -999.2500  -999.2500  -999.2500  -999.2500
 1637.5000    91.7990  -108.8512   -60.6405     8.5731     6.9962  -999.2500  -999.2500  -999.2500  -999.2500  -999.2500
 1638.0000    87.7921   -99.4074   -60.6301     8.4565     7.0979  -999.2500  -999.2500  -999.2500  -999.2500  -999.2500
 1638.5000    89.3579   -96.5222   -60.6196     8.3993     6.9984  -999.2500  -999.2500  -999.2500  -999.2500  -999.2500
 1639.0000    94.3293   -99.3667   -60.6092     8.4007     6.9493  -999.2500  -999.2500  -999.2500  -999.2500  -999.2500
 1639.5000    98.3719  -102.2071   -60.9087     8.4018     6.9007  -999.2500  -999.2500  -999.2500  -999.2500  -999.2500
 1640.0000   101.1969  -105.0556   -61.0528     8.4029     6.9019  -999.2500  -999.2500  -999.2500  -999.2500  -999.2500
 1640.5000   100.5793  -107.9000   -61.1972     8.4190     6.9029  -999.2500  -999.2500  -999.2500  -999.2500  -999.2500
 1641.0000    98.7395  -110.7444   -61.1842     8.4636     6.9038  -999.2500  -999.2500  -999.2500  -999.2500  -999.2500
 1641.5000    97.8241  -113.5889   -61.1738     8.5827     6.9050  -999.2500  -999.2500  -999.2500  -999.2500  -999.2500
