~VERSION INFORMATION
 VERS.                2.0:   CWLS LOG ASCII STANDARD - VERSION 2.0
 WRAP.                 NO:   ONE LINE PER DEPTH STEP
~WELL INFORMATION
#MNEM.UNIT      DATA TYPE    INFORMATION
#----------   ------------   ------------------------------
 STRT.F            0.0000:   START DEPTH
 STOP.F         5670.0000:   STOP DEPTH
 STEP.F            0.5000:   STEP LENGTH
 NULL.          -999.2500:   NO VALUE
 COMP.          INTEX OIL:   COMPANY
 WELL.    INTEX TP #71-15:   WELL
 FLD .             TEAPOT:   FIELD
 LOC .      S15 T38N R78W:   LOCATION
 CNTY.            NATRONA:   COUNTY
 STAT.            WYOMING:   STATE
 CTRY. UNITED STATES OF AMERICA:   COUNTRY
 SRVC.       SCHLUMBERGER:   SERVICE COMPANY
 DATE.        05-AUG-1966:   LOGDATE
 API .     49025097110000:   API NUMBER
~CURVE INFORMATION
#MNEM.UNIT       API CODE    CURVE DESCRIPTION
#----------   ------------   ------------------------------
 DEPT.F                  :   
 GRD .GAPI   45 310 01 00:   GAMMA RAY FROM DENSITY LOG
 CALD.IN     45 280 60 00:   CALIPER FROM DENSITY LOG
 CORR.G/C3   45 356 01 00:   DENSITY CORRECTION
 RHOB.G/C3   45 350 01 00:   BULK DENSITY
 SPR .MV     05 010 01 00:   SPONTANEOUS POTENTIAL FROM RES.
 ASN .OHMM   05 041 16 00:   AMPLIFIED SHORT NORMAL 16"
 ILD .OHMM   05 120 46 00:   INDUCTION LOG DEEP RESISTIVITY
~PARAMETER INFORMATION
#MNEM.UNIT          VALUE    DESCRIPTION
#----------   ------------   ------------------------------
 EKB .F         5247.5500:   Kelly bushing
 EGL .F         5236.1000:   Ground level
 EDF .F            0.0000:   Drilling floor
 EPD .F         5236.1000:   Permanent datum
 TD  .F         5670.0000:   Total depth
 CLNT.            A2DTECH:   Client Code
 SL  . 610' FNL & 710' FEL:   Surface Location
 PD  .                 GL:   Permanent Datum
 LMF .                 KB:   Log Measured From
 DMF .                 KB:   Drilling Measured From
 DAPD.F             11.45:   Feet Above Permanent Datum
 DATE.        05-AUG-1966:   Date Logged [DD-MMM-YYYY]
 DD  .F              5665:   Depth driller
 DL  .F              5670:   Depth logger
 BLI .F              5669:   Bottom log interval
 TLI .F              5551:   Top log interval
 CS1 .IN            10.75:   Casing size
 CBD1.    10.75" @ 567.9':   Casing driller 1
 CBL1.F               569:   Casing logger 1
 BS1 .IN           8.9375:   Bit size
 BSD1.F              5665:   Depth drilled with bit1
 DFT .            DEXTRID:   Type fluid in hole
 DFD .                9.4:   Density
 DFV .                 59:   Viscosity
 DFPH.                7.5:   pH
 DFL .                8.2:   Fluid loss
 MSS .           FLOWLINE:   Source of sample
 RMS .OHMM           1.80:   Rm
 MST .F                72:   Rm Meas. temp.
 RMF .OHMM           1.00:   Rmf
 MFST.F                82:   Rmf Meas. temp.
 MFSS.               MEAS:   Source Rmf.
 BHT .F               163:   BHT.
 TCS .HRS               3:   Time Circ. stopped
 MRT .F               163:   Maximum recorded temp.
 LUN .               4507:   Logging unit number
 LUL .               CSPR:   Logging unit location
 ENGI.            MANGOLD:   Recorded By
 ORIG.      2.5" 5" PRINT:   Origin of data
 UWI .     49025097110000:   Unique Well ID
 DICO. A2D TECHNOLOGIES, INC.:   Digitizing Company
~OTHER INFORMATION
~A    DEPT      GRD      CALD       CORR       RHOB        SPR        ASN        ILD   
# ...
   45.5000    61.9470    15.2070     0.0804     2.4037  -999.2500  -999.2500  -999.2500
   46.0000    61.4881    15.1780     0.1042     2.3948  -999.2500  -999.2500  -999.2500
   46.5000    60.6411    15.2382     0.1277     2.4000  -999.2500  -999.2500  -999.2500
   47.0000    60.7606    15.3279     0.1439     2.4067  -999.2500  -999.2500  -999.2500
   47.5000    62.1528    15.4201     0.1490     2.3854  -999.2500  -999.2500  -999.2500
   48.0000    62.4802    15.4480     0.0969     2.3696  -999.2500  -999.2500  -999.2500
   48.5000    62.4975    15.2762     0.0672     2.3998  -999.2500  -999.2500  -999.2500
   49.0000    63.2044    15.1716     0.0776     2.4259  -999.2500  -999.2500  -999.2500
   49.5000    64.3211    15.1536     0.0792     2.4157  -999.2500  -999.2500  -999.2500
   50.0000    66.5699    15.1543     0.0610     2.4231  -999.2500  -999.2500  -999.2500
   50.5000    69.7116    15.0365     0.0642     2.4424  -999.2500  -999.2500  -999.2500
   51.0000    69.7283    14.8591     0.0873     2.4558  -999.2500  -999.2500  -999.2500
   51.5000    67.9593    14.7412     0.0852     2.4439  -999.2500  -999.2500  -999.2500
   52.0000    67.9861    14.7122     0.0759     2.4548  -999.2500  -999.2500  -999.2500
   52.5000    69.3783    14.7442     0.0703     2.4664  -999.2500  -999.2500  -999.2500
   53.0000    70.8515    14.8360     0.0720     2.4699  -999.2500  -999.2500  -999.2500
   53.5000    72.1627    14.8989     0.0822     2.4770  -999.2500  -999.2500  -999.2500
   54.0000    72.9564    14.9618     0.0896     2.4993  -999.2500  -999.2500  -999.2500
   54.5000    73.6078    14.9950     0.0901     2.5100  -999.2500  -999.2500  -999.2500
   55.0000    75.2232    15.0430     0.0763     2.4811  -999.2500  -999.2500  -999.2500
   55.5000    75.6870    15.0439     0.0703     2.4782  -999.2500  -999.2500  -999.2500
   56.0000    75.7072    15.0446     0.0626     2.4930  -999.2500  -999.2500  -999.2500
   56.5000    75.2775    15.0157     0.0567     2.4752  -999.2500  -999.2500  -999.2500
   57.0000    74.8477    14.9867     0.0555     2.4669  -999.2500  -999.2500  -999.2500
   57.5000    73.5252    14.9577     0.0675     2.4857  -999.2500  -999.2500  -999.2500
   58.0000    71.7561    14.9268     0.0761     2.4930  -999.2500  -999.2500  -999.2500
   58.5000    71.3264    14.8701     0.0718     2.4676  -999.2500  -999.2500  -999.2500
   59.0000    71.7907    14.8633     0.0540     2.4518  -999.2500  -999.2500  -999.2500
   59.5000    72.3512    14.8717     0.0451     2.4486  -999.2500  -999.2500  -999.2500
   60.0000    72.8505    14.8988     0.0660     2.4761  -999.2500  -999.2500  -999.2500
   60.5000    72.7325    14.9941     0.0719     2.4864  -999.2500  -999.2500  -999.2500
   61.0000    72.3065    15.1114     0.0675     2.4798  -999.2500  -999.2500  -999.2500
   61.5000    71.8775    15.2011     0.0599     2.4738  -999.2500  -999.2500  -999.2500
   62.0000    71.0052    15.2909     0.0524     2.4768  -999.2500  -999.2500  -999.2500
   62.5000    70.5729    15.2916     0.0542     2.4902  -999.2500  -999.2500  -999.2500
   63.0000    70.1439    15.2923     0.0708     2.5050  -999.2500  -999.2500  -999.2500
   63.5000    70.1624    15.2899     0.0780     2.5110  -999.2500  -999.2500  -999.2500
   64.0000    69.2863    15.2582     0.0736     2.5030  -999.2500  -999.2500  -999.2500
   64.5000    68.8509    15.2351     0.0689     2.4955  -999.2500  -999.2500  -999.2500
   65.0000    68.4268    15.2061     0.0750     2.5008  -999.2500  -999.2500  -999.2500
   65.5000    68.4449    15.1926     0.0959     2.5228  -999.2500  -999.2500  -999.2500
   66.0000    68.5747    15.1780     0.0979     2.5376  -999.2500  -999.2500  -999.2500
   66.5000    69.6685    15.1789     0.0885     2.5395  -999.2500  -999.2500  -999.2500
   67.0000    71.0962    15.1796     0.0781     2.5229  -999.2500  -999.2500  -999.2500
   67.5000    71.8667    15.1803     0.0751     2.5289  -999.2500  -999.2500  -999.2500
   68.0000    70.5093    15.1810     0.0798     2.5319  -999.2500  -999.2500  -999.2500
   68.5000    68.1056    15.1818     0.0829     2.5304  -999.2500  -999.2500  -999.2500
   69.0000    65.4437    15.1825     0.0747     2.5111  -999.2500  -999.2500  -999.2500
   69.5000    65.3737    15.1832     0.0617     2.4942  -999.2500  -999.2500  -999.2500
   70.0000    66.8164    15.1840     0.0580     2.4785  -999.2500  -999.2500  -999.2500
   70.5000    68.1724    15.1847     0.0514     2.4599  -999.2500  -999.2500  -999.2500
   71.0000    69.1038    15.2151     0.0469     2.4453  -999.2500  -999.2500  -999.2500
   71.5000    69.0427    15.2457     0.0454     2.4357  -999.2500  -999.2500  -999.2500
   72.0000    67.5926    15.2464     0.0514     2.4521  -999.2500  -999.2500  -999.2500
   72.5000    66.8999    15.2768     0.0574     2.5038  -999.2500  -999.2500  -999.2500
   73.0000    68.4226    15.3072     0.0664     2.5201  -999.2500  -999.2500  -999.2500
   73.5000    69.6156    15.3375     0.0852     2.5379  -999.2500  -999.2500  -999.2500
   74.0000    69.1865    15.3033     0.1032     2.5454  -999.2500  -999.2500  -999.2500
   74.5000    68.7574    15.2446     0.1133     2.5468  -999.2500  -999.2500  -999.2500
   75.0000    67.8846    15.1832     0.1184     2.5453  -999.2500  -999.2500  -999.2500
   75.5000    68.3477    15.1217     0.1113     2.5356  -999.2500  -999.2500  -999.2500
   76.0000    68.8108    15.0603     0.0989     2.5086  -999.2500  -999.2500  -999.2500
   76.5000    68.8275    15.0156     0.0905     2.4869  -999.2500  -999.2500  -999.2500
   77.0000    68.8442    15.0164     0.1036     2.4674  -999.2500  -999.2500  -999.2500
   77.5000    68.8616    15.0765     0.1006     2.4495  -999.2500  -999.2500  -999.2500
   78.0000    69.4709    15.1069     0.0873     2.4332  -999.2500  -999.2500  -999.2500
   78.5000    70.7904    15.1373     0.0828     2.4238  -999.2500  -999.2500  -999.2500
   79.0000    72.6290    15.1380     0.0889     2.4208  -999.2500  -999.2500  -999.2500
   79.5000    73.8418    15.0718     0.1004     2.4209  -999.2500  -999.2500  -999.2500
   80.0000    74.0906    14.9647     0.1273     2.4253  -999.2500  -999.2500  -999.2500
   80.5000    73.1796    14.7653     0.1393     2.4550  -999.2500  -999.2500  -999.2500
   81.0000    73.0010    14.5824     0.1450     2.4810  -999.2500  -999.2500  -999.2500
   81.5000    73.0207    14.4589     0.1462     2.5039  -999.2500  -999.2500  -999.2500
   82.0000    73.9302    14.3414     0.1354     2.5377  -999.2500  -999.2500  -999.2500
   82.5000    76.6255    14.3123     0.1424     2.5446  -999.2500  -999.2500  -999.2500
   83.0000    75.7494    14.3131     0.1305     2.5399  -999.2500  -999.2500  -999.2500
   83.5000    74.3924    14.3435     0.1127     2.5094  -999.2500  -999.2500  -999.2500
   84.0000    72.6058    14.4036     0.0948     2.4888  -999.2500     0.0254     0.1287
   84.5000    71.2484    14.4658     0.0859     2.4759  -999.2500     0.0257     0.1312
   85.0000    70.2133    14.5336     0.0800     2.4744  -999.2500     0.0410     0.0591
   85.5000    69.4263    14.6509     0.0857     2.4804  -999.2500     0.0861     0.2707
   86.0000    68.5152    14.7138     0.1100     2.4952   -37.5853     0.0846     0.2737
   86.5000    67.8348    14.7337     0.1113     2.5175   -37.5751     0.0824     0.1277
   87.0000    67.4057    14.6886     0.1092     2.5296   -37.4163     0.0802     0.2053
   87.5000    67.8723    14.6758     0.1224     2.5341   -37.4061     0.0780     0.2083
   88.0000    68.7818    14.7063     0.1143     2.5326   -37.3958     0.0758     0.2114
   88.5000    69.6914    14.7961     0.1262     2.5158   -37.3856     0.0737     0.2144
   89.0000    71.0473    14.9155     0.1039     2.4942   -37.3754     0.0715     0.2175
   89.5000    71.5105    14.9755     0.0846     2.4872   -37.3652     0.0693     0.2205
   90.0000    72.0073    14.9004     0.0861     2.5116   -37.3550     0.0671     0.1490
   90.5000    72.4380    14.7274     0.0876     2.5176   -37.1961     0.0649     0.0776
