~VERSION INFORMATION
 VERS.                2.0:   CWLS LOG ASCII STANDARD - VERSION 2.0
 WRAP.                 NO:   ONE LINE PER DEPTH STEP
~WELL INFORMATION
#MNEM.UNIT      DATA TYPE    INFORMATION
#----------   ------------   ------------------------------
 STRT.F            0.5000:   START DEPTH
 STOP.F         1380.0000:   STOP DEPTH
 STEP.F            0.5000:   STEP LENGTH
 NULL.          -999.2500:   NO VALUE
 COMP.       FLUOR DANIEL:   COMPANY
 WELL. FLUOR 84 "X" #1-14:   WELL
 FLD .          N.P.R. #3:   FIELD
 LOC .      S14 T38N R78W:   LOCATION
 CNTY.            NATRONA:   COUNTY
 STAT.            WYOMING:   STATE
 CTRY. UNITED STATES OF AMERICA:   COUNTRY
 SRVC.     ATLAS WIRELINE:   SERVICE COMPANY
 DATE.        24-AUG-1994:   LOGDATE
 API .     49025226370000:   API NUMBER
~CURVE INFORMATION
#MNEM.UNIT       API CODE    CURVE DESCRIPTION
#----------   ------------   ------------------------------
 DEPT.F                  :   
 GRR .GAPI   07 310 01 00:   GAMMA RAY FROM RESISTIVITY
 RILD.OHMM   07 120 46 00:   INDUCTION LOG DEEP RESISTIVITY
 RILM.OHMM   07 120 44 00:   INDUCTION LOG MEDIUM RESISTIVITY
 TENR.LBS    07 635 01 00:   TENSION FROM RESISTIVITY
~PARAMETER INFORMATION
#MNEM.UNIT          VALUE    DESCRIPTION
#----------   ------------   ------------------------------
 EKB .F         5326.0000:   Kelly bushing
 EGL .F         5316.0000:   Ground level
 EDF .F         5325.0000:   Drilling floor
 TD  .F         1368.0000:   Total depth
 CLNT.            A2DTECH:   Client Code
 PD  .                 GL:   Permanent Datum
 EPD .F              5316:   Elevation Permanent Datum
 LMF .                 KB:   Log Measured From
 DMF .                 KB:   Drilling Measured From
 DAPD.F                10:   Feet Above Permanent Datum
 DATE.        24-AUG-1994:   Date Logged [DD-MMM-YYYY]
 DD  .F              1368:   Depth driller
 DL  .F              1364:   Depth logger
 BLI .F              1356:   Bottom log interval
 TLI .F                 0:   Top log interval
 CS1 .IN            9.625:   Casing size
 CBD1.       9.625" @ 56':   Casing driller 1
 CBL1.F                56:   Casing logger 1
 BS1 .IN             8.75:   Bit size
 BSD1.F              1368:   Depth drilled with bit1
 DFT .                AIR:   Type fluid in hole
 LUN .            HL 6530:   Logging unit number
 LUL .             CASPER:   Logging unit location
 WITN.        GARY STRONG:   Witnessed by
 ORIG.         2.5" PRINT:   Origin of data
 UWI .     49025226370000:   Unique Well ID
 DICO. A2D TECHNOLOGIES, INC.:   Digitizing Company
 SL  . 2551' FNL & 575' FEL:   Surface Location
~OTHER INFORMATION
~A    DEPT      GRR      RILD       RILM       TENR   
# ...
  292.5000   127.6247     6.3262     6.2812   -62.6855
  293.0000   127.2734     6.4110     6.4540   -62.3146
  293.5000   123.6287     6.4079     6.6319   -61.9436
  294.0000   117.9083     6.5839     6.8147   -61.5727
  294.5000   113.6148     6.7652     7.0026   -61.2018
  295.0000   115.6886     6.9510     7.1959   -60.8308
  295.5000   116.2755     7.1416     7.3940   -60.4599
  296.0000   115.9441     7.1381     7.4939   -60.0890
  296.5000   114.3952     7.1347     7.5954   -59.7181
  297.0000   112.9062     7.1313     7.5927   -59.3472
  297.5000   111.4371     7.1279     7.6954   -58.9763
  298.0000   110.2252     7.1245     7.5875   -58.6053
  298.5000   111.4109     7.1211     7.5849   -58.2344
  299.0000   113.7942     7.1177     7.3764   -57.8635
  299.5000   117.3752     7.1144     7.3739   -57.4926
  300.0000   120.3593     7.1110     7.2706   -57.1217
  300.5000   121.5768     6.9156     7.0707   -56.7507
  301.0000   122.8403     6.9137     7.0682   -56.3798
  301.5000   124.0120     6.9238     7.1117   -55.4324
  302.0000   125.1379     7.1033     7.2606   -54.2279
  302.5000   119.7703     7.1012     7.2581   -53.0234
  303.0000   113.2037     7.0992     7.2551   -51.8189
  303.5000   109.2385     7.2249     7.4551   -50.6144
  304.0000   108.3593     7.4291     7.6611   -49.4099
  304.5000   109.7814     7.4959     7.7646   -48.2054
  305.0000   112.7745     7.4935     7.7616   -47.0009
  305.5000   111.7845     7.4914     7.7590   -45.7964
  306.0000   107.7963     7.4893     7.6504   -44.5919
  306.5000   107.1467     7.4873     7.6478   -43.3874
  307.0000   108.3852     7.4852     7.5407   -42.1829
  307.5000   110.2246     7.3803     7.4342   -40.9784
  308.0000   113.1252     7.0793     7.2306   -39.7739
  308.5000   117.9127     6.7906     7.1197   -38.5694
  309.0000   114.9157     6.6042     7.0156   -37.3649
  309.5000   112.5176     6.6940     6.8186   -36.6469
  310.0000   113.1134     6.6922     6.7189   -36.3501
  310.5000   116.1045     6.6904     6.6459   -53.4618
  311.0000   117.8980     6.5970     6.6436   -65.4613
  311.5000   117.9661     6.5952     6.6413   -46.5386
  312.0000   116.6945     6.5935     6.6391   -35.1632
  312.5000   116.0928     6.5916     6.7288   -34.8665
  313.0000   115.4910     6.6814     6.7734   -19.7329
  313.5000   114.8892     6.6795     6.8174   -19.4362
  314.0000   116.8582     6.6776     6.8145   -25.8652
  314.5000   120.8714     6.6758     6.8123   -33.6795
  315.0000   120.8683     6.6740     6.8100   -33.3828
  315.5000   120.9781     6.6455     6.7146   -33.0861
  316.0000   123.2016     6.5534     6.5300   -32.7331
  316.5000   127.0060     6.3982     6.2637   -32.4422
  317.0000   127.4436     6.3965     6.4366   -32.1512
  317.5000   124.4311     6.3947     6.2595   -31.8603
  318.0000   119.7127     6.3929     6.1718   -31.5694
  318.5000   115.8064     6.3912     6.0854   -31.2785
  319.0000   117.1478     6.3675     6.0833   -30.9876
  319.5000   119.0449     6.3002     6.0812   -30.6967
  320.0000   118.7225     6.2984     6.1635   -30.4057
  320.5000   115.9591     6.4174     6.2469   -30.1148
  321.0000   117.8377     6.5988     6.2639   -29.8220
  321.5000   117.8348     6.7424     6.4169   -29.5252
  322.0000   114.8379     6.7873     6.5316   -29.2285
  322.5000   108.8469     6.8757     6.5916   -30.9101
  323.0000   105.2512     6.6830     6.5526   -43.4970
  323.5000   108.2422     6.4617     6.4078   -43.1751
  324.0000   113.0297     6.3715     6.2316   -42.8783
  324.5000   114.2244     6.1966     6.0991   -42.5816
  325.0000   113.0238     6.1101     6.0102   -42.2849
  325.5000   111.8233     6.0248     5.8913   -41.9881
  326.0000   111.8163     6.0233     5.8893   -41.6914
  326.5000   115.4102     6.0215     5.8873   -34.6681
  327.0000   114.6828     6.0199     5.8853   -26.2611
  327.5000   112.3453     6.0183     5.8834   -25.9644
  328.0000   113.1816     6.0166     5.8814   -25.6677
  328.5000   115.6198     6.0985     5.8794   -25.3147
  329.0000   119.8543     6.0968     6.0415   -25.0238
  329.5000   121.5369     6.1798     6.2081   -24.7328
  330.0000   121.9765     6.1923     6.3792   -24.4419
  330.5000   116.1697     6.2623     6.4655   -24.1510
  331.0000   113.3613     6.3475     6.4632   -23.8601
  331.5000   112.7365     6.1729     6.3435   -53.2428
  332.0000   109.5010     6.0589     6.0949   -82.6254
  332.5000   106.6866     5.8891     5.9236   -82.3345
  333.0000   110.0898     5.8369     5.8613   -52.3700
  333.5000   118.8663     5.7554     5.8314   -37.0427
  334.0000   121.9515     5.7538     5.7772   -22.1068
  334.5000   123.1462     5.7095     5.7752   -20.4247
  335.0000   122.5444     5.6718     5.7732    -6.6766
  335.5000   123.7391     5.5924     5.6512    -6.3798
  336.0000   125.6766     5.5908     5.4924    -6.0831
  336.5000   121.3380     5.5128     5.3833   -20.6600
  337.0000   116.5447     5.5113     5.3815   -20.3264
  337.5000   115.3441     5.5098     5.4542   -20.0297
  338.0000   118.9340     5.5083     5.4524   -19.7329
  338.5000   122.5239     5.5068     5.4506   -19.4362
  339.0000   123.1197     5.4300     5.3742   -19.1395
  339.5000   123.7156     5.3542     5.2990   -18.8427
  340.0000   123.6726     5.2071     5.0829   -18.5460
  340.5000   121.0629     5.1315     4.9431   -18.2493
  341.0000   120.1140     5.0627     4.8723   -17.8963
  341.5000   122.3425     5.0613     4.8057   -17.6053
  342.0000   127.8925     5.0599     4.8706   -17.3144
  342.5000   124.5858     5.0585     4.9365   -17.0235
  343.0000   119.9241     5.0571     4.9347   -16.7326
  343.5000   121.2969     5.0762     4.9330   -16.4417
  344.0000   119.4252     5.1247     4.9999   -16.1508
  344.5000   117.3453     5.1231     5.0675   -15.8598
  345.0000   120.2397     5.1513     5.1360   -15.5689
  345.5000   124.8633     5.1914     5.2360   -15.2780
  346.0000   123.9282     5.2985     5.3836   -14.9852
  346.5000   116.5928     5.5239     5.5354   -15.4791
  347.0000   114.8124     5.6801     5.6915   -29.2421
  347.5000   117.0803     5.8705     5.8031   -43.7879
  348.0000   117.2694     5.9506     5.9627   -43.4718
  348.5000   117.6732     5.9488     5.8792   -43.1751
  349.0000   119.4667     5.9471     5.8772   -42.8783
  349.5000   120.0629     5.9455     5.8753   -42.5816
  350.0000   120.6587     5.9439     5.8733   -42.2849
  350.5000   120.6555     5.9423     5.8713   -41.9881
  351.0000   120.6526     5.9407     5.9507   -41.6914
  351.5000   120.6496     5.9391     6.1148   -41.3947
  352.0000   121.8443     6.1883     6.1986   -41.0979
  352.5000   124.8653     6.3632     6.3734   -40.8012
  353.0000   126.6288     6.4535     6.4544   -40.5044
  353.5000   125.9661     6.5338     6.5417   -40.1515
  354.0000   122.0956     6.5170     6.4499   -39.8605
  354.5000   116.6119     6.4223     6.4476   -39.5696
  355.0000   114.6410     6.2424     6.3327   -39.2787
  355.5000   118.3952     6.0434     6.1548   -38.9878
  356.0000   122.7705     5.8707     5.9000   -38.6969
  356.5000   124.8119     5.6536     5.7343   -38.4060
  357.0000   123.6108     5.4952     5.5381   -38.1306
  357.5000   123.3633     5.4153     5.3425   -37.8241
  358.0000   123.6048     5.3734     5.2644   -37.5332
  358.5000   125.6886     5.4465     5.3759   -37.2403
  359.0000   125.9940     5.6426     5.6007   -36.9436
  359.5000   123.7844     5.9127     5.9157   -36.6469
  360.0000   115.8078     6.2463     6.2485   -36.3501
  360.5000   109.2180     6.5083     6.6001   -36.0534
  361.0000   111.0115     6.7813     7.0680   -35.7567
  361.5000   118.1942     6.9690     7.2631   -35.4599
  362.0000   117.5924     7.0641     7.1612   -35.1632
  362.5000   112.2003     7.0620     6.9643   -34.8665
  363.0000   112.7962     6.9634     6.9617   -34.5697
  363.5000   116.3860     6.7722     6.8599   -34.2730
  364.0000   119.3772     6.5862     6.7596   -33.9762
  364.5000   116.3802     6.4016     6.5822   -33.6795
  365.0000   115.7784     6.2294     6.4737   -33.3828
