~VERSION INFORMATION
 VERS.                2.0:   CWLS LOG ASCII STANDARD - VERSION 2.0
 WRAP.                 NO:   ONE LINE PER DEPTH STEP
~WELL INFORMATION
#MNEM.UNIT      DATA TYPE    INFORMATION
#----------   ------------   ------------------------------
 STRT.F           10.5000:   START DEPTH
 STOP.F         5650.0000:   STOP DEPTH
 STEP.F            0.5000:   STEP LENGTH
 NULL.          -999.2500:   NO VALUE
 COMP.    FENIX & SCISSON:   COMPANY
 WELL. FENIX NPR 3 "LX" #56-3:   WELL
 FLD .              N P R:   FIELD
 LOC .       S3 T38N R78W:   LOCATION
 CNTY.            NATRONA:   COUNTY
 STAT.            WYOMING:   STATE
 CTRY. UNITED STATES OF AMERICA:   COUNTRY
 SRVC.              WELEX:   SERVICE COMPANY
 DATE.        13-JUN-1978:   LOGDATE
 API .     49025109250000:   API NUMBER
~CURVE INFORMATION
#MNEM.UNIT       API CODE    CURVE DESCRIPTION
#----------   ------------   ------------------------------
 DEPT.F                  :   
 NPHI.DEC    42 890 03 00:   NEUTRON POROSITY SANDSTONE
 SPR .MV     07 010 01 00:   SPONTANEOUS POTENTIAL
 ILD .OHMM   07 120 46 00:   DEEP INDUCTION RESISTIVITY
 ILM .OHMM   07 120 44 00:   INDUCTION LOG MEDIUM RESISTIVITY
 SFL .OHMM   07 220 01 00:   SHALLOW FOCUSED LOG RESISTIVITY
 GRD .GAPI   45 310 01 00:   GAMMA RAY FROM DENSITY LOG
 CALD.IN     45 280 60 00:   CALIPER FROM DENSITY LOG
 RHOB.G/C3   45 350 01 00:   BULK DENSITY
 CORR.G/C3   45 356 01 00:   DENSITY CORRECTION
~PARAMETER INFORMATION
#MNEM.UNIT          VALUE    DESCRIPTION
#----------   ------------   ------------------------------
 EKB .F         5181.0000:   Kelly bushing
 EGL .F         5171.0000:   Ground level
 EDF .F         5180.0000:   Drilling floor
 TD  .F         5644.0000:   Total depth
 DATE.        13-JUN-1978:   Date logged
 CLNT.            A2DTECH:   Client Code
 SL  . 1980' FSL & 2080' FEL:   Surface Location
 PD  .                 GL:   Permanent Datum
 EPD .F              5171:   Elevation Permanent Datum
 LMF .                 KB:   Log Measured From
 DMF .                 KB:   Drilling Measured From
 DD  .F              5640:   Depth driller
 DL  .F              5644:   Depth logger
 BLI .F              5638:   Bottom log interval
 TLI .F              3093:   Top log interval
 CS1 .IN            8.625:   Casing size
 CBD1.      8.625" @ 545':   Casing driller 1
 BS1 .IN            7.875:   Bit size
 DFT .                FGM:   Type fluid in hole
 DFD .                9.2:   Density
 DFV .                 52:   Viscosity
 DFPH.                 11:   pH
 DFL .                5.2:   Fluid loss
 MSS .           MUD/TANK:   Source of sample
 RMS .OHMM           0.59:   Rm
 MST .F                80:   Rm Meas. temp.
 RMF .OHMM           0.48:   Rmf
 MFST.F                80:   Rmf Meas. temp.
 MFSS.               MEAS:   Source Rmf.
 RMB .OHMM           0.29:   Rm. at BHT
 BHT .F               162:   BHT.
 TCS .HRS            1200:   Time Circ. stopped
 MRT .F               162:   Maximum recorded temp.
 LUN .               7675:   Logging unit number
 LUL .               CODY:   Logging unit location
 ENGI.               BOND:   Recorded By
 ORIG.           5" PRINT:   Origin of data
 UWI .     49025109250000:   Unique Well ID
 DICO. A2D TECHNOLOGIES, INC.:   Digitizing Company
 DAPD.F                10:   Feet Above Permanent Datum
 BSD1.F              5640:   Depth drilled with bit1
 TLAB.HRS            1630:   Time logger at bottom
~OTHER INFORMATION
~A  DEPTH     NPHI        SPR        ILD        ILM        SFL        GRD       CALD       RHOB       CORR
# ...
 3222.5000     0.2230   -52.7690     7.3860     7.8960     9.7560   119.3000     9.5420     2.5430     0.0250
 3223.0000     0.2240   -52.8010     7.5460     8.2980    10.3190   119.2050     9.5240     2.5370     0.0200
 3223.5000     0.2220   -52.5960     7.9460     8.7740    10.8830   118.2710     9.5070     2.5320     0.0140
 3224.0000     0.2180   -52.2810     8.4200     9.2490    11.4460   115.3400     9.4900     2.5270     0.0080
 3224.5000     0.2130   -51.9640     8.8950     9.7250    12.0090   112.6840     9.4730     2.5280     0.0100
 3225.0000     0.2090   -51.6460     9.3700    10.2000    12.5730   111.1880     9.4550     2.5390     0.0220
 3225.5000     0.2040   -51.3290     9.8450    10.6760    13.7380   110.6110     9.4380     2.5490     0.0320
 3226.0000     0.1990   -51.0170    10.3200    11.0030    14.9020   111.3520     9.4210     2.5610     0.0400
 3226.5000     0.1950   -50.7980    10.7950    11.1220    16.2630   112.0390     9.4020     2.5640     0.0360
 3227.0000     0.1910   -51.0730    11.1570    11.2600    15.9580   112.7910     9.4000     2.5650     0.0310
 3227.5000     0.1870   -51.4020    10.6780    10.9710    15.5910   113.5190     9.4160     2.5600     0.0260
 3228.0000     0.1850   -51.7490    10.2900    10.6350    14.8750   114.2500     9.4310     2.5350     0.0240
 3228.5000     0.1870   -52.0990     9.9030    10.2980    13.7430   114.9830     9.4460     2.5460     0.0250
 3229.0000     0.1880   -52.4470     9.5160     9.9620    12.8430   115.7040     9.4610     2.5570     0.0250
 3229.5000     0.1970   -52.7970     9.1290     9.6250    12.4580   116.4700     9.4750     2.5470     0.0250
 3230.0000     0.2060   -53.1500     8.7420     9.3690    12.8110   117.1510     9.4900     2.5420     0.0250
 3230.5000     0.2150   -53.1330     8.3550     8.9100    13.1640   117.8920     9.5050     2.5480     0.0250
 3231.0000     0.2190   -53.0460     7.9670     8.4930    11.8450   119.2850     9.5200     2.5540     0.0250
 3231.5000     0.2160   -52.9560     7.5770     8.0750    10.8350   122.1040     9.5350     2.5580     0.0250
 3232.0000     0.2130   -52.8710     7.1870     7.6580    10.3100   126.3760     9.5490     2.5580     0.0240
 3232.5000     0.2200   -52.9030     6.7970     7.2400    10.2050   131.1690     9.5640     2.5580     0.0270
 3233.0000     0.2270   -53.3120     6.4070     6.8230    10.1000   131.0010     9.5790     2.5620     0.0320
 3233.5000     0.2330   -53.7090     6.0160     6.4050     9.9920   130.8060     9.5940     2.5660     0.0360
 3234.0000     0.2400   -54.1060     5.6260     6.0710     8.9790   130.6340     9.6090     2.5700     0.0350
 3234.5000     0.2450   -54.5090     5.2360     5.7620     7.9350   132.6660     9.6230     2.5650     0.0340
 3235.0000     0.2510   -54.6090     4.8770     5.4530     6.8910   137.5180     9.6370     2.5550     0.0320
 3235.5000     0.2560   -54.3850     4.6470     5.1430     5.8470   144.5040     9.6330     2.5380     0.0250
 3236.0000     0.2770   -54.1670     4.4160     4.8340     5.6300   145.9030     9.6280     2.5220     0.0190
 3236.5000     0.2990   -53.9150     4.2500     4.5250     5.5990   147.4140     9.6220     2.5040     0.0130
 3237.0000     0.3020   -53.6600     4.1720     4.2840     5.7560   147.6750     9.6170     2.4820     0.0100
 3237.5000     0.3040   -53.4070     4.1720     4.2600     5.9620   148.1830     9.6120     2.4740     0.0070
 3238.0000     0.3020   -53.1530     4.1340     4.2360     5.8950   147.4520     9.6070     2.4830     0.0090
 3238.5000     0.3040   -52.9000     4.1980     4.2130     5.8050   146.5710     9.6010     2.4910     0.0120
 3239.0000     0.3060   -52.6460     4.2940     4.1890     5.7150   144.6710     9.5960     2.4910     0.0160
 3239.5000     0.3070   -52.3930     4.3890     4.1720     5.6510   142.6360     9.5910     2.4880     0.0120
 3240.0000     0.3090   -52.1990     4.4850     4.2570     5.7990   141.0560     9.5860     2.4880     0.0110
 3240.5000     0.3100   -52.3180     4.9060     4.4270     5.9130   139.8310     9.5800     2.4880     0.0120
 3241.0000     0.3030   -52.4510     5.6470     4.5970     6.0820   139.2850     9.5750     2.4880     0.0110
 3241.5000     0.3010   -52.5830     6.3880     4.8600     6.0440   139.2790     9.5700     2.4880     0.0090
 3242.0000     0.2970   -52.7150     7.1290     5.7460     7.6690   137.1100     9.5640     2.4920     0.0140
 3242.5000     0.2850   -52.8110     7.8700     6.6330     9.1250   135.1090     9.5590     2.5040     0.0230
 3243.0000     0.2730   -52.6670     8.6110     7.5190    10.5810   130.2830     9.5540     2.5170     0.0340
 3243.5000     0.2610   -52.4780     9.3520     8.4060    12.0360   126.5020     9.5490     2.5540     0.0440
 3244.0000     0.2490   -52.2880    10.0930     9.2920    13.4920   124.4170     9.5430     2.5920     0.0360
 3244.5000     0.2160   -52.0970    10.8340    10.1790    14.9470   122.6510     9.5380     2.6240     0.0290
 3245.0000     0.2010   -51.9070    11.5750    11.0660    16.2350   120.5540     9.5330     2.5940     0.0220
 3245.5000     0.1860   -51.7170    11.4770    12.1190    16.7180   121.9820     9.5270     2.5660     0.0170
 3246.0000     0.1740   -51.6060    11.3560    12.0040    15.7330   125.1730     9.5220     2.5610     0.0210
 3246.5000     0.1720   -51.7480    11.2340    11.8170    14.9170   127.2270     9.5170     2.5580     0.0240
 3247.0000     0.1740   -51.8930    11.1130    11.6300    14.1010   129.3860     9.5260     2.5620     0.0310
 3247.5000     0.1780   -52.0380    10.9920    11.4440    13.2850   131.6710     9.5360     2.5780     0.0420
 3248.0000     0.1810   -52.1830    10.8700    11.2570    13.1320   133.7810     9.5470     2.5690     0.0360
 3248.5000     0.1890   -52.3280    10.3330    10.8940    13.0940   136.0290     9.5580     2.5600     0.0210
 3249.0000     0.1960   -52.4730     9.7290    10.2930    13.0560   136.7140     9.5690     2.5470     0.0160
 3249.5000     0.1980   -52.6040     9.1260     9.6920    12.5120   137.3840     9.5800     2.5390     0.0110
 3250.0000     0.1960   -52.6060     8.5220     9.0900    11.7330   137.9660     9.5910     2.5430     0.0070
 3250.5000     0.1960   -52.6050     7.9180     8.4890    10.9540   138.6370     9.6020     2.5350     0.0070
 3251.0000     0.2000   -52.6050     7.3140     7.8880    10.1840   139.3230     9.6130     2.5270     0.0070
 3251.5000     0.2040   -52.6050     6.7300     7.4470     9.4710   140.9790     9.6230     2.5240     0.0060
 3252.0000     0.2100   -52.6050     6.2680     6.9220     8.7590   144.0060     9.6340     2.5280     0.0130
 3252.5000     0.2200   -52.6050     5.8060     6.3980     8.0460   149.7900     9.6450     2.5320     0.0190
 3253.0000     0.2310   -52.6050     5.3450     5.8740     7.3340   155.8190     9.6560     2.5380     0.0260
 3253.5000     0.2430   -52.6090     4.8830     5.3500     6.6210   159.1150     9.6670     2.5350     0.0280
 3254.0000     0.2520   -52.4980     4.4220     4.8260     5.9090   159.3330     9.6800     2.5230     0.0290
 3254.5000     0.2570   -52.3640     3.9950     4.4950     5.1960   159.8600     9.7320     2.5130     0.0300
 3255.0000     0.2620   -52.2360     3.5770     4.2940     5.0140   160.4710     9.7900     2.5010     0.0320
 3255.5000     0.2660   -51.9600     3.1590     4.0920     4.9560   160.8980     9.8420     2.4980     0.0330
 3256.0000     0.2730   -51.6660     2.7590     3.7350     4.7630   164.5520     9.8080     2.5050     0.0340
 3256.5000     0.2800   -51.3720     2.6130     3.3470     4.1340   169.3790     9.7040     2.4920     0.0310
 3257.0000     0.2880   -51.0820     2.4700     2.9590     3.3720   174.1570     9.6630     2.4780     0.0270
 3257.5000     0.2960   -50.7620     2.3270     2.5710     2.6490   179.3060     9.6420     2.4620     0.0330
 3258.0000     0.3060   -49.6250     2.2540     2.4260     2.5630   183.6660     9.6230     2.4500     0.0400
 3258.5000     0.3170   -48.4800     2.3350     2.4260     2.6460   187.6170     9.6020     2.4370     0.0740
