~VERSION INFORMATION
 VERS.                2.0:   CWLS LOG ASCII STANDARD - VERSION 2.0
 WRAP.                 NO:   ONE LINE PER DEPTH STEP
~WELL INFORMATION
#MNEM.UNIT      DATA TYPE    INFORMATION
#----------   ------------   ------------------------------
 STRT.F            5.0000:   START DEPTH
 STOP.F         5604.0000:   STOP DEPTH
 STEP.F            0.5000:   STEP LENGTH
 NULL.          -999.2500:   NO VALUE
 COMP.   LAWRENCE ALLISON:   COMPANY
 WELL. LAWRENCE 62 TPX #10-10:   WELL
 FLD .           NPR NO 3:   FIELD
 LOC .      S10 T38N R78W:   LOCATION
 CNTY.            NATRONA:   COUNTY
 STAT.            WYOMING:   STATE
 CTRY. UNITED STATES OF AMERICA:   COUNTRY
 SRVC.      DRESSER ATLAS:   SERVICE COMPANY
 DATE.        08-NOV-1985:   LOGDATE
 API .     49025110490000:   API NUMBER
~CURVE INFORMATION
#MNEM.UNIT       API CODE    CURVE DESCRIPTION
#----------   ------------   ------------------------------
 DEPT.F                  :   
 TEND.LBS    45 635 01 00:   TENSION FORM DENSITY LOG
 CNC .DEC    42 890 03 00:   NEUTRON POROSITY SANDSTONE
 CORR.G/C3   45 356 01 00:   DENSITY CORRECTION
 RHOB.G/C3   45 350 01 00:   BULK DENSITY
 TENR.LBS    11 635 01 00:   TENSION FROM RESISTIVITY
 GRR .GAPI   11 310 01 00:   GAMMA RAY FROM RESISTIVITY
 SPR .MV     11 010 01 00:   SPONTANEOUS POTENTIAL FROM RES.
 CALR.IN     11 280 01 00:   CALIPER FROM RESISTIVITY
 RD  .OHMM   11 220 10 00:   RESISTIVITY DEEP
 RS  .OHMM   11 220 09 00:   RESISTIVITY SHALLOW
 RMLL.OHMM   11 270 04 00:   MICRO LATEROLOG
 TENS.LBS    60 635 01 00:   TENSION FROM SONIC
 DT  .US/F   60 520 00 00:   DELTA TIME
~PARAMETER INFORMATION
#MNEM.UNIT          VALUE    DESCRIPTION
#----------   ------------   ------------------------------
 EKB .F         5167.0000:   Kelly bushing
 EGL .F         5155.0000:   Ground level
 EDF .F            0.0000:   Drilling floor
 TD  .F         5600.0000:   Total depth
 CLNT.            A2DTECH:   Client Code
 PD  .                 GL:   Permanent Datum
 EPD .F              5155:   Elevation Permanent Datum
 LMF .                 KB:   Log Measured From
 DMF .                 KB:   Drilling Measured From
 DAPD.F                12:   Feet Above Permanent Datum
 DATE.        08-NOV-1985:   Date Logged [DD-MMM-YYYY]
 DD  .F              5600:   Depth driller
 DL  .F              5600:   Depth logger
 BLI .F              5597:   Bottom log interval
 TLI .F               467:   Top log interval
 CS1 .IN            9.625:   Casing size
 CBD1.      9.625" @ 467':   Casing driller 1
 CBL1.F               465:   Casing logger 1
 BS1 .IN             8.75:   Bit size
 BSD1.F              5600:   Depth drilled with bit1
 DFT .        KCL POLYMER:   Type fluid in hole
 DFD .                9.2:   Density
 DFV .                 38:   Viscosity
 DFPH.                8.5:   pH
 DFL .                8.6:   Fluid loss
 MSS .           FLOWLINE:   Source of sample
 RMS .OHMM           0.28:   Rm
 MST .F                75:   Rm Meas. temp.
 RMF .OHMM           0.21:   Rmf
 MFST.F                75:   Rmf Meas. temp.
 MFSS.               CALC:   Source Rmf.
 RMC .OHMM           0.35:   Rmc
 MCST.F                75:   Rmc Meas. temp.
 MCSS.               CALC:   Source Rmc.
 RMB .OHMM           0.13:   Rm. at BHT
 BHT .F               168:   BHT.
 TCS .HRS               7:   Time Circ. stopped
 MRT .F               168:   Maximum recorded temp.
 LUN .               6274:   Logging unit number
 LUL .               GLTE:   Logging unit location
 ENGI.               MACK:   Recorded By
 WITN.             STRONG:   Witnessed by
 ORIG.      2.5" 5" PRINT:   Origin of data
 UWI .     49025110490000:   Unique Well ID
 DICO. A2D TECHNOLOGIES, INC.:   Digitizing Company
~OTHER INFORMATION
~A  DEPTH     TEND        CNC       CORR       RHOB       TENR        GRR        SPR       CALR         RD         RS       RMLL       TENS         DT
# ...
 2839.0000   -27.2384     0.2597     0.0373     2.5500   -70.6931   109.4960   -71.8940    11.0363     7.3637     5.8621     7.3928   -49.3744    82.4258
 2839.5000   -39.9123     0.2747     0.0432     2.5447   -72.9032   109.8292   -71.8806    11.0384     7.4738     6.0321     7.5564   -49.0616    81.9795
 2840.0000   -39.4736     0.2989     0.0461     2.5390   -75.1120   108.9760   -72.0200    11.0405     7.3270     5.7499     7.2053   -48.7987    81.3829
 2840.5000   -35.3983     0.2991     0.0490     2.5331   -77.3267   108.7216   -72.1526    11.0276     7.0352     5.4428     6.7288   -48.5360    81.8381
 2841.0000   -23.9766     0.2931     0.0490     2.5317   -79.5431   110.2749   -72.1392    10.9997     6.8021     5.2243     6.4162   -48.2732    83.4954
 2841.5000   -23.5380     0.2796     0.0412     2.5331   -81.7543   111.2182   -72.1257    10.9868     6.4860     5.0848     6.1607   -48.0105    85.3030
 2842.0000   -23.0994     0.2713     0.0239     2.5346   -82.5478   112.4608   -72.1123    10.9739     6.2711     5.0887     6.1223   -47.6992    86.4344
 2842.5000   -22.6608     0.2684     0.0129     2.5360   -73.5053   112.2064   -72.2483    10.9716     6.1055     5.0926     6.1303   -47.4850    87.1150
 2843.0000   -22.2222     0.2623     0.0081     2.5375   -64.4611   110.7544   -72.2349    10.9631     6.2399     5.0965     6.2225   -47.1838    86.7378
 2843.5000   -21.7837     0.2545     0.0123     2.5404   -64.2443   108.7036   -72.2215    10.9499     6.2460     5.1360     6.2725   -39.4185    85.9084
 2844.0000   -21.3450     0.2484     0.0183     2.5404   -65.7502   104.2464   -72.2080    10.9374     6.3394     5.2484     6.3228   -39.1609    85.3884
 2844.5000   -20.9064     0.2503     0.0227     2.5404   -67.2562   106.3985   -72.1946    10.9244     6.4790     5.3260     6.4627   -38.9031    85.1042
 2845.0000   -16.1878     0.2508     0.0227     2.5387   -68.7622   108.2399   -72.1811    10.9115     6.5759     5.5187     6.5145   -46.2173    84.7341
 2845.5000    -5.4094     0.2459     0.0227     2.5354   -70.2682   109.4713   -72.0182    10.8987     7.1535     5.7583     6.8462   -45.8952    83.8369
 2846.0000    -4.9236     0.2401     0.0227     2.5272   -71.7742   107.4317   -72.0048    10.8968     7.6748     6.0084     7.7123   -45.6374    82.5641
 2846.5000    -4.4955     0.2338     0.0227     2.5142   -73.2802   105.3810   -71.8419    10.8879     8.1205     6.2258     8.0489   -45.3829    81.8172
 2847.0000    -4.0935     0.2304     0.0198     2.5037   -74.7862   103.3302   -71.6789    10.8811     8.4738     6.4064     8.4002   -45.1201    80.9952
 2847.5000    -3.6389     0.2294     0.0198     2.5093   -76.2922   103.0758   -71.5160    10.8767     8.6604     6.6382     8.7062   -44.8574    80.0981
 2848.0000    -3.2163     0.2300     0.0139     2.5160   -77.7981   102.5108   -71.3531    10.8793     8.8511     6.8308     8.9608   -44.5422    79.6517
 2848.5000    -2.7777     0.2324     0.0110     2.5242   -79.3049   101.9682   -71.3396    10.8814     9.1090     7.0289     8.9702   -44.3318    79.3556
 2849.0000    -2.3392     0.2382     0.0050     2.5271   -80.8115   102.3127   -71.1767    10.8835     9.1179     7.2328     8.9795   -44.0268    79.0595
 2849.5000    -1.9005     0.2503    -0.0076     2.5257   -82.3256   103.8547   -71.1633    10.8701     9.0615     7.4426     8.9889   -43.7691    78.7634
 2850.0000    13.1579     0.2615    -0.0212     2.5242   -83.6434   105.8086   -71.3027    10.8727     9.1992     7.5526     9.3163   -36.0038    78.3922
 2850.5000    13.5965     0.2532     0.0048     2.5257   -83.6694   106.3323   -71.5882    10.8222     9.3368     7.6107     8.9439   -35.7461    78.0933
 2851.0000    10.1862     0.2491     0.0272     2.5315   -83.6694   107.5749   -71.8703    10.7940     9.4764     7.8314     9.2690   -27.9809    77.7942
 2851.5000    -0.2130     0.2486     0.0373     2.5388   -83.6694   108.8174   -72.0064    10.7659     9.5516     8.1148    10.0845   -27.7232    77.4951
 2852.0000     0.2923     0.2474     0.0274     2.5476   -70.3917   108.5629   -72.1458    10.7527     9.8958     8.1210     9.6153   -35.0374    77.1961
 2852.5000     0.7309     0.2450     0.0282     2.5403   -63.5081   108.3084   -72.2785    10.7246     8.9289     7.2712     9.0414   -27.2077    77.5831
 2853.0000     1.1695     0.2415     0.0344     2.5300   -63.5081   109.8503   -72.2650    10.7114     8.2811     6.6015     8.4429   -34.4594    78.6067
 2853.5000     1.6082     0.2374     0.0389     2.5301   -65.6754   112.8892   -72.2516    10.6982     8.0624     6.2489     7.7214   -26.6891    80.1310
 2854.0000     2.0467     0.2327     0.0373     2.5360   -69.2252   114.4311   -71.9392    10.7000     7.8475     6.1245     7.2606   -27.3835    81.3346
 2854.5000     2.5707     0.2413     0.0110     2.5373   -72.7751   113.5778   -71.7763    10.7018     8.0222     6.0445     7.1177   -33.6844    82.5382
 2855.0000     2.9990     0.2482     0.0168     2.5388   -76.3249   110.9281   -71.6133    10.7036     8.0859     6.0492     7.3765   -33.3622    82.6899
 2855.5000   -11.2573     0.2510     0.0490     2.5105   -79.8747   108.2784   -71.4504    10.6904     8.2639     6.2681     8.0814   -33.1045    82.1655
 2856.0000   -10.7645     0.2501     0.0930     2.4902   -83.6694   109.8204   -71.2875    10.6772     8.3295     6.8666     8.3171   -32.8469    81.2654
 2856.5000   -10.3362     0.2457     0.1076     2.4921   -83.6556   111.0629   -71.1246    10.6791     8.3956     7.0657     8.3252   -40.1277    80.4404
 2857.0000    -9.9079     0.2397     0.0842     2.5089   -83.6668   110.5090   -70.9617    10.6809     8.4623     7.1205     8.0489   -39.8389    79.9911
 2857.5000   -13.8499     0.2330     0.0110     2.5188   -83.6707   109.0569   -70.7988    10.6677     8.5294     7.1259     7.5161   -39.5811    79.8422
 2858.0000   -23.6714     0.2300     0.0081     2.5278   -83.6694   107.3054   -70.7853    10.6695     8.5971     7.1812     7.1664   -39.3234    79.9189
 2858.5000   -23.2431     0.2270     0.0321     2.5337   -83.6694   104.6557   -70.6224    10.6563     8.9091     7.3382     7.7429   -39.0658    79.7680
 2859.0000   -22.8070     0.2249     0.0412     2.5373   -83.6694   103.8024   -70.4595    10.6581     9.6247     7.8183     8.2504   -38.8080    79.3721
 2859.5000   -22.3685     0.2217     0.0538     2.5402   -83.6694   104.1467   -70.1471    10.6449    10.4702     8.3298     8.4323   -46.0578    78.6464
 2860.0000   -21.9298     0.2021     0.0711     2.5431   -83.6694   102.0958   -69.5357    10.6019    11.4692     8.9368     9.1742   -45.8000    77.7463
 2860.5000   -21.4912     0.1858     0.0880     2.5490   -83.6694    96.7515   -68.4760    10.5587    12.8277    10.4954    10.3341   -53.0499    76.3785
 2861.0000   -21.0526     0.1746     0.1109     2.5534   -83.6694    86.6168   -67.4008    10.5007    16.8283    13.4925    11.8035   -60.2997    73.3703
 2861.5000   -20.6141     0.1717     0.1235     2.5607   -83.6694    71.6991   -66.5059    10.4276    19.8953    16.6364    17.3133   -59.9775    70.3621
 2862.0000   -20.1755     0.1811     0.1295     2.5519   -83.6694    67.8518   -66.0440    10.3396    26.2818    18.4803    27.4093   -59.7198    67.3540
 2862.5000   -19.7368     0.1976     0.1356     2.5181   -83.6694    65.5015   -65.7316    10.2216    30.8570    19.0163    31.3066   -59.4621    65.5071
 2863.0000   -19.2982     0.2035     0.1428     2.4842   -83.6694    65.8458   -65.4192    10.0887    32.4156    18.3803    33.8170   -59.2043    64.9827
 2863.5000   -18.8597     0.2088     0.1428     2.4682   -83.6694    69.1841   -65.1068     9.8809    24.2535    16.6874    26.3673   -58.9467    65.8202
 2864.0000   -18.4211     0.2141     0.1398     2.4478   -83.6694    78.2111   -64.6449     9.7180    21.1327    15.1505    18.0125   -58.6890    68.2539
 2864.5000   -17.9824     0.2141     0.1281     2.4294   -83.6694    83.3458   -64.3325     9.6600    18.9315    13.4710    14.1389   -58.4312    71.0616
