~VERSION INFORMATION
 VERS.                2.0:   CWLS LOG ASCII STANDARD - VERSION 2.0
 WRAP.                 NO:   ONE LINE PER DEPTH STEP
~WELL INFORMATION
#MNEM.UNIT      DATA TYPE    INFORMATION
#----------   ------------   ------------------------------
 STRT.F          200.0000:   START DEPTH
 STOP.F         3080.0000:   STOP DEPTH
 STEP.F            0.5000:   STEP LENGTH
 NULL.          -999.2500:   NO VALUE
 COMP.    FENIX & SCISSON:   COMPANY
 WELL. FENIX NPR 3 "AX" #55-33:   WELL
 FLD .        TEAPOT DOME:   FIELD
 LOC .      S33 T38N R78W:   LOCATION
 CNTY.            NATRONA:   COUNTY
 STAT.            WYOMING:   STATE
 CTRY. UNITED STATES OF AMERICA:   COUNTRY
 SRVC.           BIRDWELL:   SERVICE COMPANY
 DATE.        08-FEB-1978:   LOGDATE
 API .     49025105740000:   API NUMBER
~CURVE INFORMATION
#MNEM.UNIT       API CODE    CURVE DESCRIPTION
#----------   ------------   ------------------------------
 DEPT.F                  :   
 CALD.IN     45 280 60 00:   CALIPER FROM DENSITY LOG
 GRD .GAPI   45 310 01 00:   GAMMA RAY FROM DENSITY LOG
 RHOB.G/C3   45 350 01 00:   BULK DENSITY
 CORR.G/C3   45 356 01 00:   DENSITY CORRECTION
 NPOR.DEC    42 890 03 00:   ALPHA PROCESSED NEUTRON POROSITY
 SPR .MV     05 010 01 00:   SPONTANEOUS POTENTIAL
 SN  .OHMM   05 040 16 00:   SHORT NORMAL 16"
 ILD .OHMM   05 120 46 00:   DEEP INDUCTION RESISTIVITY
~PARAMETER INFORMATION
#MNEM.UNIT          VALUE    DESCRIPTION
#----------   ------------   ------------------------------
 EKB .F         5197.0000:   Kelly bushing
 EGL .F         5187.0000:   Ground level
 EDF .F            0.0000:   Drilling floor
 TD  .F         3084.0000:   Total depth
 DATE.        08-FEB-1978:   Date logged
 CLNT.            A2DTECH:   Client Code
 SL  . 2000' FSL & 2310' FEL:   Surface Location
 PD  .                 GL:   Permanent Datum
 EPD .F              5187:   Elevation Permanent Datum
 LMF .                 KB:   Log Measured From
 DMF .                 KB:   Drilling Measured From
 DAPD.F                10:   Feet Above Permanent Datum
 DD  .F              3084:   Depth driller
 DL  .F              3080:   Depth logger
 BLI .F              3074:   Bottom log interval
 TLI .F               200:   Top log interval
 CS1 .IN            8.625:   Casing size
 CBD1.      8.625" @ 229':   Casing driller 1
 CBL1.F               230:   Casing logger 1
 BS1 .IN            7.875:   Bit size
 BSD1.F              3084:   Depth drilled with bit1
 DFT .     LIGNOSULFONATE:   Type fluid in hole
 DFD .                9.2:   Density
 DFV .                 30:   Viscosity
 DFPH.                  9:   pH
 DFL .                  5:   Fluid loss
 MSS .           FLOWLINE:   Source of sample
 RMS .OHMM            1.5:   Rm
 MST .F                62:   Rm Meas. temp.
 RMF .OHMM            1.2:   Rmf
 MFST.F                66:   Rmf Meas. temp.
 RMC .OHMM            2.8:   Rmc
 MCST.F                65:   Rmc Meas. temp.
 MFSS.               MEAS:   Source Rmf.
 RMB .OHMM            .82:   Rm. at BHT
 BHT .F               114:   BHT.
 TCS .HRS               3:   Time Circ. stopped
 MRT .F               114:   Maximum recorded temp.
 LUN .               2958:   Logging unit number
 LUL .               CASP:   Logging unit location
 ENGI.            POINTER:   Recorded By
 WITN.         HARRINGTON:   Witnessed by
 ORIG.           5" PRINT:   Origin of data
 UWI .     49025105740000:   Unique Well ID
 DICO. A2D TECHNOLOGIES, INC.:   Digitizing Company
~OTHER INFORMATION
~A   DEPT       CALD      GRD       RHOB        CORR      NPOR        SPR         SN        ILD   
# ...
 3035.0000     8.5784    86.1311     2.5494     0.1037     0.2035   -41.6099     5.3690     4.8676
 3035.5000     8.6776    87.7161     2.5194     0.0797     0.2059   -41.6181     5.2206     4.7326
 3036.0000     8.4402    91.8767     2.5114     0.0737     0.2075   -41.4277     5.0764     4.6014
 3036.5000     8.4602    92.0763     2.5084     0.0817     0.2143   -41.4359     4.8452     4.4739
 3037.0000     8.5000    91.8803     2.5024     0.0858     0.2179   -41.4425     4.5838     4.3099
 3037.5000     8.5200    92.0804     2.5044     0.0938     0.2151   -41.4507     4.5399     4.1904
 3038.0000     8.5202    92.6765     2.5134     0.1038     0.2031   -41.4589     4.4963     3.9947
 3038.5000     8.5401    93.4706     2.5244     0.1058     0.2039   -41.4671     4.4948     3.9563
 3039.0000     8.5205    94.2648     2.5184     0.1038     0.2047   -41.4753     4.5343     3.9546
 3039.5000     8.5406    94.2668     2.5164     0.0959     0.2043   -41.8808     4.5324     3.9532
 3040.0000     8.6596    93.0807     2.5184     0.0919     0.2019   -42.0860     4.4889     3.9152
 3040.5000     8.6598    92.8843     2.5325     0.0879     0.1943   -41.8956     4.5284     3.9135
 3041.0000     8.6006    92.0942     2.5154     0.0859     0.1875   -42.1024     4.5683     3.9483
 3041.5000     8.5810    90.9081     2.5094     0.0859     0.1831   -41.9120     4.6089     4.0197
 3042.0000     8.6009    92.6924     2.5375     0.0979     0.1807   -41.9202     4.6495     4.0555
 3042.5000     8.6011    93.8825     2.5425     0.0979     0.1815   -42.1271     4.6475     4.0912
 3043.0000     8.5879    93.4885     2.5084     0.0879     0.1823   -42.5326     4.6885     4.0894
 3043.5000     8.5619    90.9162     2.5105     0.0920     0.1827   -42.5391     4.6864     4.0876
 3044.0000     8.5621    86.5617     2.5215     0.0960     0.1883   -42.5474     4.7281     4.0859
 3044.5000     8.6019    86.1677     2.5165     0.1020     0.1947   -42.1583     4.6828     4.0466
 3045.0000     8.6020    86.9618     2.5295     0.1281     0.1967   -42.3651     4.5115     4.0084
 3045.5000     8.4637    87.5575     2.5205     0.1321     0.2035   -42.3733     4.3868     3.8971
 3046.0000     8.4045    91.3229     2.5305     0.1301     0.2039   -42.1829     4.3447     3.8242
 3046.5000     8.4047    90.7300     2.5295     0.1582     0.2159   -42.1895     4.0718     3.7874
 3047.0000     8.4049    91.1281     2.5285     0.1582     0.2303   -41.8004     3.9958     3.7510
 3047.5000     8.4051    92.1202     2.5305     0.1602     0.2307   -41.8086     3.9940     3.7150
 3048.0000     8.4053    92.5179     2.5285     0.1562     0.2307   -42.0154     3.9923     3.6455
 3048.5000     8.4253    92.7180     2.5235     0.1522     0.2247   -41.8250     3.9909     3.6105
 3049.0000     8.4651    92.7200     2.5195     0.1342     0.2243   -41.6346     3.9526     3.5758
 3049.5000     8.4653    91.9299     2.5055     0.1242     0.2214   -41.6411     3.9146     3.5745
 3050.0000     8.5249    92.1301     2.5005     0.1042     0.2210   -41.4545     3.9129     3.6060
 3050.5000     8.5627    94.4260     2.5040     0.1042     0.2258   -41.5379     3.7845     3.6423
 3051.0000     8.6044    95.8956     2.5115     0.1162     0.2286   -41.6214     3.7697     3.6084
 3051.5000     8.6639    97.8772     2.5115     0.1262     0.2402   -41.7049     3.7689     3.5416
 3052.0000     8.5254    99.6612     2.5075     0.1282     0.2346   -41.7883     3.7681     3.5083
 3052.5000     8.5057    97.6823     2.5035     0.1282     0.2066   -41.9025     3.6311     3.4753
 3053.0000     8.5058    95.7033     2.4925     0.1262     0.2062   -42.1073     3.6304     3.4110
 3053.5000     8.4663    95.5068     2.4745     0.1282     0.2114   -42.1154     3.5964     3.3791
 3054.0000     8.3872    96.6967     2.4966     0.1742     0.2198   -42.1255     3.5627     3.2828
 3054.5000     8.3081    97.2925     2.5056     0.1982     0.2186   -42.1357     3.5293     3.2222
 3055.0000     8.2686    97.6903     2.5216     0.2222     0.2178   -42.1459     3.5285     3.2215
 3055.5000     8.2687    97.6919     2.5286     0.2322     0.2182   -42.1560     3.5278     3.1913
 3056.0000     8.1895    97.2973     2.5417     0.2262     0.2186   -41.9675     3.5270     3.1910
 3056.5000     8.1897    93.7329     2.5236     0.1941     0.2186   -41.9777     3.5263     3.1900
 3057.0000     8.1898    92.9419     2.5166     0.1641     0.2186   -41.7892     3.5257     3.1893
 3057.5000     8.1305    93.1415     2.5046     0.1421     0.2266   -41.7994     3.5249     3.1886
 3058.0000     8.0315    93.5391     2.5016     0.1440     0.2370   -42.0081     3.3968     3.1299
 3058.5000     8.0316    93.9369     2.5026     0.1460     0.2402   -42.0163     3.2434     2.9884
 3059.0000     8.0317    96.9101     2.4986     0.1400     0.2498   -42.0264     3.1836     2.9603
 3059.5000     8.0714    98.4969     2.4967     0.1380     0.2538   -42.0366     3.0398     2.9057
 3060.0000     8.1111    99.8856     2.4947     0.1260     0.2562   -42.0467     3.0114     2.8784
 3060.5000     8.1509   100.6799     2.4807     0.1199     0.2538   -42.0569     2.9559     2.8514
 3061.0000     8.1311   101.0779     2.4717     0.1079     0.2530   -41.8684     2.8485     2.8247
 3061.5000     8.1709   101.0796     2.4727     0.0979     0.2462   -41.8786     2.8479     2.7726
 3062.0000     8.2503   101.0813     2.4757     0.0939     0.2333   -42.0874     2.8473     2.7486
 3062.5000     8.3098   101.0830     2.4757     0.0939     0.2317   -42.0975     2.8467     2.7735
 3063.0000     8.3496   100.0938     2.4627     0.0898     0.2309   -42.3043     2.8989     2.7730
 3063.5000     8.3695    99.3026     2.4867     0.0858     0.2317   -42.5131     2.8720     2.7725
 3064.0000     8.3696    99.7007     2.4727     0.0818     0.2457   -42.5232     2.8719     2.7464
 3064.5000     8.4292   100.4952     2.4657     0.0838     0.2529   -42.5334     2.8154     2.6957
 3065.0000     8.4888   100.6948     2.4587     0.0798     0.2537   -42.5435     2.7601     2.6216
 3065.5000     8.4691   101.6876     2.4697     0.0798     0.2609   -42.5537     2.7058     2.6436
 3066.0000     8.4493   106.2487     2.4828     0.0958     0.2817   -42.5638     2.6527     2.5948
 3066.5000     8.4495   107.2418     2.4848     0.0978     0.2965   -42.5740     2.5924     2.5470
 3067.0000     8.4297   107.2437     2.4818     0.0997     0.3001   -42.5841     2.5922     2.5000
 3067.5000     8.4299   106.8491     2.4758     0.0997     0.3005   -42.5923     2.6156     2.4995
 3068.0000     8.4101   105.0666     2.4818     0.1137     0.2977   -42.6024     2.6392     2.5222
 3068.5000     8.3706   105.0685     2.4828     0.1277     0.2857   -42.6126     2.6386     2.5217
 3069.0000     8.2914   104.8721     2.4978     0.1297     0.2893   -42.6227     2.6142     2.4981
 3069.5000     8.2122   104.6756     2.5038     0.1617     0.2949   -42.4342     2.4729     2.4074
 3070.0000     8.2718   105.8668     2.4908     0.1377     0.2985   -42.6430     2.4055     2.3199
 3070.5000     8.2521   106.4635     2.4988     0.1317     0.2989   -42.6532     2.4300     2.3883
 3071.0000     8.2522   105.4739     2.4979     0.1256     0.2989   -42.6633     2.4296     2.3879
 3071.5000     8.2523   104.0876     2.4909     0.1096     0.2989   -42.6735     2.4290     2.3873
 3072.0000     8.2326   104.6844     2.4849     0.1016     0.2925   -42.6816     2.4286     2.3869
 3072.5000     8.2327   105.4795     2.4699     0.0996     0.2921   -42.4931     2.4281     2.3865
 3073.0000     8.2725   105.4813     2.4669     0.0996     0.2921   -42.7019     2.4276     2.3860
 3073.5000     8.3122   105.4832     2.4779     0.1016     0.2925   -42.7121     2.4049     2.3168
 3074.0000     8.3123   103.1050     2.4659     0.0936     0.2929   -42.7222     2.3605     2.2741
 3074.5000     8.3125   102.3134     2.4459     0.0776     0.2873   -42.7324     2.2957     2.1915
 3075.0000     8.2531   103.1085     2.4459     0.0915     0.2864   -42.9412     2.2122     2.1511
