~VERSION INFORMATION
 VERS.                2.0:   CWLS LOG ASCII STANDARD - VERSION 2.0
 WRAP.                 NO:   ONE LINE PER DEPTH STEP
~WELL INFORMATION
#MNEM.UNIT      DATA TYPE    INFORMATION
#----------   ------------   ------------------------------
 STRT.F            0.0000:   START DEPTH
 STOP.F         3110.5000:   STOP DEPTH
 STEP.F            0.5000:   STEP LENGTH
 NULL.          -999.2500:   NO VALUE
 COMP. LAWRENCE  ALLISON AND ASSOCIATES:   COMPANY
 WELL. LAWRENCE NPR 3 "X" #72-15:   WELL
 FLD .                NPR:   FIELD
 LOC .      S15 T38N R78W:   LOCATION
 CNTY.            NATRONA:   COUNTY
 STAT.            WYOMING:   STATE
 CTRY. UNITED STATES OF AMERICA:   COUNTRY
 SRVC.           WIRELINE:   SERVICE COMPANY
 DATE.        16-JAN-1988:   LOGDATE
 API .     49025111930000:   API NUMBER
~CURVE INFORMATION
#MNEM.UNIT       API CODE    CURVE DESCRIPTION
#----------   ------------   ------------------------------
 DEPT.F                  :   
 TENR.LBS    07 635 01 00:   TENSION FROM RESISTIVITY
 GRR .GAPI   07 310 01 00:   GAMMA RAY FROM RESISTIVITY
 SPR .MV     07 010 01 00:   SPONTANEOUS POTENTIAL
 RFOC.OHMM   07 220 04 00:   RESISTIVITY FOCUSED LOG RES.
 RILD.OHMM   07 120 46 00:   DEEP INDUCTION RESISTIVITY
 RILM.OHMM   07 120 44 00:   INDUCTION LOG MEDIUM RESISTIVITY
 TEND.LBS    45 635 01 00:   TENSION FROM DENSITY LOG
 RHOB.G/C3   45 350 01 00:   BULK DENSITY
 CORR.G/C3   45 356 01 00:   DENSITY CORRECTION
 CNC .DEC    42 890 03 00:   NEUTRON PORISITY SANDSTONE
 CALR.IN     07 280 01 00:   CALIPER FROM RESISTIVITY
~PARAMETER INFORMATION
#MNEM.UNIT          VALUE    DESCRIPTION
#----------   ------------   ------------------------------
 EKB .F         5240.0000:   Kelly bushing
 EGL .F         5229.0000:   Ground level
 EDF .F            0.0000:   Drilling floor
 TD  .F         3090.0000:   Total depth
 DATE.        16-JAN-1988:   Date logged
 CLNT.            A2DTECH:   Client Code
 SL  . 814' FNL & 1208' FEL:   Surface Location
 PD  .                 GL:   Permanent Datum
 DD  .F              3085:   Depth driller
 DL  .F              3090:   Depth logger
 BLI .F              3089:   Bottom log interval
 CS1 .IN            8.625:   Casing size
 CBD1.      8.625" @ 610':   Casing driller 1
 CBL1.F               613:   Casing logger 1
 BS1 .IN            7.875:   Bit size
 DFT .            KCL/GEL:   Type fluid in hole
 DFD .                8.8:   Density
 DFV .                 40:   Viscosity
 DFPH.                8.5:   pH
 DFL .                 10:   Fluid loss
 MSS .           FLOWLINE:   Source of sample
 RMS .OHMM           .543:   Rm
 MST .F                65:   Rm Meas. temp.
 RMF .OHMM           .349:   Rmf
 MFST.F                65:   Rmf Meas. temp.
 RMC .OHMM           .557:   Rmc
 MCST.F                65:   Rmc Meas. temp.
 MFSS.               CALC:   Source Rmf.
 RMB .OHMM           .258:   Rm. at BHT
 BHT .F               114:   BHT.
 TCS .HRS               5:   Time Circ. stopped
 MRT .F               114:   Maximum recorded temp.
 LUN .            HL-6321:   Logging unit number
 LUL .           GILLETTE:   Logging unit location
 ENGI.               CAIN:   Recorded By
 WITN.             STRONG:   Witnessed by
 ORIG.           5" PRINT:   Origin of data
 UWI .     49025111930000:   Unique Well ID
 DICO. A2D TECHNOLOGIES, INC.:   Digitizing Company
 DAPD.F                11:   Feet Above Permanent Datum
 BSD1.F              3085:   Depth drilled with bit1
 MCSS.               CALC:   Source Rmc.
 EPD .F              5229:   Elevation Permanent Datum
 LMF .                 KB:   Log Measured From
 DMF .                 KB:   Drilling Measured From
~OTHER INFORMATION
~A    DEPT    TENR         GRR       SPR       RFOC       RILD       RILM       TEND       RHOB       CORR        CNC       CALR   
# ...
 2409.5000   -26.8660    99.1880   -61.0010     7.0630     6.3620     6.1040   -38.7460     2.5730     0.0250     0.2480     9.0990
 2410.0000   -26.3740   101.8880   -61.1070     6.8940     6.4350     6.1320   -39.0740     2.5710     0.0250     0.2530     9.1000
 2410.5000   -25.8830   103.1490   -61.2130     6.7260     6.4400     6.1610   -39.4020     2.5680     0.0250     0.2570     9.1010
 2411.0000   -25.3910   100.8090   -61.3180     6.5550     6.4440     6.1890   -39.7310     2.5660     0.0250     0.2620     9.1010
 2411.5000   -24.8990    97.9140   -61.4240     6.5810     6.4490     6.2180   -40.0590     2.5640     0.0250     0.2680     9.1020
 2412.0000   -21.7800    95.5200   -61.5300     6.6080     6.4530     6.2460   -40.3870     2.5640     0.0250     0.2730     9.1070
 2412.5000   -17.7680    94.4840   -61.6360     6.7620     6.4580     6.2620   -40.7150     2.5680     0.0260     0.2730     9.1120
 2413.0000   -13.7560    96.5120   -61.7420     6.9270     6.4620     6.2690   -41.0440     2.5710     0.0290     0.2670     9.1180
 2413.5000    -9.7440    98.5540   -61.8540     6.9530     6.4670     6.2760   -41.3720     2.5740     0.0320     0.2600     9.1240
 2414.0000    -5.7320    99.0660   -62.0640     6.9920     6.4710     6.2840   -41.7000     2.5760     0.0340     0.2530     9.1300
 2414.5000   -23.7240    99.1740   -62.2530     6.9750     6.4760     6.2910   -42.0280     2.5680     0.0370     0.2460     9.1350
 2415.0000   -44.7950    99.2720   -62.0270     6.9460     6.4800     6.2980   -42.3570     2.5600     0.0400     0.2410     9.1410
 2415.5000   -38.7760    99.3710   -61.7920     6.8640     6.4840     6.3050   -42.6850     2.5520     0.0630     0.2410     9.1440
 2416.0000   -32.5080   100.0500   -61.5560     6.8640     6.4890     6.3160   -43.0130     2.5480     0.0930     0.2440     9.1450
 2416.5000   -26.2390   100.9940   -61.4550     6.8640     6.4940     6.3050   -43.3410     2.5650     0.0930     0.2510     9.1470
 2417.0000   -25.0020   100.7040   -61.4550     6.8640     6.4640     6.2710   -43.6700     2.5800     0.0500     0.2560     9.1480
 2417.5000   -26.3570   100.4420   -61.4540     6.8640     6.4240     6.2370   -43.5680     2.5940     0.0210     0.2580     9.1500
 2418.0000   -27.7130   100.2430   -61.4540     6.6390     6.3760     6.2020   -43.2970     2.5930     0.0320     0.2620     9.1510
 2418.5000   -29.0680   101.9560   -61.4460     6.4940     6.4160     6.2430   -43.0260     2.5870     0.0440     0.2670     9.1530
 2419.0000   -30.4240   103.8500   -61.3930     6.5740     6.4680     6.2960   -42.7550     2.5810     0.0560     0.2700     9.1540
 2419.5000   -31.7790   102.6110   -61.3410     6.6760     6.5200     6.3490   -42.4850     2.5750     0.0640     0.2700     9.1560
 2420.0000   -33.1340   100.6540   -61.2800     6.7780     6.5720     6.4020   -42.2140     2.5690     0.0650     0.2640     9.1570
 2420.5000   -34.4900    98.8440   -60.7350     7.0640     6.6240     6.4550   -41.9430     2.5640     0.0600     0.2570     9.1590
 2421.0000   -32.6050    98.2820   -60.5560     7.4010     6.6760     6.5080   -41.6720     2.5630     0.0480     0.2530     9.1600
 2421.5000   -29.8190    97.6690   -60.6700     7.8090     6.7280     6.5620   -41.4010     2.5660     0.0360     0.2530     9.1620
 2422.0000   -27.0330    97.9160   -60.7930     7.7100     6.8010     6.6150   -41.1300     2.5720     0.0280     0.2520     9.1640
 2422.5000   -24.7750    98.7280   -60.9140     7.4520     6.7290     6.5510   -40.8590     2.5790     0.0240     0.2480     9.1650
 2423.0000   -24.7750    99.4170   -61.0340     7.1940     6.6070     6.4870   -40.5880     2.5850     0.0210     0.2450     9.1670
 2423.5000   -24.7750    98.8630   -61.1550     6.9360     6.4350     6.4350   -40.3170     2.5890     0.0260     0.2420     9.1680
 2424.0000   -24.7750    97.4570   -61.2750     6.6770     6.4870     6.5020   -40.0460     2.5840     0.0390     0.2420     9.1700
 2424.5000   -24.7750    96.4010   -61.3960     6.6770     6.6200     6.5580   -39.7750     2.5780     0.0560     0.2380     9.1710
 2425.0000   -24.7750    95.8880   -61.5160     7.0000     6.7530     6.6150   -39.5040     2.5710     0.0940     0.2330     9.1730
 2425.5000   -24.7750    95.3680   -61.6370     7.4060     6.8860     6.6710   -39.2330     2.5710     0.1070     0.2310     9.1740
 2426.0000   -24.7750    94.8420   -61.7560     7.8090     7.0560     6.7380   -38.9620     2.5750     0.0840     0.2350     9.1760
 2426.5000   -24.7750    94.2810   -61.8210     7.7850     7.0560     6.7020   -38.6910     2.5750     0.0610     0.2440     9.1770
 2427.0000   -24.7750    95.3690   -61.6340     7.7620     6.9230     6.6110   -38.4200     2.5700     0.0630     0.2530     9.1790
 2427.5000   -24.7750    96.7620   -61.4520     7.7380     6.8390     6.5200   -38.1500     2.5650     0.0740     0.2640     9.1800
 2428.0000   -24.7750    98.1590   -61.2710     7.2210     6.7540     6.4300   -37.8790     2.5610     0.0760     0.2610     9.1820
 2428.5000   -24.7750    99.7960   -61.0900     6.7100     6.6900     6.3390   -37.6080     2.5600     0.0670     0.2550     9.1830
 2429.0000   -24.7750   100.7000   -60.9880     6.5550     6.6120     6.2480   -37.3370     2.5590     0.0580     0.2490     9.1850
 2429.5000   -24.7750   101.2610   -60.9050     6.6310     6.5330     6.1580   -37.0660     2.5560     0.0490     0.2440     9.1860
 2430.0000   -24.7750   101.7250   -60.8220     6.7540     6.4550     6.0670   -36.7950     2.5530     0.0390     0.2510     9.1880
 2430.5000   -26.3310   100.6950   -60.7390     6.8010     6.3760     6.0330   -36.5240     2.5550     0.0300     0.2620     9.1890
 2431.0000   -28.8390   102.6260   -60.6550     6.8010     6.2970     6.0330   -36.2530     2.5580     0.0210     0.2730     9.1910
 2431.5000   -31.3460   104.7150   -60.5720     6.6860     6.2190     6.0330   -35.9820     2.5580     0.0190     0.2730     9.1930
 2432.0000   -33.8540   102.8710   -60.4900     6.4170     6.1400     6.0330   -35.7110     2.5570     0.0190     0.2650     9.1940
 2432.5000   -34.7850   100.3650   -60.3320     6.3170     6.0620     5.9870   -35.4400     2.5600     0.0190     0.2570     9.1960
 2433.0000   -34.7850    97.8240   -60.1330     6.5420     6.0240     5.9140   -35.1690     2.5630     0.0190     0.2570     9.1970
 2433.5000   -34.7850    95.2860   -59.9340     6.7240     6.0100     5.8410   -34.8980     2.5660     0.0190     0.2640     9.1990
 2434.0000   -34.7850    92.7230   -59.7320     6.8640     5.9960     5.7680   -34.6270     2.5620     0.0190     0.2690     9.2000
 2434.5000   -34.7850    91.8600   -59.6950     6.7820     5.9820     5.6950   -34.3560     2.5550     0.0190     0.2660     9.2020
 2435.0000   -34.7850    92.5990   -59.7680     6.5840     5.8930     5.6220   -34.0850     2.5480     0.0190     0.2580     9.2030
 2435.5000   -34.7850    96.1940   -59.8410     6.3750     5.7690     5.5520   -33.8150     2.5410     0.0190     0.2560     9.2030
 2436.0000   -29.2750    97.1730   -59.9160     6.1650     5.6450     5.4310   -33.7020     2.5370     0.0180     0.2640     9.2030
 2436.5000   -22.7340    96.6400   -59.9900     5.9550     5.5200     5.3140   -33.7020     2.5360     0.0170     0.2720     9.2040
 2437.0000   -16.1920    97.8170   -60.0580     5.8140     5.4250     5.1980   -33.7020     2.5360     0.0160     0.2800     9.2040
 2437.5000    -9.6510    98.7120   -60.0360     5.7810     5.3340     5.1100   -28.6720     2.5390     0.0150     0.2810     9.2040
 2438.0000    -4.7550    98.9890   -60.0120     5.7500     5.1900     4.9420   -14.0810     2.5430     0.0150     0.2780     9.2040
 2438.5000    -4.7550    99.2670   -59.9890     5.7190     5.0160     4.7810   -15.9770     2.5470     0.0140     0.2740     9.2050
 2439.0000    -4.7550   100.4320   -59.9660     5.6600     4.8430     4.6210   -17.8740     2.5490     0.0130     0.2710     9.2050
 2439.5000    -4.7550   102.6930   -59.9430     5.5860     4.6700     4.4600   -19.7700     2.5460     0.0120     0.2680     9.2050
