~VERSION INFORMATION
 VERS.                2.0:   CWLS LOG ASCII STANDARD - VERSION 2.0
 WRAP.                 NO:   ONE LINE PER DEPTH STEP
~WELL INFORMATION
#MNEM.UNIT      DATA TYPE    INFORMATION
#----------   ------------   ------------------------------
 STRT.F           48.0000:   START DEPTH
 STOP.F         3235.5000:   STOP DEPTH
 STEP.F            0.5000:   STEP LENGTH
 NULL.          -999.2500:   NO VALUE
 COMP.    TESORO PEROLEUM:   COMPANY
 WELL. TESORO P46 T 28 N.P.R. #3-28:   WELL
 FLD .        TEAPOT DOME:   FIELD
 LOC .      S28 T39N R78W:   LOCATION
 CNTY.            NATRONA:   COUNTY
 STAT.            WYOMING:   STATE
 CTRY. UNITED STATES OF AMERICA:   COUNTRY
 SRVC.      DRESSER ATLAS:   SERVICE COMPANY
 DATE.        17-SEP-1975:   LOGDATE
 API .     49025102530000:   API NUMBER
~CURVE INFORMATION
#MNEM.UNIT       API CODE    CURVE DESCRIPTION
#----------   ------------   ------------------------------
 DEPT.F                  :   
 CALD.IN     45 280 60 00:   CALIPER FROM DENSITY LOG
 RHOB.G/C3   45 350 01 00:   BULK DENSITY
 CORR.G/C3   45 356 01 00:   DENSITY CORRECTION
 TEND.LBS    45 635 01 00:   TENSION FORM DENSITY LOG
 NPHI.DEC    42 890 03 00:   NEUTRON POROSITY SANDSTONE
 SPR .MV     07 010 01 00:   SPONTANEOUS POTENTIAL
 ILD .OHMM   07 120 46 00:   DEEP INDUCTION RESISTIVITY
 ILM .OHMM   07 120 44 00:   INDUCTION LOG MEDIUM RESISTIVITY
 SFL .OHMM   07 220 01 00:   SHALLOW FOCUSED LOG RESISTIVITY
 GRD .GAPI   45 310 01 00:   GAMMA RAY FROM DENSITY LOG
~PARAMETER INFORMATION
#MNEM.UNIT          VALUE    DESCRIPTION
#----------   ------------   ------------------------------
 EKB .F         5088.0000:   Kelly bushing
 EGL .F         5075.0000:   Ground level
 TD  .F         3218.0000:   Total depth
 CLNT.            A2DTECH:   Client Code
 SL  . 2310' FWL & 1650' FSL:   Surface Location
 PD  .                 GL:   Permanent Datum
 EPD .F              5075:   Elevation Permanent Datum
 LMF .                 KB:   Log Measured From
 DMF .                 KB:   Drilling Measured From
 DAPD.F                13:   Feet Above Permanent Datum
 DATE.        17-SEP-1975:   Date Logged [DD-MMM-YYYY]
 DD  .F              3218:   Depth driller
 DL  .F              3217:   Depth logger
 BLI .F              3215:   Bottom log interval
 TLI .F               395:   Top log interval
 CS1 .IN            8.625:   Casing size
 CBD1.      8.625" @ 393':   Casing driller 1
 CBL1.F               395:   Casing logger 1
 BS1 .IN            7.875:   Bit size
 BSD1.F              3218:   Depth drilled with bit1
 DFT .           CHEM GEL:   Type fluid in hole
 DFD .                9.5:   Density
 DFV .                 60:   Viscosity
 DFPH.                9.5:   pH
 DFL .                 11:   Fluid loss
 MSS .           FLOWLINE:   Source of sample
 RMS .OHMM           0.55:   Rm
 MST .F                60:   Rm Meas. temp.
 RMF .OHMM           0.48:   Rmf
 MFST.F                62:   Rmf Meas. temp.
 MFSS.               MEAS:   Source Rmf.
 RMC .OHMM            1.6:   Rmc
 MCST.F                62:   Rmc Meas. temp.
 MCSS.               MEAS:   Source Rmc.
 RMB .OHMM            0.3:   Rm. at BHT
 BHT .F               112:   BHT.
 TCS .HRS               5:   Time Circ. stopped
 MRT .F               112:   Maximum recorded temp.
 LUN .               6008:   Logging unit number
 LUL .              GLTTE:   Logging unit location
 ENGI.            MILHOAN:   Recorded By
 WITN.               WOLF:   Witnessed by
 ORIG.           5" PRINT:   Origin of data
 UWI .     49025102530000:   Unique Well ID
 DICO. A2DTECHNOLOGIES,INC.:   Digitizing Company
~OTHER INFORMATION
~A   DEPT     CALD       RHOB       CORR       TEND       NPHI         SPR         ILD        ILM        SFL      GRD   
# ...
 3096.5000     8.0285     2.4117    -0.0065  1355.9126     0.2211   -24.7440    16.5424    12.5586    11.8238    54.5607
 3097.0000     7.9993     2.3095    -0.0214  1354.3805     0.2156   -24.4394    23.3965    15.6129    12.1592    49.7817
 3097.5000     7.9843     2.3150    -0.0228  1352.7190     0.2078   -24.4337    27.8300    16.5074    11.6689    41.4045
 3098.0000     7.9729     2.3307    -0.0196  1351.0410     0.2114   -23.9815    31.3196    15.5134    12.3382    39.2636
 3098.5000     7.9747     2.3579    -0.0088  1349.3958     0.2077   -23.5292    32.2123    14.4786    13.3201    42.1614
 3099.0000     7.9912     2.4084     0.0049  1347.7343     0.2041   -23.2258    30.0693    13.6067    12.4153    44.1448
 3099.5000     8.0077     2.4627     0.0111  1345.7643     0.1944   -22.6248    25.1248    13.0561    11.9301    47.9605
 3100.0000     8.0090     2.5282     0.0113  1132.6598     0.1983   -22.4702    21.8841    13.1504    13.1511    53.9761
 3100.5000     8.0255     2.5659     0.0081  1161.2480     0.2005   -22.3155    15.0624    12.9612    12.9745    56.6334
 3101.0000     8.0270     2.5698     0.0026  1280.4697     0.2070   -22.3084    12.5870    12.1083    12.4492    59.0509
 3101.5000     8.0435     2.5661    -0.0002  1309.4633     0.2170   -22.3026    11.7496    10.9916    12.9832    61.2491
 3102.0000     8.0450     2.5631    -0.0045  1307.4338     0.2316   -22.2969     9.6157     9.0554    12.3726    64.1584
 3102.5000     8.0468     2.5693    -0.0028  1320.9155     0.2415   -22.2911     8.0903     7.4606     8.9361    68.2619
 3103.0000     8.0482     2.5855     0.0079  1319.2922     0.2505   -22.5829     6.8070     6.8620     7.6716    75.7237
 3103.5000     8.0453     2.6049     0.0171  1317.6681     0.2622   -22.5772     6.2667     6.1222     7.3649    81.7462
 3104.0000     8.0387     2.6242     0.0218  1316.0123     0.2655   -22.8690     5.6900     5.3891     7.2951    84.4103
 3104.5000     8.0404     2.6403     0.0282  1320.9088     0.2631   -22.8631     5.0231     5.2065     6.6357    87.0745
 3105.0000     8.0422     2.6035     0.0012  1327.7057     0.2625   -23.1551     4.7147     5.1366     6.2782    89.0515
 3105.5000     8.0439     2.5667     0.0044  1334.5026     0.2697   -23.2981     4.5650     5.1031     6.3701    90.4902
 3106.0000     8.0606     2.5578     0.0167  1341.2993     0.2660   -23.4588     4.5986     5.0697     5.8619    91.9550
 3106.5000     8.0624     2.5602     0.0229  1348.0962     0.2579   -23.4534     4.6324     5.1434     5.6633    92.9400
 3107.0000     8.0645     2.5648     0.0231  1354.8931     0.2536   -23.1514     4.7644     5.2175     6.1180    93.4453
 3107.5000     8.0662     2.5641     0.0188  1361.6898     0.2473   -22.9983     4.9002     5.3670     6.4717    93.4707
 3108.0000     8.0678     2.5611     0.0128  1368.4867     0.2449   -22.8452     5.0399     5.5212     7.1382    91.8171
 3108.5000     8.0847     2.5582     0.0086  1358.7444     0.2533   -22.3790     5.1478     5.6008     7.3435    90.6212
 3109.0000     8.1014     2.5583     0.0088  1341.9016     0.2536   -22.0914     5.2217     5.7612     6.9494    83.7185
 3109.5000     8.1032     2.5599     0.0090  1340.1814     0.2421   -21.9383     5.3493     5.7635     6.6218    83.9839
 3110.0000     8.1199     2.5622     0.0092  1322.7551     0.2382   -21.9340     5.5023     5.8466     6.8598    84.7290
 3110.5000     8.1220     2.5615     0.0109  1306.0432     0.2484   -21.7809     5.5821     5.8490     7.0562    81.3962
 3111.0000     8.1238     2.5586     0.0111  1302.1184     0.2471   -21.6289     5.6625     5.9334     6.0150    80.2159
 3111.5000     8.1405     2.5579     0.0098  1287.4628     0.2429   -21.7723     5.6648     5.9358     5.8111    83.3662
 3112.0000     8.1422     2.5611     0.0100  1285.8004     0.2435   -21.7679     5.6670     5.8561     6.4551    84.1115
 3112.5000     8.1440     2.5649     0.0102  1283.9880     0.2453   -21.9125     5.6295     5.6983     6.9242    84.1369
 3113.0000     8.1457     2.5650     0.0104  1281.8167     0.2446   -21.9071     5.5547     5.6605     6.5977    83.6826
 3113.5000     8.1479     2.5711     0.0106  1295.6190     0.2455   -21.9028     5.5184     5.7029     6.6993    83.2347
 3114.0000     8.1493     2.5734     0.0108  1293.6555     0.2599   -22.1961     5.4446     5.7052     6.6967    82.7741
 3114.5000     8.1661     2.5637     0.0125  1291.7097     0.2614   -22.1918     5.5230     5.7076     6.1204    84.2452
 3115.0000     8.1680     2.5578     0.0127  1290.0304     0.2560   -22.1875     5.6031     5.7099     5.5931    85.9499
 3115.5000     8.1698     2.5549     0.0129  1303.9384     0.2490   -22.3320     5.6053     5.6332     6.2557    87.4166
 3116.0000     8.1865     2.5646     0.0131  1316.7086     0.2487   -22.4765     5.5297     5.5192     7.3977    88.7104
 3116.5000     8.1887     2.5806     0.0133  1330.0775     0.2463   -22.4711     5.3809     5.5605     7.2988    84.8333
 3117.0000     8.1904     2.5769     0.0150  1343.4454     0.2414   -22.4668     5.3831     5.5628     6.7166    85.3386
 3117.5000     8.1921     2.5687     0.0152  1341.2740     0.2422   -22.3136     5.4228     5.6430     6.2676    85.8438
 3118.0000     8.1939     2.5628     0.0154  1339.5363     0.2496   -22.1605     5.5009     5.7244     6.0982    85.1497
 3118.5000     8.1956     2.5629     0.0156  1337.7648     0.2519   -22.1562     5.5801     5.8883     6.3244    83.9758
 3119.0000     8.1973     2.5713     0.0158  1335.9520     0.2501   -22.1518     5.6813     6.0569     6.7302    81.8424
 3119.5000     8.1675     2.5796     0.0235  1334.1392     0.2425   -22.1465     5.8695     6.2738     6.7334    79.6495
 3120.0000     8.1408     2.5857     0.0282  1332.3264     0.2269   -22.2921     6.1155     6.4985     6.8789    82.1396
 3120.5000     8.1126     2.5873     0.0254  1330.5137     0.2247   -22.2867     6.2903     6.5923     7.3275    84.3240
 3121.0000     8.0847     2.5806     0.0195  1328.7009     0.2268   -22.1336     6.3809     6.5038     7.8599    85.0692
 3121.5000     8.0865     2.5754     0.0137  1326.8881     0.2292   -22.1293     6.3835     6.5066     8.7299    85.3345
 3122.0000     8.0882     2.5717     0.0139  1325.0753     0.2349   -22.1250     6.3861     6.4646     8.5534    83.6809
 3122.5000     8.0742     2.5703     0.0156  1323.2626     0.2412   -21.9717     6.3887     6.3778     7.5489    82.4990
 3123.0000     8.0617     2.5712     0.0173  1321.4501     0.2499   -21.9665     6.3031     6.2480     6.9300    85.6516
 3123.5000     8.0638     2.5712     0.0220  1319.6378     0.2489   -21.9622     6.1323     6.0790     6.3926    85.9226
 3124.0000     8.0693     2.5728     0.0253  1317.5294     0.2525   -21.8090     5.9574     5.8335     6.5772    87.3874
 3124.5000     8.0823     2.5737     0.0300  1316.0120     0.2543   -22.1034     5.6476     5.5934     6.1375    89.0921
 3125.0000     8.0990     2.5745     0.0302  1314.1995     0.2507   -22.6933     5.4193     5.2843     5.3417    89.5973
 3125.5000     8.1008     2.5761     0.0304  1312.3868     0.2516   -22.9866     5.1284     4.9775     5.4953    87.7038
 3126.0000     8.1025     2.5770     0.0306  1310.5737     0.2555   -22.9821     4.8870     4.7429     5.7326    88.2090
 3126.5000     8.1196     2.5778     0.0308  1308.4077     0.2580   -22.9769     4.6570     4.4880     5.8974    87.4946
 3127.0000     8.1214     2.5763     0.0310  1306.9486     0.2608   -22.6750     4.4070     4.3666     5.7017    85.8676
 3127.5000     8.1381     2.5704     0.0311  1305.1362     0.2629   -22.6706     4.1705     4.2485     5.4663    85.1734
 3128.0000     8.1548     2.5584     0.0314  1303.3235     0.2641   -22.3687     4.0019     4.1914     5.1651    85.1989
 3128.5000     8.1715     2.5495     0.0316  1301.4583     0.2652   -22.0668     3.8359     4.1352     4.9303    85.7042
 3129.0000     8.2033     2.5337     0.0302  1299.6979     0.2700   -21.9137     3.6852     4.0741     4.8638    86.9291
 3129.5000     8.2354     2.5226     0.0289  1297.8853     0.2757   -21.7604     3.6359     4.0250     4.7988    86.9546
