~VERSION INFORMATION
 VERS.                2.0:   CWLS LOG ASCII STANDARD - VERSION 2.0
 WRAP.                 NO:   ONE LINE PER DEPTH STEP
~WELL INFORMATION
#MNEM.UNIT      DATA TYPE    INFORMATION
#----------   ------------   ------------------------------
 STRT.F          740.0000:   START DEPTH
 STOP.F         2749.0000:   STOP DEPTH
 STEP.F            0.5000:   STEP LENGTH
 NULL.          -999.2500:   NO VALUE
 COMP.    FENIX & SCISSON:   COMPANY
 WELL.   FENIX SHX #11-10:   WELL
 FLD .                NPR:   FIELD
 LOC .      S10 T38N R78W:   LOCATION
 CNTY.            NATRONA:   COUNTY
 STAT.            WYOMING:   STATE
 CTRY. UNITED STATES OF AMERICA:   COUNTRY
 SRVC.              WELEX:   SERVICE COMPANY
 DATE.        09-APR-1980:   LOGDATE
 API .     49025108060000:   API NUMBER
~CURVE INFORMATION
#MNEM.UNIT       API CODE    CURVE DESCRIPTION
#----------   ------------   ------------------------------
 DEPT.F                  :   
 GRD .GAPI   45 310 01 00:   GAMMA RAY FROM DENSITY LOG
 CALD.IN     45 280 60 00:   CALIPER FROM DENSITY LOG
 TEND.LBS    45 635 01 00:   TENSION FROM DENSITY LOG
 RHOB.G/C3   45 350 01 00:   BULK DENSITY
 CORR.G/C3   45 356 01 00:   DENSITY CORRECTION
~PARAMETER INFORMATION
#MNEM.UNIT          VALUE    DESCRIPTION
#----------   ------------   ------------------------------
 EKB .F         5287.0000:   Kelly bushing
 EGL .F         5277.0000:   Ground level
 EDF .F            0.0000:   Drilling floor
 EPD .F         5277.0000:   Permanent datum
 TD  .F         2762.0000:   Total depth
 DATE.        09-APR-1980:   Date logged
 CLNT.            A2DTECH:   Client Code
 SL  . 474' FNL & 644' FWL:   Surface Location
 PD  .                 GL:   Permanent Datum
 LMF .                 KB:   Log Measured From
 DMF .                 KB:   Drilling Measured From
 DAPD.F                10:   Feet Above Permanent Datum
 DD  .F              2762:   Depth driller
 DL  .F            2751.5:   Depth logger
 BLI .F              2750:   Bottom log interval
 TLI .F               750:   Top log interval
 CS1 .IN            9.625:   Casing size
 CBD1.      9.625" @ 760':   Casing driller 1
 BS1 .IN             8.75:   Bit size
 BSD1.F              2762:   Depth drilled with bit1
 DFT .                AIR:   Type fluid in hole
 TCS .HRS               3:   Time Circ. stopped
 MRT .F               118:   Maximum recorded temp.
 ENGI.            BENTSEN:   Recorded By
 WITN.           DINSMORE:   Witnessed by
 ORIG.         2.5" PRINT:   Origin of data
 UWI .     49025108060000:   Unique Well ID
 DICO. A2D TECHNOLOGIES, INC.:   Digitizing Company
~OTHER INFORMATION
~A   DEPT       GRD      CALD       TEND       RHOB       CORR   
# ...
 1777.0000    70.4750     8.6740  1317.3340     2.5700     0.0580
 1777.5000    69.9630     8.6660  1317.4240     2.5760     0.0640
 1778.0000    70.3120     8.6590  1317.5129     2.5670     0.0600
 1778.5000    70.9420     8.6510  1317.6030     2.5660     0.0580
 1779.0000    72.4980     8.6430  1317.6920     2.5750     0.0680
 1779.5000    74.0970     8.6480  1317.7820     2.5710     0.0750
 1780.0000    74.6430     8.6790  1317.8710     2.5580     0.0590
 1780.5000    74.3440     8.7090  1317.9600     2.5450     0.0420
 1781.0000    74.0930     8.7110  1318.0500     2.5420     0.0290
 1781.5000    73.0710     8.6960  1318.1390     2.5380     0.0220
 1782.0000    71.9610     8.6820  1318.2290     2.5460     0.0270
 1782.5000    70.6370     8.6690  1318.3180     2.5540     0.0340
 1783.0000    70.6580     8.6560  1318.4080     2.5630     0.0410
 1783.5000    70.7550     8.6420  1318.4969     2.5710     0.0550
 1784.0000    70.9200     8.6280  1318.5870     2.5950     0.0810
 1784.5000    71.0420     8.6160  1318.6760     2.6180     0.1010
 1785.0000    71.1770     8.6010  1318.7660     2.6260     0.1040
 1785.5000    71.3170     8.6110  1318.8550     2.5960     0.0780
 1786.0000    71.4460     8.6260  1318.9440     2.5740     0.0500
 1786.5000    71.5880     8.6410  1319.0341     2.5650     0.0410
 1787.0000    71.7370     8.6550  1319.1230     2.5810     0.0560
 1787.5000    72.1740     8.6710  1319.2130     2.6010     0.0720
 1788.0000    72.6340     8.6780  1319.3020     2.5930     0.0620
 1788.5000    73.1030     8.6750  1319.3920     2.5790     0.0510
 1789.0000    73.5680     8.6730  1319.4810     2.5670     0.0400
 1789.5000    74.0290     8.6710  1319.5710     2.5640     0.0300
 1790.0000    74.4980     8.6680  1319.6600     2.5520     0.0210
 1790.5000    74.9740     8.6660  1319.7500     2.5410     0.0130
 1791.0000    75.2150     8.6640  1319.8390     2.5370     0.0150
 1791.5000    74.9000     8.6610  1319.9280     2.5350     0.0170
 1792.0000    74.5980     8.6590  1320.0179     2.5330     0.0190
 1792.5000    74.2880     8.6570  1320.1071     2.5340     0.0210
 1793.0000    73.9790     8.6540  1320.1970     2.5410     0.0230
 1793.5000    73.6500     8.6520  1320.2860     2.5500     0.0250
 1794.0000    73.5500     8.6500  1320.3760     2.5450     0.0270
 1794.5000    73.6820     8.6480  1320.4650     2.5450     0.0290
 1795.0000    73.7920     8.6450  1320.5551     2.5520     0.0440
 1795.5000    73.9020     8.6430  1320.6440     2.5580     0.0480
 1796.0000    74.0170     8.6410  1320.7340     2.5570     0.0530
 1796.5000    74.1280     8.6380  1320.8230     2.5570     0.0570
 1797.0000    74.2410     8.6360  1320.9120     2.5560     0.0610
 1797.5000    74.3530     8.6340  1321.0020     2.5620     0.0730
 1798.0000    74.4660     8.6310  1321.0909     2.5710     0.0840
 1798.5000    74.5780     8.6290  1321.1810     2.5790     0.0960
 1799.0000    74.6900     8.6270  1321.2700     2.5730     0.0790
 1799.5000    74.8020     8.6240  1321.3600     2.5630     0.0680
 1800.0000    74.9140     8.6220  1321.4490     2.5520     0.0610
 1800.5000    75.0270     8.6200  1321.5389     2.5420     0.0550
 1801.0000    75.1400     8.6170  1321.6281     2.5300     0.0480
 1801.5000    75.2520     8.6150  1321.7170     2.5220     0.0410
 1802.0000    75.3640     8.6130  1321.8070     2.5160     0.0350
 1802.5000    75.4800     8.6100  1321.8960     2.5230     0.0300
 1803.0000    75.5880     8.6080  1321.9860     2.5170     0.0270
 1803.5000    75.7030     8.6060  1322.0750     2.5290     0.0420
 1804.0000    75.8290     8.6030  1322.1650     2.5550     0.0450
 1804.5000    75.6820     8.6020  1322.2540     2.5520     0.0450
 1805.0000    74.9000     8.6010  1322.3440     2.5490     0.0500
 1805.5000    74.1450     8.6200  1322.4330     2.5580     0.0560
 1806.0000    73.3840     8.6390  1322.5229     2.5520     0.0510
 1806.5000    72.5750     8.6570  1322.6121     2.5480     0.0470
 1807.0000    72.4630     8.6770  1322.7010     2.5480     0.0420
 1807.5000    72.8000     8.6650  1322.7910     2.5480     0.0430
 1808.0000    73.0930     8.6500  1322.8800     2.5460     0.0460
 1808.5000    73.3740     8.6330  1322.9700     2.5430     0.0490
 1809.0000    73.6810     8.6190  1323.0590     2.5400     0.0450
 1809.5000    73.9650     8.6010  1323.1490     2.5290     0.0370
 1810.0000    74.2500     8.6100  1323.2380     2.5220     0.0300
 1810.5000    74.6080     8.6240  1323.3280     2.5320     0.0320
 1811.0000    74.3580     8.6380  1323.4170     2.5410     0.0340
 1811.5000    73.5510     8.6520  1323.5070     2.5440     0.0370
 1812.0000    72.9900     8.6650  1323.5959     2.5450     0.0390
 1812.5000    73.5100     8.6770  1323.6851     2.5460     0.0420
 1813.0000    74.0330     8.6650  1323.7750     2.5460     0.0440
 1813.5000    73.1750     8.6530  1323.8640     2.5500     0.0510
 1814.0000    72.1110     8.6400  1323.9540     2.5530     0.0600
 1814.5000    71.2040     8.6270  1324.0430     2.5660     0.0680
 1815.0000    71.9290     8.6150  1324.1331     2.5780     0.0770
 1815.5000    72.5510     8.6020  1324.2220     2.5870     0.0840
 1816.0000    73.2930     8.6060  1324.3120     2.5920     0.0880
 1816.5000    73.3850     8.6160  1324.4010     2.5900     0.0910
 1817.0000    73.0880     8.6250  1324.4910     2.5770     0.0680
 1817.5000    72.8310     8.6340  1324.5800     2.5580     0.0460
 1818.0000    72.5900     8.6440  1324.6689     2.5460     0.0350
 1818.5000    72.3390     8.6530  1324.7590     2.5430     0.0280
 1819.0000    72.4200     8.6630  1324.8480     2.5450     0.0210
 1819.5000    72.5070     8.6720  1324.9380     2.5350     0.0130
 1820.0000    72.6080     8.6730  1325.0270     2.5250     0.0050
 1820.5000    72.7030     8.6520  1325.1169     2.5250     0.0020
 1821.0000    72.7990     8.6320  1325.2061     2.5300     0.0060
 1821.5000    72.8960     8.6100  1325.2960     2.5350     0.0210
 1822.0000    72.9920     8.6030  1325.3850     2.5560     0.0340
 1822.5000    73.0880     8.6170  1325.4740     2.5760     0.0480
 1823.0000    73.1870     8.6300  1325.5640     2.5780     0.0550
 1823.5000    73.2810     8.6420  1325.6530     2.5630     0.0470
 1824.0000    73.3730     8.6560  1325.7430     2.5680     0.0500
 1824.5000    73.4890     8.6680  1325.8320     2.5720     0.0560
 1825.0000    73.3630     8.6810  1325.9220     2.5610     0.0410
 1825.5000    73.0550     8.6940  1326.0110     2.5510     0.0350
 1826.0000    72.7590     8.7070  1326.1010     2.5410     0.0280
 1826.5000    72.4850     8.7170  1326.1899     2.5360     0.0220
 1827.0000    72.1960     8.7030  1326.2800     2.5430     0.0270
 1827.5000    71.8510     8.6900  1326.3690     2.5500     0.0340
 1828.0000    72.1050     8.6760  1326.4580     2.5550     0.0350
 1828.5000    73.2190     8.6620  1326.5480     2.5450     0.0300
 1829.0000    74.2700     8.6490  1326.6370     2.5350     0.0260
 1829.5000    75.4200     8.6370  1326.7271     2.5510     0.0380
 1830.0000    75.7250     8.6310  1326.8160     2.5720     0.0530
 1830.5000    75.1880     8.6240  1326.9060     2.5900     0.0690
 1831.0000    74.7450     8.6180  1326.9950     2.5910     0.0760
 1831.5000    74.2650     8.6110  1327.0850     2.5930     0.0800
 1832.0000    74.2360     8.6050  1327.1740     2.5840     0.0770
 1832.5000    74.5280     8.6000  1327.2640     2.5610     0.0630
 1833.0000    74.7820     8.6010  1327.3530     2.5460     0.0500
 1833.5000    75.0320     8.6030  1327.4420     2.5380     0.0430
 1834.0000    75.2920     8.6050  1327.5320     2.5400     0.0480
 1834.5000    75.5520     8.6070  1327.6210     2.5490     0.0530
 1835.0000    75.8020     8.6080  1327.7111     2.5590     0.0580
 1835.5000    76.0600     8.6100  1327.8000     2.5630     0.0640
 1836.0000    76.3470     8.6120  1327.8900     2.5590     0.0610
 1836.5000    76.3560     8.6140  1327.9790     2.5560     0.0530
 1837.0000    75.8530     8.6160  1328.0690     2.5480     0.0470
 1837.5000    75.3930     8.6170  1328.1580     2.5390     0.0390
