~VERSION INFORMATION
 VERS.                2.0:   CWLS LOG ASCII STANDARD - VERSION 2.0
 WRAP.                 NO:   ONE LINE PER DEPTH STEP
~WELL INFORMATION
#MNEM.UNIT      DATA TYPE    INFORMATION
#----------   ------------   ------------------------------
 STRT.F         1999.5000:   START DEPTH
 STOP.F         2762.5000:   STOP DEPTH
 STEP.F            0.5000:   STEP LENGTH
 NULL.          -999.2500:   NO VALUE
 COMP.          U.S. NAVY:   COMPANY
 WELL. LAWRENCE US NAVY 3 "A" #404-20:   WELL
 FLD .        TEAPOT DOME:   FIELD
 LOC .      S20 T39N R78W:   LOCATION
 CNTY.            NATRONA:   COUNTY
 STAT.            WYOMING:   STATE
 CTRY. UNITED STATES OF AMERICA:   COUNTRY
 SRVC.         MCCULLOUGH:   SERVICE COMPANY
 DATE.        09-JUL-1966:   LOGDATE
 API .     49025095910000:   API NUMBER
~CURVE INFORMATION
#MNEM.UNIT       API CODE    CURVE DESCRIPTION
#----------   ------------   ------------------------------
 DEPT.F                  :   
 TEMP.DEG    99 000 00 00:   TEMPERATURE AT TOOL
 GR  .GAPI   30 310 01 00:   GAMMA RAY
~PARAMETER INFORMATION
#MNEM.UNIT          VALUE    DESCRIPTION
#----------   ------------   ------------------------------
 EGL .F         5004.0000:   Ground level
 EDF .F         5008.0000:   Drilling floor
 TD  .F         2765.0000:   Total depth
 DATE.        09-JUL-1966:   Date logged
 CLNT.            A2DTECH:   Client Code
 PD  .                 GL:   Permanent Datum
 EPD .F              5004:   Elevation Permanent Datum
 LMF .                 GL:   Log Measured From
 DMF .                 GL:   Drilling Measured From
 DL  .F              2765:   Depth logger
 BLI .F              2763:   Bottom log interval
 TLI .F              2000:   Top log interval
 CS1 .IN           5.1875:   Casing size
 CBD1.    5.1875" @ 2790':   Casing driller 1
 DFT .              WATER:   Type fluid in hole
 ENGI.        FITZSIMMONS:   Recorded By
 WITN.             HUDSON:   Witnessed by
 ORIG.           5" PRINT:   Origin of data
 UWI .     49025095910000:   Unique Well ID
 DICO. A2D TECHNOLOGIES, INC.:   Digitizing Company
~OTHER INFORMATION
~A  DEPT      TEMP          GR  
# ...
 2121.0000  -999.2500   130.5175
 2121.5000  -999.2500   128.7416
 2122.0000  -999.2500   127.1316
 2122.5000  -999.2500   134.8924
 2123.0000  -999.2500   142.0704
 2123.5000  -999.2500   144.5449
 2124.0000  -999.2500   145.9813
 2124.5000  -999.2500   140.3456
 2125.0000  -999.2500   136.4524
 2125.5000  -999.2500   137.6111
 2126.0000  -999.2500   131.9088
 2126.5000  -999.2500   128.4032
 2127.0000  -999.2500   124.8740
 2127.5000  -999.2500   123.7623
 2128.0000  -999.2500   125.3606
 2128.5000  -999.2500   128.7868
 2129.0000  -999.2500   128.3296
 2129.5000  -999.2500   126.2348
 2130.0000  -999.2500   123.9213
 2130.5000  -999.2500   125.9787
 2131.0000  -999.2500   122.0915
 2131.5000  -999.2500   119.4875
 2132.0000  -999.2500   118.4092
 2132.5000  -999.2500   116.7511
 2133.0000  -999.2500   125.4008
 2133.5000  -999.2500   132.1756
 2134.0000  -999.2500   133.7366
 2134.5000  -999.2500   128.5209
 2135.0000  -999.2500   128.9575
 2135.5000  -999.2500   119.2628
 2136.0000  -999.2500   125.1163
 2136.5000  -999.2500   132.7810
 2137.0000  -999.2500   136.9450
 2137.5000  -999.2500   136.8478
 2138.0000  -999.2500   134.7246
 2138.5000  -999.2500   137.2265
 2139.0000  -999.2500   133.7474
 2139.5000  -999.2500   135.1877
 2140.0000  -999.2500   138.0890
 2140.5000  -999.2500   136.8017
 2141.0000  -999.2500   131.0630
 2141.5000  -999.2500   124.5934
 2142.0000  -999.2500   125.8502
 2142.5000  -999.2500   129.5864
 2143.0000  -999.2500   131.1749
 2143.5000  -999.2500   127.9714
 2144.0000  -999.2500   117.4310
 2144.5000  -999.2500   119.3296
 2145.0000  -999.2500   124.9368
 2145.5000  -999.2500   127.3013
 2146.0000  -999.2500   124.2343
 2146.5000  -999.2500   118.3258
 2147.0000  -999.2500   119.7652
 2147.5000  -999.2500   115.3903
 2148.0000  -999.2500   123.8094
 2148.5000  -999.2500   129.9396
 2149.0000  -999.2500   128.2825
 2149.5000  -999.2500   122.8685
 2150.0000  -999.2500   129.3588
 2150.5000  -999.2500   127.9528
 2151.0000  -999.2500   127.3425
 2151.5000  -999.2500   133.0018
 2152.0000  -999.2500   131.5987
 2152.5000  -999.2500   128.9987
 2153.0000  -999.2500   133.0400
 2153.5000  -999.2500   136.3053
 2154.0000  -999.2500   135.5429
 2154.5000  -999.2500   131.3397
 2155.0000  -999.2500   133.3363
 2155.5000  -999.2500   135.3535
 2156.0000  -999.2500   133.3393
 2156.5000  -999.2500   138.6816
 2157.0000  -999.2500   135.3349
 2157.5000  -999.2500   126.3221
 2158.0000  -999.2500   123.8840
 2158.5000  -999.2500   124.0714
 2159.0000  -999.2500   126.1112
 2159.5000  -999.2500   131.8028
 2160.0000  -999.2500   135.6263
 2160.5000  -999.2500   130.2055
 2161.0000  -999.2500   124.1528
 2161.5000  -999.2500   126.2231
 2162.0000  -999.2500   129.1586
 2162.5000  -999.2500   122.2955
 2163.0000  -999.2500   120.3077
 2163.5000  -999.2500   129.9877
 2164.0000  -999.2500   128.7868
 2164.5000  -999.2500   126.9040
 2165.0000  -999.2500   131.5575
 2165.5000  -999.2500   128.7103
 2166.0000  -999.2500   124.8230
 2166.5000  -999.2500   122.7861
 2167.0000  -999.2500   122.6821
 2167.5000  -999.2500   122.1091
 2168.0000  -999.2500   121.5410
 2168.5000  -999.2500   124.9701
 2169.0000  -999.2500   124.7759
 2169.5000  -999.2500   129.2430
 2170.0000  -999.2500   132.0756
 2170.5000  -999.2500   124.5070
 2171.0000  -999.2500   118.8851
 2171.5000  -999.2500   121.5028
 2172.0000  -999.2500   122.7371
 2172.5000  -999.2500   125.5578
 2173.0000  -999.2500   124.9260
 2173.5000  -999.2500   126.8284
 2174.0000  -999.2500   130.5391
 2174.5000  -999.2500   137.3659
 2175.0000  -999.2500   134.9581
 2175.5000  -999.2500   135.1495
 2176.0000  -999.2500   141.4906
 2176.5000  -999.2500   142.4433
 2177.0000  -999.2500   139.5940
 2177.5000  -999.2500   139.1633
 2178.0000  -999.2500   138.8219
 2178.5000  -999.2500   139.0966
 2179.0000  -999.2500   140.9147
 2179.5000  -999.2500   142.8593
 2180.0000  -999.2500   140.4339
 2180.5000  -999.2500   139.8727
 2181.0000  -999.2500   138.0890
 2181.5000  -999.2500   131.2887
 2182.0000  -999.2500   134.4450
 2182.5000  -999.2500   141.3660
 2183.0000  -999.2500   138.4324
 2183.5000  -999.2500   134.2144
 2184.0000  -999.2500   132.4396
 2184.5000  -999.2500   133.0449
 2185.0000  -999.2500   134.1889
 2185.5000  -999.2500   132.3463
 2186.0000  -999.2500   127.4367
 2186.5000  -999.2500   129.0193
 2187.0000  -999.2500   135.1122
 2187.5000  -999.2500   135.2584
 2188.0000  -999.2500   134.8424
 2188.5000  -999.2500   128.5366
 2189.0000  -999.2500   131.0758
 2189.5000  -999.2500   131.7057
 2190.0000  -999.2500   130.4312
 2190.5000  -999.2500   124.7474
 2191.0000  -999.2500   121.0868
 2191.5000  -999.2500   120.1498
 2192.0000  -999.2500   125.1006
 2192.5000  -999.2500   125.0261
 2193.0000  -999.2500   129.7620
 2193.5000  -999.2500   135.5949
 2194.0000  -999.2500   130.4655
 2194.5000  -999.2500   134.4774
 2195.0000  -999.2500   139.9384
 2195.5000  -999.2500   142.1136
 2196.0000  -999.2500   143.6697
 2196.5000  -999.2500   141.3395
 2197.0000  -999.2500   139.7118
 2197.5000  -999.2500   141.3042
 2198.0000  -999.2500   143.0928
 2198.5000  -999.2500   141.4258
 2199.0000  -999.2500   139.0387
 2199.5000  -999.2500   139.2771
 2200.0000  -999.2500   141.2119
 2200.5000  -999.2500   145.6369
 2201.0000  -999.2500   143.8404
 2201.5000  -999.2500   145.7379
 2202.0000  -999.2500   143.8169
 2202.5000  -999.2500   149.3083
 2203.0000  -999.2500   141.4798
 2203.5000  -999.2500   142.7818
 2204.0000  -999.2500   143.4175
 2204.5000  -999.2500   142.3030
 2205.0000  -999.2500   140.5153
 2205.5000  -999.2500   139.3056
 2206.0000  -999.2500   143.5108
 2206.5000  -999.2500   146.8084
 2207.0000  -999.2500   142.3412
 2207.5000  -999.2500   135.8677
 2208.0000  -999.2500   135.6479
 2208.5000  -999.2500   137.3423
 2209.0000  -999.2500   141.4013
 2209.5000  -999.2500   144.6008
 2210.0000  -999.2500   145.0551
 2210.5000  -999.2500   145.2072
 2211.0000  -999.2500   140.4300
 2211.5000  -999.2500   137.0666
 2212.0000  -999.2500   147.2587
 2212.5000  -999.2500   148.0466
 2213.0000  -999.2500   141.1158
 2213.5000  -999.2500   142.3599
 2214.0000  -999.2500   146.7466
 2214.5000  -999.2500   149.8254
 2215.0000  -999.2500   147.7699
 2215.5000  -999.2500   146.2324
 2216.0000  -999.2500   143.4902
 2216.5000  -999.2500   145.2091
 2217.0000  -999.2500   143.8365
 2217.5000  -999.2500   142.7092
 2218.0000  -999.2500   142.1931
 2218.5000  -999.2500   142.7111
 2219.0000  -999.2500   149.5065
 2219.5000  -999.2500   146.9428
 2220.0000  -999.2500   144.7028
 2220.5000  -999.2500   140.0454
 2221.0000  -999.2500   143.1075
 2221.5000  -999.2500   147.4029
 2222.0000  -999.2500   148.3802
 2222.5000  -999.2500   152.0035
 2223.0000  -999.2500   156.3804
 2223.5000  -999.2500   155.6308
 2224.0000  -999.2500   154.2631
 2224.5000  -999.2500   149.3505
 2225.0000  -999.2500   160.1068
 2225.5000  -999.2500   157.9797
 2226.0000  -999.2500   149.5399
 2226.5000  -999.2500   145.8459
 2227.0000  -999.2500   148.0220
 2227.5000  -999.2500   138.6973
 2228.0000  -999.2500   132.0991
 2228.5000  -999.2500   133.3893
 2229.0000  -999.2500   133.6974
 2229.5000  -999.2500   133.7788
 2230.0000  -999.2500   135.9462
 2230.5000  -999.2500   138.2666
 2231.0000  -999.2500   143.3293
 2231.5000  -999.2500   139.5862
 2232.0000  -999.2500   135.7048
 2232.5000  -999.2500   139.2614
 2233.0000  -999.2500   141.9154
 2233.5000  -999.2500   144.2456
 2234.0000  -999.2500   145.3690
 2234.5000  -999.2500   144.2172
 2235.0000  -999.2500   144.9521
 2235.5000  -999.2500   141.7084
 2236.0000  -999.2500   140.6949
 2236.5000  -999.2500   137.8368
 2237.0000  -999.2500   136.3838
 2237.5000  -999.2500   134.1075
 2238.0000  -999.2500   132.1423
 2238.5000  -999.2500   132.4808
 2239.0000  -999.2500   131.1307
 2239.5000  -999.2500   129.6678
 2240.0000  -999.2500   137.5699
 2240.5000  -999.2500   141.6731
 2241.0000  -999.2500   140.4643
 2241.5000  -999.2500   140.4133
 2242.0000  -999.2500   137.2148
