~VERSION INFORMATION
 VERS.                2.0:   CWLS LOG ASCII STANDARD - VERSION 2.0
 WRAP.                 NO:   ONE LINE PER DEPTH STEP
~WELL INFORMATION
#MNEM.UNIT      DATA TYPE    INFORMATION
#----------   ------------   ------------------------------
 STRT.F          240.0000:   START DEPTH
 STOP.F         2876.0000:   STOP DEPTH
 STEP.F            0.5000:   STEP LENGTH
 NULL.          -999.2500:   NO VALUE
 COMP.    FENIX & SCISSON:   COMPANY
 WELL. FENIX & SCISSON "A" #23-21:   WELL
 FLD .               NPR3:   FIELD
 LOC .      S21 T39N R78W:   LOCATION
 CNTY.            NATRONA:   COUNTY
 STAT.            WYOMING:   STATE
 CTRY. UNITED STATES OF AMERICA:   COUNTRY
 SRVC.              WELEX:   SERVICE COMPANY
 DATE.        05-MAR-1977:   LOGDATE
 API .     49025103030000:   API NUMBER
~CURVE INFORMATION
#MNEM.UNIT       API CODE    CURVE DESCRIPTION
#----------   ------------   ------------------------------
 DEPT.F                  :   
 GRD .GAPI   45 310 01 00:   GAMMA RAY FROM DENSITY LOG
 CALD.IN     45 280 60 00:   CALIPER FROM DENSITY LOG
 CORR.G/C3   45 356 01 00:   DENSITY CORRECTION
 RHOB.G/C3   45 350 01 00:   BULK DENSITY
 SPR .MV     07 010 01 00:   SPONTANEOUS POTENTIAL
 ILD .OHMM   07 120 46 00:   DEEP INDUCTION RESISTIVITY
 ILM .OHMM   07 120 44 00:   INDUCTION LOG MEDIUM RESISTIVITY
 SGRD.OHMM   07 220 05 00:   SHALLOW SHORT GUARD RESISTIVITY
~PARAMETER INFORMATION
#MNEM.UNIT          VALUE    DESCRIPTION
#----------   ------------   ------------------------------
 EKB .F         4986.0000:   Kelly bushing
 EGL .F         4976.0000:   Ground level
 TD  .F         2885.0000:   Total depth
 CLNT.            A2DTECH:   Client Code
 SL  . 990' FWL & 1650' FNL:   Surface Location
 DATE.        05-MAR-1977:   Date Logged [DD-MMM-YYYY]
 DD  .F              2885:   Depth driller
 DL  .F              2882:   Depth logger
 BLI .F              2876:   Bottom log interval
 TLI .F               238:   Top log interval
 CS1 .IN            8.625:   Casing size
 CBD1.      8.625" @ 251':   Casing driller 1
 CBL1.IN              251:   Casing logger 1
 BS1 .IN            7.875:   Bit size
 BSD1.F              2885:   Depth drilled with bit1
 DFT .                KCL:   Type fluid in hole
 DFD .                9.5:   Density
 TCS .HRS               3:   Time Circ. stopped
 MRT .F                78:   Maximum recorded temp.
 ENGI.          D. LAWSON:   Recorded By
 WITN.            K. JAPP:   Witnessed by
 ORIG.         2.5" PRINT:   Origin of data
 UWI .     49025103030000:   Unique Well ID
 DICO. A2D TECHNOLOGIES,INC.:   Digitizing Company
 PD  .                 GL:   Permanent Datum
 EPD .               4976:   Elevation Permanent Datum
 LMF .                 KB:   Log Measured From
 DMF .                 KB:   Drilling Measured From
 DAPD.                 10:   Feet Above Permanent Datum
 DFL .                8.8:   Fluid loss
 MSS .           FLOWLINE:   Source of sample
 RMS .OHMM            .40:   Rm
 MST .F                58:   Rm Meas. temp.
 RMF .OHMM            .37:   Rmf
 MFST.F                58:   Rmf Meas. temp.
 MFSS.OHMM            .67:   Source Rmf.
 MCST.F                58:   Rmc Meas. temp.
 MCSS.               MEAS:   Source Rmc.
 RMB .OHMM            .30:   Rm. at BHT
 BHT .F                78:   BHT.
~OTHER INFORMATION
~A   DEPT       GRD        CALD      CORR        RHOB      SPR        ILD        ILM       SGRD   
# ...
 2305.5000   139.4748    11.0278     0.0271     2.5217   -49.9837     4.9611     6.3360     6.8745
 2306.0000   140.1310    11.0570     0.0271     2.5172   -49.9822     4.8255     6.2656     7.1637
 2306.5000   142.9235    11.0863     0.0271     2.5143   -49.9808     4.7587     6.3672     7.3625
 2307.0000   144.5964    11.0861     0.0242     2.5113   -49.6834     4.7580     6.4382     7.2594
 2307.5000   145.0147    11.1154     0.0212     2.5053   -49.6828     4.7574     6.4367     7.0594
 2308.0000   145.0147    11.1447     0.0152     2.4994   -49.6849     4.7567     6.3220     6.9605
 2308.5000   145.4702    11.1739     0.0122     2.4890   -49.6870     4.7562     6.0776     6.9586
 2309.0000   151.1730    11.2032     0.0063     2.4770   -49.6891     4.7555     5.9120     6.9567
 2309.5000   151.7595    11.2031     0.0033     2.4681   -49.6911     4.7864     5.7597     6.8592
 2310.0000   150.0000    11.2323     0.0033     2.4845   -49.6932     4.8492     5.7585     6.3992
 2310.5000   144.0217    11.2616     0.0063     2.4979   -49.6953     4.9128     5.7573     5.9700
 2311.0000   140.6258    11.3083     0.0123     2.5069   -49.6974     5.0463     5.7562     5.8863
 2311.5000   137.9908    11.3201     0.0153     2.5084   -49.6995     5.1835     5.8401     6.2194
 2312.0000   135.8220    11.3494     0.0153     2.5069   -49.7016     5.3058     5.9191     6.7556
 2312.5000   134.2380    11.3786     0.0153     2.5054   -49.7037     5.4534     5.9989     7.0398
 2313.0000   133.2845    11.4079     0.0154     2.5039   -49.7041     5.5408     6.0800     7.0379
 2313.5000   137.4015    11.4372     0.0154     2.5054   -49.7041     5.6043     6.2477     7.0359
 2314.0000   139.6109    11.4664     0.0154     2.5069   -49.4083     5.6813     6.4194     7.2312
 2314.5000   137.7270    11.4957     0.0154     2.5084   -49.4083     5.6805     6.5976     7.6404
 2315.0000   135.5913    11.5250     0.0154     2.5099   -49.2406     5.6797     6.7806     7.9618
 2315.5000   135.5024    11.5542     0.0184     2.5084   -49.1124     5.7577     6.9687     7.9596
 2316.0000   136.7097    11.5706     0.0184     2.5084   -49.1124     5.7569     7.0640     7.9574
 2316.5000   138.1729    11.5998     0.0215     2.5144   -49.1124     5.7561     7.1606     7.8459
 2317.0000   139.4743    11.6289     0.0275     2.5293   -49.1124     5.7553     7.1591     7.8437
 2317.5000   140.4838    11.6581     0.0305     2.5383   -49.1124     5.7545     7.0596     7.7339
 2318.0000   141.3627    11.6711     0.0335     2.5249   -49.1124     5.7536     6.9615     7.6255
 2318.5000   141.9482    11.7164     0.0305     2.5189   -49.1124     5.8328     6.7707     7.6234
 2319.0000   142.3754    11.7750     0.0305     2.5308   -49.1124     5.8319     6.6766     7.4134
 2319.5000   142.3754    11.8178     0.0275     2.5428   -49.1124     5.8313     6.5838     7.2091
 2320.0000   139.7758    11.8627     0.0275     2.5472   -49.1124     5.9114     6.5825     7.1481
 2320.5000   135.4750    11.9213     0.0276     2.5428   -49.1124     5.9106     6.5811     7.1066
 2321.0000   136.2479    11.9799     0.0246     2.5353   -49.1124     5.9097     6.5797     7.1619
 2321.5000   138.2835    12.0385     0.0246     2.5309   -49.1124     5.9089     6.6698     7.4186
 2322.0000   138.4104    12.0817     0.0276     2.5339   -49.1124     5.9081     6.7610     7.6090
 2322.5000   137.0870    12.1262     0.0276     2.5383   -49.1124     5.9073     6.8533     7.8203
 2323.0000   135.3218    12.1403     0.0276     2.5324   -49.1124     5.9065     6.8519     7.9270
 2323.5000   132.3867    12.1552     0.0306     2.5249   -48.8166     5.8880     6.8505     7.9248
 2324.0000   132.1235    12.1694     0.0307     2.5205   -48.8166     5.8102     6.8491     7.9226
 2324.5000   134.7541    12.1840     0.0307     2.5175   -48.8166     5.6549     6.8476     7.9204
 2325.0000   136.0704    12.2132     0.0307     2.5190   -48.5207     5.5865     6.7525     7.8638
 2325.5000   136.6560    12.2424     0.0277     2.5220   -48.5207     5.5092     6.7511     7.7547
 2326.0000   137.5347    12.2571     0.0277     2.5280   -48.5207     5.5085     6.6572     7.5922
 2326.5000   138.5570    12.2864     0.0247     2.5235   -48.2249     5.5077     6.3861     7.3900
 2327.0000   140.7354    12.3005     0.0218     2.5071   -47.9290     5.4315     6.2974     7.1796
 2327.5000   146.1593    12.3155     0.0188     2.4982   -47.9290     5.3564     6.2961     7.0354
 2328.0000   145.9184    12.3294     0.0158     2.4848   -47.6331     5.2823     6.2086     6.8425
 2328.5000   142.4165    12.3446     0.0158     2.4758   -47.4921     5.2815     6.1223     6.7877
 2329.0000   139.7670    12.3444     0.0158     2.4863   -47.3373     5.2808     6.0372     6.7858
 2329.5000   137.8560    12.3443     0.0159     2.4982   -47.3373     5.2800     6.0359     6.7839
 2330.0000   136.9600    12.3442     0.0189     2.4937   -47.3373     5.2070     6.0347     6.8765
 2330.5000   136.9394    12.3440     0.0189     2.4833   -47.3373     5.1351     6.0334     6.9120
 2331.0000   138.3585    12.3439     0.0219     2.4759   -47.0414     5.1344     6.0322     6.9688
 2331.5000   141.0171    12.3437     0.0189     2.4669   -46.6105     5.0634     6.0311     6.9664
 2332.0000   142.0821    12.3436     0.0189     2.4610   -46.3156     5.0313     6.0299     6.9645
 2332.5000   141.5247    12.3434     0.0159     2.4595   -46.1538     4.9927     6.0287     6.9626
 2333.0000   140.9091    12.3433     0.0160     2.4595   -45.8580     4.9920     6.0275     6.9607
 2333.5000   141.9187    12.3431     0.0160     2.4595   -45.5621     4.9230     6.0262     6.9588
 2334.0000   141.8241    12.3430     0.0160     2.4551   -45.4319     4.9223     6.0249     6.9568
 2334.5000   140.5246    12.3428     0.0190     2.4566   -45.2663     4.8542     6.0237     6.8302
 2335.0000   138.7685    12.3427     0.0250     2.4715   -45.1381     4.7871     6.0224     6.7355
 2335.5000   137.1379    12.3425     0.0310     2.4923   -44.8433     4.7774     6.0212     6.5508
 2336.0000   136.2170    12.3424     0.0370     2.5058   -44.2524     4.7203     5.9793     6.3958
 2336.5000   136.7138    12.3422     0.0370     2.5073   -43.7870     4.7196     5.8972     6.4181
 2337.0000   139.7655    12.3421     0.0370     2.4983   -43.6627     4.7189     5.8161     6.6871
 2337.5000   141.2023    12.3419     0.0341     2.4879   -43.0720     4.6537     5.6934     6.7775
 2338.0000   140.4945    12.3418     0.0341     2.4819   -42.7771     4.6530     5.6142     6.9417
 2338.5000   139.4958    12.3416     0.0371     2.4894   -42.3607     4.6524     5.5033     6.8226
 2339.0000   138.2055    12.3415     0.0431     2.5043   -41.5957     4.5880     5.3845     6.6356
 2339.5000   136.4485    12.3119     0.0521     2.5147   -41.0619     4.5874     5.3098     6.3834
 2340.0000   134.8093    12.2824     0.0551     2.5222   -39.5858     4.5867     5.3086     6.2940
 2340.5000   133.3450    12.2411     0.0551     2.5118   -37.5177     4.5861     5.3075     6.2922
 2341.0000   132.0588    12.1823     0.0551     2.4984   -35.1540     4.7136     5.3064     6.4103
 2341.5000   130.5951    12.1528     0.0581     2.4880   -33.0860     4.9259     5.3792     6.7712
 2342.0000   127.3927    12.1053     0.0581     2.4760   -30.7885     5.1981     5.3779     7.0381
 2342.5000   120.5667    12.1052     0.0552     2.4582   -27.9491     5.4852     5.4023     7.1185
 2343.0000   112.7738    12.0938     0.0492     2.4328   -25.9940     5.7883     5.5513     7.0187
 2343.5000    98.8034    12.0239     0.0432     2.3881   -24.2219     5.9893     5.6795     7.0168
 2344.0000    81.8633    11.9357     0.0402     2.3703   -21.7121     6.1205     5.7814     7.0148
 2344.5000    73.8079    11.8475     0.0373     2.3683   -18.0912     6.1195     5.8595     7.5988
 2345.0000    69.6967    11.7299     0.0373     2.3792   -15.2468     6.1187     6.0694     8.8692
 2345.5000    69.0616    11.6123     0.0373     2.3867   -13.1792     6.1179     6.4979     8.8666
