~VERSION INFORMATION
 VERS.                2.0:   CWLS LOG ASCII STANDARD - VERSION 2.0
 WRAP.                 NO:   ONE LINE PER DEPTH STEP
~WELL INFORMATION
#MNEM.UNIT      DATA TYPE    INFORMATION
#----------   ------------   ------------------------------
 STRT.F          210.0000:   START DEPTH
 STOP.F         2998.0000:   STOP DEPTH
 STEP.F            0.5000:   STEP LENGTH
 NULL.          -999.2500:   NO VALUE
 COMP.    FENIX & SCISSON:   COMPANY
 WELL. FENIX & SCISSON "A" #41-28:   WELL
 FLD .          N.P.R. #3:   FIELD
 LOC .      S28 T39N R78W:   LOCATION
 CNTY.            NATRONA:   COUNTY
 STAT.            WYOMING:   STATE
 CTRY. UNITED STATES OF AMERICA:   COUNTRY
 SRVC.       SCHLUMBERGER:   SERVICE COMPANY
 DATE.        08-MAY-1977:   LOGDATE
 API .     49025103670000:   API NUMBER
~CURVE INFORMATION
#MNEM.UNIT       API CODE    CURVE DESCRIPTION
#----------   ------------   ------------------------------
 DEPT.F                  :   
 CALD.IN     45 280 60 00:   CALIPER FROM DENSITY LOG
 GRD .GAPI   45 310 01 00:   GAMMA RAY FROM DENSITY LOG
 CORR.G/C3   45 356 01 00:   DENSITY CORRECTION
 RHOB.G/C3   45 350 01 00:   BULK DENSITY
 SPR .MV     07 010 01 00:   SPONTANEOUS POTENTIAL
 LL8 .OHMM   07 220 08 00:   LATEROLOG-8 RES.
 ILM .OHMM   07 120 44 00:   INDUCTION LOG MEDIUM RESISTIVITY
 ILD .OHMM   07 120 46 00:   DEEP INDUCTION RESISTIVITY
~PARAMETER INFORMATION
#MNEM.UNIT          VALUE    DESCRIPTION
#----------   ------------   ------------------------------
 EKB .F         5012.0000:   Kelly bushing
 EGL .F         5002.0000:   Ground level
 TD  .F         3000.0000:   Total depth
 CLNT.            A2DTECH:   Client Code
 SL  . 330' FNL & 2310' FWL:   Surface Location
 DATE.        08-MAY-1977:   Date Logged [DD-MMM-YYYY]
 DD  .F              3000:   Depth driller
 DL  .F              2999:   Depth logger
 BLI .F              2993:   Bottom log interval
 TLI .F               222:   Top log interval
 CS1 .              8.625:   Casing size
 CBD1.      8.625" @ 112':   Casing driller 1
 CBL1.IN              222:   Casing logger 1
 BS1 .IN            7.875:   Bit size
 BSD1.F              3000:   Depth drilled with bit1
 DFT .                KCL:   Type fluid in hole
 DFD .                8.8:   Density
 DFV .                 32:   Viscosity
 DFPH.                8.0:   pH
 DFL .                8.8:   Fluid loss
 MSS .           FLOWLINE:   Source of sample
 RMS .OHMM          0.124:   Rm
 MST .F                80:   Rm Meas. temp.
 RMF .OHMM          0.117:   Rmf
 MFST.F                80:   Rmf Meas. temp.
 MFSS.               MEAS:   Source Rmf.
 RMB .OHMM         0.0886:   Rm. at BHT
 BHT .F               112:   BHT.
 TCS .HRS            0200:   Time Circ. stopped
 TLAB.HRS            0515:   Time logger at bottom
 MRT .F               112:   Maximum recorded temp.
 LUN .               5642:   Logging unit number
 LUL .               CSPR:   Logging unit location
 ENGI.            MARATIN:   Recorded By
 WITN.         PETTINGILL:   Witnessed by
 ORIG.      2.5" 5" PRINT:   Origin of data
 UWI .     49025103670000:   Unique Well ID
 DICO. A2D TECHNOLOGIES, INC.:   Digitizing Company
 PD  .                 GL:   Permanent Datum
 EPD .               5002:   Elevation Permanent Datum
 LMF .                 KB:   Log Measured From
 DMF .                 KB:   Drilling Measured From
 DAPD.                 10:   Feet Above Permanent Datum
~OTHER INFORMATION
~A   DEPT     CALD         GRD      CORR       RHOB        SPR        LL8        ILM        ILD   
# ...
 1303.5000     8.4336   111.9734     0.1252     2.5669   -71.2521     9.5346     8.0305     7.5588
 1304.0000     8.4358   115.5679     0.1140     2.5625   -70.9372     9.4450     8.0305     7.4556
 1304.5000     8.4380   116.7779     0.1141     2.5431   -70.3138     9.4443     8.0305     7.4561
 1305.0000     8.4403   116.4485     0.1185     2.5394   -70.3076     9.4911     8.0305     7.4567
 1305.5000     8.4426   111.0870     0.1156     2.5432   -70.3014     9.6272     8.0305     7.5609
 1306.0000     8.4448   112.2334     0.1212     2.5530   -70.6039     9.7652     8.1459     7.5614
 1306.5000     8.4470   113.0026     0.1306     2.5636   -70.5977     9.9052     8.1459     7.5619
 1307.0000     8.4497   113.5877     0.1345     2.5726   -70.5916    10.1917     8.1459     7.5600
 1307.5000     8.4519   110.6292     0.1308     2.5757   -70.5854    10.2849     8.1459     7.2560
 1308.0000     8.4541   112.2862     0.1270     2.5704   -70.5792     9.9434     8.1459     7.2565
 1308.5000     8.4414   114.5394     0.1211     2.5643   -70.2644     9.5256     8.1459     7.2570
 1309.0000     8.4436   116.9416     0.1121     2.5510   -69.9496     9.2565     8.1459     7.2575
 1309.5000     8.4608   118.4452     0.1091     2.5333   -69.3261     9.1719     8.1459     7.2580
 1310.0000     8.4475   115.4823     0.1159     2.5304   -68.7027     9.1712     8.1459     7.2585
 1310.5000     8.4503   117.2928     0.1175     2.5581   -69.0051     9.1705     8.1459     7.2590
 1311.0000     8.4525   119.5460     0.1040     2.5589   -70.2335     9.1699     8.1459     7.2595
 1311.5000     8.4547   121.3521     0.1025     2.5373   -71.4619     9.1692     8.0305     7.2600
 1312.0000     8.4569   122.1105     0.1062     2.5231   -72.0730     9.1686     8.0305     7.2605
 1312.5000     8.4591   117.0656     0.1124     2.5382   -72.6842     9.1679     8.0305     7.2610
 1313.0000     8.4614   114.8434     0.1214     2.5570   -72.6780     9.1673     8.0305     7.2616
 1313.5000     8.4486   118.1442     0.1229     2.5630   -72.6718     9.1666     8.0305     7.2621
 1314.0000     8.4509   120.6954     0.1155     2.5466   -72.9743     9.1659     7.9169     7.2626
 1314.5000     8.4531   121.4583     0.1088     2.5362   -72.9681     9.1653     7.9169     7.2680
 1315.0000     8.4553   119.0915     0.1042     2.5310   -72.9619     9.1646     7.9169     7.3696
 1315.5000     8.4277   116.5757     0.1059     2.5094   -72.9558     9.1640     7.9169     7.4675
 1316.0000     8.4299   117.4876     0.1112     2.5207   -72.6409     9.1633     7.9169     7.4680
 1316.5000     8.4321   119.2937     0.1196     2.5395   -72.0175     9.1627     7.9169     7.5723
 1317.0000     8.4343   120.5156     0.1311     2.5612   -71.3940     9.1620     7.9169     7.5729
 1317.5000     8.4365   122.0316     0.1360     2.5755   -71.3879     9.2933     7.9169     7.5734
 1318.0000     8.4538   122.7745     0.1323     2.5801   -70.7644     9.2925     7.9169     7.5739
 1318.5000     8.4410   118.8523     0.1301     2.5770   -70.1409     9.2918     7.9169     7.4706
 1319.0000     8.4461   116.8590     0.1234     2.5672   -70.4434     9.2911     7.9169     7.4711
 1319.5000     8.4609   112.2508     0.1106     2.5558   -70.7459     9.3437     7.9169     7.4716
 1320.0000     8.4780   109.5860     0.1016     2.5205   -71.3570     9.4235     7.9169     7.3629
 1320.5000     8.4802   111.6901     0.1033     2.5363   -71.6595     9.4227     7.9169     7.2691
 1321.0000     8.4974   115.7317     0.1107     2.5476   -72.2706     9.4221     7.9169     7.2696
 1321.5000     8.4996   119.6242     0.1190     2.5559   -72.5731     9.4214     7.9169     7.2701
 1322.0000     8.5018   123.0696     0.1199     2.5470   -72.5669     9.4207     7.9169     7.2706
 1322.5000     8.5040   126.0679     0.1146     2.5335   -72.5607     9.4201     7.9169     7.2787
 1323.0000     8.5062   127.5760     0.1139     2.5478   -72.8642     9.4194     7.9169     7.3727
 1323.5000     8.4935   126.6995     0.1154     2.5576   -73.1666     9.4187     7.9169     7.4757
 1324.0000     8.5107   121.9482     0.1140     2.5599   -72.8508     9.4180     7.9169     7.4762
 1324.5000     8.5129   118.3891     0.1200     2.5592   -72.8447     9.4174     7.9169     7.4767
 1325.0000     8.4996   118.2534     0.1133     2.5488   -72.5298     9.4167     7.9169     7.4773
 1325.5000     8.5024   118.8716     0.1284     2.5571   -72.2150     9.4160     7.9169     7.4778
 1326.0000     8.5046   118.2932     0.1254     2.5639   -71.9002     9.4153     7.9169     7.3757
 1326.5000     8.5068   116.6672     0.1276     2.5662   -71.5854     9.4147     7.9169     7.4788
 1327.0000     8.5240   118.0306     0.1315     2.5663   -71.2706     9.4140     7.9169     7.4793
 1327.5000     8.5262   119.6876     0.1270     2.5679   -71.2644     9.4133     7.9169     7.4798
 1328.0000     8.5284   119.1092     0.1188     2.5664   -70.9496     9.4127     7.9169     7.4804
 1328.5000     8.5306   116.2953     0.1127     2.5628   -70.6348     9.4120     7.9169     7.4908
 1329.0000     8.5328   116.9091     0.1159     2.5523   -70.6286     9.4113     7.9169     7.5854
 1329.5000     8.5201   117.8251     0.1136     2.5403   -70.6224     9.4106     7.9169     7.5859
 1330.0000     8.5224   118.2861     0.1106     2.5305   -70.3076     9.4100     7.9169     7.5761
 1330.5000     8.5096   117.2128     0.1048     2.5238   -70.3014     9.4093     7.9169     7.4829
 1331.0000     8.5120   115.5736     0.0950     2.5182   -69.9866     9.4086     7.9169     7.4835
 1331.5000     8.4992   115.0603     0.1003     2.5108   -69.9805     9.4080     7.9169     7.4840
 1332.0000     8.5019   121.0437     0.1124     2.5191   -70.2839     9.4073     8.0305     7.4845
 1332.5000     8.5041   122.5517     0.1199     2.5214   -70.5854     9.4066     8.0305     7.4850
 1333.0000     8.4914   122.8630     0.1201     2.5200   -71.1965     9.4060     8.0305     7.4855
 1333.5000     8.4936   116.6258     0.1094     2.5291   -72.1162     9.4053     8.1459     7.4860
 1334.0000     8.4804   116.3411     0.1058     2.5411   -72.4197     9.4046     8.2628     7.4865
 1334.5000     8.4832   117.4064     0.1080     2.5097   -72.4126     9.4039     8.2641     7.4871
 1335.0000     8.5152   118.1693     0.1171     2.5248   -72.7160     9.4033     8.3815     7.4876
 1335.5000     8.5174   116.6967     0.1261     2.5609   -73.0185     9.4026     8.5018     7.4881
 1336.0000     8.5197   115.2241     0.1224     2.5625   -73.0113     9.4019     8.5018     7.4763
 1336.5000     8.5064   112.8573     0.1239     2.5596   -72.6965     9.4013     8.5018     7.2851
 1337.0000     8.5092   108.8511     0.1255     2.5446   -72.3817     9.4006     8.5018     7.2733
 1337.5000     8.5114   108.2683     0.1217     2.5454   -72.3755     9.2666     8.5018     7.1862
 1338.0000     8.4981   115.7420     0.1202     2.5590   -71.7521     9.2660     8.5018     7.1742
 1338.5000     8.5009   120.5287     0.1256     2.5628   -71.1286     9.2653     8.5018     7.0886
 1339.0000     8.5180   123.0799     0.1241     2.5651   -70.8138     9.2038     8.5018     7.0891
 1339.5000     8.5202   124.2899     0.1204     2.5621   -70.4990     9.1327     8.5018     7.0896
 1340.0000     8.5225   124.9230     0.1174     2.5375   -70.1842     9.1320     8.5018     7.0901
 1340.5000     8.5260   123.5801     0.1250     2.5571   -70.1780     9.1314     8.5018     7.0906
 1341.0000     8.5120   121.3624     0.1115     2.5578   -70.1718     9.0012     8.5018     7.0911
 1341.5000     8.5142   120.1878     0.1085     2.5301   -70.1656     9.0006     8.5018     7.0916
 1342.0000     8.5164   119.0133     0.1094     2.5479   -70.4691     9.0000     8.5018     7.1060
 1342.5000     8.5196   119.0313     0.1139     2.5513   -70.4619     9.1287     8.5018     7.1912
 1343.0000     8.5209   118.8843     0.1244     2.5356   -71.0730     9.1281     8.5018     7.2917
 1343.5000     8.5232   117.8092     0.1214     2.5521   -71.3755     9.2587     8.5018     7.4085
