~VERSION INFORMATION
 VERS.                2.0:   CWLS LOG ASCII STANDARD - VERSION 2.0
 WRAP.                 NO:   ONE LINE PER DEPTH STEP
~WELL INFORMATION
#MNEM.UNIT      DATA TYPE    INFORMATION
#----------   ------------   ------------------------------
 STRT.F           32.0000:   START DEPTH
 STOP.F         5116.0000:   STOP DEPTH
 STEP.F            0.5000:   STEP LENGTH
 NULL.          -999.2500:   NO VALUE
 COMP. LAWRENCE ALLISON AND ASSOCIATES:   COMPANY
 WELL. LAWRENCE "X" #11-26:   WELL
 FLD .       N.P.R. NO. 3:   FIELD
 LOC .      S26 T38N R78W:   LOCATION
 CNTY.            NATRONA:   COUNTY
 STAT.            WYOMING:   STATE
 CTRY. UNITED STATES OF AMERICA:   COUNTRY
 SRVC.      DRESSER ATLAS:   SERVICE COMPANY
 DATE.        03-DEC-1984:   LOGDATE
 API .     49025110120000:   API NUMBER
~CURVE INFORMATION
#MNEM.UNIT       API CODE    CURVE DESCRIPTION
#----------   ------------   ------------------------------
 DEPT.F                  :   
 CALD.IN     45 280 60 00:   CALIPER FROM DENSITY LOG
 TEND.LBS    45 635 01 00:   TENSION FORM DENSITY LOG
 CORR.G/C3   45 356 01 00:   DENSITY CORRECTION
 DEN .G/C3   45 350 01 00:   BULK DENSITY
 NPHI.DEC    42 890 03 00:   NEUTRON POROSITY SANDSTONE
 GRR .GAPI   07 310 01 00:   GAMMA RAY FROM RESISTIVITY
 SPR .MV     07 010 01 00:   SPONTANEOUS POTENTIAL
 CALR.IN     07 280 01 00:   CALIPER FROM RESISTIVITY
 TENR.LBS    07 635 01 00:   TENSION FROM RESISTIVITY
 RILD.OHMM   07 120 46 00:   INDUCTION LOG DEEP RESISTIVITY
 RILM.OHMM   07 120 44 00:   INDUCTION LOG MEDIUM RESISTIVITY
 RFOC.OHMM   07 220 04 00:   RESISTIVITY FOCUSED LOG RES.
 TENS.LBS    60 635 01 00:   TENSION FROM SONIC
 DT  .US/F   60 520 00 00:   DELTA TIME
~PARAMETER INFORMATION
#MNEM.UNIT          VALUE    DESCRIPTION
#----------   ------------   ------------------------------
 EKB .F         5321.0000:   Kelly bushing
 EGL .F         5309.0000:   Ground level
 EDF .F         5320.0000:   Drilling floor
 TD  .F         5104.0000:   Total depth
 CLNT.            A2DTECH:   Client Code
 SL  . 509' FWL & 22' FNL:   Surface Location
 PD  .                 GL:   Permanent Datum
 EPD .F              5309:   Elevation Permanent Datum
 LMF .                 KB:   Log Measured From
 DMF .                 KB:   Drilling Measured From
 DAPD.F                12:   Feet Above Permanent Datum
 DATE.        03-DEC-1984:   Date Logged [DD-MMM-YYYY]
 DD  .F              5100:   Depth driller
 DL  .F              5104:   Depth logger
 BLI .F              5102:   Bottom log interval
 TLI .F              1400:   Top log interval
 CS1 .IN            9.625:   Casing size
 CBD1.     9.625' @ 1657':   Casing driller 1
 CBL1.F              1652:   Casing logger 1
 BS1 .IN            7.875:   Bit size
 DFT .            KCL GEL:   Type fluid in hole
 DFD .                90.:   Density
 DFV .                 41:   Viscosity
 DFPH.                8.9:   pH
 DFL .               12.6:   Fluid loss
 MSS .           FLOWLINE:   Source of sample
 RMS .OHMM           .327:   Rm
 MST .F                84:   Rm Meas. temp.
 RMF .OHMM            .29:   Rmf
 MFST.F                84:   Rmf Meas. temp.
 MFSS.               CALC:   Source Rmf.
 RMC .OHMM            .42:   Rmc
 MCST.F                84:   Rmc Meas. temp.
 MCSS.               CALC:   Source Rmc.
 RMB .OHMM            .23:   Rm. at BHT
 BHT .F               142:   BHT.
 TCS .HRS               4:   Time Circ. stopped
 MRT .F               142:   Maximum recorded temp.
 LUN .               6307:   Logging unit number
 LUL .               CLTE:   Logging unit location
 WITN.             STRONG:   Witnessed by
 ORIG.           5" PRINT:   Origin of data
 UWI .     49025110120000:   Unique Well ID
 DICO. A2D TECHNOLOGIES, INC.:   Digitizing Company
~OTHER INFORMATION
~A  DEPTH     CALD       TEND       CORR        DEN       NPHI        GRR        SPR       CALR       TENR       RILD       RILM       RFOC       TENS         DT
# ...
 2041.0000  -999.2500  -999.2500  -999.2500  -999.2500  -999.2500    94.3392   -39.8533    11.2363   -69.4444     6.5531     6.1548     6.6346  -999.2500  -999.2500
 2041.5000  -999.2500  -999.2500  -999.2500  -999.2500  -999.2500    96.7776   -39.8722    11.2682   -69.2568     6.5522     6.1552     6.6632  -999.2500  -999.2500
 2042.0000  -999.2500  -999.2500  -999.2500  -999.2500  -999.2500    99.5126   -40.1285    11.3131   -69.0691     6.5969     6.1984     6.6844  -999.2500  -999.2500
 2042.5000  -999.2500  -999.2500  -999.2500  -999.2500  -999.2500   101.0410   -40.2472    11.3341   -68.8560     6.6418     6.2419     6.6865  -999.2500  -999.2500
 2043.0000  -999.2500  -999.2500  -999.2500  -999.2500  -999.2500   100.0184   -40.4006    11.3796   -65.8755     6.6410     6.2902     6.7348  -999.2500  -999.2500
 2043.5000  -999.2500  -999.2500  -999.2500  -999.2500  -999.2500    95.6563   -40.6887    11.4204   -60.9985     6.6401     6.3298     6.7365  -999.2500  -999.2500
 2044.0000  -999.2500  -999.2500  -999.2500  -999.2500  -999.2500    95.0681   -40.6724    11.4813   -60.8108     6.6392     6.2431     6.7384  -999.2500  -999.2500
 2044.5000  -999.2500  -999.2500  -999.2500  -999.2500  -999.2500    95.3949   -40.9639    11.5293   -60.6231     6.6383     6.1577     6.7406  -999.2500  -999.2500
 2045.0000  -999.2500  -999.2500  -999.2500  -999.2500  -999.2500    95.4149   -41.0982    11.6032   -60.4086     6.6372     6.1208     6.7423  -999.2500  -999.2500
 2045.5000  -999.2500  -999.2500  -999.2500  -999.2500  -999.2500    96.9484   -41.2364    11.6491   -60.2477     6.5904     5.9903     6.6971  -999.2500  -999.2500
 2046.0000  -999.2500  -999.2500  -999.2500  -999.2500  -999.2500    90.9353   -41.2228    11.6949   -60.0505     6.5439     5.9084     6.6071  -999.2500  -999.2500
 2046.5000  -999.2500  -999.2500  -999.2500  -999.2500  -999.2500    86.1288   -41.2093    11.7421   -59.8715     6.4527     5.8274     6.5167  -999.2500  -999.2500
 2047.0000  -999.2500  -999.2500  -999.2500  -999.2500  -999.2500    83.1323   -41.1936    11.7867   -59.6477     6.3629     5.7478     6.3808  -999.2500  -999.2500
 2047.5000  -999.2500  -999.2500  -999.2500  -999.2500  -999.2500    81.9457   -41.1805    11.8175   -59.4687     6.2741     5.7085     6.2997  -999.2500  -999.2500
 2048.0000  -999.2500  -999.2500  -999.2500  -999.2500  -999.2500    88.9091   -41.1687    11.8332   -59.3093     6.1867     5.6694     6.2578  -999.2500  -999.2500
 2048.5000  -999.2500  -999.2500  -999.2500  -999.2500  -999.2500    95.5657   -40.8533    11.8489   -59.1106     6.1859     5.6699     6.2158  -999.2500  -999.2500
 2049.0000  -999.2500  -999.2500  -999.2500  -999.2500  -999.2500   100.1106   -40.8393    11.8495   -58.9166     6.0997     5.6703     6.1323  -999.2500  -999.2500
 2049.5000  -999.2500  -999.2500  -999.2500  -999.2500  -999.2500   103.1473   -40.5886    11.8503   -58.7462     6.0148     5.6707     6.1097  -999.2500  -999.2500
 2050.0000  -999.2500  -999.2500  -999.2500  -999.2500  -999.2500    98.0392   -40.5099    11.8333   -66.0362     5.9722     5.6710     6.0442  -999.2500  -999.2500
 2050.5000  -999.2500  -999.2500  -999.2500  -999.2500  -999.2500    95.0493   -40.1215    11.8215   -65.8783     5.9302     5.6714     6.0003  -999.2500  -999.2500
 2051.0000  -999.2500  -999.2500  -999.2500  -999.2500  -999.2500    94.1671   -39.7309    11.8222   -65.6781     5.9292     5.5938     5.8467  -999.2500  -999.2500
 2051.5000  -999.2500  -999.2500  -999.2500  -999.2500  -999.2500    94.1944   -39.4167    11.7927   -65.4991     5.9285     5.6723     5.8476  -999.2500  -999.2500
 2052.0000  -999.2500  -999.2500  -999.2500  -999.2500  -999.2500    99.3467   -39.2530    11.7632   -65.3153     5.9277     5.6334     5.8660  -999.2500  -999.2500
 2052.5000  -999.2500  -999.2500  -999.2500  -999.2500  -999.2500   102.3862   -39.0862    11.7337   -65.1276     5.9268     5.5180     5.8899  -999.2500  -999.2500
 2053.0000  -999.2500  -999.2500  -999.2500  -999.2500  -999.2500   103.0123   -38.9226    11.7043   -64.9172     5.9260     5.5184     5.8908  -999.2500  -999.2500
 2053.5000  -999.2500  -999.2500  -999.2500  -999.2500  -999.2500    98.5103   -39.2108    11.6749   -64.7523     5.9251     5.5188     5.8916  -999.2500  -999.2500
 2054.0000  -999.2500  -999.2500  -999.2500  -999.2500  -999.2500    92.1108   -39.1978    11.6420   -64.5592     5.9244     5.5191     5.8515  -999.2500  -999.2500
 2054.5000  -999.2500  -999.2500  -999.2500  -999.2500  -999.2500    91.6178   -39.4860    11.5860   -64.3653     5.9236     5.5196     5.8120  -999.2500  -999.2500
 2055.0000  -999.2500  -999.2500  -999.2500  -999.2500  -999.2500    93.1546   -40.0754    11.5566   -64.1892     5.9227     5.5199     5.8130  -999.2500  -999.2500
 2055.5000  -999.2500  -999.2500  -999.2500  -999.2500  -999.2500    94.0824   -40.8303    11.5269   -64.0015     5.9218     5.5973     5.8542  -999.2500  -999.2500
 2056.0000  -999.2500  -999.2500  -999.2500  -999.2500  -999.2500    94.4072   -41.1205    11.4825   -63.7983     5.9623     5.6758     5.8956  -999.2500  -999.2500
 2056.5000  -999.2500  -999.2500  -999.2500  -999.2500  -999.2500    94.7371   -41.4098    11.4380   -63.6261     6.0031     5.6762     5.9787  -999.2500  -999.2500
 2057.0000  -999.2500  -999.2500  -999.2500  -999.2500  -999.2500    96.5699   -41.3955    11.3784   -63.4384     6.0864     5.6289     6.0644  -999.2500  -999.2500
 2057.5000  -999.2500  -999.2500  -999.2500  -999.2500  -999.2500    98.4027   -41.3841    11.3340   -63.2164     6.1705     5.7561     6.3214  -999.2500  -999.2500
 2058.0000  -999.2500  -999.2500  -999.2500  -999.2500  -999.2500    98.4378   -41.2220    11.2893   -63.0631     6.2558     5.9182     6.5452  -999.2500  -999.2500
 2058.5000  -999.2500  -999.2500  -999.2500  -999.2500  -999.2500    94.2309   -41.0602    11.2299   -62.8754     6.3867     6.1334     6.6374  -999.2500  -999.2500
 2059.0000  -999.2500  -999.2500  -999.2500  -999.2500  -999.2500    92.4438   -40.9645    11.1834   -62.6793     6.5205     6.4767     6.5924  -999.2500  -999.2500
 2059.5000  -999.2500  -999.2500  -999.2500  -999.2500  -999.2500    90.9583   -40.4318    11.1408   -62.5000     6.7031     6.8936     6.6963  -999.2500  -999.2500
 2060.0000  -999.2500  -999.2500  -999.2500  -999.2500  -999.2500    90.0762   -40.1191    11.0965   -62.3123     6.8910     7.1866     7.0676  -999.2500  -999.2500
 2060.5000  -999.2500  -999.2500  -999.2500  -999.2500  -999.2500    88.8649   -39.8065    11.0670   -62.0975     7.0903     7.3889     7.3686  -999.2500  -999.2500
 2061.0000  -999.2500  -999.2500  -999.2500  -999.2500  -999.2500    88.3119   -39.3432    11.0526   -61.9370     7.2826     7.4925     7.6294  -999.2500  -999.2500
 2061.5000  -999.2500  -999.2500  -999.2500  -999.2500  -999.2500    90.4521   -38.8771    11.0231   -61.7394     7.3900     7.4931     7.7369  -999.2500  -999.2500
 2062.0000  -999.2500  -999.2500  -999.2500  -999.2500  -999.2500    91.6815   -38.8657    10.9936   -61.5616     7.4519     7.3905     7.7382  -999.2500  -999.2500
 2062.5000  -999.2500  -999.2500  -999.2500  -999.2500  -999.2500    86.8778   -38.8542    10.9889   -61.3739     7.4848     7.3398     7.7391  -999.2500  -999.2500
 2063.0000  -999.2500  -999.2500  -999.2500  -999.2500  -999.2500    86.5990   -38.8428    10.9649   -68.6949     7.5360     7.2898     7.7403  -999.2500  -999.2500
 2063.5000  -999.2500  -999.2500  -999.2500  -999.2500  -999.2500    89.3425   -38.8313    10.9656   -76.0135     7.5347     7.2351     7.7412  -999.2500  -999.2500
 2064.0000  -999.2500  -999.2500  -999.2500  -999.2500  -999.2500    93.5886   -38.8170    10.9663   -75.8145     7.5864     7.1905     7.7423  -999.2500  -999.2500
 2064.5000  -999.2500  -999.2500  -999.2500  -999.2500  -999.2500    97.8346   -38.8056    10.9518   -75.6382     7.5853     7.0922     7.7434  -999.2500  -999.2500
 2065.0000  -999.2500  -999.2500  -999.2500  -999.2500  -999.2500    97.7784   -38.7941    10.9374   -75.4504     7.5843     7.0926     7.7446  -999.2500  -999.2500
