~VERSION INFORMATION
 VERS.                2.0:   CWLS LOG ASCII STANDARD - VERSION 2.0
 WRAP.                 NO:   ONE LINE PER DEPTH STEP
~WELL INFORMATION
#MNEM.UNIT      DATA TYPE    INFORMATION
#----------   ------------   ------------------------------
 STRT.F           12.0000:   START DEPTH
 STOP.F          900.0000:   STOP DEPTH
 STEP.F            0.5000:   STEP LENGTH
 NULL.          -999.2500:   NO VALUE
 COMP. FLUOR DANIEL - NPSOR:   COMPANY
 WELL. FLUOR NPR "X" #82-34:   WELL
 FLD .              NPR 3:   FIELD
 LOC .      S34 T39N R78W:   LOCATION
 CNTY.            NATRONA:   COUNTY
 STAT.            WYOMING:   STATE
 CTRY. UNITED STATES OF AMERICA:   COUNTRY
 SRVC.      WESTERN ATLAS:   SERVICE COMPANY
 DATE.        06-SEP-1994:   LOGDATE
 API .     49025226350000:   API NUMBER
~CURVE INFORMATION
#MNEM.UNIT       API CODE    CURVE DESCRIPTION
#----------   ------------   ------------------------------
 DEPT.F                  :   
 RILD.OHMM   07 120 46 00:   INDUCTION LOG DEEP RESISTIVITY
 TENR.LBS    07 635 01 00:   TENSION
 RILM.OHMM   07 120 44 00:   INDUCTION LOG MEDIUM RESISTIVITY
 GRR .GAPI   07 310 01 00:   GAMMA RAY FROM RESISTIVITY
~PARAMETER INFORMATION
#MNEM.UNIT          VALUE    DESCRIPTION
#----------   ------------   ------------------------------
 EKB .F         5084.0000:   Kelly bushing
 EGL .F         5074.0000:   Ground level
 EDF .F         5083.0000:   Drilling floor
 EPD .F            0.0000:   Permanent datum
 TD  .F          918.0000:   Total depth
 DATE.        06-SEP-1994:   Date logged
 CLNT.            A2DTECH:   Client Code
 SL  . 990' FNL & 330' FEL:   Surface Location
 PD  .                 GL:   Permanent Datum
 DAPD.F                10:   Feet Above Permanent Datum
 DD  .F               918:   Depth driller
 DL  .F               807:   Depth logger
 BLI .F               889:   Bottom log interval
 CS1 .IN            9.625:   Casing size
 CBD1.       9.625" @ 54':   Casing driller 1
 CBL1.F                54:   Casing logger 1
 BS1 .IN             8.75:   Bit size
 BSD1.F               918:   Depth drilled with bit1
 DFT .                AIR:   Type fluid in hole
 LUN .            HL-6321:   Logging unit number
 LUL .       ROCK SPRINGS:   Logging unit location
 ENGI.           VERCIMAK:   Recorded By
 WITN.          G. STRONG:   Witnessed by
 ORIG.           5" PRINT:   Origin of data
 UWI .     49025226350000:   Unique Well ID
 DICO. A2D TECHNOLOGIES, INC.:   Digitizing Company
~OTHER INFORMATION
~A   DEPT     RILD       TENR       RILM         GRR  
# ...
  158.0000     4.9260   -65.8910     5.2080   128.0920
  158.5000     4.9260   -65.8910     5.2390   124.6900
  159.0000     4.8990   -65.8910     5.2850   123.8510
  159.5000     4.8440   -65.8910     5.2630   124.6850
  160.0000     4.7880   -65.8910     5.1680   125.2960
  160.5000     4.7330   -65.8910     5.0740   123.6110
  161.0000     4.6770   -65.8910     4.9800   122.9590
  161.5000     4.6220   -65.8910     4.8860   122.2040
  162.0000     4.5660   -65.8910     4.7920   121.3660
  162.5000     4.5110   -65.8910     4.6980   120.6850
  163.0000     4.4550   -65.8910     4.5870   117.7750
  163.5000     4.4000   -65.8910     4.5870   117.5190
  164.0000     4.3440   -65.8910     4.4260   118.9630
  164.5000     4.2710   -65.8910     4.4260   121.2780
  165.0000     4.2890   -65.8910     4.4260   122.8960
  165.5000     4.3170   -65.8910     4.4260   125.5150
  166.0000     4.3470   -65.8910     4.4260   128.9180
  166.5000     4.3800   -65.8910     4.5060   132.2740
  167.0000     4.4160   -65.8910     4.5060   128.4520
  167.5000     4.4520   -65.8910     4.5060   123.9050
  168.0000     4.4870   -65.8910     4.5870   121.9790
  168.5000     4.5230   -65.8910     4.6690   122.4390
  169.0000     4.5590   -65.8910     4.7860   124.5890
  169.5000     4.6060   -65.8910     4.8660   123.8530
  170.0000     4.6960   -65.8910     4.9470   122.4650
  170.5000     4.7850   -65.8910     5.0270   121.3800
  171.0000     4.8750   -65.8910     5.1080   122.1470
  171.5000     4.9640   -65.8910     5.1890   122.8730
  172.0000     5.0530   -65.8910     5.2690   127.8520
  172.5000     5.1430   -65.8910     5.3500   134.9200
  173.0000     5.2320   -65.8910     5.4300   137.9690
  173.5000     5.2910   -65.8910     5.4830   135.0570
  174.0000     5.2910   -65.8910     5.4830   132.7270
  174.5000     5.2720   -65.8910     5.4830   130.2850
  175.0000     5.2560   -65.8910     5.4830   129.4480
  175.5000     5.2410   -65.8910     5.3860   132.0850
  176.0000     5.2250   -65.8910     5.2910   134.6350
  176.5000     5.2090   -65.8910     5.2910   133.7680
  177.0000     5.1050   -65.8910     5.1620   131.4700
  177.5000     5.0150   -65.8910     5.0390   129.3660
  178.0000     4.8300   -65.8910     4.9160   129.3750
  178.5000     4.6900   -65.8910     4.7920   131.2520
  179.0000     4.5500   -65.8910     4.6690   132.4950
  179.5000     4.4100   -65.8910     4.5460   132.1830
  180.0000     4.2700   -65.8910     4.4230   126.4280
  180.5000     4.1300   -65.8910     4.3000   120.9580
  181.0000     3.9900   -65.8910     4.1770   121.9680
  181.5000     3.8510   -65.8910     4.0540   122.7760
  182.0000     3.7570   -65.8910     3.9310   123.6690
  182.5000     3.7290   -65.8910     3.8370   121.7520
  183.0000     3.7020   -65.8910     3.8370   119.8940
  183.5000     3.7690   -65.8910     3.8910   118.2850
  184.0000     3.8370   -65.8910     4.0920   117.4620
  184.5000     3.9700   -65.8910     4.2940   117.7580
  185.0000     4.1820   -65.8910     4.4950   118.6210
  185.5000     4.3950   -65.8910     4.6970   120.9290
  186.0000     4.6080   -65.8910     4.8980   123.2140
  186.5000     4.8210   -65.8910     5.0990   123.9090
  187.0000     5.0340   -65.8910     5.3010   123.7370
  187.5000     5.2470   -65.8910     5.5020   124.8350
  188.0000     5.4590   -65.8910     5.6820   127.9350
  188.5000     5.6510   -65.8910     5.7850   128.9440
  189.0000     5.8140   -65.8910     5.8310   127.4820
  189.5000     5.9770   -65.8910     5.9030   126.2770
  190.0000     6.1400   -65.8910     5.9750   125.0380
  190.5000     6.3030   -65.8910     6.0470   123.7590
  191.0000     6.4660   -65.8910     6.1190   122.5060
  191.5000     6.6500   -65.8910     6.1920   121.2680
  192.0000     6.6020   -65.8910     6.2640   120.0190
  192.5000     6.5050   -65.8910     6.3360   118.7090
  193.0000     6.4090   -65.8910     6.4080   117.6060
  193.5000     6.3120   -65.8910     6.4380   116.3620
  194.0000     6.2160   -65.8910     6.1930   120.6310
  194.5000     6.1030   -65.8910     5.9860   126.9270
  195.0000     5.9260   -65.8910     5.7800   130.6520
  195.5000     5.7120   -65.8910     5.5730   127.5190
  196.0000     5.4980   -65.8910     5.3670   122.8880
  196.5000     5.2840   -65.8910     5.1600   119.9560
  197.0000     5.0700   -65.8910     4.9540   120.9070
  197.5000     4.8390   -65.8910     4.7470   121.4680
  198.0000     4.6050   -65.8910     4.5410   120.3640
  198.5000     4.3500   -65.8910     4.3340   119.1040
  199.0000     4.0960   -65.8910     4.1280   118.2970
  199.5000     3.8410   -65.8910     3.9210   120.8660
  200.0000     3.5720   -65.8910     3.7690   125.6060
  200.5000     3.6330   -65.8910     3.7020   129.9870
  201.0000     3.7840   -65.8910     3.7690   135.0310
  201.5000     3.9350   -65.8910     3.8090   133.7370
  202.0000     4.0860   -65.8910     3.8580   128.1480
  202.5000     4.2370   -65.8910     3.9060   122.5950
  203.0000     4.3870   -65.8910     4.0980   116.7320
  203.5000     4.5380   -65.8910     4.2860   114.2210
  204.0000     4.6890   -65.8910     4.4740   115.4230
  204.5000     4.8400   -65.8910     4.6620   117.1600
  205.0000     5.0150   -65.8910     4.8500   118.1140
  205.5000     4.9680   -65.8910     5.1050   116.8220
  206.0000     4.9130   -65.8910     5.0410   115.7930
  206.5000     4.8570   -65.8910     4.9410   115.4060
  207.0000     4.8010   -65.8910     4.8410   118.1180
  207.5000     4.7460   -65.8910     4.7420   120.7170
  208.0000     4.6900   -65.8910     4.6420   117.3560
  208.5000     4.6350   -65.8910     4.5420   112.0910
  209.0000     4.5790   -65.8910     4.4420   111.8300
  209.5000     4.5230   -65.8910     4.3430   113.5000
  210.0000     4.2260   -65.8910     4.1370   115.2060
  210.5000     3.8140   -65.8910     3.6570   114.5090
  211.0000     3.4020   -65.8910     3.1770   113.0440
  211.5000     2.9900   -65.8910     2.6970   111.6720
  212.0000     2.5770   -65.8910     2.1670   111.5330
  212.5000     2.2060   -65.8910     2.1390   115.3140
  213.0000     2.0910   -65.8910     2.1290   118.9220
  213.5000     2.0910   -65.8910     2.0910   119.2020
  214.0000     2.2620   -65.8910     2.4400   108.4910
  214.5000     2.4430   -65.8910     2.7540    94.7300
  215.0000     2.6370   -65.8910     3.0690    87.7160
  215.5000     2.9370   -65.8910     3.3840    97.5410
  216.0000     3.2630   -65.8910     3.6980   106.2690
  216.5000     3.5890   -65.8910     4.0130   112.9290
  217.0000     3.9150   -65.8910     4.3470   113.2490
  217.5000     4.1950   -65.8910     4.3150   113.6050
  218.0000     4.1950   -65.8910     4.2810   114.3170
  218.5000     4.1770   -65.8910     4.2470   115.7570
  219.0000     4.1590   -65.8910     4.2130   117.1980
  219.5000     4.1400   -65.8910     4.1790   116.4320
  220.0000     4.1210   -65.8910     4.1450   114.6520
  220.5000     4.1210   -65.8910     4.1100   112.8680
  221.0000     3.9760   -65.8910     4.0760   112.0780
  221.5000     3.9060   -65.8910     4.0480   113.5110
  222.0000     3.7310   -65.8910     3.8030   115.5220
  222.5000     3.5050   -65.8910     3.5950   115.3190
  223.0000     3.2780   -65.8910     3.3860   114.2680
  223.5000     3.0520   -65.8910     3.1770   113.3740
  224.0000     2.8250   -65.8910     2.9680   111.8610
  224.5000     2.6850   -65.8910     2.8330   109.6580
  225.0000     2.5910   -65.8910     2.6850   109.5580
  225.5000     2.5910   -65.8910     2.6850   110.7240
  226.0000     2.6370   -65.8910     2.6850   111.9840
  226.5000     2.7880   -65.8910     2.8830   110.4980
  227.0000     3.0350   -65.8910     3.2070   108.4230
  227.5000     3.2810   -65.8910     3.5320   107.3450
  228.0000     3.5280   -65.8910     3.8560   107.5580
  228.5000     3.7750   -65.8910     4.1810   110.9200
  229.0000     4.0220   -65.8910     4.5050   115.0800
  229.5000     4.2690   -65.8910     4.8390   119.4120
  230.0000     4.5060   -65.8910     4.9260   121.4690
  230.5000     4.6120   -65.8910     5.1050   118.5630
