~VERSION INFORMATION
 VERS.                2.0:   CWLS LOG ASCII STANDARD - VERSION 2.0
 WRAP.                 NO:   ONE LINE PER DEPTH STEP
~WELL INFORMATION
#MNEM.UNIT      DATA TYPE    INFORMATION
#----------   ------------   ------------------------------
 STRT.F          243.5000:   START DEPTH
 STOP.F         2836.0000:   STOP DEPTH
 STEP.F            0.5000:   STEP LENGTH
 NULL.          -999.2500:   NO VALUE
 COMP. FENIX & SCISSON U. S. NAVY:   COMPANY
 WELL.   FENIX "A" #86-20:   WELL
 FLD .             NPR #3:   FIELD
 LOC .      S20 T39N R78W:   LOCATION
 CNTY.            NATRONA:   COUNTY
 STAT.            WYOMING:   STATE
 CTRY. UNITED STATES OF AMERICA:   COUNTRY
 SRVC.       SCHLUMBERGER:   SERVICE COMPANY
 DATE.        22-MAR-1977:   LOGDATE
 API .     49025103130000:   API NUMBER
~CURVE INFORMATION
#MNEM.UNIT       API CODE    CURVE DESCRIPTION
#----------   ------------   ------------------------------
 DEPT.F                  :   
 SPR .MV     07 010 01 00:   SPONTANEOUS POTENTIAL
 ILD .OHMM   07 120 46 00:   DEEP INDUCTION RESISTIVITY
 ILM .OHMM   07 120 44 00:   INDUCTION LOG MEDIUM RESISTIVITY
 LL8 .OHMM   07 220 08 00:   LATEROLOG-8 RES.
 CALD.IN     45 280 60 00:   CALIPER FROM DENSITY LOG
 GRD .GAPI   45 310 01 00:   GAMMA RAY FROM DENSITY LOG
 RHOB.G/C3   45 350 01 00:   BULK DENSITY
 CORR.G/C3   45 356 01 00:   DENSITY CORRECTION
~PARAMETER INFORMATION
#MNEM.UNIT          VALUE    DESCRIPTION
#----------   ------------   ------------------------------
 EKB .F         5005.0000:   Kelly bushing
 EGL .F         4994.0000:   Ground level
 EDF .F            0.0000:   Drilling floor
 TD  .F         2836.0000:   Total depth
 DATE.        22-MAR-1977:   Date logged
 CLNT.            A2DTECH:   Client Code
 SL  . 330' FEL & 1650' FSL:   Surface Location
 PD  .                 GL:   Permanent Datum
 EPD .F              5005:   Elevation Permanent Datum
 LMF .                 KB:   Log Measured From
 DMF .                 KB:   Drilling Measured From
 DD  .F              2835:   Depth driller
 DL  .F              2836:   Depth logger
 BLI .F              2826:   Bottom log interval
 TLI .F               259:   Top log interval
 CBD1.      8.625" @ 258':   Casing driller 1
 CBL1.F               259:   Casing logger 1
 BS1 .IN            7.875:   Bit size
 DFT .                KCL:   Type fluid in hole
 DFD .                9.1:   Density
 DFV .                 35:   Viscosity
 DFPH.                  9:   pH
 DFL .                8.6:   Fluid loss
 MSS .              CIRC.:   Source of sample
 RMS .OHMM           0.22:   Rm
 MST .F                60:   Rm Meas. temp.
 RMF .OHMM           0.18:   Rmf
 MFST.F                60:   Rmf Meas. temp.
 RMC .OHMM           0.33:   Rmc
 MCST.F                60:   Rmc Meas. temp.
 MFSS.               MEAS:   Source Rmf.
 RMB .OHMM           0.12:   Rm. at BHT
 BHT .F               110:   BHT.
 TCS .HRS            0900:   Time Circ. stopped
 MRT .F               110:   Maximum recorded temp.
 LUN .               7980:   Logging unit number
 LUL .               CSPR:   Logging unit location
 ENGI.                FIX:   Recorded By
 WITN.               JAPP:   Witnessed by
 ORIG.           5" PRINT:   Origin of data
 UWI .     49025103130000:   Unique Well ID
 DICO. A2D TECHNOLOGIES, INC.:   Digitizing Company
 DAPD.                 11:   Feet Above Permanent Datum
 CS1 .              8.625:   Casing size
 BSD1.               2835:   Depth drilled with bit1
 MCSS.               CACL:   Source Rmc.
 TLAB.               1630:   Time logger at bottom
~OTHER INFORMATION
~A   DEPT      SPR        ILD        ILM        LL8       CALD         GRD      RHOB       CORR   
# ...
 1620.5000   -50.7570    11.5370    11.9650    20.8980     8.1730   167.4530     2.4180     0.0190
 1621.0000   -50.5680    11.5370    11.7490    19.5470     8.1910   161.7300     2.4330     0.0180
 1621.5000   -50.7000    11.5370    11.4440    18.1950     8.2080   157.7750     2.4480     0.0190
 1622.0000   -50.9080    11.0710    11.0630    18.8710     8.2260   153.8760     2.4520     0.0140
 1622.5000   -51.1040    10.6420    10.6820    18.5300     8.2430   149.9190     2.4290     0.0090
 1623.0000   -51.3080    10.2130    10.3010    17.0440     8.2600   141.0080     2.4590     0.0260
 1623.5000   -51.5030     9.7840     9.9200    15.1250     8.2780   133.3920     2.4810     0.0330
 1624.0000   -51.7030     9.4410     9.6150    14.3570     8.2950   130.6780     2.4890     0.0550
 1624.5000   -51.9190     9.2710     9.4410    14.6210     8.3120   135.7780     2.4780     0.0410
 1625.0000   -52.0660     9.5020     9.6690    14.1000     8.3310   141.4060     2.4840     0.0350
 1625.5000   -52.5180     9.7340     9.9380    13.8430     8.3580   146.5500     2.5140     0.0480
 1626.0000   -52.5080     9.9660    10.2080    15.9580     8.3460   165.2060     2.5010     0.0420
 1626.5000   -52.3350    10.1970    10.4770    19.0580     8.3150   157.3900     2.4850     0.0320
 1627.0000   -52.1360    10.4290    10.7470    21.0010     8.2840   131.2270     2.4700     0.0230
 1627.5000   -51.9670    10.6610    11.0160    22.6430     8.2530   110.3790     2.4640     0.0230
 1628.0000   -51.7940    10.8920    11.8810    21.4900     8.2230   110.0650     2.4780     0.0290
 1628.5000   -51.8010    11.3290    12.6380    19.5690     8.2040   114.0810     2.4890     0.0230
 1629.0000   -51.8560    11.2260    12.0870    17.6480     8.2050   117.7750     2.4960     0.0300
 1629.5000   -51.9150    10.8390    11.5370    15.7270     8.2050   123.6920     2.4800     0.0230
 1630.0000   -51.9730    10.4820    10.9610    15.3030     8.2060   122.8850     2.4650     0.0170
 1630.5000   -52.0340    10.1260    10.3490    15.1640     8.2070   123.1520     2.4540     0.0110
 1631.0000   -52.0880     9.7700     9.7370    14.8900     8.2070   126.8670     2.4470     0.0090
 1631.5000   -52.1530     9.4130     9.4410    14.8900     8.2080   130.3440     2.4610     0.0180
 1632.0000   -52.2060     9.1030     9.2710    14.6210     8.2090   131.6800     2.4880     0.0280
 1632.5000   -52.4430     9.1030     9.2710    14.1030     8.2100   132.3270     2.4960     0.0340
 1633.0000   -52.6870     9.1030     9.2710    13.5930     8.2100   130.6520     2.4910     0.0100
 1633.5000   -53.0310     9.0810     9.2710    13.8500     8.2110   129.0970     2.4880     0.0050
 1634.0000   -53.4320     9.0270     9.2710    14.6210     8.2120   128.1230     2.4950     0.0230
 1634.5000   -53.4290     8.9730     9.2710    14.3570     8.2120   133.1680     2.5020     0.0380
 1635.0000   -53.4880     8.9190     9.2710    14.2720     8.2130   137.4390     2.5130     0.0490
 1635.5000   -53.5360     8.8640     9.2710    14.1300     8.2140   139.3500     2.5010     0.0280
 1636.0000   -53.5770     8.8100     9.2710    13.9880     8.2150   139.6500     2.4940     0.0320
 1636.5000   -53.6260     8.7770     9.1030    13.8460     8.2150   139.9380     2.5080     0.0380
 1637.0000   -53.6710     8.7060     9.0680    13.7030     8.2160   140.7700     2.5120     0.0290
 1637.5000   -53.7160     8.5860     9.0100    13.5610     8.2170   142.1770     2.5000     0.0200
 1638.0000   -53.7620     8.4670     8.9520    13.4190     8.2170   142.7450     2.4940     0.0190
 1638.5000   -53.8080     8.3470     8.8940    13.2770     8.2180   141.9710     2.5060     0.0330
 1639.0000   -53.8540     8.2280     8.8360    13.1350     8.2190   141.1540     2.4930     0.0260
 1639.5000   -53.9000     8.1080     8.7770    12.9890     8.2200   140.3700     2.4770     0.0250
 1640.0000   -53.9460     7.9890     8.6750    12.8430     8.2200   139.3650     2.4950     0.0400
 1640.5000   -53.9920     7.8690     8.1600    12.6960     8.2210   138.3770     2.5010     0.0330
 1641.0000   -54.0380     7.7500     8.0130    12.4940     8.2220   136.0700     2.4830     0.0240
 1641.5000   -54.0840     7.7260     8.0130    11.7770     8.2220   133.1590     2.4830     0.0190
 1642.0000   -54.1300     7.7260     7.9920    11.0590     8.2230   129.3520     2.4770     0.0140
 1642.5000   -54.1760     7.7260     7.9700    10.3420     8.2220   124.6750     2.4770     0.0130
 1643.0000   -54.2220     7.7260     7.9490    11.6340     8.2200   119.3780     2.4820     0.0160
 1643.5000   -54.2680     7.7260     7.9280    12.4090     8.2180   122.6840     2.4760     0.0180
 1644.0000   -54.3140     7.7260     7.9070    12.1850     8.2160   133.2460     2.4830     0.0250
 1644.5000   -54.3610     7.8450     7.8750    12.4090     8.2140   135.3750     2.4960     0.0350
 1645.0000   -54.4070     7.9940     7.9410    12.6310     8.2120   134.0300     2.4940     0.0240
 1645.5000   -54.4510     8.1430     8.1290    13.0010     8.2090   132.6820     2.5000     0.0320
 1646.0000   -54.5010     8.2920     8.4180    13.3710     8.2070   130.1830     2.4970     0.0210
 1646.5000   -54.5440     8.4400     8.7070    13.5930     8.2050   127.7150     2.5080     0.0270
 1647.0000   -54.5520     8.5890     9.0210    13.5200     8.2030   127.1600     2.4820     0.0050
 1647.5000   -54.3640     8.7770     9.1030    13.3480     8.2010   127.7960     2.4750     0.0140
 1648.0000   -54.2050     8.7770     9.0970    13.4100     8.1990   128.4480     2.5000     0.0250
 1648.5000   -54.0350     8.6190     9.0640    13.8430     8.1970   129.6660     2.5220     0.0400
 1649.0000   -53.8690     8.6100     9.0310    13.8320     8.1950   131.7210     2.5370     0.0490
 1649.5000   -53.7010     8.5670     8.9980    13.7750     8.1930   133.1190     2.5260     0.0410
 1650.0000   -53.5400     8.5250     8.9650    13.7170     8.1910   134.0390     2.5160     0.0340
 1650.5000   -53.3700     8.4820     8.9320    13.6600     8.1890   134.8840     2.5050     0.0260
 1651.0000   -53.4790     8.4390     8.8990    13.5930     8.1870   135.4080     2.4950     0.0170
 1651.5000   -53.6780     8.3960     8.8660    13.3480     8.1850   134.3490     2.4840     0.0210
 1652.0000   -53.8710     8.3530     8.8330    13.5930     8.1980   132.6300     2.5000     0.0350
 1652.5000   -54.0580     8.3100     8.8000    13.3480     8.2220   131.1640     2.5260     0.0460
 1653.0000   -54.2500     8.2670     8.7670    13.2460     8.2470   130.2580     2.5150     0.0300
 1653.5000   -54.4390     8.2250     8.7340    13.1070     8.2720   129.9730     2.5020     0.0320
 1654.0000   -54.6290     8.1820     8.7010    13.1790     8.2970   130.6340     2.4890     0.0310
 1654.5000   -54.8200     8.1520     8.6680    13.4250     8.3230   131.7100     2.4770     0.0240
 1655.0000   -55.0100     8.1350     8.6350    13.5930     8.3410   133.6090     2.4920     0.0430
 1655.5000   -55.2010     8.1180     8.6020    13.5930     8.3050   135.4640     2.5350     0.0680
 1656.0000   -55.3910     8.1010     8.5690    13.3150     8.2680   137.0620     2.5170     0.0770
 1656.5000   -55.5790     8.0840     8.5360    13.1070     8.2320   138.7370     2.4980     0.0260
 1657.0000   -55.7750     8.0670     8.5030    12.8700     8.1960   139.6110     2.4950     0.0300
 1657.5000   -55.9570     8.0510     8.4700    13.4830     8.1650   140.1980     2.4890     0.0260
 1658.0000   -56.1340     8.0340     8.4100    14.1160     8.1670   140.2880     2.4880     0.0220
 1658.5000   -55.9910     8.0120     8.2730    14.6210     8.1690   138.5900     2.5060     0.0340
 1659.0000   -55.8400     8.0160     8.1370    13.4320     8.1710   134.3870     2.5160     0.0420
 1659.5000   -55.6760     8.0180     8.0000    11.9570     8.1730   132.1850     2.4840     0.0130
 1660.0000   -55.5180     7.9170     7.8680    11.1240     8.1750   130.5770     2.4830     0.0240
 1660.5000   -55.3600     7.6960     7.7090    11.9650     8.1770   130.2000     2.4930     0.0140
