~VERSION INFORMATION
 VERS.                2.0:   CWLS LOG ASCII STANDARD - VERSION 2.0
 WRAP.                 NO:   ONE LINE PER DEPTH STEP
~WELL INFORMATION
#MNEM.UNIT      DATA TYPE    INFORMATION
#----------   ------------   ------------------------------
 STRT.F           11.0000:   START DEPTH
 STOP.F         3368.0000:   STOP DEPTH
 STEP.F            0.5000:   STEP LENGTH
 NULL.          -999.2500:   NO VALUE
 COMP. LAWRENCE ALLISON AND ASSOC.:   COMPANY
 WELL. LAWRENCE NPR "AX" #3-11:   WELL
 FLD .                NPR:   FIELD
 LOC .      S11 T38N R78W:   LOCATION
 CNTY.            NATRONA:   COUNTY
 STAT.            WYOMING:   STATE
 CTRY. UNITED STATES OF AMERICA:   COUNTRY
 SRVC.      DRESSER ATLAS:   SERVICE COMPANY
 DATE.        17-JAN-1986:   LOGDATE
 API .     49025110540000:   API NUMBER
~CURVE INFORMATION
#MNEM.UNIT       API CODE    CURVE DESCRIPTION
#----------   ------------   ------------------------------
 DEPT.F                  :   
 TEND.LBS    45 635 01 00:   TENSION FROM DENSITY LOG
 DEN .G/C3   45 350 01 00:   BULK DENSITY
 CORR.G/C3   45 356 01 00:   DENSITY CORRECTION
 CNC .DEC    42 890 03 00:   NEUTRON PORISITY SANDSTONE
 TENR.LBS    07 635 01 00:   TENSION FROM RESISTIVITY
 CALR.IN     07 280 01 00:   CALIPER FROM RESISTIVITY
 SPR .MV     07 010 01 00:   SPONTANEOUS POTENTIAL
 GRR .GAPI   07 310 01 00:   GAMMA RAY FROM RESISTIVITY
 RFOC.OHMM   07 220 04 00:   RESISTIVITY FOCUSED LOG RES.
 RILD.OHMM   07 120 46 00:   INDUCTION LOG DEEP RESISTIVITY
 RILM.OHMM   07 120 44 00:   INDUCTION LOG MEDIUM RESISTIVITY
 TENS.LBS    60 635 01 00:   TENSION FROM SONIC
 AC  .US/F   60 250 00 00:   ACCOUSTIC
~PARAMETER INFORMATION
#MNEM.UNIT          VALUE    DESCRIPTION
#----------   ------------   ------------------------------
 EKB .F         5195.5000:   Kelly bushing
 EGL .F         5183.2000:   Ground level
 EDF .F         5194.5000:   Drilling floor
 TD  .F         3360.0000:   Total depth
 DATE.        17-JAN-1986:   Date logged
 CLNT.            A2DTECH:   Client Code
 SL  . 2389' FSL & 461'FWL:   Surface Location
 PD  .                 GL:   Permanent Datum
 EPD .F            5183.2:   Elevation Permanent Datum
 LMF .                 KB:   Log Measured From
 DMF .                 KB:   Drilling Measured From
 DAPD.F              12.3:   Feet Above Permanent Datum
 DD  .F              3360:   Depth driller
 DL  .F              3358:   Depth logger
 BLI .F              3356:   Bottom log interval
 TLI .F               575:   Top log interval
 CS1 .IN            8.625:   Casing size
 CBD1.      8.625" @ 575':   Casing driller 1
 CBL1.F               575:   Casing logger 1
 BS1 .IN            7.875:   Bit size
 BSD1.F              3360:   Depth drilled with bit1
 DFT .        POLYMER-KCL:   Type fluid in hole
 DFD .                  9:   Density
 DFV .                 36:   Viscosity
 DFPH.                  9:   pH
 DFL .                9.5:   Fluid loss
 MSS .           FLOWLINE:   Source of sample
 RMS .OHMM           .633:   Rm
 MST .F                68:   Rm Meas. temp.
 RMF .OHMM           .475:   Rmf
 MFST.F                68:   Rmf Meas. temp.
 RMC .OHMM           .791:   Rmc
 MCST.F                68:   Rmc Meas. temp.
 RMB .OHMM            .44:   Rm. at BHT
 BHT .F                98:   BHT.
 TCS .HRS               4:   Time Circ. stopped
 MRT .F                98:   Maximum recorded temp.
 LUN .               6264:   Logging unit number
 LUL .               GLTE:   Logging unit location
 ENGI.             MILLER:   Recorded By
 WITN.             STRONG:   Witnessed by
 ORIG.        2" 5" PRINT:   Origin of data
 UWI .     49025110540000:   Unique Well ID
 DICO. A2D TECHNOLOGIES, INC.:   Digitizing Company
~OTHER INFORMATION
~A   DEPT     TEND        DEN       CORR        CNC       TENR       CALR        SPR         GRR      RFOC       RILD       RILM       TENS         AC   
# ...
 2429.0000   -78.7250     2.5570     0.0510     0.2560  -104.9690     8.7860   -51.0820   115.1410     4.6750     4.6510     4.7680   -84.8350    87.6930
 2429.5000   -78.1160     2.5580     0.0390     0.2550   -99.1810     8.7840   -51.4170   113.6320     4.9990     4.7940     4.8890   -84.8350    87.8940
 2430.0000   -77.5080     2.5550     0.0320     0.2550   -95.0390     8.7820   -51.7060   110.7890     5.4310     4.9770     5.0110   -84.8350    86.9870
 2430.5000   -76.8990     2.5520     0.0250     0.2560   -96.6010     8.7800   -51.8470   109.3360     6.0320     5.1600     5.2040   -84.8350    85.7810
 2431.0000   -76.2900     2.5500     0.0270     0.2640   -98.1630     8.7780   -51.6560   108.7170     6.6340     5.3430     5.4120   -84.8350    84.5760
 2431.5000   -75.6820     2.5550     0.0280     0.2730   -99.7250     8.7760   -51.4680   106.8760     7.0820     5.5260     5.6210   -84.8350    83.7560
 2432.0000   -75.0730     2.5610     0.0290     0.2790  -101.2870     8.7740   -51.2800   104.8200     7.0120     5.7090     5.8300   -84.8350    83.8220
 2432.5000   -74.4650     2.5640     0.0310     0.2690  -102.8490     8.7730   -51.0920   104.1240     6.8140     5.8920     6.0530   -84.8350    84.4110
 2433.0000   -73.8560     2.5560     0.0380     0.2580  -104.4100     8.7710   -50.9030   106.8480     6.6170     5.9980     6.0630   -84.8350    84.9990
 2433.5000   -73.2470     2.5530     0.0460     0.2480  -105.9720     8.7690   -50.7150   109.1710     6.4190     5.9950     6.0740   -84.8350    85.5880
 2434.0000   -72.6390     2.5500     0.0550     0.2440  -107.5340     8.7660   -50.5660   110.3100     6.3510     5.9890     6.0840   -84.8350    86.0880
 2434.5000   -72.0300     2.5480     0.0640     0.2490  -109.0960     8.7640   -50.4210   111.2040     6.4920     5.9830     6.0950   -86.2280    85.8450
 2435.0000   -71.4210     2.5510     0.0640     0.2550  -110.6580     8.7610   -50.2770   111.3840     6.6670     5.9780     6.1060   -90.3400    85.5400
 2435.5000   -70.8130     2.5540     0.0620     0.2590  -112.2200     8.7580   -50.1340   110.6700     6.8420     5.9720     6.1090   -94.8450    85.2020
 2436.0000   -70.2040     2.5570     0.0380     0.2590  -113.7820     8.7550   -49.9910   109.7830     7.0160     5.9660     6.1090   -91.1240    84.8640
 2436.5000   -69.5960     2.5550     0.0140     0.2580  -114.0850     8.7520   -50.0020   108.1210     7.0160     5.9600     6.1090   -87.0120    84.4830
 2437.0000   -68.9870     2.5550     0.0240     0.2570  -112.4450     8.7490   -50.2670   105.6650     6.9580     5.9540     6.1090   -86.2010    84.2670
 2437.5000   -68.3780     2.5560     0.0420     0.2560  -110.8050     8.7460   -50.5290   103.1710     6.8980     5.9490     6.1090   -89.1040    84.1170
 2438.0000   -67.7700     2.5600     0.0600     0.2580  -109.1650     8.7420   -50.7910   101.2870     6.8380     5.9420     6.1090   -92.0070    84.2100
 2438.5000   -67.1610     2.5620     0.0670     0.2660  -107.5250     8.7380   -51.0530   103.3320     6.7780     5.9050     6.1110   -94.8450    84.4080
 2439.0000   -66.5530     2.5610     0.0650     0.2730  -105.8850     8.7340   -51.2870   105.4160     6.7190     5.8640     6.0820   -83.6340    84.6050
 2439.5000   -65.9440     2.5560     0.0510     0.2760  -105.9760     8.7300   -51.3570   107.4800     6.6470     5.8230     6.0270   -74.8250    84.8630
 2440.0000   -65.3350     2.5510     0.0420     0.2650  -110.4480     8.7240   -51.4310   108.9930     6.5390     5.7830     5.9730   -85.5630    85.2490
 2440.5000   -64.7270     2.5480     0.0440     0.2600  -114.7290     8.7160   -51.5060   109.7890     6.4310     5.7320     5.9430   -94.8450    85.6990
 2441.0000   -65.0460     2.5540     0.0590     0.2640  -109.8430     8.7070   -51.5810   108.1910     6.2950     5.7840     6.0590   -86.9040    86.1200
 2441.5000   -68.5060     2.5630     0.0860     0.2670  -105.1580     8.6990   -51.6570   106.9810     6.4190     5.8730     6.1710   -78.6790    86.4890
 2442.0000   -71.9650     2.5720     0.0770     0.2650  -100.4720     8.6900   -51.6670   107.2360     6.6420     5.9630     6.2830   -70.4540    86.2890
 2442.5000   -75.4250     2.5700     0.0820     0.2590   -95.7870     8.6820   -51.6370   104.3110     6.8650     6.0520     6.3980   -65.6770    85.5730
 2443.0000   -78.8840     2.5670     0.0910     0.2560   -94.6890     8.6730   -51.6070   101.1000     7.0890     6.1090     6.3550   -68.4180    85.0950
 2443.5000   -82.3430     2.5650     0.1000     0.2570   -94.6890     8.6650   -51.5770    98.9050     7.3120     6.0980     6.3110   -71.1600    84.6830
 2444.0000   -85.8030     2.5640     0.0790     0.2650   -94.7860     8.6560   -51.5470   103.8020     7.5540     6.0900     6.2660   -73.9020    84.2710
 2444.5000   -89.2620     2.5620     0.0550     0.2720   -95.6060     8.6490   -51.5180   108.7470     7.4270     6.0810     6.2220   -76.4610    83.8820
 2445.0000   -92.7220     2.5610     0.0470     0.2680   -96.4260     8.6500   -51.4720   111.7550     7.1750     6.0730     6.1780   -78.9290    83.9820
 2445.5000   -96.1810     2.5620     0.0510     0.2600   -97.2460     8.6510   -51.1170   109.7380     6.9240     6.0650     6.1340   -81.3960    84.4060
 2446.0000   -99.6410     2.5610     0.0510     0.2540   -98.0660     8.6520   -50.7690   106.8980     6.6730     6.0540     6.1090   -83.8640    84.8130
 2446.5000  -103.1000     2.5560     0.0420     0.2490   -98.8860     8.6530   -50.4230   104.0600     6.4210     6.0820     6.2200   -88.5760    85.2200
 2447.0000  -104.2440     2.5540     0.0320     0.2430   -99.7060     8.6530   -50.0790   101.6030     6.2230     6.1270     6.3080   -94.7450    85.1260
 2447.5000  -103.9640     2.5540     0.0200     0.2390  -100.5260     8.6540   -49.7320   101.1740     6.6240     6.1710     6.3970  -100.9130    84.5840
 2448.0000  -103.6840     2.5510     0.0080     0.2400  -101.3460     8.6550   -49.3720    98.4660     7.0450     6.2160     6.4850  -102.5320    83.8250
 2448.5000  -103.4040     2.5450     0.0080     0.2510  -102.1660     8.6560   -49.6230    94.7880     7.4850     6.2610     6.5780   -96.0970    82.9790
 2449.0000  -103.1240     2.5430     0.0100     0.2490  -102.9860     8.6570   -50.0230    97.3830     7.5570     6.2810     6.4720   -89.6630    82.6480
 2449.5000  -102.8440     2.5410     0.0110     0.2480  -103.8060     8.6580   -50.4290   102.8710     7.6140     6.1580     6.3610   -83.2290    82.8790
 2450.0000  -102.5640     2.5370     0.0280     0.2490  -104.7090     8.6590   -50.8360   108.7000     7.4010     6.0660     6.2510   -76.7950    83.6580
 2450.5000  -102.2840     2.5340     0.0440     0.2560  -113.5670     8.6600   -51.2400   111.9340     7.1010     5.9740     6.1400   -82.8330    84.5110
 2451.0000  -102.0030     2.5330     0.0600     0.2680  -123.4270     8.6610   -51.4710   112.5470     6.8010     5.8880     6.0290   -94.3740    85.4860
 2451.5000  -101.7230     2.5350     0.0750     0.2720  -133.2870     8.6620   -51.6760   114.6580     6.3390     5.7880     5.9190  -105.9150    86.0130
 2452.0000  -101.4430     2.5340     0.0640     0.2630  -143.1460     8.6620   -51.8820   114.5550     6.4470     5.6730     5.8080  -114.8650    86.4890
 2452.5000  -101.1630     2.5290     0.0440     0.2470  -138.9210     8.6630   -52.0790   113.5350     6.5740     5.5570     5.6970  -108.1920    86.6610
 2453.0000  -100.8830     2.5190     0.0310     0.2470  -131.8780     8.6640   -51.9520   112.5260     6.7000     5.4190     5.5870  -102.7420    86.5900
 2453.5000  -100.6030     2.5130     0.0340     0.2490  -124.7490     8.6650   -51.7400   114.4460     6.4900     5.4490     5.5270   -97.2920    86.7270
 2454.0000  -100.3230     2.5180     0.0380     0.2460  -126.5910     8.6660   -51.5280   116.3830     6.3040     5.4990     5.5870   -96.5340    86.8680
 2454.5000  -100.0430     2.5290     0.0430     0.2390  -128.9390     8.6670   -51.3170   116.3790     6.1090     5.5490     5.6360   -99.6000    86.9910
