~VERSION INFORMATION
 VERS.                2.0:   CWLS LOG ASCII STANDARD - VERSION 2.0
 WRAP.                 NO:   ONE LINE PER DEPTH STEP
~WELL INFORMATION
#MNEM.UNIT      DATA TYPE    INFORMATION
#----------   ------------   ------------------------------
 STRT.F          210.5000:   START DEPTH
 STOP.F         3234.0000:   STOP DEPTH
 STEP.F            0.5000:   STEP LENGTH
 NULL.          -999.2500:   NO VALUE
 COMP.    FENIX & SCISSON:   COMPANY
 WELL.   FENIX "A" #21-10:   WELL
 FLD .              NPR-3:   FIELD
 LOC .      S10 T38N R78W:   LOCATION
 CNTY.            NATRONA:   COUNTY
 STAT.            WYOMING:   STATE
 CTRY. UNITED STATES OF AMERICA:   COUNTRY
 SRVC.      DRESSER ATLAS:   SERVICE COMPANY
 DATE.        31-AUG-1977:   LOGDATE
 API .     49025104260000:   API NUMBER
~CURVE INFORMATION
#MNEM.UNIT       API CODE    CURVE DESCRIPTION
#----------   ------------   ------------------------------
 DEPT.F                  :   
 GRD .GAPI   45 310 01 00:   GAMMA RAY FROM DENSITY LOG
 CALD.IN     45 280 60 00:   CALIPER FROM DENSITY LOG
 RHOB.G/C3   45 350 01 00:   BULK DENSITY
 CORR.G/C3   45 356 01 00:   DENSITY CORRECTION
 SPR .MV     11 010 01 00:   SPONTANEOUS POTENTIAL
 LLS .OHMM   11 220 09 00:   LATEROLOG SHALLOW
 LLD .OHMM   11 220 10 00:   LATEROLOG DEEP
 TEND.LBS    45 635 01 00:   TENSION FROM DENSITY LOG
 TENR.LBS    07 635 01 00:   TENSION
~PARAMETER INFORMATION
#MNEM.UNIT          VALUE    DESCRIPTION
#----------   ------------   ------------------------------
 EKB .F         5258.0000:   Kelly bushing
 EGL .F         5248.0000:   Ground level
 EDF .F            0.0000:   Drilling floor
 TD  .F         3222.0000:   Total depth
 DATE.        31-AUG-1977:   Date logged
 CLNT.            A2DTECH:   Client Code
 SL  . 330' FNL & 990' FWL:   Surface Location
 PD  .                 GL:   Permanent Datum
 EPD .F              5248:   Elevation Permanent Datum
 LMF .                 KB:   Log Measured From
 DMF .                 KB:   Drilling Measured From
 DAPD.F                10:   Feet Above Permanent Datum
 DD  .F              3222:   Depth driller
 DL  .F              3219:   Depth logger
 BLI .F              3218:   Bottom log interval
 TLI .F               221:   Top log interval
 CS1 .IN             8.75:   Casing size
 CBD1.       8.75" @ 219':   Casing driller 1
 CBL1.F               221:   Casing logger 1
 BS1 .IN            7.875:   Bit size
 BSD1.F              3222:   Depth drilled with bit1
 DFT .                KCL:   Type fluid in hole
 DFD .                9.1:   Density
 DFV .                 36:   Viscosity
 DFPH.                 11:   pH
 DFL .                  8:   Fluid loss
 MSS .           FLOWLINE:   Source of sample
 RMS .OHMM           0.14:   Rm
 MST .F                72:   Rm Meas. temp.
 RMF .OHMM           0.08:   Rmf
 MFST.F                72:   Rmf Meas. temp.
 RMC .OHMM           0.20:   Rmc
 MCST.F                72:   Rmc Meas. temp.
 MFSS.               CALC:   Source Rmf.
 MCSS.               CALC:   Source Rmc.
 RMB .OHMM           0.08:   Rm. at BHT
 BHT .F               125:   BHT.
 TCS .HRS               3:   Time Circ. stopped
 MRT .F               125:   Maximum recorded temp.
 LUN .               6080:   Logging unit number
 LUL .              WLSTN:   Logging unit location
 ENGI.               RALL:   Recorded By
 WITN.         PETTINGILL:   Witnessed by
 ORIG.           5" PRINT:   Origin of data
 UWI .     49025104260000:   Unique Well ID
 DICO. A2D TECHNOLOGIES, INC.:   Digitizing Company
~OTHER INFORMATION
~A   DEPT      GRD       CALD       RHOB       CORR        SPR        LLS        LLD       TEND        TENR  
# ...
 2619.5000   102.1490    10.1290     2.5180     0.0240   -78.1340     8.5020     8.9390   355.8080   526.3160
 2620.0000   104.7510    10.1240     2.5170     0.0240   -77.6650     8.7810     9.3610   357.1400   526.3160
 2620.5000   107.3670    10.1190     2.5160     0.0240   -77.8590     8.6620     9.0640   358.4720   526.5530
 2621.0000   110.0690    10.1130     2.5160     0.0230   -78.2420     8.3540     8.6850   359.8030   527.1660
 2621.5000   109.1370    10.1080     2.5160     0.0230   -78.6230     8.0460     8.1770   361.1350   527.7790
 2622.0000   107.4350    10.1030     2.5160     0.0230   -79.0040     7.8680     8.2420   362.4670   528.3920
 2622.5000   107.4990    10.0970     2.5160     0.0230   -79.2220     8.1180     8.3710   363.7980   529.0040
 2623.0000   107.6970    10.0920     2.5180     0.0230   -79.2220     8.3120     8.5000   365.1300   529.6170
 2623.5000   105.6860    10.0870     2.5230     0.0220   -79.2340     8.0850     8.6220   366.4620   530.2300
 2624.0000   104.0420    10.0810     2.5270     0.0240   -79.3850     7.8190     8.2600   367.7930   530.8430
 2624.5000   102.2910    10.0760     2.5280     0.0260   -79.4280     7.5530     7.9330   369.1250   531.4550
 2625.0000   100.5120    10.0710     2.5300     0.0280   -79.4250     7.3130     7.6060   370.4570   532.0680
 2625.5000    98.7380    10.0660     2.5310     0.0300   -79.4230     7.1150     7.3800   371.7880   532.6810
 2626.0000    96.9260    10.0600     2.5330     0.0310   -79.4230     7.1150     7.4900   373.1200   533.2940
 2626.5000    98.6080    10.0550     2.5340     0.0330   -79.3740     7.1800     7.6450   374.4510   533.9070
 2627.0000   101.0410    10.0500     2.5390     0.0350   -79.2810     7.4870     7.7990   375.7830   534.5190
 2627.5000   103.4560    10.0440     2.5440     0.0370   -79.1890     7.8150     8.0140   377.1150   535.1320
 2628.0000   105.8720    10.0390     2.5480     0.0370   -79.0960     8.0870     8.3880   378.4460   535.7450
 2628.5000   108.1440    10.0340     2.5460     0.0380   -79.0040     8.0210     8.3750   379.7780   536.3580
 2629.0000   107.6490    10.0120     2.5450     0.0390   -78.9110     7.9640     8.3390   381.1100   536.9700
 2629.5000   106.3550    10.0070     2.5490     0.0390   -78.8180     7.9080     8.3030   382.4410   537.5830
 2630.0000   105.0940     9.9970     2.5500     0.0400   -78.7260     7.8510     8.2670   383.7730   538.1960
 2630.5000   104.2150     9.9870     2.5500     0.0420   -78.6330     7.7960     8.2310   385.1050   538.8090
 2631.0000   105.0170     9.9770     2.5500     0.0420   -78.5400     7.7250     8.1960   385.8160   539.4220
 2631.5000   105.8270     9.9660     2.5510     0.0410   -78.4480     7.8490     8.1600   384.3700   540.0340
 2632.0000   106.6400     9.9560     2.5510     0.0400   -78.3550     8.0130     8.1240   382.9250   540.6470
 2632.5000   107.4520     9.9460     2.5490     0.0390   -78.2620     7.9400     8.0880   381.4800   541.2600
 2633.0000   108.2810     9.9360     2.5460     0.0380   -78.1650     7.7790     8.0520   380.0350   541.8730
 2633.5000   108.0930     9.9250     2.5440     0.0380   -78.0820     7.6300     8.0130   378.5900   542.4860
 2634.0000   107.3650     9.9150     2.5410     0.0350   -77.9540     7.4810     8.0130   377.1440   543.0980
 2634.5000   106.6290     9.9050     2.5390     0.0320   -78.4920     7.3130     7.9390   375.6990   543.7110
 2635.0000   105.8920     9.8940     2.5370     0.0300   -78.9980     7.1800     7.8580   374.2540   544.3240
 2635.5000   105.7780     9.8840     2.5360     0.0270   -79.4940     7.1800     7.7770   372.8090   544.9370
 2636.0000   105.7720     9.8740     2.5350     0.0250   -80.0030     7.2070     7.6960   371.3640   545.5490
 2636.5000   105.7590     9.8640     2.5330     0.0220   -79.9700     7.2260     7.6140   369.9190   546.1770
 2637.0000   105.8660     9.8530     2.5330     0.0190   -79.9150     7.2460     7.5330   368.4730   540.7260
 2637.5000   108.3250     9.8430     2.5360     0.0190   -79.8450     7.1590     7.3560   367.0280   535.1430
 2638.0000   110.7870     9.8330     2.5370     0.0190   -79.7690     6.9390     7.1530   365.5830   529.5600
 2638.5000   113.2390     9.8220     2.5370     0.0190   -79.6940     6.7190     6.9490   364.1380   523.9770
 2639.0000   115.7980     9.8080     2.5380     0.0200   -79.6240     6.4990     6.7460   362.6930   518.3930
 2639.5000   115.9860     9.7820     2.5380     0.0200   -79.6220     6.2790     6.5530   361.2470   512.8100
 2640.0000   115.1890     9.7550     2.5380     0.0200   -79.6640     6.2030     6.5530   359.8020   507.2270
 2640.5000   114.9260     9.7290     2.5380     0.0210   -79.7550     6.2030     6.7150   358.3570   501.6440
 2641.0000   116.3820     9.7020     2.5400     0.0210   -79.8470     6.5800     7.0930   356.9120   496.0610
 2641.5000   118.5340     9.6760     2.5430     0.0210   -79.9380     6.9320     7.4720   355.4670   490.4780
 2642.0000   118.8780     9.6490     2.5450     0.0220   -80.0300     7.3130     7.5850   354.0220   489.7310
 2642.5000   117.0850     9.6230     2.5460     0.0220   -80.1220     7.1830     7.3620   352.5760   500.0380
 2643.0000   114.1900     9.5970     2.5470     0.0220   -80.2150     7.0500     7.2460   351.1310   510.3460
 2643.5000   110.9060     9.5700     2.5510     0.0220   -80.2190     7.0500     7.3530   349.6860   520.6530
 2644.0000   109.4370     9.5440     2.5520     0.0220   -80.2180     7.2460     7.5160   348.2410   530.9600
 2644.5000   111.8490     9.5170     2.5530     0.0220   -80.1300     6.9860     7.4300   346.7960   541.2680
 2645.0000   110.5450     9.4910     2.5530     0.0220   -79.8750     7.1150     7.3160   345.3500   551.5750
 2645.5000   108.7940     9.4640     2.5530     0.0220   -79.6170     7.0410     7.1800   343.9050   561.8820
 2646.0000   109.9190     9.4560     2.5530     0.0220   -79.2560     6.9470     7.0500   342.4600   559.7240
 2646.5000   111.4190     9.4560     2.5530     0.0220   -79.1890     6.8530     7.0570   341.0150   549.1450
 2647.0000   113.5770     9.4690     2.5530     0.0220   -79.1130     6.7590     7.0690   339.5700   538.5670
 2647.5000   113.8220     9.4950     2.5540     0.0220   -79.0190     6.6130     7.0810   338.1250   527.9880
 2648.0000   113.5610     9.5210     2.5550     0.0220   -79.5580     6.6500     7.0920   336.6790   526.3160
 2648.5000   116.3310     9.5500     2.5560     0.0220   -80.1790     6.7320     7.1040   335.2340   526.3160
 2649.0000   115.8490     9.5110     2.5570     0.0220   -80.8300     6.8140     7.1150   333.7890   526.3160
 2649.5000   116.0250     9.4490     2.5580     0.0220   -81.0470     6.8960     7.1990   332.3440   526.3160
 2650.0000   118.9200     9.3860     2.5590     0.0220   -81.3900     6.9860     7.2940   330.8990   526.3160
 2650.5000   119.6880     9.3230     2.5590     0.0220   -81.2800     7.2700     7.4480   329.4540   526.3160
 2651.0000   119.3910     9.2590     2.5600     0.0210   -80.7640     7.7860     7.9800   328.0080   526.3160
 2651.5000   118.1450     9.2020     2.5610     0.0190   -80.2650     8.3020     8.5690   327.2580   526.3160
 2652.0000   117.1170     9.1620     2.5570     0.0170   -79.8150     8.8170     9.1580   331.7340   526.3160
 2652.5000   116.0090     9.1350     2.5540     0.0150   -79.6570     9.2760     9.4470   336.2110   526.3160
 2653.0000   112.2540     9.1070     2.5510     0.0130   -79.6230     9.0870     9.3540   340.6880   526.3160
 2653.5000   108.4800     9.0750     2.5500     0.0110   -80.1040     8.9400     9.2830   345.1640   526.3160
 2654.0000   104.7150     9.0580     2.5520     0.0090   -80.6420     8.7810     9.2120   349.6410   526.3160
 2654.5000   100.9550     9.0550     2.5540     0.0070   -81.1990     9.0200     9.1920   354.1170   526.3160
 2655.0000    97.8330     9.0500     2.5550     0.0050   -80.8570     9.3540     9.9720   358.5940   526.3160
 2655.5000    96.0480     9.0450     2.5560     0.0040   -80.3450    12.5800    15.0730   363.0700   526.3160
