~VERSION INFORMATION
 VERS.                2.0:   CWLS LOG ASCII STANDARD - VERSION 2.0
 WRAP.                 NO:   ONE LINE PER DEPTH STEP
~WELL INFORMATION
#MNEM.UNIT      DATA TYPE    INFORMATION
#----------   ------------   ------------------------------
 STRT.F           46.5000:   START DEPTH
 STOP.F         3160.0000:   STOP DEPTH
 STEP.F            0.5000:   STEP LENGTH
 NULL.          -999.2500:   NO VALUE
 COMP. LAWRENCE ALLISON & WEST:   COMPANY
 WELL. LAWRENCE NPR 3 "AX" #42-34:   WELL
 FLD .                NPR:   FIELD
 LOC .      S34 T39N R78W:   LOCATION
 CNTY.            NATRONA:   COUNTY
 STAT.            WYOMING:   STATE
 CTRY. UNITED STATES OF AMERICA:   COUNTRY
 SRVC.      WESTERN ATLAS:   SERVICE COMPANY
 DATE.        19-OCT-1987:   LOGDATE
 API .     49025111830000:   API NUMBER
~CURVE INFORMATION
#MNEM.UNIT       API CODE    CURVE DESCRIPTION
#----------   ------------   ------------------------------
 DEPT.F                  :   
 CALD.IN     45 280 60 00:   CALIPER FROM DENSITY LOG
 DEN .LBS    45 635 01 00:   BUCK DENSITY
 CORR.G/C3   45 356 01 00:   DENSITY CORRECTION
 NPOR.DEC    42 890 03 00:   ALPHA PROCESSED NEUTRON POROSITY
 SPR .MV     07 010 01 00:   SPONTANEOUS POTENTIAL
 GRR .GAPI   07 310 01 00:   GAMMA RAY FROM RESISTIVITY
 RFOC.OHMM   07 220 04 00:   RESISTIVITY FOCUSED LOG RES.
 RILD.OHMM   07 120 46 00:   DEEP INDUCTION RESISTIVITY
 RILM.OHMM   07 120 44 00:   INDUCTION LOG MEDIUM RESISTIVITY
 TENR.LBS    07 635 01 00:   TENSION FROM RESISTIVITY
~PARAMETER INFORMATION
#MNEM.UNIT          VALUE    DESCRIPTION
#----------   ------------   ------------------------------
 EKB .F         5088.0000:   Kelly bushing
 EGL .F         5077.0000:   Ground level
 EDF .F         5087.0000:   Drilling floor
 TD  .F         3151.0000:   Total depth
 DATE.        19-OCT-1987:   Date logged
 CLNT.            A2DTECH:   Client Code
 SL  . 1032' FNL & 2316' FWL:   Surface Location
 PD  .                 GL:   Permanent Datum
 EPD .F              5077:   Elevation Permanent Datum
 LMF .                 KB:   Log Measured From
 DMF .                 KB:   Drilling Measured From
 DAPD.F                11:   Feet Above Permanent Datum
 DD  .F              3151:   Depth driller
 DL  .F              3151:   Depth logger
 BLI .F              3149:   Bottom log interval
 TLI .F                50:   Top log interval
 CS1 .IN            8.625:   Casing size
 CBD1.      8.625" @ 693':   Casing driller 1
 CBL1.F               693:   Casing logger 1
 BS1 .IN            7.875:   Bit size
 BSD1.F              3151:   Depth drilled with bit1
 DFT .        KCL/POLYMER:   Type fluid in hole
 DFD .                9.2:   Density
 DFV .                 53:   Viscosity
 DFPH.                9.5:   pH
 DFL .               11.8:   Fluid loss
 MSS .            MUD/PIT:   Source of sample
 RMS .OHMM           .441:   Rm
 MST .F                66:   Rm Meas. temp.
 RMF .OHMM           .336:   Rmf
 MFST.F                66:   Rmf Meas. temp.
 RMC .OHMM           .711:   Rmc
 MCST.F                66:   Rmc Meas. temp.
 MFSS.               MEAS:   Source Rmf.
 MCSS.               MEAS:   Source Rmc.
 RMB .OHMM           .244:   Rm. at BHT
 BHT .F               119:   BHT.
 TCS .HRS               3:   Time Circ. stopped
 MRT .F               119:   Maximum recorded temp.
 LUN .            HL-6343:   Logging unit number
 LUL .               CODY:   Logging unit location
 ENGI.               JULL:   Recorded By
 WITN.             STRONG:   Witnessed by
 ORIG.           5" PRINT:   Origin of data
 UWI .     49025111830000:   Unique Well ID
 DICO. A2D TECHNOLOGIES, INC.:   Digitizing Company
~OTHER INFORMATION
~A   DEPT     CALD        DEN       CORR       NPOR        SPR         GRR      RFOC       RILD       RILM       TENR   
# ...
 1855.5000  -999.2500  -999.2500  -999.2500  -999.2500   -19.9783   126.4691     5.8870     3.8109     3.5041   -85.6948
 1856.0000  -999.2500  -999.2500  -999.2500  -999.2500   -20.1857   123.6270     5.6185     3.6709     3.2736   -95.6131
 1856.5000  -999.2500  -999.2500  -999.2500  -999.2500   -19.5852   120.7848     5.2145     3.5361     2.9901   -85.3000
 1857.0000  -999.2500  -999.2500  -999.2500  -999.2500   -19.5904   116.3247     3.8706     3.5353     3.0744   -85.1025
 1857.5000  -999.2500  -999.2500  -999.2500  -999.2500   -19.7978   112.2689     3.4613     3.3383     3.2206   -84.9051
 1858.0000  -999.2500  -999.2500  -999.2500  -999.2500   -19.3964   109.8310     3.4931     3.1902     3.1706   -84.7077
 1858.5000  -999.2500  -999.2500  -999.2500  -999.2500   -19.6058   106.5874     5.0674     3.0445     3.1308   -74.3948
 1859.0000  -999.2500  -999.2500  -999.2500  -999.2500   -19.8122   114.2592     4.9878     3.0725     3.1303   -84.3128
 1859.5000  -999.2500  -999.2500  -999.2500  -999.2500   -20.4252   115.4641     4.1667     3.4998     3.3097   -84.1154
 1860.0000  -999.2500  -999.2500  -999.2500  -999.2500   -20.8349   110.5946     3.9034     3.5637     3.4995   -93.9938
 1860.5000  -999.2500  -999.2500  -999.2500  -999.2500   -21.2436   108.5611     5.0177     3.6318     3.7347   -83.6811
 1861.0000  -999.2500  -999.2500  -999.2500  -999.2500   -22.2611   108.9593     6.0998     3.7342     3.7342   -93.5989
 1861.5000  -999.2500  -999.2500  -999.2500  -999.2500   -22.2663   126.3389     6.9477     3.8394     3.8038   -83.2863
 1862.0000  -999.2500  -999.2500  -999.2500  -999.2500   -21.6657   131.9942     6.6926     3.9110     3.8748   -93.2039
 1862.5000  -999.2500  -999.2500  -999.2500  -999.2500   -21.8690   131.9899     5.1088     3.9840     3.9841   -93.0065
 1863.0000  -999.2500  -999.2500  -999.2500  -999.2500   -21.4738   127.1160     4.6541     4.0963     4.1346   -92.8090
 1863.5000  -999.2500  -999.2500  -999.2500  -999.2500   -21.6813   127.5101     4.6103     4.1728     4.2910   -82.4966
 1864.0000  -999.2500  -999.2500  -999.2500  -999.2500   -21.8888   126.6946     5.1063     4.2903     4.4118   -92.4141
 1864.5000  -999.2500  -999.2500  -999.2500  -999.2500   -21.6917   123.4365     5.3487     4.4111     4.5361   -82.1018
 1865.0000  -999.2500  -999.2500  -999.2500  -999.2500   -21.8991   120.2025     5.4993     4.5780     4.7962   -81.8649
 1865.5000  -999.2500  -999.2500  -999.2500  -999.2500   -22.1066   120.9966     6.6233     4.7954     4.9313   -81.6675
 1866.0000  -999.2500  -999.2500  -999.2500  -999.2500   -21.9095   132.7184     7.0680     5.0233     5.1180   -81.4701
 1866.5000  -999.2500  -999.2500  -999.2500  -999.2500   -21.9126   132.7078     7.0014     5.3113     5.5640   -91.3874
 1867.0000  -999.2500  -999.2500  -999.2500  -999.2500   -22.4949   132.6926     7.0004     5.5121     5.4662   -91.1899
 1867.5000  -999.2500  -999.2500  -999.2500  -999.2500   -22.9376   135.9186     6.9344     5.6674     5.3701   -90.9925
 1868.0000  -999.2500  -999.2500  -999.2500  -999.2500   -23.3474   139.1493     6.8692     5.6140     5.2596   -90.7950
 1868.5000  -999.2500  -999.2500  -999.2500  -999.2500   -23.5549   134.2791     6.9971     5.4585     5.1617   -90.5976
 1869.0000  -999.2500  -999.2500  -999.2500  -999.2500   -23.5601   132.2501     6.7404     5.2091     5.0186   -90.4002
 1869.5000  -999.2500  -999.2500  -999.2500  -999.2500   -23.7676   134.6671     5.6998     5.0178     4.8795   -90.2027
 1870.0000  -999.2500  -999.2500  -999.2500  -999.2500   -23.7728   151.6456     5.3396     4.8788     4.6567   -79.8515
 1870.5000  -999.2500  -999.2500  -999.2500  -999.2500   -25.1950   151.6372     5.3387     4.7881     4.4857   -79.6542
 1871.0000  -999.2500  -999.2500  -999.2500  -999.2500   -25.1970   151.6310     6.1945     4.6121     4.4022   -79.4568
 1871.5000  -999.2500  -999.2500  -999.2500  -999.2500   -25.2023   152.0231     6.4889     4.4843     4.2803   -79.2594
 1872.0000  -999.2500  -999.2500  -999.2500  -999.2500   -24.8029   151.1989     6.5486     4.3197     3.6868   -89.1761
 1872.5000  -999.2500  -999.2500  -999.2500  -999.2500   -24.4035   150.7905     4.8614     4.1225     3.7414   -99.0927
 1873.0000  -999.2500  -999.2500  -999.2500  -999.2500   -24.0051   163.3168     4.5541     3.9342     3.7902   -88.7813
 1873.5000  -999.2500  -999.2500  -999.2500  -999.2500   -23.6057   169.7806     4.7703     3.7546     3.5650   -98.6978
 1874.0000  -999.2500  -999.2500  -999.2500  -999.2500   -23.4086   174.6259     5.0434     3.5832     3.5171   -78.2726
 1874.5000  -999.2500  -999.2500  -999.2500  -999.2500   -23.4138   186.7549     5.2830     3.6163     3.5164   -88.1890
 1875.0000  -999.2500  -999.2500  -999.2500  -999.2500   -23.6213   194.0284     4.2643     3.8234     3.6494   -77.8384
 1875.5000  -999.2500  -999.2500  -999.2500  -999.2500   -24.2335   191.5905     4.1078     4.0425     3.9679   -77.6410
 1876.0000  -999.2500  -999.2500  -999.2500  -999.2500   -25.0480   187.1319     5.7415     4.5625     4.3546   -77.4436
 1876.5000  -999.2500  -999.2500  -999.2500  -999.2500   -25.8625   190.3591     7.3118     5.3943     4.7347   -87.3599
 1877.0000  -999.2500  -999.2500  -999.2500  -999.2500   -26.4747   197.6283     8.4057     6.0877     5.3434   -87.1625
 1877.5000  -999.2500  -999.2500  -999.2500  -999.2500   -26.2800   200.4509     9.5737     6.6191     6.2593   -76.8516
 1878.0000  -999.2500  -999.2500  -999.2500  -999.2500   -26.4875   197.6083     9.9352     7.4007     7.3321   -66.5408
 1878.5000  -999.2500  -999.2500  -999.2500  -999.2500   -27.1008   191.5283    10.3103     8.5891     8.6684   -86.5703
 1879.0000  -999.2500  -999.2500  -999.2500  -999.2500   -27.3084   187.0668    11.0025     9.2519     8.9917   -86.3729
 1879.5000  -999.2500  -999.2500  -999.2500  -999.2500   -28.4998   179.7725    11.4176     9.9658     9.0794   -86.1755
 1880.0000  -999.2500  -999.2500  -999.2500  -999.2500   -29.1400   176.1249    11.4158    10.1522     9.0783   -75.8254
 1880.5000  -999.2500  -999.2500  -999.2500  -999.2500   -29.5499   186.6319    10.9970    10.1500     9.0766   -65.5148
 1881.0000  -999.2500  -999.2500  -999.2500  -999.2500   -29.9599   200.8670    10.8934    10.1487     9.0754   -85.5439
 1881.5000  -999.2500  -999.2500  -999.2500  -999.2500   -30.1675   216.2334    10.7902    10.2411     9.0737   -85.3465
 1882.0000  -999.2500  -999.2500  -999.2500  -999.2500   -29.9704   233.6237    10.9925    10.2399     9.0723   -85.1491
 1882.5000  -999.2500  -999.2500  -999.2500  -999.2500   -30.3804   235.6356    10.9901    10.2389     9.1558   -84.9517
 1883.0000  -999.2500  -999.2500  -999.2500  -999.2500   -29.7786   235.6241    11.1948    10.4298     9.3265   -84.7544
 1883.5000  -999.2500  -999.2500  -999.2500  -999.2500   -30.5933   233.1842    11.4032    10.7233     9.4126   -84.5570
 1884.0000  -999.2500  -999.2500  -999.2500  -999.2500   -31.4091   228.3161    11.7242    10.7220     9.5878   -94.4725
 1884.5000  -999.2500  -999.2500  -999.2500  -999.2500   -31.4143   217.3770    11.8319    10.8202     9.6760   -84.1622
 1885.0000  -999.2500  -999.2500  -999.2500  -999.2500   -31.4199   204.8166    12.0519    11.0216    10.2302   -83.9254
 1885.5000  -999.2500  -999.2500  -999.2500  -999.2500   -31.4249   189.7668    12.5069    11.0199    10.2286   -83.7280
 1886.0000  -999.2500  -999.2500  -999.2500  -999.2500   -31.2278   183.2811    12.6218    11.0182    10.1322   -73.4180
 1886.5000  -999.2500  -999.2500  -999.2500  -999.2500   -31.0308   176.3884    12.6198    11.0164    10.1306   -83.3333
 1887.0000  -999.2500  -999.2500  -999.2500  -999.2500   -30.8337   170.3071    12.3852    11.0151    10.0351   -73.0234
 1887.5000  -999.2500  -999.2500  -999.2500  -999.2500   -31.0413   166.6548    12.1550    10.7088     9.8484   -93.0510
 1888.0000  -999.2500  -999.2500  -999.2500  -999.2500   -31.5417   158.1489    11.7091    10.7075     9.6651   -82.7412
 1888.5000  -999.2500  -999.2500  -999.2500  -999.2500   -31.8614   155.3053    10.7669    10.5086     9.3973   -92.6562
