~VERSION INFORMATION
 VERS.                2.0:   CWLS LOG ASCII STANDARD - VERSION 2.0
 WRAP.                 NO:   ONE LINE PER DEPTH STEP
~WELL INFORMATION
#MNEM.UNIT      DATA TYPE    INFORMATION
#----------   ------------   ------------------------------
 STRT.F          199.5000:   START DEPTH
 STOP.F         2983.0000:   STOP DEPTH
 STEP.F            0.5000:   STEP LENGTH
 NULL.          -999.2500:   NO VALUE
 COMP.    FENIX & SCISSON:   COMPANY
 WELL. FENIX (UE-49) "AX" #52-29:   WELL
 FLD . U.S. NAVAL PETROLEUM RESERVE #3:   FIELD
 LOC .      S29 T39N R78W:   LOCATION
 CNTY.            NATRONA:   COUNTY
 STAT.            WYOMING:   STATE
 CTRY. UNITED STATES OF AMERICA:   COUNTRY
 SRVC.           BIRDWELL:   SERVICE COMPANY
 DATE.        07-AUG-1977:   LOGDATE
 API .     49025104090000:   API NUMBER
~CURVE INFORMATION
#MNEM.UNIT       API CODE    CURVE DESCRIPTION
#----------   ------------   ------------------------------
 DEPT.F                  :   
 GRD .GAPI   45 310 01 00:   GAMMA RAY FROM DENSITY LOG
 CALD.IN     45 280 60 00:   CALIPER FROM DENSITY LOG
 DEN .G/C3   45 350 01 00:   BULK DENSITY
 DCOR.G/C3   45 356 01 00:   DENSITY CORRECTION
 SN  .OHMM   05 040 16 00:   SHORT NORMAL 16"
 ILD .OHMM   05 120 46 00:   INDUCTION LOG DEEP RESISTIVITY
~PARAMETER INFORMATION
#MNEM.UNIT          VALUE    DESCRIPTION
#----------   ------------   ------------------------------
 EKB .F         4995.0000:   Kelly bushing
 EGL .F         4985.0000:   Ground level
 EDF .F            0.0000:   Drilling floor
 TD  .F         2973.0000:   Total depth
 DATE.         7-AUG-1977:   Date logged
 CLNT.            A2DTECH:   Client Code
 SL  . 1400' FNL & 2380' FEL:   Surface Location
 PD  .                 GL:   Permanent Datum
 EPD .F              4985:   Elevation Permanent Datum
 LMF .                 KB:   Log Measured From
 DMF .                 KB:   Drilling Measured From
 DAPD.F                10:   Feet Above Permanent Datum
 DD  .F              2972:   Depth driller
 DL  .F              2973:   Depth logger
 BLI .F              2968:   Bottom log interval
 TLI .F               216:   Top log interval
 CS1 .IN            8.625:   Casing size
 CBD1.      8.625" @ 216':   Casing driller 1
 CBL1.F               216:   Casing logger 1
 BS1 .IN            7.875:   Bit size
 BSD1.F              2972:   Depth drilled with bit1
 DFT .            GEL-KCL:   Type fluid in hole
 DFD .                8.9:   Density
 DFV .                 33:   Viscosity
 DFL .                  9:   Fluid loss
 MSS .            MUD PIT:   Source of sample
 RMS .OHMM           0.26:   Rm
 MST .F                73:   Rm Meas. temp.
 RMF .OHMM           0.26:   Rmf
 MFST.F                72:   Rmf Meas. temp.
 RMC .OHMM           0.96:   Rmc
 MCST.F                72:   Rmc Meas. temp.
 MFSS.              PRESS:   Source Rmf.
 RMB .OHMM           0.14:   Rm. at BHT
 BHT .F               130:   BHT.
 TCS .HRS               5:   Time Circ. stopped
 MRT .F               130:   Maximum recorded temp.
 LUN .               2958:   Logging unit number
 LUL .             CASPER:   Logging unit location
 ENGI.                LAW:   Recorded By
 WITN.             RHODES:   Witnessed by
 ORIG.           5" PRINT:   Origin of data
 UWI .     49025104090000:   Unique Well ID
 DICO. A2D TECHNOLOGIES, INC.:   Digitizing Company
~OTHER INFORMATION
~A   DEPT       GRD      CALD        DEN       DCOR         SN        ILD   
# ...
 2591.5000    73.5520     8.8070     2.5830     0.0230     7.9780     9.2610
 2592.0000    73.6440     8.8050     2.5760     0.0220     8.0040     9.3840
 2592.5000    73.0780     8.8040     2.5720     0.0220     8.0310     9.5070
 2593.0000    71.8750     8.8020     2.5770     0.0260     8.0580     9.6220
 2593.5000    71.2090     8.8010     2.5760     0.0260     8.0840     9.6970
 2594.0000    70.3650     8.8000     2.5820     0.0250     8.1110     9.7720
 2594.5000    70.1420     8.7980     2.5890     0.0250     8.1370     9.8760
 2595.0000    70.3070     8.7970     2.5910     0.0230     8.1640     9.7930
 2595.5000    70.5670     8.7960     2.5910     0.0170     8.1910     9.6580
 2596.0000    71.0200     8.7940     2.5840     0.0080     8.2220     9.5240
 2596.5000    72.6080     8.7930     2.5700     0.0000     8.1870     9.3890
 2597.0000    72.6710     8.7910     2.5570     0.0050     8.1450     9.2620
 2597.5000    72.8450     8.7900     2.5600     0.0090     8.1030     9.2300
 2598.0000    73.1140     8.7890     2.5670     0.0080     8.0650     9.2000
 2598.5000    73.0420     8.7870     2.5720     0.0190     8.0360     9.1700
 2599.0000    73.5840     8.7860     2.5770     0.0170     7.9990     9.1390
 2599.5000    72.6080     8.7840     2.5790     0.0240     8.0560     9.1090
 2600.0000    72.8520     8.7830     2.5800     0.0220     8.1400     9.0940
 2600.5000    69.3460     8.7820     2.5790     0.0270     8.2240     9.2340
 2601.0000    66.7420     8.7800     2.5890     0.0250     8.2970     9.3420
 2601.5000    63.1610     8.7790     2.5810     0.0220     8.2220     9.4500
 2602.0000    61.5120     8.7780     2.5850     0.0140     8.5290     9.6060
 2602.5000    66.8860     8.7770     2.5720     0.0150     8.5060     9.8500
 2603.0000    70.9520     8.7790     2.5660     0.0270     8.4510    10.0930
 2603.5000    72.5090     8.7810     2.5760     0.0260     8.6430    10.3370
 2604.0000    74.2890     8.7830     2.5840     0.0250     9.0940    10.5150
 2604.5000    71.2890     8.7850     2.5840     0.0310     8.9650    10.6490
 2605.0000    67.3770     8.7870     2.5930     0.0340     8.8470    10.9020
 2605.5000    63.4450     8.7890     2.6020     0.0320     9.1130    11.3110
 2606.0000    59.5260     8.7910     2.6090     0.0270     9.2990    11.7200
 2606.5000    55.6050     8.7930     2.6020     0.0230     9.5130    12.1290
 2607.0000    51.5630     8.7950     2.6040     0.0190     9.8010    12.4430
 2607.5000    48.8990     8.7970     2.5970     0.0180    10.0580    12.5260
 2608.0000    46.8900     8.7990     2.5990     0.0180     9.6080    12.6480
 2608.5000    48.7310     8.8010     2.5960     0.0250     9.8650    12.5190
 2609.0000    51.7490     8.8030     2.6040     0.0260    10.1510    12.2750
 2609.5000    56.3210     8.8050     2.6090     0.0250     9.8710    12.0310
 2610.0000    59.8790     8.8070     2.6060     0.0210     9.6880    11.7870
 2610.5000    59.8750     8.8090     2.6020     0.0160     9.5620    11.5430
 2611.0000    59.8880     8.8110     2.5930     0.0130     9.4350    11.2990
 2611.5000    59.9680     8.8130     2.5830     0.0140     9.3090    11.0550
 2612.0000    56.9950     8.8150     2.5780     0.0140     9.2280    10.8110
 2612.5000    57.4230     8.8160     2.5770     0.0080     9.1770    10.5720
 2613.0000    55.6080     8.8150     2.5760     0.0080     9.0970    10.3490
 2613.5000    55.9060     8.8150     2.5760     0.0000     9.0200    10.1250
 2614.0000    53.9000     8.8140     2.5680    -0.0010     8.7350     9.8480
 2614.5000    51.9190     8.8140     2.5610     0.0060     8.4210     9.4360
 2615.0000    56.8060     8.8130     2.5670     0.0130     8.1070     9.0240
 2615.5000    54.4200     8.8120     2.5730     0.0170     7.7930     8.6120
 2616.0000    59.3880     8.8120     2.5750     0.0150     7.4790     8.2000
 2616.5000    63.1890     8.8110     2.5640     0.0140     7.1660     7.7670
 2617.0000    66.4070     8.8110     2.5600     0.0200     6.8520     7.2250
 2617.5000    69.5010     8.8100     2.5550     0.0260     6.5080     6.6820
 2618.0000    73.3690     8.8100     2.5520     0.0320     6.1440     6.1400
 2618.5000    77.9380     8.8090     2.5630     0.0270     5.8030     5.5980
 2619.0000    82.4990     8.8080     2.5580     0.0250     5.5500     5.2570
 2619.5000    86.5950     8.8080     2.5560     0.0230     5.2970     5.0380
 2620.0000   113.5570     8.8070     2.5430     0.0230     5.0580     4.8320
 2620.5000   103.2700     8.8070     2.5410     0.0240     4.8920     4.7130
 2621.0000    79.8550     8.8060     2.5320     0.0200     4.7350     4.5750
 2621.5000    85.1970     8.8060     2.5220     0.0130     4.5780     4.4360
 2622.0000    81.0970     8.8050     2.5130     0.0070     4.4020     4.2580
 2622.5000    93.4230     8.8040     2.4960     0.0010     4.2190     3.9020
 2623.0000    97.6450     8.8040     2.4800     0.0000     4.0360     3.7710
 2623.5000    90.6570     8.8030     2.4640     0.0010     3.8530     3.5440
 2624.0000    83.2940     8.8030     2.4550     0.0030     3.6320     2.9950
 2624.5000    84.8730     8.8020     2.4390     0.0010     3.3800     2.7120
 2625.0000    94.8670     8.8020     2.4220    -0.0030     3.0840     2.8140
 2625.5000   100.9560     8.8010     2.4040    -0.0120     2.7880     2.6010
 2626.0000   114.1950     8.8000     2.3590    -0.0200     2.6520     2.3430
 2626.5000   128.0810     8.8000     2.3150    -0.0190     2.5190     2.0980
 2627.0000   122.2300     8.7990     2.2680    -0.0160     2.4230     1.8590
 2627.5000   105.0320     8.7990     2.2180    -0.0320     2.3340     1.6690
 2628.0000    98.7130     8.7980     2.1720    -0.0580     2.2450     1.9060
 2628.5000   102.1690     8.7970     2.1190    -0.0530     2.2170     2.1280
 2629.0000    94.0510     8.7910     2.0540    -0.0380     2.4520     2.3240
 2629.5000    78.2970     8.8140     1.9730    -0.0160     2.8400     2.5140
 2630.0000    71.4560     9.2720     1.8750     0.0880     2.7810     2.8310
 2630.5000    65.2730     8.7620     1.8430     0.1510     2.7120     3.1490
 2631.0000    63.6960     8.8260     1.9210     0.0370     3.4360     3.4660
 2631.5000    67.2990     8.8170     2.1730     0.0230     4.1720     4.7120
 2632.0000    74.1710     8.8160     2.4250     0.0340     4.7450     6.4790
 2632.5000    67.5490     8.8160     2.5470     0.0340     5.2680     6.2450
 2633.0000    67.8340     8.8160     2.5530     0.0210     5.5990     7.2980
 2633.5000    63.2990     8.8160     2.5450     0.0160     5.9310     6.8100
 2634.0000    65.0010     8.8160     2.5400     0.0200     6.2450     6.1320
 2634.5000    60.2710     8.8160     2.5410     0.0310     6.1700     6.3420
 2635.0000    61.9280     8.8160     2.5500     0.0460     6.1320     6.5880
 2635.5000    57.3590     8.8160     2.5690     0.0430     6.4560     6.8340
 2636.0000    61.4020     8.8160     2.5790     0.0370     7.1000     7.0270
 2636.5000    59.3320     8.8160     2.5740     0.0370     7.0360     7.1990
 2637.0000    58.2110     8.8160     2.5740     0.0380     7.1870     7.3700
 2637.5000    61.3340     8.8160     2.5760     0.0280     7.3860     7.5410
 2638.0000    60.1470     8.8160     2.5710     0.0170     7.5260     7.7120
 2638.5000    61.3860     8.8160     2.5600     0.0140     7.6460     7.8750
 2639.0000    61.3370     8.8110     2.5600     0.0180     7.6750     7.9260
 2639.5000    63.0810     8.7880     2.5720     0.0310     7.7110     7.8330
 2640.0000    53.9100     8.7630     2.5880     0.0330     7.6350     7.6030
 2640.5000    49.6280     8.7790     2.5970     0.0270     7.5410     7.3730
 2641.0000    56.4590     8.8130     2.5920     0.0170     7.4470     7.1420
 2641.5000    62.9780     8.8880     2.5810     0.0100     7.1950     6.9710
 2642.0000    69.7910     8.9710     2.5670     0.0150     6.9150     6.5060
 2642.5000    74.8960     8.9750     2.5680     0.0240     6.6590     6.0680
 2643.0000    78.6750     8.9920     2.5680     0.0290     6.4950     5.9390
