~VERSION INFORMATION
 VERS.                2.0:   CWLS LOG ASCII STANDARD - VERSION 2.0
 WRAP.                 NO:   ONE LINE PER DEPTH STEP
~WELL INFORMATION
#MNEM.UNIT      DATA TYPE    INFORMATION
#----------   ------------   ------------------------------
 STRT.F          500.0000:   START DEPTH
 STOP.F         4646.0000:   STOP DEPTH
 STEP.F            0.5000:   STEP LENGTH
 NULL.          -999.2500:   NO VALUE
 COMP.    FENIX & SCISSON:   COMPANY
 WELL. LAWRENCE NPR 3 "X" #34-10:   WELL
 FLD .                NPR:   FIELD
 LOC .      S10 T38N R78W:   LOCATION
 CNTY.            NATRONA:   COUNTY
 STAT.            WYOMING:   STATE
 CTRY. UNITED STATES OF AMERICA:   COUNTRY
 SRVC.              WELEX:   SERVICE COMPANY
 DATE.        12-OCT-1979:   LOGDATE
 API .     49025109290000:   API NUMBER
~CURVE INFORMATION
#MNEM.UNIT       API CODE    CURVE DESCRIPTION
#----------   ------------   ------------------------------
 DEPT.F                  :   
 SPR .MV     07 010 01 00:   SPONTANEOUS POTENTIAL
 SGRD.OHMM   07 220 05 00:   SHALLOW GUARD LOG RESISTIVITY
 ILD .OHMM   07 120 46 00:   DEEP INDUCTION RESISTIVITY
 ILM .OHMM   07 120 44 00:   INDUCTION LOG MEDIUM RESISTIVITY
 TEND.LBS    45 635 01 00:   TENSION FROM DENSITY LOG
 CORR.G/C3   45 356 01 00:   DENSITY CORRECTION
 RHOB.G/C3   45 350 01 00:   BULK DENSITY
 NPHI.DEC    42 890 03 00:   NEUTRON POROSITY SANDSTONE
 GRD .GAPI   45 310 01 00:   GAMMA RAY FROM DENSITY LOG
 CALD.IN     45 280 60 00:   CALIPER FROM DENSITY LOG
~PARAMETER INFORMATION
#MNEM.UNIT          VALUE    DESCRIPTION
#----------   ------------   ------------------------------
 EKB .F         5234.0000:   Kelly bushing
 EGL .F         5224.0000:   Ground level
 EDF .F            0.0000:   Drilling floor
 TD  .F         4650.0000:   Total depth
 DATE.        12-OCT-1979:   Date logged
 CLNT.            A2DTECH:   Client Code
 SL  . 2055' FNL & 1509' FWL:   Surface Location
 PD  .                 GL:   Permanent Datum
 DD  .F              4650:   Depth driller
 DL  .F              4646:   Depth logger
 BLI .F              4644:   Bottom log interval
 CS1 .IN              500:   Casing size
 CBD1.      8.625" @ 500':   Casing driller 1
 CBL1.F               502:   Casing logger 1
 BS1 .IN            7.875:   Bit size
 DFT .           CHEM/GEL:   Type fluid in hole
 DFD .                8.8:   Density
 DFV .                 62:   Viscosity
 DFPH.               11.2:   pH
 DFL .                4.5:   Fluid loss
 MSS .            MUD/PIT:   Source of sample
 RMS .OHMM           1.18:   Rm
 MST .F                60:   Rm Meas. temp.
 RMF .OHMM            .94:   Rmf
 MFST.F                60:   Rmf Meas. temp.
 RMC .OHMM           1.41:   Rmc
 MCST.F                60:   Rmc Meas. temp.
 MFSS.               MEAS:   Source Rmf.
 RMB .OHMM            .81:   Rm. at BHT
 BHT .F                87:   BHT.
 TCS .HRS               2:   Time Circ. stopped
 MRT .F                87:   Maximum recorded temp.
 LUN .               1892:   Logging unit number
 LUL .             CASPER:   Logging unit location
 ENGI.               REIN:   Recorded By
 WITN.           DINSMORE:   Witnessed by
 ORIG.           5" PRINT:   Origin of data
 UWI .     49025109290000:   Unique Well ID
 DICO. A2D TECHNOLOGIES, INC.:   Digitizing Company
 DAPD.                 10:   Feet Above Permanent Datum
 BSD1.F              4650:   Depth drilled with bit1
 MCSS.               MEAS:   Source Rmc.
 EPD .F              5224:   Elevation Permanent Datum
 LMF .                 KB:   Log Measured From
 DMF .                 KB:   Drilling Measured From
 TLI .F               500:   Top log interval
~OTHER INFORMATION
~A   DEPT      SPR         SGRD      ILD         ILM      TEND         CORR       RHOB       NPHI       GRD        CALD 
# ...
 4352.5000   -20.8590    11.9610     9.2790     9.8720  2501.5410     0.1350     2.5590     0.0530    58.6390     8.3100
 4353.0000   -20.8570    12.1570     9.2630     9.8490  2502.0081     0.1350     2.5570     0.0540    58.1690     8.2970
 4353.5000   -20.6890    11.2810     9.2470     9.7750  2502.4751     0.1330     2.5550     0.0580    54.7240     8.2830
 4354.0000   -20.5040    10.6150     9.2310     9.6070  2502.9409     0.1400     2.5520     0.0610    51.7500     8.2690
 4354.5000   -20.3190    10.4890     9.1460     9.4100  2503.4080     0.1440     2.5500     0.0640    53.1380     8.2700
 4355.0000   -20.1350    10.6850     8.8330     9.1190  2503.8750     0.1420     2.5470     0.0670    54.4500     8.2760
 4355.5000   -19.9500     9.7750     8.5200     8.8270  2504.3420     0.1370     2.5370     0.0720    54.7180     8.2820
 4356.0000   -19.8440     8.9310     8.2130     8.5360  2504.8091     0.1310     2.5280     0.0750    53.1100     8.2880
 4356.5000   -19.8060     8.4070     7.9440     8.2450  2505.2759     0.1330     2.5190     0.0780    51.5270     8.2940
 4357.0000   -19.7710     8.6090     7.6760     7.9530  2505.7419     0.1360     2.5160     0.0780    49.9310     8.3000
 4357.5000   -19.7350     8.9680     7.4070     7.7380  2506.2090     0.1400     2.5140     0.0750    48.5640     8.3070
 4358.0000   -19.6990     9.2620     7.2330     7.7380  2506.6760     0.1450     2.5210     0.0730    49.6000     8.3130
 4358.5000   -19.6620     9.5380     7.1220     7.9920  2507.1431     0.1500     2.5270     0.0770    50.6390     8.3190
 4359.0000   -19.6600     9.8140     7.1780     8.1630  2507.6101     0.1450     2.5190     0.0820    51.6680     8.3250
 4359.5000   -19.6600    10.1910     7.2270     8.3300  2508.0769     0.1400     2.5100     0.0860    52.7140     8.3310
 4360.0000   -19.7190    10.6340     7.4100     8.5900  2508.5430     0.1310     2.5020     0.0900    52.8760     8.3370
 4360.5000   -19.8150    11.0780     7.7620     8.8450  2509.0100     0.1210     2.4940     0.0940    52.3000     8.3430
 4361.0000   -19.9120    11.7750     8.1140     9.2530  2509.4771     0.1130     2.4930     0.0970    52.1200     8.3340
 4361.5000   -20.0100    12.7100     8.5120     9.8050  2509.9441     0.1020     2.4830     0.1000    51.4140     8.3170
 4362.0000   -20.1070    13.9580     9.1360    10.5680  2510.4109     0.0910     2.4750     0.1000    53.7460     8.3000
 4362.5000   -20.2030    16.4250     9.7600    11.3900  2510.8779     0.0900     2.4830     0.0900    56.6650     8.2830
 4363.0000   -20.2400    17.6540    10.3830    11.8250  2511.3450     0.0970     2.4920     0.0830    59.6220     8.2660
 4363.5000   -20.1930    18.0710    11.2920    11.8250  2511.8110     0.1050     2.5060     0.0770    62.2560     8.2490
 4364.0000   -20.1460    16.9290    11.2700    12.2090  2512.2781     0.1120     2.5190     0.0720    57.6550     8.2320
 4364.5000   -20.0990    14.6180    11.2280    12.7300  2512.5129     0.1110     2.5290     0.0690    52.7320     8.2150
 4365.0000   -20.0520    14.7270    11.1890    12.8530  2512.5129     0.1070     2.5310     0.0670    52.2380     8.1980
 4365.5000   -20.0050    14.8900    11.5700    12.9670  2512.5129     0.1020     2.5390     0.0640    55.6680     8.1800
 4366.0000   -19.9580    14.5470    11.8250    12.8330  2512.5129     0.0990     2.5420     0.0610    59.0570     8.1670
 4366.5000   -19.9100    13.2080    10.8930    12.6820  2512.5129     0.1030     2.5490     0.0590    62.4220     8.1840
 4367.0000   -19.8630    13.0870    10.5160    12.5300  2512.5129     0.1060     2.5560     0.0520    65.8480     8.2010
 4367.5000   -19.9100    13.4200    10.3920    12.3830  2512.5129     0.1090     2.5630     0.0480    66.4370     8.2170
 4368.0000   -19.9640    13.5790    10.2680    12.1480  2512.5129     0.1120     2.5690     0.0460    64.2310     8.2340
 4368.5000   -20.0200    12.7300    10.1100    11.7830  2512.5129     0.1190     2.5760     0.0400    58.8390     8.2500
 4369.0000   -20.1070    12.7700    10.1170    11.5460  2512.5129     0.1280     2.5830     0.0380    53.4510     8.2670
 4369.5000   -20.3200    12.8480    10.1270    11.4260  2512.2729     0.1370     2.5870     0.0360    47.9710     8.2830
 4370.0000   -20.5270    12.4560    10.1380    11.3060  2511.6460     0.1450     2.5780     0.0420    48.6820     8.2990
 4370.5000   -20.7320    12.1570    10.1480    11.1860  2511.0181     0.1430     2.5680     0.0480    49.8460     8.3160
 4371.0000   -20.8400    13.0980    10.1580    11.0660  2510.3911     0.1370     2.5580     0.0540    50.9790     8.3320
 4371.5000   -20.7890    14.3350    10.1690    10.9780  2509.7629     0.1320     2.5480     0.0610    52.1050     8.3430
 4372.0000   -20.7400    15.0280    10.1790    10.9310  2509.1360     0.1260     2.5380     0.0660    53.2420     8.3250
 4372.5000   -20.6910    14.6740    10.1890    10.8830  2508.5090     0.1200     2.5280     0.0720    54.3430     8.3090
 4373.0000   -20.6380    13.6780    10.2040    10.5860  2507.8811     0.1150     2.5200     0.0770    53.5720     8.2920
 4373.5000   -20.5770    12.5270    10.1440    10.2920  2507.2539     0.1150     2.5190     0.0750    49.7940     8.2760
 4374.0000   -20.5160    11.2920    10.0530    10.1770  2506.6260     0.1190     2.5270     0.0700    47.8120     8.2590
 4374.5000   -20.4550    11.2920     9.9250    10.1400  2505.9990     0.1240     2.5450     0.0620    53.3220     8.2430
 4375.0000   -20.3950    11.7600     9.9660    10.1100  2505.3711     0.1290     2.5580     0.0550    57.8040     8.2260
 4375.5000   -20.3340    12.7010    10.0380    10.3840  2504.7439     0.1260     2.5610     0.0540    62.3120     8.2100
 4376.0000   -20.2730    14.4400    10.1090    10.6150  2504.1160     0.1170     2.5560     0.0560    66.8080     8.1930
 4376.5000   -20.2120    17.0990    10.1810    10.8450  2503.4890     0.1120     2.5520     0.0560    69.9910     8.1770
 4377.0000   -20.1510    15.7450    10.2520    11.0860  2502.8611     0.1100     2.5560     0.0530    66.8390     8.1600
 4377.5000   -20.0900    14.1920    10.3240    11.0480  2502.2339     0.1130     2.5610     0.0510    63.7820     8.1460
 4378.0000   -20.0590    14.0420    10.3930    10.9980  2501.6060     0.1190     2.5660     0.0480    60.7240     8.1560
 4378.5000   -20.0590    13.2960    10.0650    10.9480  2500.9790     0.1260     2.5690     0.0500    57.8360     8.1660
 4379.0000   -20.1170    11.8180     9.6540    10.8830  2500.3521     0.1300     2.5620     0.0540    59.8990     8.1750
 4379.5000   -20.4670    11.2920     9.9360    11.1340  2499.7241     0.1280     2.5560     0.0550    62.2180     8.1850
 4380.0000   -20.8090    13.9500    10.8110    11.6130  2499.0969     0.1290     2.5540     0.0540    64.5380     8.1940
 4380.5000   -21.0170    17.3470    12.0450    12.0920  2498.4690     0.1350     2.5580     0.0530    65.2630     8.2040
 4381.0000   -21.1990    20.5610    12.0450    12.5710  2497.8420     0.1390     2.5620     0.0550    64.0650     8.2130
 4381.5000   -21.3820    20.5610    11.6050    12.9330  2497.2141     0.1370     2.5550     0.0590    61.6360     8.2230
 4382.0000   -21.4280    20.2680    11.3970    13.3580  2496.5869     0.1290     2.5470     0.0630    59.2110     8.2320
 4382.5000   -21.3550    19.5660    11.4900    13.7830  2495.9590     0.1240     2.5390     0.0630    56.7840     8.2420
 4383.0000   -21.2810    18.3470    12.0590    13.9600  2495.3320     0.1230     2.5410     0.0630    54.3580     8.2400
 4383.5000   -21.2070    17.3000    12.3830    13.4160  2494.7041     0.1250     2.5440     0.0620    51.9260     8.2300
 4384.0000   -21.1340    16.2820    11.9990    12.8480  2494.0769     0.1290     2.5460     0.0610    49.4820     8.2200
 4384.5000   -21.0540    12.8790    10.5290    11.7340  2493.4500     0.1330     2.5440     0.0640    47.3910     8.2100
 4385.0000   -20.8110     9.9690     8.9470    10.7030  2492.8220     0.1370     2.5390     0.0660    49.0540     8.2060
 4385.5000   -20.5590     9.2940     7.5800     9.6720  2493.0181     0.1400     2.5340     0.0680    51.4060     8.2070
