~VERSION INFORMATION
 VERS.                2.0:   CWLS LOG ASCII STANDARD - VERSION 2.0
 WRAP.                 NO:   ONE LINE PER DEPTH STEP
~WELL INFORMATION
#MNEM.UNIT      DATA TYPE    INFORMATION
#----------   ------------   ------------------------------
 STRT.F           42.0000:   START DEPTH
 STOP.F         4542.0000:   STOP DEPTH
 STEP.F            0.5000:   STEP LENGTH
 NULL.          -999.2500:   NO VALUE
 COMP. LAWRENCE ALLISON & ASSOC.:   COMPANY
 WELL. ALLISON NPR 3 #86-27:   WELL
 FLD .                NPR:   FIELD
 LOC .      S27 T39N R78W:   LOCATION
 CNTY.            NATRONA:   COUNTY
 STAT.            WYOMING:   STATE
 CTRY. UNITED STATES OF AMERICA:   COUNTRY
 SRVC.      DRESSER ATLAS:   SERVICE COMPANY
 DATE.        20-MAR-1985:   LOGDATE
 API .     49025110190000:   API NUMBER
~CURVE INFORMATION
#MNEM.UNIT       API CODE    CURVE DESCRIPTION
#----------   ------------   ------------------------------
 DEPT.F                  :   
 CALD.IN     45 280 60 00:   CALIPER FROM DENSITY LOG
 TEND.LBS    45 635 01 00:   TENSION FROM DENSITY LOG
 CORR.G/C3   45 356 01 00:   DENSITY CORRECTION
 RHOB.G/C3   45 350 01 00:   BULK DENSITY
 CNC .DEC    42 890 03 00:   NEUTRON PORISITY SANDSTONE
 TENR.LBS    07 635 01 00:   TENSION FROM RESISTIVITY
 GRR .GAPI   07 310 01 00:   GAMMA RAY FROM RESISTIVITY
 SFL .OHMM   07 220 01 00:   SHALLOW FOCUSED LOG RESISTIVITY
 ILD .OHMM   07 120 46 00:   DEEP INDUCTION RESISTIVITY
 ILM .OHMM   07 120 44 00:   INDUCTION LOG MEDIUM RESISTIVITY
 TENS.LBS    60 635 01 00:   TENSION FROM SONIC LOG
 DT  .US/F   60 520 00 00:   DELTA TIME
 CALS.IN     60 280 50 00:   CALIPER FROM SONIC LOG
 GRS .GAPI   60 310 01 00:   GAMMA RAY FROM SONIC LOG
~PARAMETER INFORMATION
#MNEM.UNIT          VALUE    DESCRIPTION
#----------   ------------   ------------------------------
 EKB .F         5095.0000:   Kelly bushing
 EGL .F         5083.0000:   Ground level
 EDF .F            0.0000:   Drilling floor
 TD  .F         4545.0000:   Total depth
 DATE.        20-MAR-1985:   Date logged
 CLNT.            A2DTECH:   Client Code
 SL  . 292' FEL & 1975' FWL:   Surface Location
 PD  .                 GL:   Permanent Datum
 EPD .F              5083:   Elevation Permanent Datum
 LMF .                 KB:   Log Measured From
 DMF .                 KB:   Drilling Measured From
 DAPD.F                12:   Feet Above Permanent Datum
 DD  .F              4545:   Depth driller
 DL  .F              4533:   Depth logger
 BLI .F              4534:   Bottom log interval
 TLI .F              1045:   Top log interval
 CS1 .IN            8.625:   Casing size
 CBD1.     8.625" @ 1033':   Casing driller 1
 CBL1.F              1045:   Casing logger 1
 BS1 .IN            7.875:   Bit size
 BSD1.F              4545:   Depth drilled with bit1
 DFT .    GEL/KCL/STA/FLO:   Type fluid in hole
 DFD .                9.1:   Density
 DFV .                 30:   Viscosity
 DFPH.                  8:   pH
 DFL .                 12:   Fluid loss
 MSS .           MUD/TANK:   Source of sample
 RMS .OHMM            .46:   Rm
 MST .F                74:   Rm Meas. temp.
 RMF .OHMM            .37:   Rmf
 MFST.F                72:   Rmf Meas. temp.
 RMC .OHMM            .58:   Rmc
 MCST.F                74:   Rmc Meas. temp.
 MFSS.               MEAS:   Source Rmf.
 MCSS.               CALC:   Source Rmc.
 RMB .OHMM            .25:   Rm. at BHT
 BHT .F               138:   BHT.
 TCS .HRS             4.5:   Time Circ. stopped
 MRT .F               138:   Maximum recorded temp.
 LUN .            HL-6274:   Logging unit number
 LUL .           GILLETTE:   Logging unit location
 ENGI.             RAUTIO:   Recorded By
 WITN.             STRONG:   Witnessed by
 ORIG.           5" PRINT:   Origin of data
 UWI .     49025110190000:   Unique Well ID
 DICO. A2D TECHNOLOGIES, INC.:   Digitizing Company
~OTHER INFORMATION
~A   DEPT     CALD       TEND       CORR       RHOB        CNC       TENR        GRR        SFL        ILD        ILM       TENS         DT        CALS        GRS  
# ...
 3643.5000     9.0470    -6.6170     0.0040     2.4440     0.2880    18.3900    97.1520     3.5180     2.9930     2.9850  -999.2500  -999.2500  -999.2500  -999.2500
 3644.0000     9.0470    -4.1120    -0.0100     2.4370     0.2840    18.3900    98.3670     3.5030     2.9590     2.9640  -999.2500  -999.2500  -999.2500  -999.2500
 3644.5000     9.0480    -1.6070    -0.0220     2.4300     0.2810    18.3900    97.5710     3.4890     2.9250     2.9440  -999.2500  -999.2500  -999.2500  -999.2500
 3645.0000     9.0490   -14.4710    -0.0300     2.4220     0.2780    18.3900    96.0550     3.4290     2.8910     2.9230  -999.2500  -999.2500  -999.2500  -999.2500
 3645.5000     9.0500   -40.4190    -0.0330     2.4190     0.2750    18.3900    96.0640     3.3440     2.8570     2.9030  -999.2500  -999.2500  -999.2500  -999.2500
 3646.0000     9.0510   -40.4190    -0.0170     2.4180     0.2710    18.3900    97.8820     3.2580     2.8230     2.8430  -999.2500  -999.2500  -999.2500  -999.2500
 3646.5000     9.0520   -40.4190     0.0070     2.4160     0.2670    18.3900    99.7420     3.1760     2.7900     2.7600  -999.2500  -999.2500  -999.2500  -999.2500
 3647.0000     9.0520   -40.4190    -0.0040     2.4140     0.2700    18.3900    99.1380     3.2740     2.7080     2.6770  -999.2500  -999.2500  -999.2500  -999.2500
 3647.5000     9.0530   -40.4190    -0.0320     2.4090     0.2790    18.3900    96.8280     3.3700     2.6290     2.5950  -999.2500  -999.2500  -999.2500  -999.2500
 3648.0000     9.0540   -40.4190    -0.0520     2.4050     0.2920    18.3900    97.9990     3.4830     2.5490     2.4970  -999.2500  -999.2500  -999.2500  -999.2500
 3648.5000     9.0550   -40.4190    -0.0300     2.3950     0.2900    18.3900   101.9790     3.2660     2.4690     2.4340  -999.2500  -999.2500  -999.2500  -999.2500
 3649.0000     9.0560   -40.4190    -0.0310     2.3840     0.2880    18.3900   108.3420     2.9490     2.3900     2.3560  -999.2500  -999.2500  -999.2500  -999.2500
 3649.5000     9.0560   -40.4190    -0.0350     2.3730     0.2920    18.3900   109.5890     2.8650     2.3100     2.2780  -999.2500  -999.2500  -999.2500  -999.2500
 3650.0000     9.0570   -40.4190    -0.0530     2.3670     0.2980    18.3900   110.2450     2.7390     2.2310     2.2000  -999.2500  -999.2500  -999.2500  -999.2500
 3650.5000     9.0580   -40.4190    -0.0480     2.3600     0.2970    18.3900   110.7590     2.7050     2.1510     2.1220  -999.2500  -999.2500  -999.2500  -999.2500
 3651.0000     9.0590   -40.4190    -0.0410     2.3570     0.2900    18.3900   111.4550     2.6630     2.0720     2.0440  -999.2500  -999.2500  -999.2500  -999.2500
 3651.5000     9.0600   -40.4190    -0.0330     2.3540     0.2880    18.3900   111.7590     2.6100     1.9920     1.9950  -999.2500  -999.2500  -999.2500  -999.2500
 3652.0000     9.0600   -37.5140    -0.0260     2.3520     0.2900    18.3900   111.8150     2.5420     1.9610     1.9820  -999.2500  -999.2500  -999.2500  -999.2500
 3652.5000     9.0610   -34.7080    -0.0180     2.3530     0.3020    18.3900   110.8480     2.4510     1.9560     1.9700  -999.2500  -999.2500  -999.2500  -999.2500
 3653.0000     9.0620   -31.9030    -0.0110     2.3640     0.3200    18.3900   108.4600     2.5010     1.9520     1.9580  -999.2500  -999.2500  -999.2500  -999.2500
 3653.5000     9.0630   -29.0970    -0.0030     2.3740     0.3150    18.3900   106.4110     2.5760     1.9480     1.9460  -999.2500  -999.2500  -999.2500  -999.2500
 3654.0000     9.0640   -26.2920    -0.0010     2.3830     0.3020    18.3900   104.2090     2.6890     1.9430     1.9270  -999.2500  -999.2500  -999.2500  -999.2500
 3654.5000     9.0650   -23.4860    -0.0110     2.3770     0.3080    18.3900   106.3720     2.6580     1.9390     1.9410  -999.2500  -999.2500  -999.2500  -999.2500
 3655.0000     9.0650   -20.4590    -0.0210     2.3670     0.3200    18.3900   108.6820     2.5980     1.9350     1.9670  -999.2500  -999.2500  -999.2500  -999.2500
 3655.5000     9.0660   -20.4590    -0.0260     2.3700     0.3180    18.3900   111.1690     2.5370     1.9300     1.9930  -999.2500  -999.2500  -999.2500  -999.2500
 3656.0000     9.0670   -20.4590    -0.0260     2.3760     0.3030    18.3900   113.5850     2.4970     1.9120     1.9360  -999.2500  -999.2500  -999.2500  -999.2500
 3656.5000     9.0680    -8.5330    -0.0260     2.3800     0.2980    18.3900   115.9150     2.4970     1.8690     1.8490  -999.2500  -999.2500  -999.2500  -999.2500
 3657.0000     9.0690    -0.4990    -0.0280     2.3740     0.3100    18.3900   117.7030     2.4970     1.8230     1.7620  -999.2500  -999.2500  -999.2500  -999.2500
 3657.5000     9.0700    -0.4990    -0.0320     2.3710     0.3360    18.3900   117.4360     2.4970     1.7040     1.6750  -999.2500  -999.2500  -999.2500  -999.2500
 3658.0000     9.0690   -20.4590    -0.0320     2.3690     0.3450    18.3900   117.1230     2.4880     1.5810     1.5880  -999.2500  -999.2500  -999.2500  -999.2500
 3658.5000     9.0740   -20.4590    -0.0240     2.3650     0.3480    18.3900   120.7910     2.4650     1.4340     1.5020  -999.2500  -999.2500  -999.2500  -999.2500
 3659.0000     9.0670   -20.4590    -0.0250     2.3470     0.3590    18.3900   126.9050     2.2940     1.4340     1.4150  -999.2500  -999.2500  -999.2500  -999.2500
 3659.5000     9.1070   -22.0840    -0.0170     2.3030     0.3530    18.3900   137.4350     1.9100     1.4340     1.3820  -999.2500  -999.2500  -999.2500  -999.2500
 3660.0000     9.2190   -29.2990    -0.0310     2.2490     0.3340    18.3900   139.1290     1.5750     1.4340     1.5440  -999.2500  -999.2500  -999.2500  -999.2500
 3660.5000     9.0610   -36.5130     0.1170     2.1870     0.3080    18.3900   130.8240     1.6020     1.5490     1.7400  -999.2500  -999.2500  -999.2500  -999.2500
 3661.0000     8.8480   -40.4190     0.0970     2.2410     0.3040    18.3900   110.9190     1.8890     1.7280     1.9350  -999.2500  -999.2500  -999.2500  -999.2500
 3661.5000     8.8380   -40.4190     0.0260     2.3300     0.3000    18.3900    93.1870     2.6170     1.9070     2.2670  -999.2500  -999.2500  -999.2500  -999.2500
 3662.0000     8.7940   -40.4190    -0.0410     2.4210     0.2890    18.3900    83.7700     3.5410     2.2070     2.6680  -999.2500  -999.2500  -999.2500  -999.2500
 3662.5000     8.7890   -40.4190    -0.0450     2.4630     0.2710    18.3900    82.5060     4.1810     2.6360     3.0090  -999.2500  -999.2500  -999.2500  -999.2500
 3663.0000     8.7920   -37.8640    -0.0510     2.4640     0.2620    18.3900    85.8870     4.1490     3.0650     3.2120  -999.2500  -999.2500  -999.2500  -999.2500
 3663.5000     8.7910   -32.8140    -0.0530     2.4640     0.2670    18.3900    88.7790     4.1140     3.4180     3.4150  -999.2500  -999.2500  -999.2500  -999.2500
 3664.0000     8.7910   -27.7640    -0.0500     2.4640     0.2750    18.3900    90.6710     4.1140     3.6100     3.6180  -999.2500  -999.2500  -999.2500  -999.2500
 3664.5000     8.7910   -22.7150    -0.0240     2.4680     0.2860    18.3900    91.4640     4.1140     3.8020     3.8210  -999.2500  -999.2500  -999.2500  -999.2500
 3665.0000     8.7910   -20.9860     0.0180     2.4740     0.2910    18.3900    91.7330     4.1140     3.9930     3.8590  -999.2500  -999.2500  -999.2500  -999.2500
 3665.5000     8.7910   -21.9390     0.0400     2.5030     0.2830    18.3900    90.6210     4.2630     4.0440     3.9280  -999.2500  -999.2500  -999.2500  -999.2500
 3666.0000     8.7910   -22.8920     0.0380     2.5400     0.2720    18.3900    89.3730     4.6670     4.0520     3.9970  -999.2500  -999.2500  -999.2500  -999.2500
 3666.5000     8.7910   -23.8450    -0.0170     2.5470     0.2610    18.3900    89.8400     5.0710     4.0590     4.0770  -999.2500  -999.2500  -999.2500  -999.2500
 3667.0000     8.7910   -24.7980    -0.0400     2.5210     0.2670    18.3900    92.0290     5.2320     4.0660     4.1740  -999.2500  -999.2500  -999.2500  -999.2500
 3667.5000     8.7910   -25.7500    -0.0480     2.4940     0.2770    18.3900    95.7520     5.0960     4.0740     4.2690  -999.2500  -999.2500  -999.2500  -999.2500
