~VERSION INFORMATION
 VERS.                2.0:   CWLS LOG ASCII STANDARD - VERSION 2.0
 WRAP.                 NO:   ONE LINE PER DEPTH STEP
~WELL INFORMATION
#MNEM.UNIT      DATA TYPE    INFORMATION
#----------   ------------   ------------------------------
 STRT.F          404.0000:   START DEPTH
 STOP.F         2919.0000:   STOP DEPTH
 STEP.F            0.5000:   STEP LENGTH
 NULL.          -999.2500:   NO VALUE
 COMP.    FENIX & SCISSON:   COMPANY
 WELL. FENIX & SCISSON "AX" #27-21:   WELL
 FLD .             NPR #3:   FIELD
 LOC .      S21 T39N R78W:   LOCATION
 CNTY.            NATRONA:   COUNTY
 STAT.            WYOMING:   STATE
 CTRY. UNITED STATES OF AMERICA:   COUNTRY
 SRVC.       SCHLUMBERGER:   SERVICE COMPANY
 DATE.        21-APR-1977:   LOGDATE
 API .     49025103730000:   API NUMBER
~CURVE INFORMATION
#MNEM.UNIT       API CODE    CURVE DESCRIPTION
#----------   ------------   ------------------------------
 DEPT.F                  :   
 SPR .MV     07 010 01 00:   SPONTANEOUS POTENTIAL
 ILM .OHMM   07 120 44 00:   INDUCTION LOG MEDIUM RESISTIVITY
 ILD .OHMM   07 120 46 00:   DEEP INDUCTION RESISTIVITY
 LL8 .OHMM   07 220 08 00:   LATEROLOG-8 RES.
 GRN .GAPI   35 310 01 00:   GAMMA RAY
 CALD.IN     45 280 60 00:   CALIPER FROM DENSITY LOG
 GRD .GAPI   45 310 01 00:   GAMMA RAY FROM DENSITY LOG
 CORR.G/C3   45 356 01 00:   DENSITY CORRECTION
 RHOB.G/C3   45 350 01 00:   BULK DENSITY
~PARAMETER INFORMATION
#MNEM.UNIT          VALUE    DESCRIPTION
#----------   ------------   ------------------------------
 EKB .F         5004.0000:   Kelly bushing
 EGL .F         4994.0000:   Ground level
 TD  .F         2920.0000:   Total depth
 CLNT.            A2DTECH:   Client Code
 SL  . 991' FWL & 1090' FSL:   Surface Location
 DATE.        21-APR-1977:   Date Logged [DD-MMM-YYYY]
 DD  .F              2920:   Depth driller
 DL  .F              2920:   Depth logger
 BLI .F              2914:   Bottom log interval
 TLI .F               419:   Top log interval
 CS1 .              8.625:   Casing size
 CBD1.      8.625" @ 425':   Casing driller 1
 CBL1.IN              419:   Casing logger 1
 BS1 .IN            7.875:   Bit size
 BSD1.F              2920:   Depth drilled with bit1
 DFT .                FGM:   Type fluid in hole
 DFD .                9.0:   Density
 DFV .                 34:   Viscosity
 DFPH.                8.0:   pH
 DFL .                8.0:   Fluid loss
 MSS .                PIT:   Source of sample
 RMS .OHMM          0.158:   Rm
 MST .F                72:   Rm Meas. temp.
 RMF .OHMM          0.158:   Rmf
 MFST.F                72:   Rmf Meas. temp.
 MFSS.               MEAS:   Source Rmf.
 RMB .OHMM          0.102:   Rm. at BHT
 BHT .F               112:   BHT.
 TCS .HRS            0500:   Time Circ. stopped
 TLAB.HRS            0700:   Time logger at bottom
 MRT .F               112:   Maximum recorded temp.
 LUN .               5642:   Logging unit number
 LUL .               CSPR:   Logging unit location
 ENGI.             TAYLOR:   Recorded By
 WITN.          PETTINGIL:   Witnessed by
 ORIG.      2.5" 5" PRINT:   Origin of data
 UWI .     49025103730000:   Unique Well ID
 DICO. A2D TECHNOLOGIES, INC.:   Digitizing Company
 PD  .                 GL:   Permanent Datum
 EPD .F              4994:   Elevation Permanent Datum
 LMF .                 KB:   Log Measured From
 DMF .                 KB:   Drilling Measured From
 DAPD.F                10:   Feet Above Permanent Datum
~OTHER INFORMATION
~A   DEPT      SPR        ILM        ILD        LL8        GRN       CALD         GRD      CORR       RHOB   
# ...
 2557.5000   -65.1724     7.6690     6.9683    10.0597   136.0747     8.8190    84.8520     0.0263     2.5195
 2558.0000   -65.1607     7.3612     6.5973     9.0170   141.2510     8.8190    83.2580     0.0218     2.5323
 2558.5000   -65.1503     7.1638     6.2460     8.1946   144.4124     8.8190    86.6005     0.0157     2.5262
 2559.0000   -65.4386     6.9716     6.0783     7.3601   141.0812     8.8190    86.8217     0.0128     2.5164
 2559.5000   -65.4271     6.8787     6.0800     7.5728   138.4209     8.8487    85.2706     0.0113     2.5120
 2560.0000   -65.7153     6.8811     6.0817     8.4376   139.1203     8.8487    80.4946     0.0128     2.5174
 2560.5000   -65.7039     6.8835     6.1676     9.4210   141.1623     8.8487    77.6273     0.0248     2.5488
 2561.0000   -65.6934     6.8858     6.1693    10.3416   143.2042     8.8487    78.5639     0.0563     2.5818
 2561.5000   -65.7366     6.8882     6.1710    10.7649   145.2461     8.8783    81.0285     0.0668     2.5828
 2562.0000   -65.9711     6.9861     6.1727     9.1848   141.6911     8.8850    87.1866     0.0503     2.5399
 2562.5000   -65.9598     7.1837     6.2598     8.0370   142.1659     8.9154    91.2834     0.0308     2.5249
 2563.0000   -65.6518     7.3868     6.2616     7.4265   146.8944     8.9377    90.4047     0.0203     2.5234
 2563.5000   -65.6414     7.7009     6.2633     8.3329   148.9363     8.9377    85.7543     0.0113     2.5189
 2564.0000   -65.6309     8.1397     6.4396     9.0141   148.0678     8.9377    74.9682     0.0068     2.5174
 2564.5000   -65.3229     8.6035     6.7126     8.8937   138.2441     8.9377    69.9589     0.0098     2.5219
 2565.0000   -65.3125     8.9694     7.0940     8.7749   130.8831     8.9377    71.2120     0.0188     2.5384
 2565.5000   -65.0044     9.3508     7.6009     9.4268   129.7840     8.9674    72.5982     0.0278     2.5534
 2566.0000   -64.9228     9.6152     8.1439    11.1157   131.1610     8.9674    63.6976     0.0398     2.5583
 2566.5000   -64.0572     9.8871     8.9690    12.5730   120.4417     8.9674    55.0937     0.0405     2.5429
 2567.0000   -63.7509    10.0276     9.7428    12.9286   117.5583     8.9674    55.0010     0.0259     2.5609
 2567.5000   -63.4449    10.1701     9.3518    12.2379   113.3316     8.9674    58.0640     0.0428     2.5714
 2568.0000   -62.8690    10.1736     9.1007    11.4266   110.4482     8.9674    64.0002     0.0413     2.5444
 2568.5000   -62.8587    10.0380     8.7354    10.8172   116.5200     8.9674    68.7495     0.0323     2.5489
 2569.0000   -62.5506     9.7688     8.2703    10.2404   125.9500     8.9674    71.1248     0.0218     2.5400
 2569.5000   -62.5402     9.6380     8.0483     9.6942   129.3352     8.9674    71.5366     0.0203     2.5294
 2570.0000   -62.5298     9.2518     7.8322     9.0516   125.5563     8.9674    69.3473     0.0081     2.5219
 2570.5000   -62.5194     9.1279     7.8343     8.9212   122.2183     8.9674    68.4585     0.0101     2.5239
 2571.0000   -62.5089     9.0062     8.0549     9.5714   123.1476     8.9674    66.9763     0.0208     2.5425
 2571.5000   -62.7964     9.0098     8.3964    10.1176   125.1896     8.9970    65.1974     0.0311     2.5670
 2572.0000   -63.0952     9.1379     8.6328    10.4041   125.6576     8.9970    64.3086     0.0353     2.5590
 2572.5000   -63.6683     9.0155     8.7547    10.5522   121.6616     8.9970    64.3224     0.0334     2.5550
 2573.0000   -63.9555     9.0192     8.6376    11.0017   119.2259     8.9970    63.1247     0.0223     2.5590
 2573.5000   -64.2427     9.0223     8.2909    11.3132   117.9096     8.9674    62.5327     0.0158     2.5693
 2574.0000   -64.2321     8.9021     8.2932    11.7950   120.3993     8.9674    64.7110     0.0417     2.5778
 2574.5000   -64.2218     8.9045     8.1818    10.5669   126.3696     8.9674    72.6223     0.0458     2.5677
 2575.0000   -64.2113     8.9076     8.0727     9.3369   127.8358     8.9674    81.1320     0.0282     2.5411
 2575.5000   -63.9032     8.9107     8.0750     8.2502   128.7270     8.9674    83.9035     0.0210     2.5303
 2576.0000   -63.8928     8.8454     8.0772     7.1901   136.0024     8.9674    75.9720     0.0134     2.5266
 2576.5000   -63.8823     8.9168     7.9687     8.8451   136.2959     8.9674    71.3028     0.0113     2.5434
 2577.0000   -63.5743     8.9199     7.9713    10.0172   133.5443     8.9674    71.1483     0.0203     2.5610
 2577.5000   -63.5638     9.0466     7.9735    11.3446   130.8848     8.9674    72.6954     0.0263     2.5559
 2578.0000   -63.5534     9.0497     7.9757    10.5925   130.4573     8.9674    72.9316     0.0240     2.5465
 2578.5000   -63.5429     9.1783     7.9779    10.0276   131.3866     8.9674    72.2632     0.0092     2.5425
 2579.0000   -63.5325     9.3070     8.0906     9.8937   131.8614     8.9674    72.3411     0.0117     2.5525
 2579.5000   -63.5220     9.6354     8.2048     9.4961   128.3063     8.9674    72.0457     0.0215     2.5830
 2580.0000   -63.2139     9.7709     8.3202     9.6313   122.7295     8.9674    71.9485     0.0373     2.6076
 2580.5000   -63.5011     9.8460     8.5773    10.4656   124.5544     8.9674    71.2430     0.0488     2.5919
 2581.0000   -63.4907     9.8494     8.9392    10.9113   126.5963     8.9674    69.8149     0.0262     2.5722
 2581.5000   -63.7783     9.8527     9.2418    11.2203   125.6346     8.9674    68.2487     0.0205     2.5564
 2582.0000   -64.0655     9.8561     9.4263    11.6982   119.8809     8.9674    68.2848     0.0286     2.5539
 2582.5000   -64.3527     9.8045     9.3002    11.8647   117.7154     8.9674    70.1138     0.0332     2.5650
 2583.0000   -64.6399     9.7274     9.0364    11.8688   117.2383     8.9674    69.3954     0.0323     2.5581
 2583.5000   -64.9265     9.7314     8.8075    11.7097   116.6500     8.9674    66.1138     0.0233     2.5507
 2584.0000   -64.9160     9.6850     8.5608    11.7144   114.9678     8.9377    65.0960     0.0218     2.5537
 2584.5000   -64.9056     9.5574     8.2794    11.2436   111.9778     8.9377    65.2359     0.0248     2.5567
 2585.0000   -64.5975     9.3467     8.0578    10.9416   111.5819     8.9377    64.7676     0.0218     2.5582
 2585.5000   -64.2894     9.2221     7.8989    10.6477   120.3707     8.9377    63.1620     0.0128     2.5522
 2586.0000   -64.2790     9.0992     7.7932    10.2198   126.4120     8.9274    64.3504     0.0218     2.5627
 2586.5000   -64.2685     8.9397     7.6351     9.6748   126.6629     8.8970    67.0225     0.0383     2.5717
 2587.0000   -64.2581     8.7371     7.5861     9.2623   124.6750     8.8783    69.1011     0.0458     2.5750
 2587.5000   -64.2476     8.6206     7.5881     9.2586   121.5677     8.8487    70.2895     0.0488     2.5687
 2588.0000   -64.2372     8.5057     7.5902    10.4810   118.6843     8.8356    70.5877     0.0338     2.5612
 2588.5000   -64.2267     8.5090     7.7493    10.5868   118.4865     8.8190    71.1827     0.0233     2.5537
 2589.0000   -64.2163     8.5120     7.8580    10.1000   122.5443     8.8046    72.3711     0.0173     2.5462
 2589.5000   -64.5045     8.5149     7.9682     9.8910   126.6012     8.7893    73.8562     0.0173     2.5388
 2590.0000   -64.4930     8.5453     8.1325     9.6267   128.4193     8.7893    75.0447     0.0203     2.5341
 2590.5000   -64.4826     8.6388     8.3067     9.9152   127.3269     8.7893    74.7493     0.0278     2.5627
 2591.0000   -64.4721     8.7871     8.4232    10.4017   125.5561     8.7893    73.8606     0.0443     2.5792
 2591.5000   -64.4616     9.1593     8.6596    10.8415   128.0526     8.7893    73.8621     0.0248     2.5657
 2592.0000   -64.4512     9.4167     8.9026    11.2228   129.6468     8.7893    71.7864     0.0068     2.5627
 2592.5000   -64.4407     9.6815     9.1524    11.3051   129.4499     8.7893    66.4466     0.0143     2.5658
 2593.0000   -64.4303     9.9536     9.3541    11.5415   124.9993     8.7893    64.0742     0.0264     2.5553
 2593.5000   -64.1222    10.2118     9.4861    11.7907   124.5786     8.7893    63.1831     0.0323     2.5583
