~VERSION INFORMATION
 VERS.                2.0:   CWLS LOG ASCII STANDARD - VERSION 2.0
 WRAP.                 NO:   ONE LINE PER DEPTH STEP
~WELL INFORMATION
#MNEM.UNIT      DATA TYPE    INFORMATION
#----------   ------------   ------------------------------
 STRT.F           54.0000:   START DEPTH
 STOP.F         5201.0000:   STOP DEPTH
 STEP.F            0.5000:   STEP LENGTH
 NULL.          -999.2500:   NO VALUE
 COMP.   TESORO PETROLEUM:   COMPANY
 WELL. TESORO DX NPR-3 #51-26:   WELL
 FLD .        TEAPOT DOME:   FIELD
 LOC .      S26 T38N R78W:   LOCATION
 CNTY.            NATRONA:   COUNTY
 STAT.            WYOMING:   STATE
 CTRY. UNITED STATES OF AMERICA:   COUNTRY
 SRVC.      DRESSER ATLAS:   SERVICE COMPANY
 DATE.        27-AUG-1976:   LOGDATE
 API .     49025102680000:   API NUMBER
~CURVE INFORMATION
#MNEM.UNIT       API CODE    CURVE DESCRIPTION
#----------   ------------   ------------------------------
 DEPT.F                  :   
 GRD .GAPI   45 310 01 00:   GAMMA RAY FROM DENSITY LOG
 CALD.IN     45 280 60 00:   CALIPER FROM DENSITY LOG
 CORR.G/C3   45 356 01 00:   DENSITY CORRECTION
 RHOB.G/C3   45 350 01 00:   BULK DENSITY
 SPR .MV     07 010 01 00:   SPONTANEOUS POTENTIAL
 ILD .OHMM   07 120 46 00:   DEEP INDUCTION RESISTIVITY
 ILM .OHMM   07 120 44 00:   INDUCTION LOG MEDIUM RESISTIVITY
 RFOC.OHMM   07 220 04 00:   RESISTIVITY FOCUSED LOG RES.
 TEND.LBS    45 635 01 00:   TENSION FORM DENSITY LOG
 NPHI.DEC    42 890 03 00:   NEUTRON POROSITY SANDSTONE
~PARAMETER INFORMATION
#MNEM.UNIT          VALUE    DESCRIPTION
#----------   ------------   ------------------------------
 EKB .F         5453.5000:   Kelly bushing
 EGL .F         5442.0000:   Ground level
 EDF .F         5452.0000:   Drilling floor
 EPD .F            0.0000:   Permanent datum
 TD  .F         5193.0000:   Total depth
 CLNT.            A2DTECH:   Client Code
 SL  . 2000' FEL & 600' FNL:   Surface Location
 PD  .                 GL:   Permanent Datum
 DAPD.F              11.5:   Feet Above Permanent Datum
 DATE.        27-AUG-1976:   Date Logged [DD-MMM-YYYY]
 DD  .F              5193:   Depth driller
 DL  .F              5193:   Depth logger
 BLI .F              5191:   Bottom log interval
 TLI .F              1726:   Top log interval
 CS1 .IN            8.625:   Casing size
 CBD1.     8.625" @ 1724':   Casing driller 1
 CBL1.F              1726:   Casing logger 1
 BS1 .IN            7.875:   Bit size
 BSD1.F              5193:   Depth drilled with bit1
 DFT .           CHEM GEL:   Type fluid in hole
 DFD .                9.2:   Density
 DFV .                 65:   Viscosity
 DFPH.                 10:   pH
 DFL .                5.8:   Fluid loss
 MSS .           FLOWLINE:   Source of sample
 RMS .OHMM           1.70:   Rm
 MST .F                71:   Rm Meas. temp.
 RMF .OHMM              1:   Rmf
 MFST.F                68:   Rmf Meas. temp.
 MFSS.               MEAS:   Source Rmf.
 RMC .OHMM           1.30:   Rmc
 MCST.F                66:   Rmc Meas. temp.
 MCSS.               MEAS:   Source Rmc.
 RMB .OHMM           0.85:   Rm. at BHT
 BHT .F               142:   BHT.
 TCS .HRS               6:   Time Circ. stopped
 MRT .F               142:   Maximum recorded temp.
 LUN .               6145:   Logging unit number
 LUL .              GLTTE:   Logging unit location
 ENGI.        GOULD-HOYER:   Recorded By
 WITN.        WOLF-CARTER:   Witnessed by
 ORIG.           5" PRINT:   Origin of data
 UWI .     49025102680000:   Unique Well ID
 DICO. A2D TECHNOLOGIES, INC.:   Digitizing Company
~OTHER INFORMATION
~A   DEPT      GRD       CALD       CORR       RHOB        SPR         ILD        ILM      RFOC       TEND       NPHI   
# ...
 4945.0000   103.8102     8.0822     0.1550     2.3361   -35.4098     2.0442     2.3982     3.5230   107.4700     0.3209
 4945.5000   102.6491     8.0249     0.1837     2.3099   -35.3991     2.0600     2.4309     3.8834   120.5954     0.3266
 4946.0000   101.0104     8.2517     0.1674     2.2215   -35.5615     2.0473     2.3993     4.2220    52.0372     0.3206
 4946.5000   105.1963     8.0818     0.1510     2.0978   -35.7872     2.0067     2.3519     3.9437    21.1789     0.3139
 4947.0000   107.0821     7.9577     0.1497     2.0535   -36.0512     1.9669     2.2738     3.7868   177.7268     0.3202
 4947.5000   106.4008     8.2448     0.1649     2.0889   -36.2651     1.9413     2.2136     3.8426   124.3796     0.3241
 4948.0000   105.4799     8.7256     0.1440     2.1610   -36.1965     1.9297     2.1549     3.5900    71.0325     0.3202
 4948.5000   106.2357     8.5488     0.1172     2.1514   -36.2271     1.9175     2.1123     3.3999    32.6779     0.3181
 4949.0000   106.2729     8.2869     0.1084     2.1635   -36.0188     1.8665     2.0849     3.1540    24.2881     0.3126
 4949.5000   107.2682     8.1327     0.1055     2.2004   -36.0123     1.8810     2.0441     3.0285    23.2163     0.3072
 4950.0000   109.2216     8.3585     0.1072     2.3874   -35.9470     1.8187     2.0312     3.0731    22.3430     0.3009
 4950.5000   109.8635     8.5536     0.1134     2.4055   -35.8175     1.7582     2.0187     3.2277    21.4696     0.2998
 4951.0000   113.8507     8.4804     0.1210     2.3973   -35.6882     1.7353     2.0205     3.3669    28.0925     0.2900
 4951.5000   110.7718     8.4822     0.1272     2.3967   -35.5559     1.7366     2.0220     3.1443    49.9264     0.2860
 4952.0000   106.9742     8.2001     0.1303     2.4005   -35.4473     1.7379     2.0516     3.1043    41.3383     0.2794
 4952.5000   105.5719     8.3657     0.1258     2.3999   -35.5104     1.7512     2.0817     3.1944    31.7006     0.2877
 4953.0000   104.6399     8.5463     0.1172     2.4010   -35.4161     1.7893     2.1568     3.3092    28.0704     0.2946
 4953.5000   106.1205     8.4881     0.1143     2.4166   -35.3149     1.9189     2.2384     3.4045    24.4402     0.2870
 4954.0000   100.3010     8.2012     0.1190     2.5083   -35.2935     2.0022     2.3626     3.2021    58.8770     0.2744
 4954.5000    94.9293     8.0731     0.1252     2.4769   -35.4217     2.0755     2.4444     3.1820    73.1033     0.2659
 4955.0000    97.8504     8.2540     0.1328     2.4327   -35.6081     2.1939     2.5989     3.2073    56.8358     0.2716
 4955.5000   101.4780     8.4793     0.1465     2.4102   -35.6169     2.3205     2.7534     4.0305    55.8152     0.2622
 4956.0000   106.7823     8.2718     0.1482     2.4246   -35.6984     2.5059     2.9144     4.9957    39.8022     0.2516
 4956.5000   103.7033     8.1390     0.1498     2.4697   -36.2468     2.7061     3.0609     4.0939    23.7891     0.2435
 4957.0000   102.0527     8.0953     0.1501     2.5021   -36.3105     2.9021     3.2824     3.4960    82.7385     0.2354
 4957.5000   101.6172     8.1717     0.1472     2.4962   -36.4128     3.1124     3.4525     3.6720    96.7104     0.2253
 4958.0000   104.3451     8.3225     0.1504     2.4978   -36.2602     3.1364     3.6208     4.8428    33.4541     0.2322
 4958.5000   107.9230     8.3699     0.1612     2.5010   -36.0086     3.1605     3.7248     5.4124     4.4588     0.2427
 4959.0000   110.3530     8.2499     0.1642     2.4841   -36.0145     3.2069     3.8319     5.0209    33.4233     0.2595
 4959.5000   111.8250     8.1029     0.1613     2.4077   -35.9938     3.2316     3.6039     5.1656    99.8690     0.2760
 4960.0000   110.4226     8.4630     0.1570     2.3736   -35.7375     3.2340     3.4129     5.1720   114.0963     0.2886
 4960.5000   108.0622     8.5835     0.1541     2.3842   -35.6128     3.2141     3.3423     4.6603     7.8728     0.2919
 4961.0000   104.2297     8.3614     0.1603     2.4136   -35.6153     3.1293     3.2787     3.9429    14.3484     0.2828
 4961.5000   106.2156     8.2285     0.1680     2.5255   -35.6262     3.0042     3.2367     3.5712    28.3204     0.2671
 4962.0000    97.9919     8.0957     0.1741     2.5669   -35.4292     2.8842     3.3298     3.7251    73.0467     0.2586
 4962.5000    96.7044     8.1419     0.1758     2.4041   -35.4922     2.7690     3.3038     4.3995   116.2342     0.2664
 4963.0000   104.4126     8.2628     0.1760     2.3321   -35.4390     2.6400     3.0204     5.3783   114.9583     0.2697
 4963.5000   107.8007     8.5777     0.1716     2.3292   -35.4098     2.5345     2.8091     6.0944    68.9602     0.2645
 4964.0000   115.2519     8.7284     0.1478     2.3481   -35.4009     2.4672     2.6602     4.2314    22.9631     0.2530
 4964.5000   110.2655     8.6230     0.1345     2.3572   -35.6072     2.4520     2.6072     3.5886    44.4313     0.2608
 4965.0000   107.6656     8.3650     0.1166     2.3918   -35.9157     2.4708     2.7012     3.2608    73.3957     0.2614
 4965.5000   104.4986     8.1212     0.0816     2.5283   -36.3009     2.5425     2.8963     3.0249   109.8564     0.2405
 4966.0000    94.4090     8.0182     0.0508     2.6305   -36.3458     2.5993     3.1269     2.9247    71.3545     0.2161
 4966.5000    97.0002     8.0043     0.0437     2.5983   -36.5085     2.7477     3.5430     3.6258    47.8258     0.2140
 4967.0000    98.9512     7.9909     0.0469     2.5924   -36.6061     2.9265     3.9052     5.1590    39.0730     0.2203
 4967.5000    99.9440     8.0076     0.0515     2.5955   -36.6085     3.3172     4.3088     7.9193    23.0599     0.2262
 4968.0000   100.2183     8.0240     0.0577     2.6024   -36.6075     3.7600     4.6297     6.5787    82.0093     0.2322
 4968.5000   100.9717     8.0404     0.0638     2.6033   -36.6100     4.1743     5.0880     6.2292   103.7329     0.2442
 4969.0000   101.7251     8.0568     0.0670     2.5794   -36.4604     4.7644     5.2704     6.4544    57.4794     0.2555
 4969.5000   102.0328     8.0582     0.0732     2.5630   -36.2520     4.9692     5.4219     6.5030    34.2255     0.2622
 4970.0000   108.2704     8.0438     0.0838     2.5008   -36.0433     4.7258     5.2783     6.4646   130.4008     0.2540
 4970.5000   108.3052     8.0463     0.1020     2.4861   -35.8483     4.5493     4.7629     6.3813   106.8914     0.2645
 4971.0000   106.9029     8.0779     0.1201     2.4625   -35.6102     4.3374     4.2098     6.2965    45.1848     0.2789
 4971.5000   108.1353     8.1540     0.1383     2.4523   -35.6328     3.9350     3.8515     5.6586   127.3390     0.2863
 4972.0000   115.5953     8.2002     0.1594     2.4426   -35.2016     3.5434     3.4995     4.4082    66.0930     0.2914
 4972.5000   112.7558     8.1714     0.1716     2.4533   -35.2205     3.2289     3.3370     4.1168   117.5462     0.2967
 4973.0000   108.9583     8.1136     0.1763     2.4932   -35.2149     2.9945     3.2686     4.0645    79.0444     0.3033
 4973.5000   106.5464     8.2046     0.1779     2.5286   -35.4298     2.9149     3.1849     4.0678    10.5575     0.3087
 4974.0000   103.7671     8.6239     0.1436     2.4851   -35.6777     2.8764     3.1214     4.1850    32.2811     0.2948
 4974.5000   104.9995     8.7747     0.1558     2.4470   -36.0096     2.8200     3.0393     4.3956     8.5164     0.2969
 4975.0000   109.3457     8.8507     0.1844     2.3998   -36.1974     2.6701     2.9384     4.7788     7.4958     0.2987
 4975.5000   110.5781     8.7395     0.2221     2.3638   -36.3620     2.5812     2.9198     5.0891    92.2907     0.2935
 4976.0000   114.9243     8.1525     0.2147     2.3940   -36.4101     2.5653     2.9019     4.2768   117.8984     0.2964
 4976.5000   116.8752     8.2585     0.2059     2.3768   -36.3160     2.5495     2.8648     3.4163    26.6684     0.3096
 4977.0000   114.0263     8.4987     0.1926     2.3612   -36.1842     2.4304     2.8082     4.0078   115.8583     0.3264
 4977.5000   113.8310     8.7987     0.1822     2.3538   -36.0517     2.2985     2.7150     4.3875    54.6123     0.3300
 4978.0000   112.1979     9.0837     0.1794     2.3648   -35.9193     2.1797     2.5669     4.0143     0.0000     0.3289
