~VERSION INFORMATION
 VERS.                2.0:   CWLS LOG ASCII STANDARD - VERSION 2.0
 WRAP.                 NO:   ONE LINE PER DEPTH STEP
~WELL INFORMATION
#MNEM.UNIT      DATA TYPE    INFORMATION
#----------   ------------   ------------------------------
 STRT.F            5.0000:   START DEPTH
 STOP.F         4012.0000:   STOP DEPTH
 STEP.F            0.5000:   STEP LENGTH
 NULL.          -999.2500:   NO VALUE
 COMP.   LAWRENCE ALLISON:   COMPANY
 WELL. LAWRENCE "X" 51 #1-15:   WELL
 FLD .                NPR:   FIELD
 LOC .      S15 T38N R78W:   LOCATION
 CNTY.            NATRONA:   COUNTY
 STAT.            WYOMING:   STATE
 CTRY. UNITED STATES OF AMERICA:   COUNTRY
 SRVC.      DRESSER ATLAS:   SERVICE COMPANY
 DATE.        03-JUN-1985:   LOGDATE
 API .     49025110270000:   API NUMBER
~CURVE INFORMATION
#MNEM.UNIT       API CODE    CURVE DESCRIPTION
#----------   ------------   ------------------------------
 DEPT.F                  :   
 NPHI.DEC    42 890 03 00:   NEUTRON POROSITY SANDSTONE
 RHOB.G/C3   45 350 01 00:   BULK DENSITY
 CORR.G/C3   45 356 01 00:   DENSITY CORRECTION
 TEND.LBS    45 635 01 00:   TENSION FROM DENSITY LOG
 CALD.IN     45 280 60 00:   CALIPER FROM DENSITY LOG
 GRR .GAPI   07 310 01 00:   GAMMA RAY FROM RESISTIVITY
 SPR .MV     07 010 01 00:   SPONTANEOUS POTENTIAL
 RSFL.OHMM   07 220 01 00:   SPHERICALLY FOCUSED LOG RES.
 RILD.OHMM   07 120 46 00:   DEEP INDUCTION RESISTIVITY
 RILM.OHMM   07 120 44 00:   INDUCTION LOG MEDIUM RESISTIVITY
 TENR.LBS    07 635 01 00:   TENSION
~PARAMETER INFORMATION
#MNEM.UNIT          VALUE    DESCRIPTION
#----------   ------------   ------------------------------
 EKB .F         5235.0000:   Kelly bushing
 EGL .F         5222.0000:   Ground level
 EDF .F            0.0000:   Drilling floor
 TD  .F         4010.0000:   Total depth
 DATE.        03-JUN-1985:   Date logged
 CLNT.            A2DTECH:   Client Code
 SL  . 202' FNL & 2478' FEL:   Surface Location
 PD  .                 GL:   Permanent Datum
 EPD .F              5222:   Elevation Permanent Datum
 LMF .                 KB:   Log Measured From
 DMF .                 KB:   Drilling Measured From
 DAPD.F                13:   Feet Above Permanent Datum
 DD  .F              4010:   Depth driller
 DL  .F              4005:   Depth logger
 BLI .F              4003:   Bottom log interval
 CS1 .IN            8.625:   Casing size
 CBD1.      8.625" @ 605':   Casing driller 1
 CBL1.F               608:   Casing logger 1
 BS1 .IN            7.875:   Bit size
 BSD1.F              4010:   Depth drilled with bit1
 DFT .            KCL/GEL:   Type fluid in hole
 DFD .                  9:   Density
 DFV .                 45:   Viscosity
 DFPH.                  8:   pH
 DFL .                9.8:   Fluid loss
 MSS .           FLOWLINE:   Source of sample
 RMS .OHMM            .40:   Rm
 MST .F                65:   Rm Meas. temp.
 RMF .OHMM            .32:   Rmf
 MFST.F                65:   Rmf Meas. temp.
 RMC .OHMM            .50:   Rmc
 MCST.F                65:   Rmc Meas. temp.
 MFSS.               MEAS:   Source Rmf.
 MCSS.               CALC:   Source Rmc.
 RMB .OHMM            .20:   Rm. at BHT
 BHT .F               130:   BHT.
 TCS .HRS               3:   Time Circ. stopped
 MRT .F               130:   Maximum recorded temp.
 LUN .               6274:   Logging unit number
 LUL .               GLTE:   Logging unit location
 ENGI.             RAUTIO:   Recorded By
 WITN.             STRONG:   Witnessed by
 ORIG.     2.5", 5" PRINT:   Origin of data
 UWI .     49025110270000:   Unique Well ID
 DICO. A2D TECHNOLOGIES, INC.:   Digitizing Company
~OTHER INFORMATION
~A    DEPT    NPHI       RHOB       CORR       TEND       CALD        GRR        SPR       RSFL       RILD       RILM       TENR   
# ...
 1072.5000  -999.2500  -999.2500  -999.2500  -999.2500  -999.2500    99.7300   -79.2660     9.0160     8.9880     8.5900   -95.0000
 1073.0000  -999.2500  -999.2500  -999.2500  -999.2500  -999.2500   101.2360   -79.2660     9.0000     8.9640     8.4730   -95.0000
 1073.5000  -999.2500  -999.2500  -999.2500  -999.2500  -999.2500   102.7530   -79.2660     8.8970     8.9390     8.3550   -95.0000
 1074.0000  -999.2500  -999.2500  -999.2500  -999.2500  -999.2500   101.5620   -79.2680     8.7940     8.8220     8.2380   -95.0000
 1074.5000  -999.2500  -999.2500  -999.2500  -999.2500  -999.2500   100.4730   -79.2540     8.6900     8.6770     8.1210   -95.0000
 1075.0000  -999.2500  -999.2500  -999.2500  -999.2500  -999.2500    99.8060   -79.5140     8.4530     8.5320     7.9990   -95.0000
 1075.5000  -999.2500  -999.2500  -999.2500  -999.2500  -999.2500    99.1970   -79.5960     8.4530     8.5220     8.0250   -95.0000
 1076.0000  -999.2500  -999.2500  -999.2500  -999.2500  -999.2500    95.9540   -79.6930     8.6870     8.5100     8.0460   -95.0000
 1076.5000  -999.2500  -999.2500  -999.2500  -999.2500  -999.2500    92.5680   -79.7880     8.8520     8.4980     8.0680   -95.0000
 1077.0000  -999.2500  -999.2500  -999.2500  -999.2500  -999.2500    92.2540   -79.8840     8.7820     8.4860     8.0890   -95.0000
 1077.5000  -999.2500  -999.2500  -999.2500  -999.2500  -999.2500    92.2690   -79.9790     8.7140     8.4740     8.1100   -95.0000
 1078.0000  -999.2500  -999.2500  -999.2500  -999.2500  -999.2500    91.0860   -80.0750     8.6900     8.4620     8.1320   -95.0000
 1078.5000  -999.2500  -999.2500  -999.2500  -999.2500  -999.2500    89.5620   -80.1710     8.6900     8.4500     8.1480   -95.0000
 1079.0000  -999.2500  -999.2500  -999.2500  -999.2500  -999.2500    91.2190   -80.2600     8.6110     8.4380     8.1200   -95.0000
 1079.5000  -999.2500  -999.2500  -999.2500  -999.2500  -999.2500    94.0870   -80.1670     8.6590     8.4260     8.0890   -95.0000
 1080.0000  -999.2500  -999.2500  -999.2500  -999.2500  -999.2500    96.5840   -80.0620     8.6900     8.4140     8.0580   -95.0000
 1080.5000  -999.2500  -999.2500  -999.2500  -999.2500  -999.2500    96.0480   -79.9570     8.6900     8.4020     8.0270   -95.0000
 1081.0000  -999.2500  -999.2500  -999.2500  -999.2500  -999.2500    95.4530   -79.8530     8.5590     8.3900     7.9960   -95.0000
 1081.5000  -999.2500  -999.2500  -999.2500  -999.2500  -999.2500    94.0600   -79.7480     8.5320     8.3780     7.9650   -95.0000
 1082.0000  -999.2500  -999.2500  -999.2500  -999.2500  -999.2500    91.5550   -79.6440     8.5120     8.3660     7.9340   -95.0000
 1082.5000  -999.2500  -999.2500  -999.2500  -999.2500  -999.2500    89.4910   -79.5400     8.4860     8.3540     7.9020   -95.0000
 1083.0000  -999.2500  -999.2500  -999.2500  -999.2500  -999.2500    90.9970   -79.4350     8.4590     8.3420     7.8710   -95.0000
 1083.5000  -999.2500  -999.2500  -999.2500  -999.2500  -999.2500    92.8370   -79.3320     8.4330     8.3300     7.8400   -94.8120
 1084.0000  -999.2500  -999.2500  -999.2500  -999.2500  -999.2500    93.6880   -79.2760     8.4070     8.3180     7.8090   -94.6170
 1084.5000  -999.2500  -999.2500  -999.2500  -999.2500  -999.2500    93.7250   -79.3430     8.3800     8.3060     7.7780   -94.4210
 1085.0000  -999.2500  -999.2500  -999.2500  -999.2500  -999.2500    92.3190   -79.4080     8.3540     8.2940     7.7470   -94.2250
 1085.5000  -999.2500  -999.2500  -999.2500  -999.2500  -999.2500    90.9730   -79.4740     8.3270     8.2820     7.7100   -94.0300
 1086.0000  -999.2500  -999.2500  -999.2500  -999.2500  -999.2500    91.8790   -79.5390     8.3010     8.2700     7.7540   -93.8340
 1086.5000  -999.2500  -999.2500  -999.2500  -999.2500  -999.2500    98.9470   -79.6040     8.2750     8.2580     7.8170   -93.6390
 1087.0000  -999.2500  -999.2500  -999.2500  -999.2500  -999.2500    99.0100   -79.6700     8.2480     8.2470     7.8750   -93.4430
 1087.5000  -999.2500  -999.2500  -999.2500  -999.2500  -999.2500    96.4890   -79.7350     8.2230     8.2340     7.9330   -93.2470
 1088.0000  -999.2500  -999.2500  -999.2500  -999.2500  -999.2500    92.7000   -79.8010     8.4870     8.2230     7.9910   -93.0520
 1088.5000  -999.2500  -999.2500  -999.2500  -999.2500  -999.2500    90.2710   -79.8620     8.7380     8.5490     8.0540   -92.8560
 1089.0000  -999.2500  -999.2500  -999.2500  -999.2500  -999.2500    92.8460   -79.7890     8.8520     8.7710     8.1380   -92.6600
 1089.5000  -999.2500  -999.2500  -999.2500  -999.2500  -999.2500    98.3070   -79.7050     8.7140     8.6760     8.1480   -92.4650
 1090.0000  -999.2500  -999.2500  -999.2500  -999.2500  -999.2500   100.0080   -79.6210     8.6060     8.5700     8.0840   -92.2690
 1090.5000  -999.2500  -999.2500  -999.2500  -999.2500  -999.2500    96.3180   -79.5380     8.4530     8.4530     8.0130   -92.0740
 1091.0000  -999.2500  -999.2500  -999.2500  -999.2500  -999.2500    95.6460   -79.4540     8.3760     8.4400     7.9420   -91.8780
 1091.5000  -999.2500  -999.2500  -999.2500  -999.2500  -999.2500    97.2770   -79.3710     8.3980     8.4250     7.8700   -91.6820
 1092.0000  -999.2500  -999.2500  -999.2500  -999.2500  -999.2500    98.9310   -79.2820     8.4170     8.4100     7.7990   -91.4870
 1092.5000  -999.2500  -999.2500  -999.2500  -999.2500  -999.2500    97.7950   -79.3760     8.4370     8.3950     7.7280   -91.2910
 1093.0000  -999.2500  -999.2500  -999.2500  -999.2500  -999.2500    93.2410   -79.5220     8.4530     8.3760     7.6560   -91.0960
 1093.5000  -999.2500  -999.2500  -999.2500  -999.2500  -999.2500    92.3150   -79.6700     8.3540     8.3760     7.5850   -90.9000
 1094.0000  -999.2500  -999.2500  -999.2500  -999.2500  -999.2500    94.1830   -79.8170     8.2230     8.2550     7.5690   -90.7040
 1094.5000  -999.2500  -999.2500  -999.2500  -999.2500  -999.2500    96.2070   -79.9650     8.1480     8.1480     7.5690   -90.5090
 1095.0000  -999.2500  -999.2500  -999.2500  -999.2500  -999.2500    98.2130   -80.1150     8.1480     8.1850     7.5690   -90.3130
 1095.5000  -999.2500  -999.2500  -999.2500  -999.2500  -999.2500   100.2510   -80.2460     8.2090     8.2310     7.6310   -90.1180
 1096.0000  -999.2500  -999.2500  -999.2500  -999.2500  -999.2500   100.7780   -79.9940     8.3110     8.2780     7.6940   -89.9220
 1096.5000  -999.2500  -999.2500  -999.2500  -999.2500  -999.2500    96.1790   -79.7280     8.4130     8.3250     7.7560   -89.7260
 1097.0000  -999.2500  -999.2500  -999.2500  -999.2500  -999.2500    92.9730   -79.4650     8.5150     8.3720     7.8180   -89.5310
 1097.5000  -999.2500  -999.2500  -999.2500  -999.2500  -999.2500    92.7350   -79.2810     8.5320     8.4190     7.8650   -89.3350
 1098.0000  -999.2500  -999.2500  -999.2500  -999.2500  -999.2500    94.7600   -79.3770     8.4230     8.4550     7.8930   -89.1400
 1098.5000  -999.2500  -999.2500  -999.2500  -999.2500  -999.2500    98.6500   -79.4670     8.3980     8.4620     7.9200   -88.9440
 1099.0000  -999.2500  -999.2500  -999.2500  -999.2500  -999.2500    98.1760   -79.5560     8.3760     8.4680     7.9480   -88.7480
 1099.5000  -999.2500  -999.2500  -999.2500  -999.2500  -999.2500    96.6620   -79.6460     8.2990     8.4750     7.9750   -88.5530
 1100.0000  -999.2500  -999.2500  -999.2500  -999.2500  -999.2500    90.0790   -79.7350     8.3130     8.4810     8.0030   -88.3570
 1100.5000  -999.2500  -999.2500  -999.2500  -999.2500  -999.2500    84.1520   -79.8250     8.3600     8.4880     8.0300   -88.1620
 1101.0000  -999.2500  -999.2500  -999.2500  -999.2500  -999.2500    86.6580   -79.9140     8.4070     8.4950     8.0580   -87.9660
 1101.5000  -999.2500  -999.2500  -999.2500  -999.2500  -999.2500    91.2710   -80.0040     8.4540     8.5010     8.0850   -87.7700
 1102.0000  -999.2500  -999.2500  -999.2500  -999.2500  -999.2500    96.0120   -80.0940     8.5010     8.5080     8.1130   -87.5750
 1102.5000  -999.2500  -999.2500  -999.2500  -999.2500  -999.2500    96.5200   -80.1830     8.5480     8.5140     8.1470   -87.3790
