~VERSION INFORMATION
 VERS.                2.0:   CWLS LOG ASCII STANDARD - VERSION 2.0
 WRAP.                 NO:   ONE LINE PER DEPTH STEP
~WELL INFORMATION
#MNEM.UNIT      DATA TYPE    INFORMATION
#----------   ------------   ------------------------------
 STRT.F            0.0000:   START DEPTH
 STOP.F         5673.0000:   STOP DEPTH
 STEP.F            0.5000:   STEP LENGTH
 NULL.          -999.2500:   NO VALUE
 COMP.       FLUOR DANIEL:   COMPANY
 WELL.   FLUOR "X" #63-10:   WELL
 FLD .             NPR #3:   FIELD
 LOC .      S10 T38N R78W:   LOCATION
 CNTY.            NATRONA:   COUNTY
 STAT.            WYOMING:   STATE
 CTRY. UNITED STATES OF AMERICA:   COUNTRY
 SRVC.      WESTERN ATLAS:   SERVICE COMPANY
 DATE.        02-MAR-1996:   LOGDATE
 API .     49025227690000:   API NUMBER
~CURVE INFORMATION
#MNEM.UNIT       API CODE    CURVE DESCRIPTION
#----------   ------------   ------------------------------
 DEPT.F                  :   
 GRD .GAPI   45 310 01 00:   GAMMA RAY FROM DENSITY LOG
 TEND.LBS    45 635 01 00:   TENSION FROM DENSITY LOG
 CALD.IN     45 280 60 00:   CALIPER FROM DENSITY LOG
 ZCOR.G/C3   45 356 01 00:   DENSITY CORRECTION
 ZDEN.G/C3   45 350 01 00:   BULK DENSITY
 CNC .DEC    42 890 03 00:   COMPENSATED NEUTRON POROSITY SANDSTONE
 SPR .MV     11 010 01 00:   SPONTANEOUS POTENTIAL FROM RESISTIVITY
 RD  .OHMM   11 220 10 00:   RESISTIVITY DEEP
 RS  .OHMM   11 220 09 00:   RESISTIVITY SHALLOW
~PARAMETER INFORMATION
#MNEM.UNIT          VALUE    DESCRIPTION
#----------   ------------   ------------------------------
 EKB .F         5196.0000:   Kelly bushing
 EGL .F         5186.0000:   Ground level
 EDF .F         5195.0000:   Drilling floor
 TD  .F         5674.0000:   Total depth
 CLNT.            A2DTECH:   Client Code
 SL  . 1688' FNL & 1730' FEL:   Surface Location
 PD  .                 GL:   Permanent Datum
 EPD .F              5186:   Elevation Permanent Datum
 LMF .                 KB:   Log Measured From
 DMF .                 KB:   Drilling Measured From
 DAPD.F                10:   Feet Above Permanent Datum
 DATE.        02-MAR-1996:   Date Logged [DD-MMM-YYYY]
 DD  .F              5674:   Depth driller
 DL  .F              5674:   Depth logger
 BLI .F              5663:   Bottom log interval
 CS1 .IN            9.625:   Casing size
 CBD1.      9.625" @ 448':   Casing driller 1
 CBL1.F               448:   Casing logger 1
 BS1 .IN             8.75:   Bit size
 BSD1.F              5674:   Depth drilled with bit1
 DFT .               CHEM:   Type fluid in hole
 DFD .                9.7:   Density
 DFV .                 53:   Viscosity
 DFPH.                9.0:   pH
 DFL .                9.2:   Fluid loss
 MSS .           FLOWLINE:   Source of sample
 RMS .OHMM          0.628:   Rm
 MST .F                71:   Rm Meas. temp.
 RMF .OHMM          0.477:   Rmf
 MFST.F                71:   Rmf Meas. temp.
 MFSS.               MEAS:   Source Rmf.
 RMC .OHMM          0.779:   Rmc
 MCST.F                71:   Rmc Meas. temp.
 MCSS.               MEAS:   Source Rmc.
 RMB .OHMM          0.251:   Rm. at BHT
 BHT .F               178:   BHT.
 TCS .F               4.5:   Time Circ. stopped
 MRT .HRS             178:   Maximum recorded temp.
 LUN .            HL-6530:   Logging unit number
 LUL .             CASPER:   Logging unit location
 ENGI.      PAT RASMUSSEN:   Recorded By
 ORIG.           5" PRINT:   Origin of data
 UWI .     49025227690000:   Unique Well ID
 WITN.         LAFRENIERE:   Witnessed by
 DICO.   A2D TECHNOLOGIES:   Digitizing Company
~OTHER INFORMATION
~A  DEPTH      GRD       TEND       CALD       ZCOR       ZDEN        CNC        SPR         RD         RS
# ...
 3540.5000   146.6296  -101.4970     8.8393     0.0442     2.4901     0.3128   -88.7661     6.1126     5.6545
 3541.0000   140.6090  -108.9230     8.8545     0.0277     2.4937     0.3125   -88.8217     6.1535     5.7319
 3541.5000   138.5034  -108.8352     8.8696     0.0276     2.4990     0.3069   -88.7406     6.2799     5.8499
 3542.0000   136.6990  -108.7650     8.8698     0.0291     2.5110     0.2994   -88.6607     6.4093     5.8475
 3542.5000   134.5833  -108.6948     8.8699     0.0336     2.5185     0.2940   -88.5804     6.4965     5.7255
 3543.0000   133.0901  -108.6070     8.8701     0.0396     2.5155     0.2928   -88.5002     6.4047     5.6450
 3543.5000   134.5997  -108.5368     8.8702     0.0471     2.5117     0.2970   -88.4200     6.3581     5.5268
 3544.0000   139.7230  -108.4665     8.8704     0.0516     2.5110     0.3060   -88.3399     6.3123     5.4491
 3544.5000   144.8470  -108.3958     8.8705     0.0531     2.5125     0.3144   -88.2596     6.2237     5.4098
 3545.0000   148.4642  -108.3085     8.8857     0.0530     2.5110     0.3234   -88.1792     6.0465     5.4076
 3545.5000   152.3827   -93.2458     8.9159     0.0515     2.4929     0.3352   -88.1002     5.8040     5.3316
 3546.0000   154.8192   -78.1831     8.9913     0.0635     2.4629     0.3495   -88.0843     5.5282     5.0779
 3546.5000   156.3047   -69.7870     9.1268     0.0830     2.3915     0.3594   -88.1648     4.9975     4.6248
 3547.0000   156.6087   -48.0401     9.2773     0.0996     2.3674     0.3588   -88.2442     4.1327     3.9553
 3547.5000   156.6115   -25.4811     9.3827     0.0920     2.3749     0.3477   -88.3240     3.8027     3.2576
 3548.0000   153.3018   -17.9146     9.3227     0.0725     2.3930     0.3206   -88.4037     3.6724     3.1676
 3548.5000   138.8468   -25.3407     9.1875     0.0919     2.3779     0.3082   -88.4834     3.7220     3.4168
 3549.0000   123.1869   -17.7567     9.0223     0.1498     2.3516     0.3016   -88.5635     3.9870     3.5605
 3549.5000   121.6698     4.8024     8.8530     0.1609     2.2998     0.2936   -88.6458     4.2215     3.7107
 3550.0000   121.0841    12.3688     8.8120     0.1579     2.2667     0.2865   -88.5712     4.5539     3.8261
 3550.5000   122.5961     7.0054     8.8723     0.1414     2.2983     0.2885   -88.4720     4.8448     3.9470
 3551.0000   120.7960     4.7132     8.9477     0.1114     2.3328     0.2987   -88.3725     4.9454     4.1426
 3551.5000   120.1979     4.6424     9.0230     0.0873     2.3208     0.2931   -88.2705     4.7102     3.8387
 3552.0000   123.2170    -2.9247     9.0833     0.0753     2.2953     0.2881   -88.2925     4.4246     3.5300
 3552.5000   127.5590   -10.5095     9.0384     0.0993     2.3038     0.3109   -88.3428     4.3627     3.4597
 3553.0000   135.8805   -10.5803     8.9784     0.1323     2.3524     0.3069   -88.3934     4.4224     3.5321
 3553.5000   136.1860   -33.1399     8.9033     0.2148     2.4057     0.2987   -88.4438     4.9724     3.7849
 3554.0000   132.5787   -63.1958     8.8419     0.2193     2.4455     0.2921   -88.4942     7.2714     4.4070
 3554.5000   129.2711   -78.2608     8.7533     0.1008     2.5375     0.2557   -88.5446     7.0225     4.9619
 3555.0000   126.8686   -78.3476     8.6932     0.0918     2.5552     0.2515   -88.5951     6.1560     4.7878
 3555.5000   125.3683   -70.9222     8.6783     0.1803     2.5056     0.2492   -88.6478     5.2859     4.2857
 3556.0000   122.6632   -63.4791     8.7086     0.2012     2.4718     0.2529   -88.5904     4.8638     3.8098
 3556.5000   120.2592   -56.0714     8.8441     0.1142     2.4020     0.2685   -88.5110     4.6005     3.4578
 3557.0000   120.2892   -48.6637     9.0096     0.1217     2.3396     0.2795   -88.4311     4.5049     3.3623
 3557.5000   121.7781   -33.7243     9.1752     0.1472     2.3035     0.3047   -88.3516     4.3809     3.2711
 3558.0000   120.5790   -33.8128     9.1926     0.1112     2.2945     0.3101   -88.2652     4.1591     3.0734
 3558.5000   118.7775   -33.8837     9.1454     0.0811     2.2712     0.3001   -88.4607     3.3946     2.6760
 3559.0000   121.7952     3.5091     9.2509     0.0766     2.2337     0.2965   -88.7361     3.0020     2.2045
 3559.5000   134.1518    18.4485     9.2961     0.0736     2.1330     0.2910   -89.0189     2.5375     1.9192
 3560.0000   144.0111    10.8637     9.6872     0.0721     2.0075     0.2946   -88.9008     2.5723     1.9460
 3560.5000   151.0297   -19.1922    10.9956     0.0921     2.0000     0.3739   -88.7125     2.7370     2.1439
 3561.0000   134.4706   -42.7474    12.1387     0.1066     2.0000     0.4390   -88.5242     3.0991     2.4619
 3561.5000   120.0185   -64.3290    12.4997     0.0871     2.0000     0.4492   -88.3358     3.7038     2.6935
 3562.0000    99.8434   -71.8961    12.0187     0.0495     2.0053     0.4684   -88.2659     4.4381     2.9879
 3562.5000    99.2467   -71.9670    11.1617     0.0450     2.0225     0.4723   -88.2848     4.9908     3.5031
 3563.0000   103.1695   -72.0390    10.9663     0.0795     2.0113     0.4719   -88.3056     4.9554     3.5764
 3563.5000   108.2957   -72.1264    11.2973     0.1185     2.0000     0.4920   -88.3264     4.5599     3.1792
 3564.0000   110.7111   -72.1972    12.3802     0.1500     2.0000     0.5295   -88.3471     4.1031     2.8262
 3564.5000   107.0454   -79.7642    13.0119     0.1005     2.0000     0.5698   -88.3677     3.7556     2.5124
 3565.0000   101.9890   -87.3313    13.7639     0.0929     2.0000     0.5869   -88.3884     3.4320     2.3217
 3565.5000    98.9827   -87.4199    14.6190     0.1259     2.0000     0.6040   -88.4090     3.1581     2.1722
 3566.0000    96.8799   -79.9944    15.4635     0.1529     2.0000     0.6149   -88.4298     3.0083     2.0694
 3566.5000    95.3796   -27.5915    15.8245     0.1754     2.0000     0.6230   -88.4523     2.9248     1.9714
 3567.0000    93.5342   -12.6687    16.0352     0.1905     2.0008     0.6318   -88.3930     2.8848     1.9175
 3567.5000    92.3790   -20.2546    16.3677     0.2039     2.0811     0.6365   -88.3192     2.8643     1.9307
 3568.0000    92.9885   -35.3180    16.5017     0.2084     2.0609     0.6287   -88.2453     2.8836     1.9439
 3568.5000    92.0906   -50.3813    16.4567     0.1934     2.0000     0.6089   -88.1715     2.9032     1.9171
 3569.0000    90.8841   -57.9484    15.9570     0.1949     2.0000     0.5867   -88.0978     2.9226     1.8646
 3569.5000    90.2948   -65.5172    14.2164     0.2083     2.0000     0.5561   -88.0244     2.9422     1.8246
 3570.0000    93.6152   -58.1077    12.5624     0.2173     2.0320     0.5264   -87.9498     3.0451     1.9750
 3570.5000   105.0667   -50.6823    11.0137     0.2188     2.1833     0.4790   -87.8794     3.4242     2.2628
 3571.0000   110.1929   -50.7532    10.5777     0.2068     2.2066     0.4409   -87.5825     3.7456     2.3262
 3571.5000   113.9285   -58.3208    10.5629     0.1570     2.1873     0.4242   -87.1828     3.9035     2.3099
 3572.0000   121.3503   -50.8948    10.8337     0.1753     2.1465     0.4020   -86.7773     3.6670     2.1111
 3572.5000   132.8018   -43.4694    10.9692     0.2308     2.1435     0.4056   -86.3730     3.1057     1.9409
 3573.0000   143.0485   -43.5579    11.1347     0.2442     2.1503     0.4206   -86.0353     2.5060     1.6453
 3573.5000   157.8226   -51.1250    10.8484     0.2502     2.1548     0.4338   -86.0435     2.4204     1.4933
 3574.0000   166.5553   -66.2061    10.3380     0.2217     2.1247     0.4407   -86.0440     2.4705     1.6113
 3574.5000   160.8382   -81.2694    10.8194     0.2082     2.0699     0.4395   -86.0441     2.5925     1.7628
 3575.0000   145.7836   -81.3402    11.8572     0.2232     2.0240     0.4440   -86.0414     2.8163     1.8890
 3575.5000   115.6688   -81.4111    12.9701     0.2487     2.0231     0.4434   -86.1859     3.0593     2.0667
 3576.0000   101.7547   -88.9805    13.5411     0.3035     2.1628     0.4318   -86.3850     3.2128     2.2300
 3576.5000   103.3323   -44.0892    13.9478     0.3552     2.2269     0.4189   -86.5851     3.3688     2.3243
