~VERSION INFORMATION
 VERS.                2.0:   CWLS LOG ASCII STANDARD - VERSION 2.0
 WRAP.                 NO:   ONE LINE PER DEPTH STEP
~WELL INFORMATION
#MNEM.UNIT      DATA TYPE    INFORMATION
#----------   ------------   ------------------------------
 STRT.F           14.0000:   START DEPTH
 STOP.F         3246.0000:   STOP DEPTH
 STEP.F            0.5000:   STEP LENGTH
 NULL.          -999.2500:   NO VALUE
 COMP.   LAWRENCE ALLISON:   COMPANY
 WELL. LAWRENCE "34X" #11:   WELL
 FLD .             N.P.R.:   FIELD
 LOC .      S34 T38N R78W:   LOCATION
 CNTY.            NATRONA:   COUNTY
 STAT.            WYOMING:   STATE
 CTRY. UNITED STATES OF AMERICA:   COUNTRY
 SRVC.      DRESSER ATLAS:   SERVICE COMPANY
 DATE.        02-MAY-1985:   LOGDATE
 API .     49025110530001:   API NUMBER
~CURVE INFORMATION
#MNEM.UNIT       API CODE    CURVE DESCRIPTION
#----------   ------------   ------------------------------
 DEPT.F                  :   
 CNC .DEC    42 890 03 00:   NEUTRON POROSITY
 CALD.IN     45 280 60 00:   CALIPER FROM DENSITY LOG
 CORR.G/C3   45 356 01 00:   DENSITY CORRECTION
 RHOB.G/C3   45 350 01 00:   BULK DENSITY
 GRR .GAPI   07 310 01 00:   GAMMA RAY FROM RESISTIVITY
 SPR .MV     07 010 01 00:   SPONTANEOUS POTENTIAL FROM RES.
 TENR.LBS    06 635 01 00:   TENSION FROM RESISTIVITY
 RILD.OHMM   07 120 46 00:   DEEP INDUCTION RESISTIVITY
 RILM.OHMM   07 120 44 00:   INDUCTION LOG MEDIUM RESISTIVITY
 RFOC.OHMM   07 220 04 00:   RESISTIVITY FOCUSED LOG RES.
~PARAMETER INFORMATION
#MNEM.UNIT          VALUE    DESCRIPTION
#----------   ------------   ------------------------------
 EKB .F         5099.0000:   Kelly bushing
 TD  .F         3239.0000:   Total depth
 CLNT.            A2DTECH:   Client Code
 PD  .                 GL:   Permanent Datum
 EPD .F              5087:   Elevation Permanent Datum
 LMF .                 KB:   Log Measured From
 DMF .                 KB:   Drilling Measured From
 DAPD.F                12:   Feet Above Permanent Datum
 DATE.        02-MAY-1985:   Date Logged [DD-MMM-YYYY]
 DD  .F              3239:   Depth driller
 DL  .F              3242:   Depth logger
 BLI .F              3294:   Bottom log interval
 CS1 .IN            8.625:   Casing size
 CBD1.      8.625" @ 487':   Casing driller 1
 CBL1.F               487:   Casing logger 1
 BS1 .IN            7.875:   Bit size
 BSD1.F              3239:   Depth drilled with bit1
 DFT .            KCL GEL:   Type fluid in hole
 DFD .                9.1:   Density
 DFV .                 35:   Viscosity
 DFPH.                  8:   pH
 DFL .                9.8:   Fluid loss
 MSS .           FLOWLINE:   Source of sample
 RMS .OHMM           0.27:   Rm
 MST .F                68:   Rm Meas. temp.
 RMF .OHMM           0.20:   Rmf
 MFST.F                68:   Rmf Meas. temp.
 MFSS.               MEAS:   Source Rmf.
 RMC .OHMM           0.34:   Rmc
 MCST.F                68:   Rmc Meas. temp.
 MCSS.               CALC:   Source Rmc.
 RMB .OHMM           0.15:   Rm. at BHT
 BHT .F               126:   BHT.
 TCS .HRS               3:   Time Circ. stopped
 MRT .F               126:   Maximum recorded temp.
 LUN .               6274:   Logging unit number
 LUL .               GLTE:   Logging unit location
 ENGI.       MACK/EDWARDS:   Recorded By
 WITN.             STRONG:   Witnessed by
 ORIG.           5" PRINT:   Origin of data
 UWI .     49025110260000:   Unique Well ID
 DICO. A2D TECHNOLOGIES, INC.:   Digitizing Company
~OTHER INFORMATION
~A   DEPT      CNC       CALD       CORR       RHOB        GRR        SPR       TENR       RILD       RILM       RFOC   
# ...
 2292.0000  -999.2500  -999.2500  -999.2500  -999.2500    89.2286   -63.5329   -35.7270     2.3170     2.3175     3.0800
 2292.5000  -999.2500  -999.2500  -999.2500  -999.2500    89.9439   -63.0614   -29.6955     2.3197     2.3222     2.9996
 2293.0000  -999.2500  -999.2500  -999.2500  -999.2500    94.4552   -62.8853   -23.6639     2.3386     2.3727     2.7639
 2293.5000  -999.2500  -999.2500  -999.2500  -999.2500    99.8634   -63.0188   -17.6332     2.4073     2.3917     2.6182
 2294.0000  -999.2500  -999.2500  -999.2500  -999.2500    96.9757   -63.4462   -11.6016     2.4614     2.4623     2.8483
 2294.5000  -999.2500  -999.2500  -999.2500  -999.2500    88.9310   -63.8682   -13.1616     2.5513     2.5345     2.9933
 2295.0000  -999.2500  -999.2500  -999.2500  -999.2500    88.5090   -63.9970   -15.0509     2.7000     2.6089     2.9977
 2295.5000  -999.2500  -999.2500  -999.2500  -999.2500    89.8918   -63.6752   -16.5837     2.8573     2.7417     3.0222
 2296.0000  -999.2500  -999.2500  -999.2500  -999.2500    90.8127   -63.3533   -18.1164     2.9823     2.8675     3.0680
 2296.5000  -999.2500  -999.2500  -999.2500  -999.2500    88.1492   -63.1774   -11.7019     3.1561     3.1141     3.1145
 2297.0000  -999.2500  -999.2500  -999.2500  -999.2500    83.4677   -62.8563   -21.1819     3.3001     3.3413     3.2057
 2297.5000  -999.2500  -999.2500  -999.2500  -999.2500    77.4409   -62.6850   -37.8441     3.5114     3.5604     3.4395
 2298.0000  -999.2500  -999.2500  -999.2500  -999.2500    75.0016   -62.6633   -23.6231     3.6648     3.6903     3.9411
 2298.5000  -999.2500  -999.2500  -999.2500  -999.2500    74.1312   -62.6416    -3.0881     3.8250     3.8249     4.3940
 2299.0000  -999.2500  -999.2500  -999.2500  -999.2500    74.8423   -62.6198   -20.1332     3.9922     3.9392     4.5541
 2299.5000  -999.2500  -999.2500  -999.2500  -999.2500    76.6591   -62.5929   -29.2302     4.0528     4.1104     4.4351
 2300.0000  -999.2500  -999.2500  -999.2500  -999.2500    81.6189   -62.7264   -23.1987     4.0016     3.7355     4.0585
 2300.5000  -999.2500  -999.2500  -999.2500  -999.2500    85.0091   -62.6993    -1.6556     3.5962     3.5880     3.7138
 2301.0000  -999.2500  -999.2500  -999.2500  -999.2500    85.7089   -62.6828    -3.5721     3.3960     3.4702     3.4219
 2301.5000  -999.2500  -999.2500  -999.2500  -999.2500    83.2695   -62.6639   -21.0378     3.5454     3.4257     3.3325
 2302.0000  -999.2500  -999.2500  -999.2500  -999.2500    78.5881   -62.6199   -29.7135     3.7262     3.8063     3.7542
 2302.5000  -999.2500  -999.2500  -999.2500  -999.2500    77.2699   -62.3206   -31.2470     3.8355     4.0023     4.5001
 2303.0000  -999.2500  -999.2500  -999.2500  -999.2500    77.9763   -62.1513   -32.7798     3.9480     4.0621     4.4746
 2303.5000  -999.2500  -999.2500  -999.2500  -999.2500    78.7464   -61.8323   -18.8010     4.0638     4.1238     4.1231
 2304.0000  -999.2500  -999.2500  -999.2500  -999.2500    79.6978   -61.3636   -12.7694     4.0686     4.1289     4.0155
 2304.5000  -999.2500  -999.2500  -999.2500  -999.2500    78.9757   -61.3440   -14.6859     3.9895     4.1340     4.1385
 2305.0000  -999.2500  -999.2500  -999.2500  -999.2500    76.9871   -61.3244   -23.8273     3.9665     4.0810     4.3153
 2305.5000  -999.2500  -999.2500  -999.2500  -999.2500    75.8954   -61.4545   -33.2630     3.9724     4.0590     4.4113
 2306.0000  -999.2500  -999.2500  -999.2500  -999.2500    79.0637   -61.7343   -42.3608     3.8951     4.0052     4.4167
 2306.5000  -999.2500  -999.2500  -999.2500  -999.2500    81.3361   -61.8643   -43.8936     3.7930     3.9319     4.2131
 2307.0000  -999.2500  -999.2500  -999.2500  -999.2500    84.0854   -62.1441   -47.7161     3.7185     3.8293     3.8024
 2307.5000  -999.2500  -999.2500  -999.2500  -999.2500    83.4191   -62.1196   -48.7897     3.7506     3.7025     3.5038
 2308.0000  -999.2500  -999.2500  -999.2500  -999.2500    82.5443   -61.9503   -50.0583     3.9692     3.9739     3.6190
 2308.5000  -999.2500  -999.2500  -999.2500  -999.2500    82.8051   -61.7810   -43.6462     4.2298     4.1763     4.4149
 2309.0000  -999.2500  -999.2500  -999.2500  -999.2500    83.7313   -61.7451   -44.8563     4.4764     4.3291     4.9039
 2309.5000  -999.2500  -999.2500  -999.2500  -999.2500    84.8817   -62.0427   -46.3006     4.6077     4.5542     5.1521
 2310.0000  -999.2500  -999.2500  -999.2500  -999.2500    84.4626   -62.3210   -47.4723     4.6776     4.6840     4.9846
 2310.5000  -999.2500  -999.2500  -999.2500  -999.2500    78.4194   -62.2965   -41.0791     4.7485     4.8214     4.9548
 2311.0000  -999.2500  -999.2500  -999.2500  -999.2500    77.1222   -61.9775   -42.2502     4.8554     4.8609     4.9625
 2311.5000  -999.2500  -999.2500  -999.2500  -999.2500    77.1588   -61.6585   -43.4213     4.9929     4.9007     5.0031
 2312.0000  -999.2500  -999.2500  -999.2500  -999.2500    76.9639   -61.1898   -44.5930     5.0697     4.9752     5.0836
 2312.5000  -999.2500  -999.2500  -999.2500  -999.2500    75.8722   -60.8708   -45.7641     5.1822     4.9549     5.1579
 2313.0000  -999.2500  -999.2500  -999.2500  -999.2500    74.5562   -60.7015   -46.9352     5.2242     5.0655     5.2002
 2313.5000  -999.2500  -999.2500  -999.2500  -999.2500    73.6814   -60.6819   -40.5420     5.2301     5.1414     5.2066
 2314.0000  -999.2500  -999.2500  -999.2500  -999.2500    73.7180   -60.6617   -34.4421     5.2361     5.1825     5.2131
 2314.5000  -999.2500  -999.2500  -999.2500  -999.2500    74.8932   -60.6378   -35.6132     5.2421     5.1879     5.2196
 2315.0000  -999.2500  -999.2500  -999.2500  -999.2500    77.5957   -60.6182   -36.7843     5.2118     5.2293     5.2260
 2315.5000  -999.2500  -999.2500  -999.2500  -999.2500    78.9703   -60.7532   -37.9554     5.1817     5.1987     5.1964
 2316.0000  -999.2500  -999.2500  -999.2500  -999.2500    80.3449   -60.8783   -39.1271     5.0822     5.0633     5.2032
 2316.5000  -999.2500  -999.2500  -999.2500  -999.2500    81.2711   -60.8587   -40.3177     5.0514     4.9302     5.2110
 2317.0000  -999.2500  -999.2500  -999.2500  -999.2500    81.7489   -61.2882   -41.7619     4.9530     4.8339     4.9364
 2317.5000  -999.2500  -999.2500  -999.2500  -999.2500    81.1055   -61.4184   -42.9337     4.8580     4.7396     4.6764
 2318.0000  -999.2500  -999.2500  -999.2500  -999.2500    80.4619   -61.2325   -44.1048     4.7305     4.6470     4.5230
 2318.5000  -999.2500  -999.2500  -999.2500  -999.2500    81.1829   -60.9251   -45.2759     4.6383     4.5556     4.4342
 2319.0000  -999.2500  -999.2500  -999.2500  -999.2500    83.4430   -60.7558   -46.5451     4.5797     4.4939     4.3799
 2319.5000  -999.2500  -999.2500  -999.2500  -999.2500    84.5934   -60.5865   -62.8448     4.5532     4.4411     4.5782
 2320.0000  -999.2500  -999.2500  -999.2500  -999.2500    84.1743   -60.2675   -71.5802     4.4658     4.4162     5.0094
 2320.5000  -999.2500  -999.2500  -999.2500  -999.2500    77.2530   -60.6970   -72.7513     4.4387     4.3600     5.1922
 2321.0000  -999.2500  -999.2500  -999.2500  -999.2500    75.4812   -60.9768   -66.3387     4.3523     4.3334     5.2347
 2321.5000  -999.2500  -999.2500  -999.2500  -999.2500    79.7780   -61.2567   -67.5494     4.2985     4.2782     4.9934
 2322.0000  -999.2500  -999.2500  -999.2500  -999.2500    90.3454   -61.5364   -68.9936     4.2440     4.2248     4.3534
 2322.5000  -999.2500  -999.2500  -999.2500  -999.2500    96.0298   -61.6665   -62.3078     4.1327     4.2002     4.1527
 2323.0000  -999.2500  -999.2500  -999.2500  -999.2500    96.9137   -61.3426   -56.2078     4.1088     4.1755     4.1007
 2323.5000  -999.2500  -999.2500  -999.2500  -999.2500    92.4587   -61.1733   -57.3789     4.2304     4.1510     4.1344
 2324.0000  -999.2500  -999.2500  -999.2500  -999.2500    85.0889   -61.0040   -58.5500     4.3847     4.2731     4.4682
 2324.5000  -999.2500  -999.2500  -999.2500  -999.2500    81.3066   -60.5353   -59.7211     4.6401     4.6479     4.8611
 2325.0000  -999.2500  -999.2500  -999.2500  -999.2500    78.4211   -60.5156   -60.8928     4.9790     5.1616     5.7464
