~VERSION INFORMATION
 VERS.                2.0:   CWLS LOG ASCII STANDARD - VERSION 2.0
 WRAP.                 NO:   ONE LINE PER DEPTH STEP
~WELL INFORMATION
#MNEM.UNIT      DATA TYPE    INFORMATION
#----------   ------------   ------------------------------
 STRT.F           13.0000:   START DEPTH
 STOP.F         2858.0000:   STOP DEPTH
 STEP.F            0.5000:   STEP LENGTH
 NULL.          -999.2500:   NO VALUE
 COMP.    FENIX & SCISSON:   COMPANY
 WELL. FENIX & SCISSON "AX" #16-21:   WELL
 FLD .  TEAPOT DOME NRP-3:   FIELD
 LOC .      S21 T39N R78W:   LOCATION
 CNTY.            NATRONA:   COUNTY
 STAT.            WYOMING:   STATE
 CTRY. UNITED STATES OF AMERICA:   COUNTRY
 SRVC.           BIRDWELL:   SERVICE COMPANY
 DATE.        17-JUL-1978:   LOGDATE
 API .     49025106590000:   API NUMBER
~CURVE INFORMATION
#MNEM.UNIT       API CODE    CURVE DESCRIPTION
#----------   ------------   ------------------------------
 DEPT.F                  :   
 GRD .GAPI   45 310 01 00:   GAMMA RAY FROM DENSITY LOG
 CALD.IN     45 280 60 00:   CALIPER FROM DENSITY LOG
 CORR.G/C3   45 356 01 00:   DENSITY CORRECTION
 RHOB.G/C3   45 350 01 00:   BULK DENSITY
 SPR .MV     05 010 01 00:   SPONTANEOUS POTENTIAL FROM RES.
 ILD .OHMM   05 120 46 00:   INDUCTION LOG DEEP
 SN  .OHMM   05 041 16 00:   SHORT NORMAL 16"
~PARAMETER INFORMATION
#MNEM.UNIT          VALUE    DESCRIPTION
#----------   ------------   ------------------------------
 EKB .F         5003.0000:   Kelly bushing
 EGL .F         4993.0000:   Ground level
 EDF .F            0.0000:   Drilling floor
 EPD .F         4993.0000:   Permanent datum
 TD  .F         2858.0000:   Total depth
 CLNT.            A2DTECH:   Client Code
 SL  . 1420' FSL & 200' FWL:   Surface Location
 DATE.        17-JUL-1978:   Date Logged [DD-MMM-YYYY]
 DD  .F              2855:   Depth driller
 DL  .F              2858:   Depth logger
 BLI .F              2858:   Bottom log interval
 TLI .F                20:   Top log interval
 CS1 .              8.625:   Casing size
 CBD1.      8.625" @ 200':   Casing driller 1
 CBL1.IN              228:   Casing logger 1
 BS1 .IN            7.875:   Bit size
 BSD1.F              2855:   Depth drilled with bit1
 DFT .            MUD GEL:   Type fluid in hole
 DFD .                9.9:   Density
 DFV .                 32:   Viscosity
 DFPH.               10.5:   pH
 DFL .                7.2:   Fluid loss
 MSS .           FLOWLINE:   Source of sample
 RMS .OHMM            1.3:   Rm
 MST .F                80:   Rm Meas. temp.
 RMF .OHMM           0.77:   Rmf
 MFST.F                74:   Rmf Meas. temp.
 MFSS.               MEAS:   Source Rmf.
 RMC .OHMM            1.5:   Rmc
 MCST.F                73:   Rmc Meas. temp.
 MCSS.               MEAS:   Source Rmc.
 TCS .HRS               1:   Time Circ. stopped
 MRT .F               118:   Maximum recorded temp.
 LUN .               2958:   Logging unit number
 LUL .               CASP:   Logging unit location
 ENGI.              HONEA:   Recorded By
 WITN.           MCGINLEY:   Witnessed by
 ORIG.        2" 5" PRINT:   Origin of data
 UWI .     49025106590000:   Unique Well ID
 DICO. A2D TECHNOLOGIES, INC.:   Digitizing Company
 PD  .                 GL:   Permanent Datum
 DAPD.                 10:   Feet Above Permanent Datum
~OTHER INFORMATION
~A   DEPT       GRD      CALD       CORR       RHOB        SPR        ILD         SN   
# ...
 2834.0000    82.2568     7.8453     0.0799     2.5199   -21.3726     4.4947     5.1196
 2834.5000    84.3576     7.8766     0.0607     2.5400   -21.3451     4.4984     5.1217
 2835.0000    87.5000     7.8484     0.0385     2.5341   -21.3177     4.5020     5.1235
 2835.5000    88.7232     7.8352     0.0371     2.5178   -21.4455     4.4748     5.1252
 2836.0000    91.2594     7.8071     0.0387     2.5081   -21.4113     4.4793     5.0218
 2836.5000    90.6816     7.8091     0.0417     2.5021   -21.3839     4.4514     4.9213
 2837.0000    88.4669     7.7954     0.0418     2.4972   -21.3560     4.4559     4.8556
 2837.5000    86.9962     7.7974     0.0419     2.4920   -21.4774     4.4594     4.7909
 2838.0000    84.9303     7.7990     0.0419     2.4958   -21.4431     4.4023     4.7597
 2838.5000    85.3942     7.8006     0.0405     2.5159   -21.4157     4.2867     4.7290
 2839.0000    85.8580     7.8319     0.0406     2.5167   -21.5435     4.1173     4.6660
 2839.5000    87.2147     7.8483     0.0392     2.5101   -21.5093     4.0645     4.5718
 2840.0000    87.9762     7.8053     0.0378     2.5012   -21.4818     4.0400     4.6053
 2840.5000    87.6960     7.7475     0.0417     2.5131   -21.4544     4.0433     4.5127
 2841.0000    88.1642     7.7194     0.0448     2.5132   -21.4270     4.0473     4.3917
 2841.5000    88.4749     7.7065     0.0435     2.5049   -21.3991     4.0221     4.3630
 2842.0000    87.1574     7.7081     0.0407     2.4950   -20.7719     4.0261     4.3947
 2842.5000    85.9800     7.7245     0.0408     2.4873   -20.0026     4.0018     4.4592
 2843.0000    88.0851     7.7558     0.0380     2.4859   -19.9752     3.9769     4.4894
 2843.5000    88.5489     7.7871     0.0381     2.4867   -19.9478     3.9267     4.4912
 2844.0000    90.2032     7.8185     0.0383     2.4957   -19.9204     3.7716     4.4615
 2844.5000    89.7742     7.8810     0.0430     2.4987   -19.7446     3.7232     4.2536
 2845.0000    86.8155     7.9405     0.0492     2.4987   -19.7172     3.6999     4.1392
 2845.5000    89.4673     7.8682     0.0566     2.4988   -19.6898     3.5727     4.0560
 2846.0000    94.5928     7.8103     0.0597     2.4981   -19.6618     3.4148     4.0299
 2846.5000    95.2011     7.8119     0.0583     2.4929   -19.6281     3.3251     3.8154
 2847.0000    93.2883     7.8284     0.0555     2.4963   -19.6007     3.2818     3.7124
 2847.5000    90.0319     7.8745     0.0541     2.5116   -19.5733     3.2620     3.6135
 2848.0000    89.3053     7.9207     0.0543     2.5139   -19.5459     3.2653     3.6151
 2848.5000    89.3227     7.9966     0.0529     2.5051   -19.5184     3.2679     3.6163
 2849.0000    89.3402     8.0725     0.0531     2.5021   -19.3427     3.2475     3.6175
 2849.5000    89.3576     8.0745     0.0548     2.5052   -19.3153     3.2508     3.6187
 2850.0000    89.8214     8.0608     0.0564     2.5046   -19.2878     3.2534     3.5948
 2850.5000    90.5982     8.0739     0.0595     2.5010   -19.2596     3.2560     3.5716
 2851.0000    86.8844     8.0788     0.0611     2.4956   -19.3814     3.2364     3.5483
 2851.5000    87.6459     8.0654     0.0583     2.4801   -19.3471     3.2175     3.5495
 2852.0000    88.8538     8.0075     0.0511     2.4853   -19.3197     3.2201     3.5264
 2852.5000    93.7819     7.9198     0.0467     2.4957  -999.2500  -999.2500  -999.2500
 2853.0000    96.0271     7.8618     0.0499     2.4876  -999.2500  -999.2500  -999.2500
 2853.5000    89.5013     7.8484     0.0500     2.4802  -999.2500  -999.2500  -999.2500
 2854.0000    87.5755     7.8502     0.0368     2.4869  -999.2500  -999.2500  -999.2500
 2854.5000  -999.2500     7.8517     0.0281     2.4840  -999.2500  -999.2500  -999.2500
 2855.0000  -999.2500     7.8531     0.0282     2.4692  -999.2500  -999.2500  -999.2500
 2855.5000  -999.2500     7.8546     0.0269     2.4603  -999.2500  -999.2500  -999.2500
 2856.0000  -999.2500     7.8408     0.0300     2.4544  -999.2500  -999.2500  -999.2500
 2856.5000  -999.2500     7.8427     0.0331     2.4529  -999.2500  -999.2500  -999.2500
 2857.0000  -999.2500     7.8590     0.0379     2.4531  -999.2500  -999.2500  -999.2500
 2857.5000  -999.2500     7.8604     0.0616     2.4575  -999.2500  -999.2500  -999.2500
 2858.0000  -999.2500     7.8619     0.0914     2.4642  -999.2500  -999.2500  -999.2500
