~VERSION INFORMATION
 VERS.                2.0:   CWLS LOG ASCII STANDARD - VERSION 2.0
 WRAP.                 NO:   ONE LINE PER DEPTH STEP
~WELL INFORMATION
#MNEM.UNIT      DATA TYPE    INFORMATION
#----------   ------------   ------------------------------
 STRT.F           11.0000:   START DEPTH
 STOP.F         4154.0000:   STOP DEPTH
 STEP.F            0.5000:   STEP LENGTH
 NULL.          -999.2500:   NO VALUE
 COMP.   LAWRENCE ALLISON:   COMPANY
 WELL. ALLISON NPR 3 "LX" #14-22:   WELL
 FLD .                NPR:   FIELD
 LOC .      S22 T38N R78W:   LOCATION
 CNTY.            NATRONA:   COUNTY
 STAT.            WYOMING:   STATE
 CTRY. UNITED STATES OF AMERICA:   COUNTRY
 SRVC.       DRESER ATLAS:   SERVICE COMPANY
 DATE.        14-APR-1985:   LOGDATE
 API .     49025110230000:   API NUMBER
~CURVE INFORMATION
#MNEM.UNIT       API CODE    CURVE DESCRIPTION
#----------   ------------   ------------------------------
 DEPT.F                  :   
 TEND.LBS    45 635 01 00:   TENSION FROM DENSITY LOG
 RHOB.G/C3   45 350 01 00:   BULK DENSITY
 DRHO.G/C3   45 356 01 00:   DENSITY CORRECTION
 CALD.IN     45 280 60 00:   CALIPER FROM DENSITY LOG
 NPHI.DEC    42 890 03 00:   NEUTRON POROSITY SANDSTONE
 TENR.LBS    07 635 01 00:   TENSION FROM RESISTIVITY
 SPR .MV     07 010 01 00:   SPONTANEOUS POTENTIAL
 GRR .GAPI   07 310 01 00:   GAMMA RAY FROM RESISTIVITY
 RFOC.OHMM   07 220 01 00:   RESISTIVITY FOCUSED LOG RES.
 RILD.OHMM   07 120 46 00:   DEEP INDUCTION RESISTIVITY
 RILM.OHMM   07 120 44 00:   INDUCTION LOG MEDIUM RESISTIVITY
~PARAMETER INFORMATION
#MNEM.UNIT          VALUE    DESCRIPTION
#----------   ------------   ------------------------------
 EKB .F         5230.4000:   Kelly bushing
 EGL .F         5220.4000:   Ground level
 EDF .F            0.0000:   Drilling floor
 TD  .F         4150.0000:   Total depth
 DATE.        14-APR-1985:   Date logged
 CLNT.            A2DTECH:   Client Code
 SL  . 905' FNL & 824' FWL:   Surface Location
 PD  .                 GL:   Permanent Datum
 EPD .F            5220.4:   Elevation Permanent Datum
 LMF .                 KB:   Log Measured From
 DMF .                 KB:   Drilling Measured From
 DAPD.F                10:   Feet Above Permanent Datum
 DD  .F              4150:   Depth driller
 DL  .F              4140:   Depth logger
 BLI .F              4138:   Bottom log interval
 CS1 .IN            8.625:   Casing size
 CBD1.      8.625" @ 738':   Casing driller 1
 CBL1.F               738:   Casing logger 1
 BS1 .IN            7.875:   Bit size
 BSD1.F              4150:   Depth drilled with bit1
 DFT .            KCL/GEL:   Type fluid in hole
 DFD .                9.1:   Density
 DFV .                 48:   Viscosity
 DFPH.                8.5:   pH
 DFL .                 10:   Fluid loss
 MSS .           FLOWLINE:   Source of sample
 RMS .OHMM            .35:   Rm
 MST .F                62:   Rm Meas. temp.
 RMF .OHMM            .26:   Rmf
 MFST.F                62:   Rmf Meas. temp.
 RMC .OHMM            .43:   Rmc
 MCST.F                62:   Rmc Meas. temp.
 MFSS.               CALC:   Source Rmf.
 MCSS.               CALC:   Source Rmc.
 RMB .OHMM            .16:   Rm. at BHT
 BHT .F               140:   BHT.
 TCS .HRS               6:   Time Circ. stopped
 MRT .F               140:   Maximum recorded temp.
 LUN .               6274:   Logging unit number
 LUL .               GLTE:   Logging unit location
 ENGI.               MACK:   Recorded By
 WITN.             STRONG:   Witnessed by
 ORIG.           5" PRINT:   Origin of data
 UWI .     49025110230000:   Unique Well ID
 DICO. A2D TECHNOLOGIES, INC.:   Digitizing Company
~OTHER INFORMATION
~A   DEPT     TEND       RHOB       DRHO       CALD       NPHI       TENR        SPR        GRR       RFOC       RILD       RILM   
# ...
 3884.5000   -22.3100     2.4750     0.0000     8.8810     0.2060   -69.9160   -50.5210    70.8550    10.8080    11.3970    10.2710
 3885.0000   -13.9850     2.4750    -0.0190     8.8810     0.2070   -65.5110   -50.2990    71.9300    12.2110    10.9770     9.9540
 3885.5000    -4.6180     2.4740    -0.0260     8.8810     0.2060   -61.1070   -50.0760    84.2800    12.8480    10.3680     9.5040
 3886.0000    13.1580     2.4730    -0.0270     8.8810     0.2090   -56.7020   -49.8950   103.4940    11.2520     9.5590     8.7260
 3886.5000    13.1580     2.4780    -0.0070     8.8840     0.2150   -43.9390   -49.9000   122.3870     9.5750     8.5160     7.6870
 3887.0000    13.1580     2.4820     0.0050     8.8860     0.2230   -41.6370   -49.9010   131.6750     7.8990     7.0770     6.8830
 3887.5000    13.1580     2.4870     0.0080     8.8890     0.2360   -39.3350   -49.9010   135.9770     6.5550     5.7360     6.1450
 3888.0000    11.3700     2.4860     0.0030     8.8910     0.2560   -37.0320   -49.8990   132.2990     6.8640     4.7930     5.3700
 3888.5000     8.9920     2.4390    -0.0220     8.8940     0.2760   -34.7850   -49.8460   124.7800     6.8010     3.8510     4.5400
 3889.0000     6.6130     2.2890    -0.0530     8.8960     0.2970   -35.4890   -49.6170   117.3380     5.2850     2.9080     3.7100
 3889.5000     4.2350     2.1160    -0.0320     8.8990     0.3170   -37.1230   -49.3930   109.8530     4.0950     2.6430     2.8800
 3890.0000     2.1790     2.0560     0.0430     8.9200     0.3370   -38.7560   -49.1690   102.0370     2.9050     2.5080     2.6750
 3890.5000    -0.5960     2.0040     0.0910     9.0530     0.3490   -40.3900   -48.9430   100.9690     2.2700     2.3720     2.5810
 3891.0000    -3.3710     2.0190     0.0320     8.9930     0.3510   -42.0240   -48.7170   101.8030     2.6400     2.2370     2.5130
 3891.5000    -6.1460     2.1080    -0.0280     8.8740     0.3330   -43.6580   -48.7940   102.4680     2.9120     2.1420     2.4900
 3892.0000     2.2940     2.1450    -0.0510     8.8720     0.3160   -42.5930   -49.1190   102.9600     2.9390     2.1280     2.6160
 3892.5000    17.2790     2.0910     0.0540     8.9470     0.2970   -35.3570   -49.4320   101.1380     2.9390     2.3310     2.8690
 3893.0000    21.3890     2.1010     0.0110     8.8630     0.2860   -28.1210   -49.7430    99.3280     3.2040     2.4960     3.1210
 3893.5000    18.6140     2.1860    -0.0560     8.9010     0.2580   -24.7750   -50.0570    97.5140     3.4920     2.6600     3.3740
 3894.0000    15.8390     2.3700    -0.0810     8.9510     0.2630   -25.1860   -50.3710    95.7400     3.8490     2.8330     3.4380
 3894.5000    13.1580     2.5010    -0.0090     8.9990     0.2770   -27.8520   -50.7300    93.6440     4.5870     2.9390     3.3520
 3895.0000     6.7030     2.5160    -0.0020     9.0000     0.2850   -30.5170   -51.1200    93.7580     5.3250     2.8530     3.1970
 3895.5000     0.4590     2.5230     0.0000     9.0000     0.2850   -33.1830   -51.5150    99.2660     5.9220     2.7040     2.9950
 3896.0000    -5.7850     2.5150    -0.0040     9.0010     0.3210   -34.7850   -51.8670   105.3070     5.2380     2.5540     2.7920
 3896.5000     0.3970     2.4200    -0.0130     9.0350     0.3440   -34.7850   -51.3190   111.6080     3.9270     2.4050     2.5890
 3897.0000     8.7220     2.3110     0.0440     9.1970     0.3730   -37.9250   -50.7450   111.7940     2.7690     2.3260     2.5000
 3897.5000     5.1140     2.2890     0.1080     9.3450     0.3630   -42.9850   -50.1760   112.0750     2.5220     2.2560     2.4780
 3898.0000   -16.6340     2.3030     0.1840     9.1520     0.3420   -48.0450   -49.6090   113.0740     2.5130     2.1860     2.4670
 3898.5000   -16.6340     2.3260     0.1680     8.9630     0.3220   -53.1050   -49.3140   115.4370     2.6440     2.1160     2.4830
 3899.0000   -16.6340     2.3690     0.1410     8.9940     0.3120   -58.1660   -49.5350   116.5020     2.7690     2.0510     2.4960
 3899.5000   -16.6340     2.4130     0.1140     9.0200     0.3110   -63.2260   -49.7380   114.3130     2.8940     2.0510     2.5090
 3900.0000   -24.7680     2.4570     0.1030     9.0460     0.3150   -68.2860   -50.1680   112.6070     3.0190     2.1160     2.5220
 3900.5000   -33.8610     2.4980     0.0680     9.0590     0.3210   -73.3460   -51.1980   114.7340     3.1160     2.2100     2.5350
 3901.0000   -32.2150     2.4930     0.0340     9.0590     0.3280   -68.4180   -52.2800   116.7600     3.2230     2.3130     2.5480
 3901.5000   -18.5650     2.5090    -0.0090     9.0590     0.3350   -55.8310   -52.6760   118.6030     3.3900     2.3390     2.5580
 3902.0000    -6.7030     2.5180     0.0090     9.0600     0.3410   -43.2430   -52.2920   115.2040     3.5740     2.3490     2.4780
 3902.5000     3.2270     2.4730     0.0430     9.0590     0.3440   -36.5200   -51.6500   110.6300     3.7700     2.3660     2.4440
 3903.0000    -8.8660     2.4040     0.0780     9.0560     0.3350   -49.9470   -51.0200   106.0340     3.6090     2.4500     2.5820
 3903.5000   -31.1100     2.1940     0.1010     9.1900     0.3130   -63.3730   -50.3930   102.4690     3.2300     2.5340     2.7030
 3904.0000   -31.7530     2.2080     0.1000     9.3170     0.3340   -74.3310   -50.3010   100.9250     2.8330     2.6180     2.8250
 3904.5000   -26.5640     2.2460     0.0460     9.1610     0.3250   -70.9740   -50.9750    99.4080     3.0760     2.6560     2.9470
 3905.0000   -24.4120     2.3500    -0.0210     9.0810     0.3090   -67.6180   -51.6270    97.9300     3.7700     2.6050     3.0490
 3905.5000   -21.6320     2.5020    -0.0470     9.0840     0.3010   -64.8150   -52.2710    98.7820     4.3830     2.5830     2.9910
 3906.0000   -18.8510     2.5780    -0.0330     9.0880     0.3000   -72.9230   -52.3800   104.0980     4.2110     2.6380     2.8850
 3906.5000   -20.6850     2.5490    -0.0130     9.0910     0.3000   -81.3150   -52.4910   110.6180     3.6750     2.7050     2.8190
 3907.0000   -33.4870     2.5190    -0.0010     9.0950     0.3040   -79.1820   -52.2120   114.8860     3.2830     2.6350     2.7330
 3907.5000   -19.1870     2.5240     0.0010     9.0990     0.3320   -64.3730   -51.7980   116.5430     3.3220     2.5150     2.6170
 3908.0000    -4.8870     2.5200     0.0110     9.0920     0.3470   -49.5640   -51.3800   116.2680     3.3750     2.3960     2.4540
 3908.5000     0.5230     2.4790     0.0520     9.0830     0.3490   -34.7850   -50.9620   114.3980     3.1530     2.2760     2.3390
 3909.0000   -11.0270     2.3920     0.0940     9.0940     0.3430   -51.8170   -50.5440   112.2610     2.8750     2.2120     2.2910
 3909.5000   -22.5770     2.3050     0.1340     9.4180     0.3270   -63.4370   -50.1260   110.0980     2.4900     2.1690     2.4220
 3910.0000   -24.4120     2.2760     0.1770     9.5070     0.3150   -74.8250   -49.7070   107.9420     2.6010     2.1270     2.3960
 3910.5000   -16.6340     2.3430     0.1740     8.9810     0.3080   -64.8150   -49.3170   105.7730     2.8690     2.0840     2.3550
 3911.0000    -9.5000     2.4360     0.1700     8.9100     0.3100   -64.8150   -49.1440   106.0550     3.0490     2.0330     2.3130
 3911.5000   -13.6710     2.4190     0.1660     8.8430     0.3230   -64.8150   -48.9600   109.0020     2.9780     2.0280     2.2720
 3912.0000   -17.8420     2.3820     0.1640     8.8560     0.3410   -66.1230   -48.7720   111.9400     2.7940     2.0230     2.2310
 3912.5000   -22.0130     2.3560     0.1560     8.8760     0.3520   -71.5180   -48.5840   114.5250     2.6560     2.0190     2.1890
 3913.0000   -26.1830     2.4090     0.1430     8.8970     0.3470   -76.9130   -48.3970   114.2630     2.6790     2.0140     2.1480
 3913.5000   -30.3540     2.4720     0.1270     8.9010     0.3400   -82.3070   -48.2000   112.9280     2.7050     1.9710     2.1090
 3914.0000   -34.5250     2.5050     0.1550     8.9010     0.3270   -87.7020   -47.9520   112.1770     2.6800     1.9200     2.0540
 3914.5000   -36.4950     2.4620     0.1700     8.9030     0.3340   -93.0970   -48.0370   112.5000     2.6410     1.8700     2.0020
