~VERSION INFORMATION
 VERS.                2.0:   CWLS LOG ASCII STANDARD - VERSION 2.0
 WRAP.                 NO:   ONE LINE PER DEPTH STEP
~WELL INFORMATION
#MNEM.UNIT      DATA TYPE    INFORMATION
#----------   ------------   ------------------------------
 STRT.F          200.0000:   START DEPTH
 STOP.F         3196.5000:   STOP DEPTH
 STEP.F            0.5000:   STEP LENGTH
 NULL.          -999.2500:   NO VALUE
 COMP.    FENIX & SCISSON:   COMPANY
 WELL. FENIX & SCISSON #82-15:   WELL
 FLD .                NPR:   FIELD
 LOC .      S15 T38N R78W:   LOCATION
 CNTY.            NATRONA:   COUNTY
 STAT.            WYOMING:   STATE
 CTRY. UNITED STATES OF AMERICA:   COUNTRY
 SRVC.              WELEX:   SERVICE COMPANY
 DATE.        14-AUG-1977:   LOGDATE
 API .     49025104100000:   API NUMBER
~CURVE INFORMATION
#MNEM.UNIT       API CODE    CURVE DESCRIPTION
#----------   ------------   ------------------------------
 DEPT.F                  :   
 CALD.IN     45 280 60 00:   CALIPER FROM DENSITY LOG
 GRD .GAPI   45 310 01 00:   GAMMA RAY FROM DENSITY LOG
 RHOB.G/C3   45 350 01 00:   BULK DENSITY
 CORR.G/C3   45 356 01 00:   DENSITY CORRECTION
 SPR .MV     07 010 01 00:   SPONTANEOUS POTENTIAL
 ILD .OHMM   07 120 46 00:   DEEP INDUCTION RESISTIVITY
 ILM .OHMM   07 120 44 00:   INDUCTION LOG MEDIUM RESISTIVITY
 GURD.OHMM   07 220 05 00:   GUARD LOG RESISTIVITY
~PARAMETER INFORMATION
#MNEM.UNIT          VALUE    DESCRIPTION
#----------   ------------   ------------------------------
 EKB .F         5259.0000:   Kelly bushing
 EGL .F         5249.0000:   Ground level
 EDF .F            0.0000:   Drilling floor
 EPD .F            0.0000:   Permanent datum
 TD  .F         3197.0000:   Total depth
 CLNT.            A2DTECH:   Client Code
 SL  . 990' FNL & 330' FEL:   Surface Location
 PD  .                 GL:   Permanent Datum
 DAPD.F                10:   Feet Above Permanent Datum
 DATE.        14-AUG-1977:   Date Logged [DD-MMM-YYYY]
 DD  .F              3197:   Depth driller
 DL  .F              3200:   Depth logger
 BLI .F              3198:   Bottom log interval
 TLI .F               200:   Top log interval
 CS1 .IN            8.625:   Casing size
 CBD1.      8.625" @ 236':   Casing driller 1
 CBL1.F               220:   Casing logger 1
 BS1 .IN            7.875:   Bit size
 BSD1.F              3197:   Depth drilled with bit1
 DFT .            KCL MUD:   Type fluid in hole
 DFD .                9.1:   Density
 DFV .                 42:   Viscosity
 DFPH.               10.5:   pH
 DFL .                7.2:   Fluid loss
 MSS .           FLOWLINE:   Source of sample
 RMS .OHMM          0.240:   Rm
 MST .F                92:   Rm Meas. temp.
 RMF .OHMM          0.160:   Rmf
 MFST.F                92:   Rmf Meas. temp.
 MFSS.               MEAS:   Source Rmf.
 RMC .OHMM          0.238:   Rmc
 MCST.F                92:   Rmc Meas. temp.
 MCSS.               MEAS:   Source Rmc.
 RMB .OHMM          0.194:   Rm. at BHT
 BHT .F               114:   BHT.
 TCS .HRS               3:   Time Circ. stopped
 MRT .F               114:   Maximum recorded temp.
 LUN .               9685:   Logging unit number
 LUL .             CASPER:   Logging unit location
 ENGI.            C. DOAK:   Recorded By
 WITN.      W. PETTINGILL:   Witnessed by
 ORIG.           5" PRINT:   Origin of data
 UWI .     49025104100000:   Unique Well ID
 DICO. A2D TECHNOLOGIES, INC.:   Digitizing Company
~OTHER INFORMATION
~A   DEPT       CALD       GRD        RHOB      CORR       SPR        ILD        ILM       GURD   
# ...
 2387.0000     8.8929   122.8391     2.4539     0.0051   -73.0409     7.5289     7.8736     9.9313
 2387.5000     8.8821   125.2640     2.4502     0.0022   -73.0156     7.4294     7.7182    10.9498
 2388.0000     8.8841   127.6889     2.4450    -0.0038   -72.9954     7.3166     7.6171    12.6700
 2388.5000     8.9007   131.0196     2.4338    -0.0109   -72.9752     7.0864     7.3120    10.7641
 2389.0000     8.9022   134.5060     2.4218    -0.0138   -72.9549     6.9444     7.1618     8.1437
 2389.5000     8.9039   139.0797     2.4169    -0.0136   -73.0892     6.8052     7.1219     6.9957
 2390.0000     8.8905   142.0945     2.4237    -0.0075   -73.3632     6.5772     7.1278     9.4285
 2390.5000     8.8775   142.7213     2.4305    -0.0043   -73.9406     6.3128     6.9378    10.3209
 2391.0000     8.8637   145.4375     2.4284    -0.0027   -74.0647     6.1002     6.8470    10.0443
 2391.5000     8.8503   148.7509     2.4239    -0.0040   -74.0445     5.8976     6.6644    10.9979
 2392.0000     8.8369   149.6761     2.4210    -0.0054   -74.1788     5.7794     6.5318     9.3691
 2392.5000     8.8389   153.8849     2.4212    -0.0067   -74.1535     5.7418     6.4017     8.1183
 2393.0000     8.8421   155.4072     2.4227    -0.0111   -74.1345     5.7456     6.1427     7.4749
 2393.5000     8.8421   156.3324     2.4236    -0.0124   -74.1130     5.7487     5.9402     7.8642
 2394.0000     8.8438   156.0637     2.4229    -0.0138   -74.0927     5.6726     6.0700     8.3598
 2394.5000     8.8604   154.3023     2.4237    -0.0151   -74.0718     5.7549     6.2447     5.7155
 2395.0000     8.8651   152.8321     2.4253    -0.0120   -74.0473     5.8390     6.4244     5.7983
 2395.5000     8.8787   154.3618     2.4292    -0.0088   -74.1765     6.0062     6.7015     9.6857
 2396.0000     8.8805   157.3766     2.4352    -0.0042   -74.1563     6.1782     6.8943    10.1020
 2396.5000     8.8667   160.0929     2.4422    -0.0025   -74.2906     6.3993     6.9952    13.8032
 2397.0000     8.8537   161.3167     2.4482    -0.0009   -74.2653     6.6283     6.9999    13.1571
 2397.5000     8.8553   161.3464     2.4550    -0.0007   -74.2451     6.7711     6.7473    11.3039
 2398.0000     8.8570   160.4806     2.4573    -0.0021   -74.3915     6.8218     6.1038     9.9845
 2398.5000     8.8739   158.1223     2.4499    -0.0019   -74.6530     6.6390     5.9400     9.4515
 2399.0000     8.9205   154.8684     2.4448    -0.0048   -74.9267     6.4173     5.7816     7.1689
 2399.5000     8.9221   150.4205     2.4501    -0.0091   -75.0610     5.9498     5.7466     6.4480
 2400.0000     8.9386   147.2264     2.4584    -0.0150   -74.7384     5.6705     5.4783    10.0759
 2400.5000     9.0336   144.6272     2.4574    -0.0163   -74.7235     5.4063     4.7072     8.0329
 2401.0000     9.1667   140.6862     2.4698    -0.0147   -74.7061     4.9093     4.2453     6.5161
 2401.5000     9.3022   137.4140     2.4789    -0.0085   -74.8448     4.5517     3.9636     4.7780
 2402.0000     9.3929   135.9408     2.4940    -0.0054   -74.9799     4.2494     3.9660     4.2203
 2402.5000     9.4545   135.0674     2.4970    -0.0097   -74.9619     4.0505     3.9965     4.1639
 2403.0000     9.5298   135.4404     2.4939    -0.0155   -74.9475     3.9408     3.9989     5.3463
 2403.5000     9.5309   136.6188     2.4875    -0.0214   -74.9327     3.8897     4.1137     5.5102
 2404.0000     9.5470   134.8523     2.4816    -0.0257   -75.0683     3.8923     4.2025     4.9208
 2404.5000     9.5482   133.3792     2.4772    -0.0286   -74.9008     3.9214     4.2933     4.6301
 2405.0000     9.5493   131.6061     2.4727    -0.0284   -74.8865     3.9782     4.3559     5.2847
 2405.5000     9.5505   130.4328     2.4698    -0.0283   -74.8721     4.0080     4.4199     5.4360
 2406.0000     9.5218   130.7588     2.4669    -0.0281   -74.8577     4.0125     4.5467     5.9513
 2406.5000     9.5232   131.3853     2.4672    -0.0235   -74.8430     4.0688     4.8086     5.7518
 2407.0000     9.5092   131.9925     2.4783    -0.0173   -74.8254     4.0423     4.9458     5.5206
 2407.5000     9.4805   132.6962     2.4994    -0.0112   -74.5120     4.0450     4.8143     5.5243
 2408.0000     9.4667   133.2685     2.4957    -0.0081   -74.4977     4.0753     4.6805     5.4136
 2408.5000     9.4529   133.8943     2.4943    -0.0094   -74.4833     4.1058     4.5603     5.3420
 2409.0000     9.4693   133.9204     2.4981    -0.0108   -74.4689     4.1400     4.5637     5.0919
 2409.5000     9.4713   133.8764     2.5019    -0.0089   -74.3049     4.2555     4.5664     4.5603
 2410.0000     9.4868   133.6727     2.5059    -0.0073   -74.1376     4.3171     4.4752     4.7486
 2410.5000     9.5029   134.3051     2.5121    -0.0058   -74.1233     4.3194     4.3858     5.8576
 2411.0000     9.5339   135.2307     2.5202    -0.0025   -74.1089     4.2623     4.3588     5.5456
 2411.5000     9.5500   135.5566     2.5270    -0.0004   -74.0945     4.2351     4.3307     5.4715
 2412.0000     9.5511   133.7836     2.5278     0.0036   -74.2302     4.1502     4.3339     5.2516
 2412.5000     9.5523   132.6038     2.5264     0.0070   -74.3647     4.1238     4.2174     5.0413
 2413.0000     9.5684   135.9348     2.5227     0.0084   -74.3498     4.1265     4.1337     4.9716
 2413.5000     9.5698   136.5606     2.5191     0.0070   -74.3324     4.0997     4.1048     4.8419
 2414.0000     9.5709   136.2868     2.5153     0.0072   -74.4711     4.0459     4.0536     4.8110
 2414.5000     9.5569   138.1185     2.5110     0.0058   -74.9016     3.9924     4.0566     4.7797
 2415.0000     9.5431   137.5449     2.5066     0.0015   -75.0402     3.9670     4.0310     4.7499
 2415.5000     9.5595   137.8709     2.5022     0.0019   -75.1719     3.9417     3.9779     4.7524
 2416.0000     9.5606   139.3962     2.4963     0.0108   -75.4563     3.8366     3.8985     4.7187
 2416.5000     9.5777   140.6217     2.4896     0.0080   -75.5914     3.7853     3.8386     4.5962
 2417.0000     9.6080   141.8472     2.4830     0.0051   -75.7265     3.7357     3.7443     4.5986
 2417.5000     9.6241   142.7736     2.4839     0.0082   -75.8616     3.6846     3.6700     4.6010
 2418.0000     9.6700   143.1053     2.4861     0.0114   -75.8437     3.4899     3.5962     4.4771
 2418.5000     9.6861   142.5317     2.4847     0.0130   -75.9791     3.3964     3.4764     4.2681
 2419.0000     9.7022   141.8760     2.4818     0.0132   -75.9641     3.2599     3.4048     4.1179
 2419.5000     9.7332   141.3845     2.4789     0.0059   -75.9464     3.1506     3.2257     3.8516
 2420.0000     9.7493   140.9895     2.4737     0.0030   -75.9321     3.1305     3.1395     3.4020
 2420.5000     9.7507   140.5368     2.4685     0.0017   -75.9177     3.1323     3.1414     2.9224
 2421.0000     9.7366   139.9417     2.4648     0.0018   -75.7539     3.1780     3.1871     3.4531
 2421.5000     9.7381   140.5959     2.4635     0.0019   -75.5904     3.1797     3.2111     4.0797
 2422.0000     9.7392   142.1212     2.4696     0.0022   -75.5755     3.2257     3.2354     4.1966
 2422.5000     9.7403   140.9414     2.4846     0.0038   -75.7107     3.2499     3.3287     4.0846
 2423.0000     9.7415   140.6676     2.4914     0.0054   -75.8458     3.3429     3.4720     4.0300
 2423.5000     9.7427   141.8997     2.4923     0.0074   -75.8279     3.3680     3.5226     3.9767
 2424.0000     9.7590   140.4265     2.4953     0.0102   -75.8135     3.3702     3.5003     3.5129
 2424.5000     9.7602   138.6535     2.5000     0.0118   -75.7991     3.3720     3.4783     4.2375
 2425.0000     9.7763   139.3799     2.5030     0.0120   -75.4858     3.3738     3.4563     4.2988
 2425.5000     9.7625   140.2049     2.5023     0.0121   -75.3214     3.3756     3.4345     3.8773
 2426.0000     9.7636   137.5323     2.4994     0.0078   -75.3040     3.3774     3.3893     3.6193
 2426.5000     9.7648   139.6574     2.4943     0.0035   -75.4391     3.2868     3.3679     4.0461
 2427.0000     9.7489   137.8844     2.4898     0.0006   -75.2752     3.3581     3.3938     4.0482
