~VERSION INFORMATION
 VERS.                2.0:   CWLS LOG ASCII STANDARD - VERSION 2.0
 WRAP.                 NO:   ONE LINE PER DEPTH STEP
~WELL INFORMATION
#MNEM.UNIT      DATA TYPE    INFORMATION
#----------   ------------   ------------------------------
 STRT.F            0.0000:   START DEPTH
 STOP.F         3040.0000:   STOP DEPTH
 STEP.F            0.5000:   STEP LENGTH
 NULL.          -999.2500:   NO VALUE
 COMP. LAWRENCE ALLISON & ASSOCIATES:   COMPANY
 WELL. LAWRENCE NPR 3 "AX" #77-28:   WELL
 FLD .      NPR - WILDCAT:   FIELD
 LOC .      S28 T39N R78W:   LOCATION
 CNTY.            NATRONA:   COUNTY
 STAT.            WYOMING:   STATE
 CTRY. UNITED STATES OF AMERICA:   COUNTRY
 SRVC.      DRESSER ATLAS:   SERVICE COMPANY
 DATE.        19-OCT-1986:   LOGDATE
 API .     49025111150000:   API NUMBER
~CURVE INFORMATION
#MNEM.UNIT       API CODE    CURVE DESCRIPTION
#----------   ------------   ------------------------------
 DEPT.F                  :   
 TENR.LBS    07 635 01 00:   TENSION FROM RESISTIVITY
 RILD.OHMM   07 120 46 00:   DEEP INDUCTION RESISTIVITY
 RILM.OHMM   07 120 44 00:   INDUCTION LOG MEDIUM RESISTIVITY
 RFOC.OHMM   07 220 04 00:   RESISTIVITY FOCUSED LOG RES.
 SPR .MV     07 010 01 00:   SPONTANEOUS POTENTIAL
 GRR .GAPI   07 310 01 00:   GAMMA RAY FROM RESISTIVITY
 CNC .DEC    42 890 03 00:   NEUTRON POROSITY SANDSTONE
 RHOB.G/C3   45 350 01 00:   BULK DENSITY
 TEND.LBS    45 635 01 00:   TENSION FROM DENSITY LOG
 CORR.G/C3   45 356 01 00:   DENSITY CORRECTION
 CALD.IN     45 280 60 00:   CALIPER FROM DENSITY LOG
~PARAMETER INFORMATION
#MNEM.UNIT          VALUE    DESCRIPTION
#----------   ------------   ------------------------------
 EKB .F         5086.0000:   Kelly bushing
 EGL .F         5074.0000:   Ground level
 EDF .F            0.0000:   Drilling floor
 TD  .F         3025.0000:   Total depth
 DATE.        19-OCT-1986:   Date logged
 CLNT.            A2DTECH:   Client Code
 SL  . 967' FSL @ 763' FEL:   Surface Location
 PD  .                 GL:   Permanent Datum
 EPD .F              5074:   Elevation Permanent Datum
 LMF .                 KB:   Log Measured From
 DMF .                 KB:   Drilling Measured From
 DAPD.F                12:   Feet Above Permanent Datum
 DD  .F              3021:   Depth driller
 DL  .F              3025:   Depth logger
 BLI .F              3023:   Bottom log interval
 CS1 .IN            8.625:   Casing size
 CBD1.      8.625" @ 620':   Casing driller 1
 CBL1.F               615:   Casing logger 1
 BS1 .IN            7.875:   Bit size
 BSD1.F              3021:   Depth drilled with bit1
 DFT .        KCL/POLTMER:   Type fluid in hole
 DFD .                8.9:   Density
 DFV .                 38:   Viscosity
 DFPH.                9.5:   pH
 DFL .                 11:   Fluid loss
 MSS .           FLOWLINE:   Source of sample
 RMS .OHMM            .25:   Rm
 MST .F                65:   Rm Meas. temp.
 RMF .OHMM           .203:   Rmf
 MFST.F                65:   Rmf Meas. temp.
 RMC .OHMM            .31:   Rmc
 MCST.F                65:   Rmc Meas. temp.
 MFSS.               MEAS:   Source Rmf.
 MCSS.               CALC:   Source Rmc.
 RMB .OHMM           .136:   Rm. at BHT
 BHT .F               119:   BHT.
 TCS .HRS               5:   Time Circ. stopped
 MRT .F               119:   Maximum recorded temp.
 LUN .               6274:   Logging unit number
 LUL .               GLTE:   Logging unit location
 ENGI.             RAUTIO:   Recorded By
 WITN.             STRONG:   Witnessed by
 ORIG.         2.5" PRINT:   Origin of data
 UWI .     49025111150000:   Unique Well ID
 DICO. A2D TECHNOLOGIES, INC.:   Digitizing Company
~OTHER INFORMATION
~A    DEPT    TENR       RILD       RILM       RFOC        SPR         GRR       CNC       RHOB       TEND       CORR       CALD   
# ...
 2836.5000   -31.5990     1.9290     2.0000     3.1130   -74.7550   202.2450     0.2950     2.3980   -68.5010     0.0230     9.5400
 2837.0000   -32.1780     2.0500     2.1740     2.4590   -74.3460   204.7360     0.2800     2.3660   -68.7000     0.0480     9.5310
 2837.5000   -32.7570     2.1850     2.3690     2.0000   -73.9240   209.5940     0.2650     2.3660   -68.8980     0.0670     9.5200
 2838.0000   -33.3360     2.3200     2.5650     2.5630   -73.7360   176.5800     0.2500     2.3820   -69.0960     0.0470     9.5120
 2838.5000   -33.9150     2.4550     2.9610     3.6830   -74.0160   131.8320     0.2340     2.4580   -69.2940     0.0240     9.5060
 2839.0000   -34.4940     2.5750     3.4420     4.8040   -74.2440   126.8750     0.2160     2.5010   -69.4930     0.0170     9.4990
 2839.5000   -35.0730     3.0360     3.9230     6.0180   -74.4910   122.2330     0.2160     2.5060   -69.6910     0.0080     9.4930
 2840.0000   -35.6520     3.6160     4.4030     5.9870   -74.7570   119.2100     0.2180     2.5060   -69.8890    -0.0020     9.4870
 2840.5000   -36.2310     4.1960     4.8840     5.9540   -74.9120   121.6020     0.2200     2.5020   -70.0870    -0.0100     9.4800
 2841.0000   -36.8100     4.7770     5.3030     5.9200   -74.8800   123.7990     0.2220     2.5000   -70.2860    -0.0060     9.4740
 2841.5000   -37.3890     4.9980     5.3560     5.8870   -74.8710   125.5290     0.2290     2.4970   -70.4840     0.0050     9.4680
 2842.0000   -37.9680     5.0860     5.4030     5.8530   -74.8570   127.1000     0.2380     2.4950   -70.6820    -0.0060     9.4610
 2842.5000   -38.5470     5.1740     5.4490     5.8050   -74.8420   128.3020     0.2460     2.4930   -70.8800    -0.0100     9.4550
 2843.0000   -39.1260     5.2610     5.4960     5.8320   -74.8290   128.6600     0.2460     2.4900   -71.0790    -0.0100     9.4490
 2843.5000   -39.7050     5.3490     5.5420     5.8830   -74.8150   128.2880     0.2330     2.4890   -71.2770    -0.0070     9.4420
 2844.0000   -40.2840     5.4370     5.5890     5.9330   -74.8010   128.1080     0.2270     2.4910   -71.4750    -0.0030     9.4360
 2844.5000   -40.8630     5.5250     5.6360     5.9840   -74.7870   129.1680     0.2280     2.4930   -71.6730    -0.0050     9.4310
 2845.0000   -41.4420     5.5990     5.6820     6.0350   -74.7730   130.1020     0.2280     2.4950   -71.8720    -0.0100     9.4260
 2845.5000   -42.0210     5.5520     5.7290     6.0860   -74.7590   131.1550     0.2260     2.4980   -72.0700    -0.0060     9.4210
 2846.0000   -42.6000     5.4900     5.8050     6.1280   -74.7450   132.7390     0.2240     2.5000   -72.2680     0.0000     9.4170
 2846.5000   -43.1790     5.4280     5.7480     6.0990   -74.7310   134.4410     0.2240     2.5020   -72.4660     0.0020     9.4120
 2847.0000   -43.7580     5.3660     5.4990     6.0740   -74.7170   135.7500     0.2260     2.5030   -72.6650    -0.0030     9.4070
 2847.5000   -43.8200     5.3030     5.5450     6.0490   -74.7030   135.6920     0.2300     2.5030   -72.8630    -0.0090     9.4030
 2848.0000   -43.0340     5.4000     5.6660     6.0240   -74.6890   134.1550     0.2290     2.5040   -73.0610    -0.0090     9.3980
 2848.5000   -42.2480     5.5330     5.7880     6.1410   -74.6750   132.4930     0.2280     2.5040   -73.2590    -0.0030     9.3930
 2849.0000   -41.4620     5.7020     5.9090     6.2980   -74.6610   131.0810     0.2300     2.5050   -73.4580     0.0040     9.3890
 2849.5000   -40.6760     5.8050     6.0310     6.4550   -74.6470   132.1300     0.2350     2.5050   -73.6560     0.0060     9.3840
 2850.0000   -39.8900     5.6620     6.1280     6.6120   -74.6330   134.9100     0.2410     2.5080   -73.8540     0.0010     9.3790
 2850.5000   -39.1040     5.5190     5.9150     6.8290   -74.6190   137.6040     0.2470     2.5130   -74.0520    -0.0020     9.3750
 2851.0000   -38.3180     5.3760     5.7370     6.7070   -74.6050   139.3030     0.2490     2.5190   -74.2510     0.0020     9.3700
 2851.5000   -37.5310     5.2340     5.5590     6.4690   -74.5910   138.2150     0.2490     2.5250   -74.4490     0.0140     9.3650
 2852.0000   -36.7450     5.0910     5.3820     6.0690   -74.5770   136.4850     0.2490     2.5240   -74.6470     0.0090     9.3610
 2852.5000   -35.9590     4.9480     5.2040     5.6830   -74.5640   138.5060     0.2630     2.5220   -74.8450     0.0000     9.3560
 2853.0000   -35.1730     4.8050     5.0270     5.4000   -74.5500   139.9900     0.2760     2.5210   -75.0440    -0.0100     9.3510
 2853.5000   -34.3870     4.6740     4.9340     5.4630   -74.5350   140.2890     0.2710     2.5190   -75.2420    -0.0180     9.3470
 2854.0000   -33.6010     4.6740     4.9530     5.5350   -74.5240   139.5010     0.2590     2.5170   -75.4400    -0.0290     9.3420
 2854.5000   -32.8150     4.6740     4.9700     5.5990   -74.5090   139.0410     0.2480     2.5170   -75.6380    -0.0050     9.3370
 2855.0000   -32.0290     4.6740     4.9880     5.5600   -74.5050   140.5010     0.2500     2.5180   -75.8370     0.0260     9.3330
 2855.5000   -31.2430     4.6740     5.0050     5.4360   -74.2020   141.3920     0.2520     2.5210   -76.0350     0.0560     9.3280
 2856.0000   -30.4570     4.7590     5.0240     5.3130   -73.8280   140.1170     0.2480     2.5250   -76.2330     0.0570     9.3230
 2856.5000   -29.6710     4.8460     5.3490     5.2090   -73.4520   138.0100     0.2400     2.5290   -76.4310     0.0480     9.3190
 2857.0000   -28.8850     5.1350     5.6940     5.9980   -73.0800   136.0690     0.2310     2.5330   -76.6300     0.0400     9.3140
 2857.5000   -28.0980     5.4410     6.0380     6.6810   -72.7060   134.1400     0.2220     2.5370   -76.8280     0.0320     9.3060
 2858.0000   -27.3120     5.7470     6.3830     7.3650   -72.3330   132.1660     0.2130     2.5410   -77.0260     0.0220     9.2880
 2858.5000   -26.5260     6.0530     6.7270     8.1810   -71.9590   130.1780     0.2010     2.5410   -77.2240     0.0190     9.2710
 2859.0000   -25.7400     6.3590     7.0710     8.1810   -71.5850   128.8890     0.2040     2.5400   -77.4230     0.0380     9.2530
 2859.5000   -24.9540     6.6650     7.4740     8.1810   -71.2130   129.2260     0.2100     2.5340   -77.6210     0.0570     9.2350
 2860.0000   -25.4080     6.9710     7.8910     8.1810   -70.8380   129.5230     0.2170     2.5280   -77.8190     0.0540     9.2180
 2860.5000   -27.4750     7.0800     7.6980     8.1810   -70.4660   129.8640     0.2230     2.5220   -78.0170     0.0200     9.2000
 2861.0000   -29.5420     7.0800     7.5130     8.0250   -70.0930   130.1530     0.2220     2.5160   -78.2160    -0.0140     9.1820
 2861.5000   -31.6090     7.0800     7.3280     7.8440   -69.7100   130.8830     0.2210     2.5150   -78.4140    -0.0120     9.1640
 2862.0000   -33.6760     6.9070     7.1420     7.6200   -69.4550   131.9750     0.2200     2.5170   -78.6120    -0.0030     9.1470
 2862.5000   -35.7430     6.7100     6.9570     7.3530   -69.4620   133.1940     0.2190     2.5200   -78.8100     0.0060     9.1290
 2863.0000   -37.8100     6.5130     6.7720     7.0860   -69.5010   133.1840     0.2190     2.5210   -79.0090     0.0090     9.1110
 2863.5000   -39.8770     6.3150     6.5870     6.8180   -69.5440   132.4010     0.2190     2.5170   -79.2070     0.0100     9.0940
 2864.0000   -41.9440     6.1180     6.3800     6.5870   -69.5880   131.3040     0.2170     2.5130   -79.4050     0.0090     9.0750
 2864.5000   -44.1180     5.9100     6.4360     7.0800   -69.6290   132.0200     0.2100     2.5140   -79.6030     0.0080     9.0660
 2865.0000   -41.9290     5.9410     6.5480     7.1960   -69.6720   132.4910     0.2070     2.5160   -79.8020     0.0070     9.0490
 2865.5000   -39.6220     5.9970     6.6600     7.3180   -69.7160   132.2880     0.2110     2.5180   -80.0000     0.0060     9.0340
 2866.0000   -37.3140     6.0520     6.7070     7.4400   -69.7520   131.4250     0.2150     2.5230   -80.0000     0.0070     9.0170
 2866.5000   -35.0070     6.1080     6.8180     7.5620   -69.8090   130.5850     0.2140     2.5330   -80.0000     0.0190     9.0010
