~VERSION INFORMATION
 VERS.                2.0:   CWLS LOG ASCII STANDARD - VERSION 2.0
 WRAP.                 NO:   ONE LINE PER DEPTH STEP
~WELL INFORMATION
#MNEM.UNIT      DATA TYPE    INFORMATION
#----------   ------------   ------------------------------
 STRT.F            0.0000:   START DEPTH
 STOP.F         2775.5000:   STOP DEPTH
 STEP.F            0.5000:   STEP LENGTH
 NULL.          -999.2500:   NO VALUE
 COMP.          U.S. NAVY:   COMPANY
 WELL.   U.S. "A" #107-29:   WELL
 FLD .        TEAPOT DOME:   FIELD
 LOC .      S29 T39N R78W:   LOCATION
 CNTY.            NATRONA:   COUNTY
 STAT.            WYOMING:   STATE
 CTRY. UNITED STATES OF AMERICA:   COUNTRY
 SRVC.         MCCULLOUGH:   SERVICE COMPANY
 DATE.        07-SEP-1966:   LOGDATE
 API .     49025095920000:   API NUMBER
~CURVE INFORMATION
#MNEM.UNIT       API CODE    CURVE DESCRIPTION
#----------   ------------   ------------------------------
 DEPT.F                  :   
 GR  .GAPI   30 310 01 00:   GAMMA RAY
 CALI.IN     70 280 01 00:   CALIPER
~PARAMETER INFORMATION
#MNEM.UNIT          VALUE    DESCRIPTION
#----------   ------------   ------------------------------
 EKB .F            0.0000:   Kelly bushing
 EGL .F            0.0000:   Ground level
 EDF .F            0.0000:   Drilling floor
 EPD .F            0.0000:   Permanent datum
 TD  .F         2777.5000:   Total depth
 DATE.        07-SEP-1966:   Date logged
 CLNT.            A2DTECH:   Client Code
 PD  .                 GL:   Permanent Datum
 LMF .                 GL:   Log Measured From
 DMF .                 GL:   Drilling Measured From
 DL  .F            2777.5:   Depth logger
 BLI .F              2776:   Bottom log interval
 TLI .F              2200:   Top log interval
 CS1 .IN                5:   Casing size
 CBD1.         5" @ 2722':   Casing driller 1
 DFT .              WATER:   Type fluid in hole
 RMB .OHMM           .053:   Rm. at BHT
 TCS .HRS             1.5:   Time Circ. stopped
 LUN .               1460:   Logging unit number
 ENGI.        FITZSIMMONS:   Recorded By
 WITN.             TUTTLE:   Witnessed by
 ORIG.           5" PRINT:   Origin of data
 UWI .     49025095920000:   Unique Well ID
 DICO. A2D TECHNOLOGIES, INC.:   Digitizing Company
~OTHER INFORMATION
~A    DEPT      GR         CALI 
# ...
 1093.5000  -999.2500     6.9340
 1094.0000  -999.2500     6.9250
 1094.5000  -999.2500     6.9160
 1095.0000  -999.2500     6.9060
 1095.5000  -999.2500     6.9140
 1096.0000  -999.2500     6.9350
 1096.5000  -999.2500     6.9780
 1097.0000  -999.2500     6.9850
 1097.5000  -999.2500     6.9870
 1098.0000  -999.2500     6.9890
 1098.5000  -999.2500     6.9920
 1099.0000  -999.2500     6.9930
 1099.5000  -999.2500     6.9910
 1100.0000  -999.2500     6.9890
 1100.5000  -999.2500     6.9880
 1101.0000  -999.2500     6.9860
 1101.5000  -999.2500     6.9850
 1102.0000  -999.2500     6.9820
 1102.5000  -999.2500     6.9400
 1103.0000  -999.2500     6.9290
 1103.5000  -999.2500     6.9160
 1104.0000  -999.2500     6.9040
 1104.5000  -999.2500     6.8930
 1105.0000  -999.2500     6.8870
 1105.5000  -999.2500     6.8860
 1106.0000  -999.2500     6.8880
 1106.5000  -999.2500     6.8900
 1107.0000  -999.2500     6.8920
 1107.5000  -999.2500     6.8950
 1108.0000  -999.2500     6.9090
 1108.5000  -999.2500     6.9230
 1109.0000  -999.2500     6.9370
 1109.5000  -999.2500     6.9510
 1110.0000  -999.2500     6.9490
 1110.5000  -999.2500     6.9440
 1111.0000  -999.2500     6.9390
 1111.5000  -999.2500     6.9340
 1112.0000  -999.2500     6.9290
 1112.5000  -999.2500     6.9240
 1113.0000  -999.2500     6.9190
 1113.5000  -999.2500     6.9130
 1114.0000  -999.2500     6.9080
 1114.5000  -999.2500     6.9030
 1115.0000  -999.2500     6.8980
 1115.5000  -999.2500     6.8950
 1116.0000  -999.2500     6.8970
 1116.5000  -999.2500     6.8990
 1117.0000  -999.2500     6.9010
 1117.5000  -999.2500     6.9030
 1118.0000  -999.2500     6.9060
 1118.5000  -999.2500     6.9080
 1119.0000  -999.2500     6.9100
 1119.5000  -999.2500     6.9120
 1120.0000  -999.2500     6.9140
 1120.5000  -999.2500     6.9160
 1121.0000  -999.2500     6.9180
 1121.5000  -999.2500     6.9210
 1122.0000  -999.2500     6.9230
 1122.5000  -999.2500     6.9250
 1123.0000  -999.2500     6.9270
 1123.5000  -999.2500     6.9290
 1124.0000  -999.2500     6.9310
 1124.5000  -999.2500     6.9330
 1125.0000  -999.2500     6.9360
 1125.5000  -999.2500     6.9390
 1126.0000  -999.2500     6.9410
 1126.5000  -999.2500     6.9450
 1127.0000  -999.2500     6.9530
 1127.5000  -999.2500     6.9620
 1128.0000  -999.2500     6.9700
 1128.5000  -999.2500     6.9790
 1129.0000  -999.2500     6.9870
 1129.5000  -999.2500     6.9940
 1130.0000  -999.2500     7.0010
 1130.5000  -999.2500     7.0090
 1131.0000  -999.2500     7.0320
 1131.5000  -999.2500     7.0750
 1132.0000  -999.2500     7.0820
 1132.5000  -999.2500     7.0800
 1133.0000  -999.2500     7.0670
 1133.5000  -999.2500     7.0540
 1134.0000  -999.2500     7.0420
 1134.5000  -999.2500     7.0290
 1135.0000  -999.2500     7.0330
 1135.5000  -999.2500     7.0510
 1136.0000  -999.2500     7.0700
 1136.5000  -999.2500     7.0700
 1137.0000  -999.2500     7.0670
 1137.5000  -999.2500     7.0630
 1138.0000  -999.2500     7.0720
 1138.5000  -999.2500     7.0870
 1139.0000  -999.2500     7.1020
 1139.5000  -999.2500     7.1170
 1140.0000  -999.2500     7.1290
 1140.5000  -999.2500     7.0570
 1141.0000  -999.2500     7.0190
 1141.5000  -999.2500     7.0110
 1142.0000  -999.2500     7.0030
 1142.5000  -999.2500     6.9950
 1143.0000  -999.2500     7.0080
 1143.5000  -999.2500     7.0290
 1144.0000  -999.2500     7.0500
 1144.5000  -999.2500     7.0720
 1145.0000  -999.2500     7.0900
 1145.5000  -999.2500     7.0470
 1146.0000  -999.2500     7.0060
 1146.5000  -999.2500     6.9800
 1147.0000  -999.2500     6.9540
 1147.5000  -999.2500     6.9560
 1148.0000  -999.2500     6.9580
 1148.5000  -999.2500     6.9600
 1149.0000  -999.2500     6.9620
 1149.5000  -999.2500     6.9620
 1150.0000  -999.2500     6.9600
 1150.5000  -999.2500     6.9570
 1151.0000  -999.2500     6.9550
 1151.5000  -999.2500     6.9520
 1152.0000  -999.2500     6.9500
 1152.5000  -999.2500     6.9470
 1153.0000  -999.2500     6.9450
 1153.5000  -999.2500     6.9460
 1154.0000  -999.2500     6.9510
 1154.5000  -999.2500     6.9550
 1155.0000  -999.2500     6.9600
 1155.5000  -999.2500     6.9650
 1156.0000  -999.2500     6.9690
 1156.5000  -999.2500     6.9740
 1157.0000  -999.2500     6.9790
 1157.5000  -999.2500     6.9840
 1158.0000  -999.2500     6.9880
 1158.5000  -999.2500     6.9930
 1159.0000  -999.2500     6.9860
 1159.5000  -999.2500     6.9680
 1160.0000  -999.2500     6.9420
 1160.5000  -999.2500     6.9160
 1161.0000  -999.2500     6.8930
 1161.5000  -999.2500     6.8940
 1162.0000  -999.2500     6.8930
 1162.5000  -999.2500     6.8930
 1163.0000  -999.2500     6.8920
 1163.5000  -999.2500     6.8910
 1164.0000  -999.2500     6.8910
 1164.5000  -999.2500     6.8900
 1165.0000  -999.2500     6.8900
 1165.5000  -999.2500     6.8890
 1166.0000  -999.2500     6.8890
 1166.5000  -999.2500     6.8880
 1167.0000  -999.2500     6.8880
 1167.5000  -999.2500     6.8870
 1168.0000  -999.2500     6.8860
 1168.5000  -999.2500     6.8860
 1169.0000  -999.2500     6.8850
 1169.5000  -999.2500     6.8850
 1170.0000  -999.2500     6.8850
 1170.5000  -999.2500     6.8850
 1171.0000  -999.2500     6.8860
 1171.5000  -999.2500     6.8870
 1172.0000  -999.2500     6.8880
 1172.5000  -999.2500     6.8890
 1173.0000  -999.2500     6.8890
 1173.5000  -999.2500     6.8900
 1174.0000  -999.2500     6.8910
 1174.5000  -999.2500     6.8920
 1175.0000  -999.2500     6.8930
 1175.5000  -999.2500     6.8930
 1176.0000  -999.2500     6.8940
 1176.5000  -999.2500     6.8980
 1177.0000  -999.2500     6.9030
 1177.5000  -999.2500     6.9140
 1178.0000  -999.2500     6.9270
 1178.5000  -999.2500     6.9400
 1179.0000  -999.2500     6.9670
 1179.5000  -999.2500     6.9930
 1180.0000  -999.2500     6.9940
 1180.5000  -999.2500     6.9960
 1181.0000  -999.2500     6.9970
 1181.5000  -999.2500     6.9980
 1182.0000  -999.2500     6.9990
 1182.5000  -999.2500     7.0000
 1183.0000  -999.2500     7.0010
 1183.5000  -999.2500     7.0020
 1184.0000  -999.2500     7.0130
 1184.5000  -999.2500     7.0280
 1185.0000  -999.2500     7.0660
 1185.5000  -999.2500     7.0770
 1186.0000  -999.2500     7.0740
 1186.5000  -999.2500     7.0380
 1187.0000  -999.2500     7.0030
 1187.5000  -999.2500     6.9690
 1188.0000  -999.2500     6.9630
 1188.5000  -999.2500     6.9620
 1189.0000  -999.2500     6.9610
 1189.5000  -999.2500     6.9600
 1190.0000  -999.2500     6.9590
 1190.5000  -999.2500     6.9580
 1191.0000  -999.2500     6.9570
 1191.5000  -999.2500     6.9560
 1192.0000  -999.2500     6.9550
 1192.5000  -999.2500     6.9540
 1193.0000  -999.2500     6.9530
 1193.5000  -999.2500     6.9520
 1194.0000  -999.2500     6.9510
 1194.5000  -999.2500     6.9500
 1195.0000  -999.2500     6.9490
 1195.5000  -999.2500     6.9480
 1196.0000  -999.2500     6.9470
 1196.5000  -999.2500     6.9460
 1197.0000  -999.2500     6.9450
 1197.5000  -999.2500     6.9440
 1198.0000  -999.2500     6.9490
 1198.5000  -999.2500     6.9550
 1199.0000  -999.2500     6.9620
 1199.5000  -999.2500     6.9690
 1200.0000  -999.2500     6.9970
 1200.5000  -999.2500     7.0720
 1201.0000  -999.2500     7.1030
 1201.5000  -999.2500     7.1330
 1202.0000  -999.2500     7.1590
 1202.5000  -999.2500     7.1170
 1203.0000  -999.2500     7.0770
 1203.5000  -999.2500     7.0360
 1204.0000  -999.2500     6.9950
 1204.5000  -999.2500     6.9860
 1205.0000  -999.2500     6.9890
 1205.5000  -999.2500     6.9930
 1206.0000  -999.2500     6.9960
 1206.5000  -999.2500     7.0000
 1207.0000  -999.2500     7.0020
 1207.5000  -999.2500     6.9850
 1208.0000  -999.2500     6.9690
 1208.5000  -999.2500     6.9540
 1209.0000  -999.2500     6.9550
 1209.5000  -999.2500     6.9560
 1210.0000  -999.2500     6.9580
 1210.5000  -999.2500     6.9590
 1211.0000  -999.2500     6.9600
 1211.5000  -999.2500     6.9610
 1212.0000  -999.2500     6.9630
 1212.5000  -999.2500     6.9570
 1213.0000  -999.2500     6.9420
 1213.5000  -999.2500     6.9280
 1214.0000  -999.2500     6.9140
 1214.5000  -999.2500     6.9150
