~VERSION INFORMATION
 VERS.                2.0:   CWLS LOG ASCII STANDARD - VERSION 2.0
 WRAP.                 NO:   ONE LINE PER DEPTH STEP
~WELL INFORMATION
#MNEM.UNIT      DATA TYPE    INFORMATION
#----------   ------------   ------------------------------
 STRT.F          200.0000:   START DEPTH
 STOP.F         2968.0000:   STOP DEPTH
 STEP.F            0.5000:   STEP LENGTH
 NULL.          -999.2500:   NO VALUE
 COMP. FENIX & SCISSON U.S. NAVY:   COMPANY
 WELL.   FENIX "A" #23-28:   WELL
 FLD .              NPR 3:   FIELD
 LOC .      S28 T39N R78W:   LOCATION
 CNTY.            NATRONA:   COUNTY
 STAT.            WYOMING:   STATE
 CTRY. UNITED STATES OF AMERICA:   COUNTRY
 SRVC.       SCHLUMBERGER:   SERVICE COMPANY
 DATE.        10-JUN-1977:   LOGDATE
 API .     49025103860000:   API NUMBER
~CURVE INFORMATION
#MNEM.UNIT       API CODE    CURVE DESCRIPTION
#----------   ------------   ------------------------------
 DEPT.F                  :   
 SPR .MV     07 010 01 00:   SPONTANEOUS POTENTIAL
 RILM.OHMM   07 120 44 00:   INDUCTION LOG MEDIUM RESISTIVITY
 RILD.OHMM   07 120 46 00:   DEEP INDUCTION RESISTIVITY
 LL8 .None   99 022 08 00:   LATEROLOG
 GRD .GAPI   45 310 01 00:   GAMMA RAY FROM DENSITY LOG
 CALD.IN     45 280 60 00:   CALIPER FROM DENSITY LOG
 RHOB.G/C3   45 350 01 00:   BULK DENSITY
 DRHO.G/C3   45 356 01 00:   DENSITY CORRECTION
~PARAMETER INFORMATION
#MNEM.UNIT          VALUE    DESCRIPTION
#----------   ------------   ------------------------------
 EKB .F         5019.0000:   Kelly bushing
 EGL .F         5009.0000:   Ground level
 EDF .F            0.0000:   Drilling floor
 EPD .F         5009.0000:   Permanent datum
 TD  .F         2971.0000:   Total depth
 DATE.        10-JUN-1977:   Date logged
 CLNT.            A2DTECH:   Client Code
 SL  . 1650' FNL & 990' FWL:   Surface Location
 DAPD.F                10:   Feet Above Permanent Datum
 DD  .F              2970:   Depth driller
 DL  .F              2971:   Depth logger
 BLI .F              2905:   Bottom log interval
 TLI .F               216:   Top log interval
 CS1 .IN            8.625:   Casing size
 CBD1.      9.625" @ 216':   Casing driller 1
 CBL1.F               216:   Casing logger 1
 BS1 .IN            7.875:   Bit size
 BSD1.F              2970:   Depth drilled with bit1
 DFT .            KCL MUD:   Type fluid in hole
 DFD .                8.8:   Density
 DFV .                 32:   Viscosity
 DFPH.                8.5:   pH
 DFL .                7.4:   Fluid loss
 MSS .               CIRC:   Source of sample
 RMS .OHMM           1.87:   Rm
 MST .F                85:   Rm Meas. temp.
 RMF .OHMM           1.69:   Rmf
 MFST.F                85:   Rmf Meas. temp.
 RMC .OHMM           2.80:   Rmc
 MCST.F                85:   Rmc Meas. temp.
 MFSS.               MEAS:   Source Rmf.
 MCSS.               CALC:   Source Rmc.
 RMB .OHMM           1.43:   Rm. at BHT
 BHT .F               111:   BHT.
 TCS .HRS            1600:   Time Circ. stopped
 TLAB.HRS            0945:   Time logger at bottom
 MRT .F               111:   Maximum recorded temp.
 LUN .               7711:   Logging unit number
 LUL .               CSPR:   Logging unit location
 ENGI.             SAYLER:   Recorded By
 WITN.         HARRINGTON:   Witnessed by
 ORIG.           5" PRINT:   Origin of data
 UWI .     49025103860000:   Unique Well ID
 DICO. A2D TECHNOLOGIES, INC.:   Digitizing Company
~OTHER INFORMATION
~A  DEPTH      SPR       RILM       RILD        LL8        GRD       CALD       RHOB       DRHO
# ...
  929.0000   -98.3130     8.4060     7.8690     9.0500   111.4160     9.7880     2.5280     0.0120
  929.5000   -98.3130     8.4350     7.8950     9.0420   112.1590     9.7890     2.5240     0.0150
  930.0000   -98.3130     8.4630     7.9200     9.0330   112.9050     9.7900     2.5200     0.0090
  930.5000   -98.3130     8.4920     7.9560     9.0250   112.4430     9.7910     2.5210     0.0040
  931.0000   -98.3130     8.5210     7.9940     9.0170   111.8770     9.7910     2.5250     0.0060
  931.5000   -98.3130     8.5490     8.0330     9.0450   111.3160     9.7910     2.5190     0.0020
  932.0000   -98.3140     8.5780     8.0720     9.0760   111.3720     9.7910     2.5150     0.0050
  932.5000   -98.3140     8.6070     8.1110     9.1070   112.4560     9.7910     2.5270     0.0080
  933.0000   -98.3130     8.6850     8.1480     9.1380   113.3590     9.7910     2.5230     0.0070
  933.5000   -98.3350     8.7700     8.2230     9.1690   114.1160     9.7910     2.5150     0.0020
  934.0000   -98.3680     8.8550     8.3130     9.2000   114.2960     9.7910     2.5250     0.0020
  934.5000   -98.4020     8.9410     8.4020     9.2300   113.3070     9.7910     2.5300     0.0070
  935.0000   -98.4350     9.0260     8.4910     9.2610   112.3410     9.7910     2.5370     0.0040
  935.5000   -98.4690     9.1000     8.5320     9.6000   112.1860     9.7910     2.5400     0.0100
  936.0000   -98.5020     9.3450     8.2230    10.2570   111.0810     9.7910     2.5480     0.0180
  936.5000   -98.5610     9.5290     8.2860    10.0320   110.7810     9.7910     2.5540     0.0190
  937.0000   -98.6300     9.0630     8.4110     9.5290   110.9320     9.7910     2.5590     0.0210
  937.5000   -98.7000     9.0160     8.4530     9.5640   110.9410     9.7910     2.5630     0.0260
  938.0000   -98.7690     9.0160     8.3650     9.6170   110.6150     9.7910     2.5600     0.0260
  938.5000   -98.8380     8.9880     8.2810     9.4450   111.2290     9.7910     2.5700     0.0300
  939.0000   -98.9080     8.8530     8.1970     9.2360   110.0600     9.7910     2.5850     0.0350
  939.5000   -98.9770     8.7180     8.1140     8.9340   107.8860     9.7910     2.5790     0.0300
  940.0000   -99.0460     8.5830     8.0300     8.9390   105.6980     9.7910     2.5700     0.0230
  940.5000   -99.1160     8.4480     7.9460     8.9490   103.5110     9.7910     2.5610     0.0180
  941.0000   -99.1850     8.3030     7.8530     8.9590   103.9470     9.7900     2.5530     0.0210
  941.5000   -99.2540     8.3230     7.8850     8.9690   104.9890     9.7860     2.5470     0.0160
  942.0000   -99.3230     8.3490     7.9310     8.9790   107.8200     9.7830     2.5440     0.0130
  942.5000   -99.3930     8.3760     7.9780     8.9890   111.8220     9.7800     2.5450     0.0180
  943.0000   -99.4620     8.4020     8.0240     8.9990   113.4620     9.7760     2.5460     0.0090
  943.5000   -99.5310     8.4280     8.0700     9.0080   111.9780     9.7730     2.5420     0.0080
  944.0000   -99.6000     8.4550     8.1170     9.0180   109.9770     9.7690     2.5350     0.0020
  944.5000   -99.6700     8.4810     8.1630     9.0280   108.9450     9.7660     2.5290    -0.0100
  945.0000   -99.7070     8.5080     8.2230     9.0380   108.2780     9.7620     2.5290    -0.0030
  945.5000   -99.7240     8.5320     8.0550     9.0480   107.5080     9.7590     2.5290     0.0040
  946.0000   -99.7410     8.5320     7.8190     9.0580   106.7410     9.7550     2.5400     0.0010
  946.5000   -99.7570     8.1480     7.5240     9.0680   106.3230     9.7520     2.5470     0.0190
  947.0000   -99.7730     8.6110     7.8530     9.0780   106.8300     9.7590     2.5350     0.0140
  947.5000   -99.7900     8.2990     7.7280     9.0880   107.9890     9.7680     2.5250     0.0060
  948.0000   -99.8060     7.8530     7.5280     9.1000   109.4690     9.7760     2.5150     0.0010
  948.5000   -99.8230     8.0020     7.3630     8.9660   110.9220     9.7850     2.5310     0.0180
  949.0000   -99.8390     8.1530     7.3850     8.5320   111.3740     9.7930     2.5460     0.0140
  949.5000   -99.8550     8.2230     7.4050     8.7780   112.1100     9.8020     2.5510     0.0100
  950.0000   -99.8720     8.0730     7.4310     9.2690   111.2810     9.8100     2.5420     0.0160
  950.5000   -99.8880     7.9260     7.4020     9.0430   111.4010     9.8190     2.5320     0.0010
  951.0000   -99.9050     7.7810     7.3440     8.9070   113.0660     9.8270     2.5330     0.0000
  951.5000   -99.9210     8.2760     7.2860     8.8010   114.7260     9.8360     2.5350     0.0020
  952.0000   -99.9370     8.1790     7.2280     8.6960   116.1380     9.8440     2.5370     0.0020
  952.5000   -99.9540     7.9840     7.1700     8.5910   112.6260     9.8520     2.5330     0.0010
  953.0000   -99.9700     7.7810     7.1120     8.4860   111.7820     9.8590     2.5290     0.0010
  953.5000   -99.9870     7.7810     7.0540     8.3810   111.9550     9.8660     2.5290     0.0040
  954.0000  -100.0030     7.8600     6.9960     8.2760   112.4490     9.8730     2.5220     0.0070
  954.5000  -100.0190     7.9190     6.9670     8.2230   111.1750     9.8800     2.5180     0.0020
  955.0000  -100.0360     7.2950     7.1270     8.2990   109.9560     9.8870     2.5340     0.0120
  955.5000  -100.0520     7.8530     7.2500     8.3690   109.9490     9.8940     2.5380     0.0220
  956.0000  -100.0690     7.7850     7.3740     8.4500   110.2380     9.9010     2.5320     0.0270
  956.5000  -100.0850     7.6780     7.4990     8.5320   109.6740     9.9070     2.5430     0.0210
  957.0000  -100.0990     7.5700     7.3380     8.5320   108.5060     9.9140     2.5520     0.0280
  957.5000  -100.0990     7.4310     7.1750     8.5090   107.2890     9.9210     2.5360     0.0130
  958.0000  -100.0990     7.6860     7.0420     8.4900   107.7420     9.9280     2.5250     0.0050
  958.5000  -100.0990     7.9340     7.1340     8.4710   108.8240     9.9350     2.5340     0.0220
  959.0000  -100.0990     7.9510     7.2260     8.4530   110.2550     9.9420     2.5480     0.0300
  959.5000  -100.0990     7.9680     7.2950     8.5380   111.9250     9.9490     2.5470     0.0260
  960.0000  -100.0990     7.9850     7.4210     8.6680   113.5980     9.9520     2.5460     0.0230
  960.5000  -100.0990     8.0280     7.5120     8.7870   113.6420     9.9540     2.5580     0.0250
  961.0000  -100.0990     8.1720     7.6030     8.8680   111.4040     9.9570     2.5640     0.0330
  961.5000  -100.0990     8.3150     7.6940     8.9490   108.2410     9.9590     2.5560     0.0310
  962.0000  -100.0990     8.4590     7.7860     9.0300   107.0280     9.9610     2.5490     0.0280
  962.5000  -100.0990     8.6030     7.8770     9.1110   110.0470     9.9630     2.5580     0.0350
  963.0000  -100.0990     8.7470     7.9680     9.1920   112.5300     9.9660     2.5670     0.0470
  963.5000  -100.0990     8.8910     8.0600     9.2690   111.4760     9.9680     2.5710     0.0490
  964.0000  -100.0990     9.0350     8.1510     9.3660   109.4580     9.9700     2.5800     0.0500
  964.5000  -100.0990     9.1780     8.2230     9.5170   107.9670     9.9730     2.5470     0.0280
  965.0000  -100.0990     9.3550     8.2870     9.6690   106.7780     9.9760     2.5310     0.0140
  965.5000  -100.0990     9.3080     8.3940     9.7960   106.5840     9.9790     2.5220     0.0120
  966.0000  -100.0990     9.2270     8.5320     9.6840   106.4060     9.9820     2.5200     0.0070
  966.5000  -100.0990     9.1450     8.2070     9.5670   105.2070     9.9850     2.5200     0.0060
  967.0000  -100.0990     9.0640     8.0730     9.4500   104.3920     9.9880     2.5380     0.0050
  967.5000  -100.0990     8.9830     8.0730     9.3320   103.8070     9.9900     2.5500     0.0070
  968.0000  -100.0910     8.9010     8.1700     9.2150   104.4540     9.9800     2.5670     0.0120
  968.5000  -100.0690     8.7710     8.2410     9.1000   103.9620     9.9680     2.5840     0.0060
  969.0000  -100.0470     8.8910     8.3240     9.3360   101.1460     9.9560     2.5830     0.0070
