~VERSION INFORMATION
 VERS.                2.0:   CWLS LOG ASCII STANDARD - VERSION 2.0
 WRAP.                 NO:   ONE LINE PER DEPTH STEP
~WELL INFORMATION
#MNEM.UNIT      DATA TYPE    INFORMATION
#----------   ------------   ------------------------------
 STRT.F           10.0000:   START DEPTH
 STOP.F         4008.0000:   STOP DEPTH
 STEP.F            0.5000:   STEP LENGTH
 NULL.          -999.2500:   NO VALUE
 COMP. LAWRENCE ALLISON & ASSOC.:   COMPANY
 WELL. LAWRENCE NPR 3 "AX" #75-28:   WELL
 FLD .                NPR:   FIELD
 LOC .      S28 T39N R78W:   LOCATION
 CNTY.            NATRONA:   COUNTY
 STAT.            WYOMING:   STATE
 CTRY. UNITED STATES OF AMERICA:   COUNTRY
 SRVC.      DRESSER ATLAS:   SERVICE COMPANY
 DATE.        28-APR-1983:   LOGDATE
 API .     49025109060000:   API NUMBER
~CURVE INFORMATION
#MNEM.UNIT       API CODE    CURVE DESCRIPTION
#----------   ------------   ------------------------------
 DEPT.F                  :   
 RHOB.G/C3   45 350 01 00:   BULK DENSITY
 CORR.G/C3   45 356 01 00:   DENSITY CORRECTION
 TEND.LBS    45 635 01 00:   TENSION FROM DENSITY LOG
 NPHI.DEC    42 890 03 00:   NEUTRON POROSITY SANDSTONE
 GRR .GAPI   07 310 01 00:   GAMMA RAY FROM RESISTIVITY
 CALR.IN     07 280 01 00:   CALIPER FROM RESISTIVITY
 RFOC.OHMM   07 220 01 00:   RESISTIVITY FOCUSED LOG RES.
 RILD.OHMM   07 120 46 00:   DEEP INDUCTION RESISTIVITY
 TENR.LBS    01 635 01 00:   TENSION FROM RES.
 RILM.OHMM   07 120 44 00:   INDUCTION LOG MEDIUM RESISTIVITY
 TENS.LBS    60 635 01 00:   TENSION FROM SONIC LOG
 DT  .US/F   60 520 00 00:   DELTA TIME
 SPR .MV     07 010 01 00:   SPONTANEOUS POTENTIAL
~PARAMETER INFORMATION
#MNEM.UNIT          VALUE    DESCRIPTION
#----------   ------------   ------------------------------
 EKB .F         5068.0000:   Kelly bushing
 EGL .F         5058.0000:   Ground level
 EDF .F            0.0000:   Drilling floor
 TD  .F         4003.0000:   Total depth
 DATE.        28-APR-1983:   Date logged
 CLNT.            A2DTECH:   Client Code
 SL  . 2100' FSL & 1050' FEL:   Surface Location
 PD  .                 GL:   Permanent Datum
 EPD .F              5058:   Elevation Permanent Datum
 LMF .                 KB:   Log Measured From
 DMF .                 KB:   Drilling Measured From
 DAPD.F                10:   Feet Above Permanent Datum
 DD  .F              4000:   Depth driller
 DL  .F              4003:   Depth logger
 BLI .F              4000:   Bottom log interval
 CS1 .IN            8.625:   Casing size
 CBD1.      8.625" @ 498':   Casing driller 1
 CBL1.F               497:   Casing logger 1
 BS1 .IN            7.875:   Bit size
 BSD1.F              4000:   Depth drilled with bit1
 DFT .            KCL/GEL:   Type fluid in hole
 DFD .                  9:   Density
 DFV .                 43:   Viscosity
 DFPH.                8.5:   pH
 DFL .               12.4:   Fluid loss
 MSS .           MUD/TANK:   Source of sample
 RMS .OHMM            .45:   Rm
 MST .F                43:   Rm Meas. temp.
 RMF .OHMM            .27:   Rmf
 MFST.F                51:   Rmf Meas. temp.
 RMC .OHMM            .56:   Rmc
 MCST.F                43:   Rmc Meas. temp.
 MFSS.               MEAS:   Source Rmf.
 MCSS.               CALC:   Source Rmc.
 RMB .OHMM            .16:   Rm. at BHT
 BHT .F               121:   BHT.
 TCS .HRS               7:   Time Circ. stopped
 MRT .F               121:   Maximum recorded temp.
 LUN .               6274:   Logging unit number
 LUL .               GLTE:   Logging unit location
 ENGI.            WACDELL:   Recorded By
 WITN.             STRONG:   Witnessed by
 ORIG.           5" PRINT:   Origin of data
 UWI .     49025109060000:   Unique Well ID
 DICO. A2D TECHNOLOGIES, INC.:   Digitizing Company
~OTHER INFORMATION
~A   DEPT     RHOB       CORR       TEND       NPHI         GRR      CALR       RFOC       RILD       TENR       RILM       TENS         DT        SPR   
# ...
 3988.0000     2.4980    -0.0180   288.4300     0.2530  -999.2500     8.3360     3.3930     3.1850   -39.5790     3.3260    -9.7060  -999.2500   -56.6230
 3988.5000     2.4940     0.0010   292.1820     0.2410  -999.2500     8.3360     3.3570     3.1340   -39.5790     3.2730    -9.7060  -999.2500   -56.6040
 3989.0000     2.4890    -0.0030   295.9350     0.2410  -999.2500     8.3370     3.3210     3.0820   -39.5790     3.2190    -9.7060  -999.2500   -56.5860
 3989.5000     2.4840    -0.0090   299.6870     0.2580  -999.2500     8.3380     3.2850     3.0310   -39.5790     3.1660    -9.7060  -999.2500   -56.5700
 3990.0000     2.4840    -0.0050   303.4390     0.2710  -999.2500     8.3380     3.2490     2.9800   -39.5790     3.1130   -10.6380  -999.2500   -56.5530
 3990.5000     2.4880     0.0150   307.1910     0.2820  -999.2500     8.3390     3.2170     2.9330   -39.5790     3.0440   -11.9070  -999.2500   -56.5360
 3991.0000     2.4980     0.0360   310.9440     0.2760  -999.2500     8.3390     3.2770     3.0630   -39.5790     3.0440   -13.1760  -999.2500   -56.5200
 3991.5000     2.5040     0.0490   314.6960     0.2660  -999.2500     8.3400     3.4240     3.2490   -39.5790     3.3270   -14.4460  -999.2500   -56.5040
 3992.0000     2.5100     0.0410   320.7250     0.2560  -999.2500     8.3410     3.5850     3.4350   -39.5790     3.5430   -15.7150  -999.2500   -56.4870
 3992.5000     2.5160     0.0280   327.4410     0.2520  -999.2500     8.3410     3.7470     3.6200   -39.5790     3.7600   -16.9840  -999.2500   -56.4700
 3993.0000     2.5250     0.0160   334.1570     0.2580  -999.2500     8.3420     3.9080     3.8060   -39.5790     3.9760   -18.2540  -999.2500   -56.4520
 3993.5000     2.5390     0.0050   340.8730     0.2630  -999.2500     8.3430     4.1660     3.9920   -39.5790     4.3220   -19.5230  -999.2500   -56.4370
 3994.0000     2.5660     0.0050   347.5880     0.2620  -999.2500     8.3430     4.1660     4.1770   -39.5790     4.3220   -20.7920  -999.2500   -56.4280
 3994.5000     2.5920     0.0040   354.3040     0.2590  -999.2500     8.3440     8.3630     4.3220   -39.5790     9.4000   -22.0610  -999.2500   -56.4240
 3995.0000     2.6180     0.0190   361.0200     0.2610  -999.2500     8.3450    12.5280    15.1630   -39.5790    13.0230   -23.3310  -999.2500   -56.4240
 3995.5000     2.6320     0.0390   367.7360     0.2650  -999.2500     8.3460    18.9230    18.9230   -39.5790    15.7330   -24.6000  -999.2500   -56.4260
 3996.0000     2.6150     0.0600   374.4520     0.2690  -999.2500     8.3460    18.9230    16.5020   -39.5790    19.6340   -25.8690  -999.2500   -56.4260
 3996.5000     2.5880     0.0770   381.1680     0.2730  -999.2500     8.3460    12.9890    13.6810   -39.5790    14.9380   -27.1380  -999.2500   -56.4260
 3997.0000     2.5610     0.0740   387.8830     0.2760  -999.2500     8.3450     8.9380    10.8600   -39.5790    11.7310   -28.4080  -999.2500   -56.4250
 3997.5000     2.5480     0.0720   394.5990     0.2770  -999.2500     8.3480     4.5680     8.0390   -39.5790     8.5250   -28.5940  -999.2500   -56.4250
 3998.0000     2.5370     0.0990   401.3150     0.2770  -999.2500     8.3520     4.4850     4.4850   -39.5790     4.4850   -10.3150  -999.2500   -56.4260
 3998.5000     2.5230     0.1480   405.6560     0.2790  -999.2500     8.3520     4.6780  -999.2500   -59.6190  -999.2500    58.4370  -999.2500   -56.4260
 3999.0000     2.4630     0.1970   405.6560     0.2820  -999.2500     8.3420     5.1030  -999.2500    40.5810  -999.2500   187.4970  -999.2500   -56.4260
 3999.5000     2.3980     0.2320   354.7380     0.2870  -999.2500     8.3210     5.1030  -999.2500   201.4480  -999.2500   381.8520  -999.2500   -56.4260
 4000.0000     2.3330     0.1920   215.4650     0.2910  -999.2500     8.2950     4.8000  -999.2500   541.5830  -999.2500   556.9250  -999.2500   -56.4260
 4000.5000     2.2950     0.1580   115.9100     0.2920  -999.2500     8.2750     4.5680  -999.2500   541.5830  -999.2500   556.9250  -999.2500  -999.2500
 4001.0000     2.2820     0.1450     6.1060  -999.2500  -999.2500  -999.2500  -999.2500  -999.2500   561.6230  -999.2500   504.4390  -999.2500  -999.2500
 4001.5000     2.2840     0.1370  -103.6970  -999.2500  -999.2500  -999.2500  -999.2500  -999.2500   461.4230  -999.2500   375.3130  -999.2500  -999.2500
 4002.0000     2.2860     0.1490  -214.9650  -999.2500  -999.2500  -999.2500  -999.2500  -999.2500   330.2510  -999.2500   246.1860  -999.2500  -999.2500
 4002.5000     2.2840     0.1500  -214.9650  -999.2500  -999.2500  -999.2500  -999.2500  -999.2500   174.4850  -999.2500   117.0590  -999.2500  -999.2500
 4003.0000     2.2820     0.1490  -217.0540  -999.2500  -999.2500  -999.2500  -999.2500  -999.2500    18.7190  -999.2500   -12.0670  -999.2500  -999.2500
 4003.5000     2.2800     0.1510  -221.2870  -999.2500  -999.2500  -999.2500  -999.2500  -999.2500  -137.0470  -999.2500  -141.1940  -999.2500  -999.2500
 4004.0000     2.2770     0.1560  -225.5210  -999.2500  -999.2500  -999.2500  -999.2500  -999.2500  -260.0200  -999.2500  -198.5830  -999.2500  -999.2500
 4004.5000     2.2780     0.1460  -229.7540  -999.2500  -999.2500  -999.2500  -999.2500  -999.2500  -260.0200  -999.2500  -198.5830  -999.2500  -999.2500
 4005.0000     2.2810     0.1370  -233.9880  -999.2500  -999.2500  -999.2500  -999.2500  -999.2500  -260.0200  -999.2500  -198.5830  -999.2500  -999.2500
 4005.5000     2.2830     0.1430  -238.2210  -999.2500  -999.2500  -999.2500  -999.2500  -999.2500  -260.0200  -999.2500  -198.5830  -999.2500  -999.2500
 4006.0000     2.2830     0.1490  -242.4550  -999.2500  -999.2500  -999.2500  -999.2500  -999.2500  -260.0200  -999.2500  -198.5830  -999.2500  -999.2500
 4006.5000     2.2790     0.1520  -244.9950  -999.2500  -999.2500  -999.2500  -999.2500  -999.2500  -260.0200  -999.2500  -198.5830  -999.2500  -999.2500
 4007.0000     2.2750     0.1530  -244.9950  -999.2500  -999.2500  -999.2500  -999.2500  -999.2500  -260.0200  -999.2500  -198.5830  -999.2500  -999.2500
 4007.5000  -999.2500  -999.2500  -999.2500  -999.2500  -999.2500  -999.2500  -999.2500  -999.2500  -260.0200  -999.2500  -198.5830  -999.2500  -999.2500
 4008.0000  -999.2500  -999.2500  -999.2500  -999.2500  -999.2500  -999.2500  -999.2500  -999.2500  -260.0200  -999.2500  -198.5830  -999.2500  -999.2500
