~VERSION INFORMATION
 VERS.                2.0:   CWLS LOG ASCII STANDARD - VERSION 2.0
 WRAP.                 NO:   ONE LINE PER DEPTH STEP
~WELL INFORMATION
#MNEM.UNIT      DATA TYPE    INFORMATION
#----------   ------------   ------------------------------
 STRT.F            0.0000:   START DEPTH
 STOP.F         3358.0000:   STOP DEPTH
 STEP.F            0.5000:   STEP LENGTH
 NULL.          -999.2500:   NO VALUE
 COMP. LAWRENCE ALLISON & ASSOC.:   COMPANY
 WELL. LAWRENCE NPR 3 "X" #14-11:   WELL
 FLD .                NPR:   FIELD
 LOC .      S11 T38N R78W:   LOCATION
 CNTY.            NATRONA:   COUNTY
 STAT.            WYOMING:   STATE
 CTRY. UNITED STATES OF AMERICA:   COUNTRY
 SRVC.      DRESSER ATLAS:   SERVICE COMPANY
 DATE.        25-SEP-1985:   LOGDATE
 API .     49025110470000:   API NUMBER
~CURVE INFORMATION
#MNEM.UNIT       API CODE    CURVE DESCRIPTION
#----------   ------------   ------------------------------
 DEPT.F                  :   
 TENR.LBS    07 635 01 00:   TENSION
 SPR .MV     07 010 01 00:   SPONTANEOUS POTENTIAL
 SFL .OHMM   07 220 01 00:   SHALLOW FOCUSED LOG RESISTIVITY
 ILD .OHMM   07 120 46 00:   DEEP INDUCTION RESISTIVITY
 ILM .OHMM   07 120 44 00:   INDUCTION LOG MEDIUM RESISTIVITY
 TENS.LBS    60 635 01 00:   TENSION FROM SONIC LOG
 DT  .US/F   60 520 00 00:   DELTA TIME
 TEND.LBS    45 635 01 00:   TENSION FROM DENSITY LOG
 RHOB.G/C3   45 350 01 00:   BULK DENSITY
 CORR.G/C3   45 356 01 00:   DENSITY CORRECTION
 NPHI.DEC    42 890 01 00:   NEUTRON POROSITY LIMESTONE
 GRR .GAPI   07 310 01 00:   GAMMA RAY FROM RESISTIVITY
~PARAMETER INFORMATION
#MNEM.UNIT          VALUE    DESCRIPTION
#----------   ------------   ------------------------------
 EKB .F         5184.0000:   Kelly bushing
 EGL .F         5173.0000:   Ground level
 EDF .F            0.0000:   Drilling floor
 TD  .F         3353.0000:   Total depth
 DATE.        25-SEP-1985:   Date logged
 CLNT.            A2DTECH:   Client Code
 SL  . 473' FWL & 2360' FNL:   Surface Location
 PD  .                 GL:   Permanent Datum
 EPD .F              5173:   Elevation Permanent Datum
 LMF .                 KB:   Log Measured From
 DMF .                 KB:   Drilling Measured From
 DAPD.F                11:   Feet Above Permanent Datum
 DD  .F              3353:   Depth driller
 DL  .F              3346:   Depth logger
 BLI .F              3344:   Bottom log interval
 CS1 .IN            8.625:   Casing size
 CBD1.      8.625" @ 586':   Casing driller 1
 CBL1.F               585:   Casing logger 1
 BS1 .IN            7.875:   Bit size
 BSD1.F              3353:   Depth drilled with bit1
 DFT .     GEL/KCL/STAFLO:   Type fluid in hole
 DFD .                8.9:   Density
 DFV .                 39:   Viscosity
 DFPH.                  8:   pH
 DFL .                8.9:   Fluid loss
 MSS .           FLOWLINE:   Source of sample
 RMS .OHMM            .45:   Rm
 MST .F                80:   Rm Meas. temp.
 RMF .OHMM            .33:   Rmf
 MFST.F                80:   Rmf Meas. temp.
 RMC .OHMM            .56:   Rmc
 MCST.F                80:   Rmc Meas. temp.
 MFSS.               CALC:   Source Rmf.
 MCSS.               CALC:   Source Rmc.
 RMB .OHMM            .27:   Rm. at BHT
 BHT .F               130:   BHT.
 TCS .HRS               3:   Time Circ. stopped
 MRT .F               135:   Maximum recorded temp.
 LUN .               6274:   Logging unit number
 LUL .               GLTE:   Logging unit location
 ENGI.               MACK:   Recorded By
 WITN.             STRONG:   Witnessed by
 ORIG.           5" PRINT:   Origin of data
 UWI .     49025110470000:   Unique Well ID
 DICO. A2D TECHNOLOGIES, INC.:   Digitizing Company
~OTHER INFORMATION
~A    DEPT    TENR        SPR        SFL        ILD        ILM       TENS         DT       TEND       RHOB       CORR       NPHI         GRR  
# ...
 1680.0000   -97.0900   -56.1730     7.1730     6.5750     6.4990  -999.2500  -999.2500  -999.2500  -999.2500  -999.2500  -999.2500    48.3750
 1680.5000   -98.1630   -56.3530     7.1730     6.5590     6.4910  -999.2500  -999.2500  -999.2500  -999.2500  -999.2500  -999.2500    46.2270
 1681.0000   -99.2360   -56.5430     7.1730     6.5430     6.4820  -999.2500  -999.2500  -999.2500  -999.2500  -999.2500  -999.2500    45.3140
 1681.5000  -100.3090   -56.7170     7.1730     6.5260     6.4740  -999.2500  -999.2500  -999.2500  -999.2500  -999.2500  -999.2500    46.1080
 1682.0000  -100.4870   -56.9210     7.1720     6.5100     6.4660  -999.2500  -999.2500  -999.2500  -999.2500  -999.2500  -999.2500    47.8890
 1682.5000   -99.5900   -56.8830     7.1730     6.4940     6.4580  -999.2500  -999.2500  -999.2500  -999.2500  -999.2500  -999.2500    49.5900
 1683.0000   -98.6930   -56.8070     7.1730     6.4770     6.4490  -999.2500  -999.2500  -999.2500  -999.2500  -999.2500  -999.2500    50.9360
 1683.5000   -97.7960   -56.7280     7.1710     6.4590     6.4420  -999.2500  -999.2500  -999.2500  -999.2500  -999.2500  -999.2500    49.8780
 1684.0000   -96.8980   -56.6550     7.1260     6.4480     6.4340  -999.2500  -999.2500  -999.2500  -999.2500  -999.2500  -999.2500    48.5840
 1684.5000   -96.0010   -56.5770     7.0720     6.4290     6.3980  -999.2500  -999.2500  -999.2500  -999.2500  -999.2500  -999.2500    48.1690
 1685.0000   -95.1040   -56.5020     7.0180     6.4790     6.3030  -999.2500  -999.2500  -999.2500  -999.2500  -999.2500  -999.2500    48.0590
 1685.5000   -94.2070   -56.4250     6.9640     6.5450     6.1960  -999.2500  -999.2500  -999.2500  -999.2500  -999.2500  -999.2500    46.2180
 1686.0000   -93.3100   -56.3500     6.9150     6.4270     6.2650  -999.2500  -999.2500  -999.2500  -999.2500  -999.2500  -999.2500    44.7020
 1686.5000   -92.4120   -56.2740     6.9580     6.5030     6.3440  -999.2500  -999.2500  -999.2500  -999.2500  -999.2500  -999.2500    43.1810
 1687.0000   -91.5150   -56.1930     7.1040     6.5730     6.4230  -999.2500  -999.2500  -999.2500  -999.2500  -999.2500  -999.2500    43.3790
 1687.5000   -90.6180   -56.1550     7.2510     6.6430     6.5020  -999.2500  -999.2500  -999.2500  -999.2500  -999.2500  -999.2500    43.7800
 1688.0000   -89.7210   -56.2640     7.3970     6.7130     6.5800  -999.2500  -999.2500  -999.2500  -999.2500  -999.2500  -999.2500    43.0730
 1688.5000   -88.8230   -56.3700     7.4410     6.7900     6.6660  -999.2500  -999.2500  -999.2500  -999.2500  -999.2500  -999.2500    41.2110
 1689.0000   -87.9260   -56.4830     7.4110     6.7900     6.6660  -999.2500  -999.2500  -999.2500  -999.2500  -999.2500  -999.2500    40.9830
 1689.5000   -87.0290   -56.5900     7.3540     6.7120     6.5900  -999.2500  -999.2500  -999.2500  -999.2500  -999.2500  -999.2500    41.6450
 1690.0000   -86.1320   -56.7040     7.2970     6.6420     6.5210  -999.2500  -999.2500  -999.2500  -999.2500  -999.2500  -999.2500    42.3640
 1690.5000   -85.2350   -56.8100     7.2390     6.5720     6.4520  -999.2500  -999.2500  -999.2500  -999.2500  -999.2500  -999.2500    43.1440
 1691.0000   -84.3370   -56.9320     7.1820     6.5020     6.3840  -999.2500  -999.2500  -999.2500  -999.2500  -999.2500  -999.2500    45.3490
 1691.5000   -83.4400   -56.9470     7.1250     6.4270     6.3100  -999.2500  -999.2500  -999.2500  -999.2500  -999.2500  -999.2500    47.5740
 1692.0000   -82.5430   -56.9430     7.0670     6.3100     6.1960  -999.2500  -999.2500  -999.2500  -999.2500  -999.2500  -999.2500    49.4770
 1692.5000   -81.6460   -56.9490     7.0100     6.3320     6.2170  -999.2500  -999.2500  -999.2500  -999.2500  -999.2500  -999.2500    47.8090
 1693.0000   -80.7490   -56.9410     6.9530     6.3950     6.2790  -999.2500  -999.2500  -999.2500  -999.2500  -999.2500  -999.2500    44.8950
 1693.5000   -79.8510   -56.9390     6.9150     6.4580     6.3410  -999.2500  -999.2500  -999.2500  -999.2500  -999.2500  -999.2500    44.9280
 1694.0000   -78.9540   -57.0160     7.0280     6.5220     6.4040  -999.2500  -999.2500  -999.2500  -999.2500  -999.2500  -999.2500    47.4320
 1694.5000   -78.0570   -57.5020     7.1470     6.5850     6.4660  -999.2500  -999.2500  -999.2500  -999.2500  -999.2500  -999.2500    48.9330
 1695.0000   -77.1600   -57.7880     7.2660     6.6490     6.5280  -999.2500  -999.2500  -999.2500  -999.2500  -999.2500  -999.2500    47.5490
 1695.5000   -76.2630   -58.1120     7.3840     6.7120     6.5900  -999.2500  -999.2500  -999.2500  -999.2500  -999.2500  -999.2500    46.5950
 1696.0000   -75.3650   -58.1160     7.5030     6.7760     6.6530  -999.2500  -999.2500  -999.2500  -999.2500  -999.2500  -999.2500    46.1300
 1696.5000   -74.4680   -57.7190     7.5780     6.8390     6.7150  -999.2500  -999.2500  -999.2500  -999.2500  -999.2500  -999.2500    45.6920
 1697.0000   -73.5710   -57.1790     7.5780     6.9020     6.7770  -999.2500  -999.2500  -999.2500  -999.2500  -999.2500  -999.2500    44.6330
 1697.5000   -72.6740   -56.6530     7.5780     6.9660     6.8390  -999.2500  -999.2500  -999.2500  -999.2500  -999.2500  -999.2500    43.1990
 1698.0000   -71.7770   -56.1200     7.5290     7.0430     6.9150  -999.2500  -999.2500  -999.2500  -999.2500  -999.2500  -999.2500    44.0480
 1698.5000   -70.8790   -55.6170     7.4440     7.0180     6.8910  -999.2500  -999.2500  -999.2500  -999.2500  -999.2500  -999.2500    45.1790
 1699.0000   -69.9820   -54.9380     7.3590     6.9540     6.8280  -999.2500  -999.2500  -999.2500  -999.2500  -999.2500  -999.2500    48.0290
 1699.5000   -69.0850   -54.5510     7.2750     6.9150     6.7900  -999.2500  -999.2500  -999.2500  -999.2500  -999.2500  -999.2500    50.6890
 1700.0000   -68.1880   -54.8930     7.1730     6.7900     6.6660  -999.2500  -999.2500  -999.2500  -999.2500  -999.2500  -999.2500    50.0320
 1700.5000   -67.2910   -55.1780     7.1730     6.8030     6.6800  -999.2500  -999.2500  -999.2500  -999.2500  -999.2500  -999.2500    48.9950
 1701.0000   -66.3930   -55.4960     7.1730     6.8140     6.6900  -999.2500  -999.2500  -999.2500  -999.2500  -999.2500  -999.2500    48.0220
 1701.5000   -65.4960   -55.8020     7.1940     6.8250     6.7010  -999.2500  -999.2500  -999.2500  -999.2500  -999.2500  -999.2500    45.1070
 1702.0000   -64.5990   -56.1090     7.2220     6.8360     6.7120  -999.2500  -999.2500  -999.2500  -999.2500  -999.2500  -999.2500    44.8590
 1702.5000   -63.7020   -56.4160     7.2490     6.8470     6.7230  -999.2500  -999.2500  -999.2500  -999.2500  -999.2500  -999.2500    45.6740
 1703.0000   -62.8050   -56.6510     7.2770     6.8590     6.7350  -999.2500  -999.2500  -999.2500  -999.2500  -999.2500  -999.2500    46.1530
 1703.5000   -61.9070   -56.8290     7.3060     6.8710     6.7460  -999.2500  -999.2500  -999.2500  -999.2500  -999.2500  -999.2500    47.8830
 1704.0000   -61.1330   -57.0100     7.4410     6.8830     6.7580  -999.2500  -999.2500  -999.2500  -999.2500  -999.2500  -999.2500    50.0320
 1704.5000   -61.8280   -57.1910     7.4410     6.8950     6.7700  -999.2500  -999.2500  -999.2500  -999.2500  -999.2500  -999.2500    51.0680
 1705.0000   -62.4400   -57.3350     7.3060     6.9170     6.7910  -999.2500  -999.2500  -999.2500  -999.2500  -999.2500  -999.2500    50.1020
 1705.5000   -63.0510   -57.3380     7.4410     6.9140     6.7890  -999.2500  -999.2500  -999.2500  -999.2500  -999.2500  -999.2500    48.3360
 1706.0000   -63.6620   -57.3440     7.3710     6.9170     6.7910  -999.2500  -999.2500  -999.2500  -999.2500  -999.2500  -999.2500    46.6930
 1706.5000   -64.2740   -57.3340     7.2940     6.8040     6.6800  -999.2500  -999.2500  -999.2500  -999.2500  -999.2500  -999.2500    46.6450
 1707.0000   -64.8850   -57.4030     7.2170     6.7040     6.5830  -999.2500  -999.2500  -999.2500  -999.2500  -999.2500  -999.2500    47.4830
 1707.5000   -65.4960   -57.5310     7.1410     6.6050     6.4850  -999.2500  -999.2500  -999.2500  -999.2500  -999.2500  -999.2500    47.1950
