~VERSION INFORMATION
 VERS.                2.0:   CWLS LOG ASCII STANDARD - VERSION 2.0
 WRAP.                 NO:   ONE LINE PER DEPTH STEP
~WELL INFORMATION
#MNEM.UNIT      DATA TYPE    INFORMATION
#----------   ------------   ------------------------------
 STRT.F            8.0000:   START DEPTH
 STOP.F         3021.0000:   STOP DEPTH
 STEP.F            0.5000:   STEP LENGTH
 NULL.          -999.2500:   NO VALUE
 COMP. LAWRENCE ALLISON & ASSOCIATES W:   COMPANY
 WELL. LAWRENCE ALLISON #68-28:   WELL
 FLD .              NPR 3:   FIELD
 LOC .      S28 T39N R78W:   LOCATION
 CNTY.            NATRONA:   COUNTY
 STAT.            WYOMING:   STATE
 CTRY. UNITED STATES OF AMERICA:   COUNTRY
 SRVC.      DRESSER ATLAS:   SERVICE COMPANY
 DATE.        19-DEC-1986:   LOGDATE
 API .     49025111580000:   API NUMBER
~CURVE INFORMATION
#MNEM.UNIT       API CODE    CURVE DESCRIPTION
#----------   ------------   ------------------------------
 DEPT.F                  :   
 SPR .MV     07 010 01 00:   SPONTANEOUS POTENTIAL
 TENR.LBS    07 635 01 00:   TENSION FROM RESISTIVITY
 RILD.OHMM   07 120 46 00:   DEEP INDUCTION RESISTIVITY
 RILM.OHMM   07 120 44 00:   INDUCTION LOG MEDIUM RESISTIVITY
 RFOC.OHMM   07 220 04 00:   RESISTIVITY FOCUSED LOG RES.
 CALD.IN     45 280 60 00:   CALIPER FROM DENSITY LOG
 CORR.G/C3   45 356 01 00:   DENSITY CORRECTION
 RHOB.G/C3   45 350 01 00:   BULK DENSITY
 CNC .DEC    42 890 03 00:   NEUTRON POROSITY SANDSTONE
 GRR .GAPI   07 310 01 00:   GAMMA RAY FROM RESISTIVITY
~PARAMETER INFORMATION
#MNEM.UNIT          VALUE    DESCRIPTION
#----------   ------------   ------------------------------
 EKB .F         5106.0000:   Kelly bushing
 EGL .F         5094.0000:   Ground level
 EDF .F            0.0000:   Drilling floor
 EPD .F         5094.0000:   Permanent datum
 TD  .F         3010.0000:   Total depth
 CLNT.            A2DTECH:   Client Code
 SL  . 1559'EL & 533' FSL:   Surface Location
 DATE.        19-DEC-1986:   Date Logged [DD-MMM-YYYY]
 DD  .F              3003:   Depth driller
 DL  .F              3010:   Depth logger
 BLI .F              3007:   Bottom log interval
 TLI .F                 0:   Top log interval
 CS1 .              8.625:   Casing size
 CBD1.      8.625" @ 389':   Casing driller 1
 CBL1.IN              405:   Casing logger 1
 BS1 .IN            7.875:   Bit size
 BSD1.F              3003:   Depth drilled with bit1
 DFT .        KCL POLYMER:   Type fluid in hole
 DFD .                9.0:   Density
 DFV .                 42:   Viscosity
 DFPH.                9.3:   pH
 DFL .                8.8:   Fluid loss
 MSS .           FLOWLINE:   Source of sample
 RMS .OHMM          0.484:   Rm
 MST .F                68:   Rm Meas. temp.
 RMF .OHMM          0.392:   Rmf
 MFST.F                68:   Rmf Meas. temp.
 MFSS.               MEAS:   Source Rmf.
 RMC .OHMM          0.605:   Rmc
 MCST.F                68:   Rmc Meas. temp.
 MCSS.               CALC:   Source Rmc.
 RMB .OHMM          0.269:   Rm. at BHT
 BHT .F               122:   BHT.
 TCS .HRS             3.5:   Time Circ. stopped
 MRT .F               122:   Maximum recorded temp.
 LUN .            HL-6274:   Logging unit number
 LUL .           GILLETTE:   Logging unit location
 ENGI.             RAUTIO:   Recorded By
 WITN.             STRONG:   Witnessed by
 ORIG.        2" 5" PRINT:   Origin of data
 UWI .     49025111580000:   Unique Well ID
 DICO. A2D TECHNOLOGIES, INC.:   Digitizing Company
~OTHER INFORMATION
~A    DEPT     SPR       TENR       RILD       RILM       RFOC       CALD       CORR       RHOB        CNC        GRR   
# ...
  577.5000   -35.0526  -102.1841     8.8583     9.2594     9.4023  -999.2500  -999.2500  -999.2500  -999.2500   102.0718
  578.0000   -34.8752  -101.3628     9.3167     9.1262     9.3998  -999.2500  -999.2500  -999.2500  -999.2500   102.6964
  578.5000   -34.5483  -100.6878     9.3841     8.9949     9.3209  -999.2500  -999.2500  -999.2500  -999.2500   106.9465
  579.0000   -33.9419  -100.0127     9.1834     8.9296     9.1275  -999.2500  -999.2500  -999.2500  -999.2500   111.8007
  579.5000   -33.6242   -99.3377     8.9869     8.8011     8.9946  -999.2500  -999.2500  -999.2500  -999.2500   114.2759
  580.0000   -33.3064   -98.6627     8.9224     8.7372     8.9276  -999.2500  -999.2500  -999.2500  -999.2500   112.1488
  580.5000   -33.1446   -97.9719     8.9224     8.6737     8.8612  -999.2500  -999.2500  -999.2500  -999.2500   108.5438
  581.0000   -32.8268   -97.1439     8.9224     8.6730     8.9235  -999.2500  -999.2500  -999.2500  -999.2500   107.9549
  581.5000   -32.6650   -96.4688     8.9224     8.6100     8.9205  -999.2500  -999.2500  -999.2500  -999.2500   107.9804
  582.0000   -32.8167   -95.7938     8.9224     8.6092     8.8542  -999.2500  -999.2500  -999.2500  -999.2500   108.3029
  582.5000   -33.2775   -95.1189     8.9224     8.6085     8.7883  -999.2500  -999.2500  -999.2500  -999.2500   111.9487
  583.0000   -33.7398   -94.4438     8.9224     8.6075     8.7860  -999.2500  -999.2500  -999.2500  -999.2500   111.2121
  583.5000   -34.0475   -93.7598     8.9224     8.6067     8.7206  -999.2500  -999.2500  -999.2500  -999.2500   104.7439
  584.0000   -34.5083   -92.9249     8.9224     8.6060     8.7183  -999.2500  -999.2500  -999.2500  -999.2500   102.6478
  584.5000   -34.5025   -92.2500     8.9869     8.6052     8.7790  -999.2500  -999.2500  -999.2500  -999.2500   102.0640
  585.0000   -34.1847   -91.5750     8.9869     8.6044     8.7766  -999.2500  -999.2500  -999.2500  -999.2500   102.4069
  585.5000   -33.8670   -90.8999     9.0623     8.6661     8.8419  -999.2500  -999.2500  -999.2500  -999.2500   104.5269
  586.0000   -33.8612   -90.2249     9.1834     8.6651     8.8992  -999.2500  -999.2500  -999.2500  -999.2500   106.0579
  586.5000   -33.6993   -89.5477     9.3167     8.7271     8.9612  -999.2500  -999.2500  -999.2500  -999.2500   106.6825
  587.0000   -33.8497   -88.7061     9.4519     8.7894     9.0235  -999.2500  -999.2500  -999.2500  -999.2500   106.7029
  587.5000   -33.6879   -88.0311     9.4519     8.9162     9.0205  -999.2500  -999.2500  -999.2500  -999.2500   107.3276
  588.0000   -33.8381   -87.3560     9.5203     8.9152     9.0839  -999.2500  -999.2500  -999.2500  -999.2500   108.8586
  588.5000   -33.9869   -86.6810     9.5203     8.9788     9.1472  -999.2500  -999.2500  -999.2500  -999.2500   109.7855
  589.0000   -34.1372   -86.0060     9.5203     9.0429     9.1441  -999.2500  -999.2500  -999.2500  -999.2500   107.3939
  589.5000   -34.2889   -85.3309     9.4519     9.1074     9.2084  -999.2500  -999.2500  -999.2500  -999.2500   104.0911
  590.0000   -34.4391   -84.6333     9.3841     9.1724     9.2725  -999.2500  -999.2500  -999.2500  -999.2500   103.8043
  590.5000   -34.4319   -83.8121     9.2498     9.2476     9.3370  -999.2500  -999.2500  -999.2500  -999.2500   104.1319
  591.0000   -34.4261   -83.1371     9.3841     9.3711     9.4020  -999.2500  -999.2500  -999.2500  -999.2500   103.2460
  591.5000   -34.4204   -82.4621     9.5243     9.4380     9.3314  -999.2500  -999.2500  -999.2500  -999.2500   101.7558
  592.0000   -34.4146   -81.7870     9.5892     9.4369     9.2620  -999.2500  -999.2500  -999.2500  -999.2500   100.2657
  592.5000   -34.4088   -81.1120     9.5892     9.4361     9.2595  -999.2500  -999.2500  -999.2500  -999.2500    99.3848
  593.0000   -34.2471   -80.4212     9.5892     9.3676     9.1906  -999.2500  -999.2500  -999.2500  -999.2500    98.8010
  593.5000   -34.0853   -87.5623     9.5892     9.2995     9.1221  -999.2500  -999.2500  -999.2500  -999.2500    99.1218
  594.0000   -33.9235   -94.6875     9.5892     9.1657     9.1193  -999.2500  -999.2500  -999.2500  -999.2500   114.2480
  594.5000   -33.7617   -93.8438     9.5892     9.1649     9.1168  -999.2500  -999.2500  -999.2500  -999.2500   118.5805
  595.0000   -33.7559   -93.1687     9.5203     9.1641     9.1809  -999.2500  -999.2500  -999.2500  -999.2500   116.7109
  595.5000   -33.7500   -92.4937     9.5203     9.2295     9.2448  -999.2500  -999.2500  -999.2500  -999.2500   111.2932
  596.0000   -33.5870   -91.8097     9.5892     9.2954     9.3091  -999.2500  -999.2500  -999.2500  -999.2500   110.7043
  596.5000   -33.4252   -90.9749     9.5892     9.4294     9.3739  -999.2500  -999.2500  -999.2500  -999.2500   110.1205
  597.0000   -33.4195   -90.2999     9.6585     9.5654     9.5074  -999.2500  -999.2500  -999.2500  -999.2500   108.6354
  597.5000   -33.4137   -89.6248     9.7284     9.7048     9.6427  -999.2500  -999.2500  -999.2500  -999.2500   107.4474
  598.0000   -33.5654   -88.9498     9.7284     9.8431     9.7800  -999.2500  -999.2500  -999.2500  -999.2500   106.2316
  598.5000   -33.8702   -88.2748     9.8773     9.8423     9.9193  -999.2500  -999.2500  -999.2500  -999.2500   105.3734
  599.0000   -34.3324   -79.7972    10.0129     9.9125    10.0598  -999.2500  -999.2500  -999.2500  -999.2500   106.9095
  599.5000   -34.4841   -86.9247    10.0853     9.9114    10.1298  -999.2500  -999.2500  -999.2500  -999.2500   108.7426
  600.0000   -34.4769   -86.0809    10.1583     9.9106    10.2003  -999.2500  -999.2500  -999.2500  -999.2500   110.2082
  600.5000   -34.4711   -85.4059    10.1583     9.9097    10.1244  -999.2500  -999.2500  -999.2500  -999.2500   111.8017
  601.0000   -34.4654   -84.7309    10.1583     9.9088    10.0490  -999.2500  -999.2500  -999.2500  -999.2500   107.8919
  601.5000   -34.3036   -84.0559    10.1583     9.9795    10.0458  -999.2500  -999.2500  -999.2500  -999.2500   104.5864
  602.0000   -34.1418   -93.2409    10.1583    10.0515    10.1975  -999.2500  -999.2500  -999.2500  -999.2500   104.6042
  602.5000   -34.2688   -92.8619    10.1583    10.0507    10.1966  -999.2500  -999.2500  -999.2500  -999.2500   105.2266
  603.0000   -33.6314   -92.5587    10.0853    10.0500     9.9063  -999.2500  -999.2500  -999.2500  -999.2500   104.9417
  603.5000   -33.1527   -84.4794     9.8696     9.8346     9.3511  -999.2500  -999.2500  -999.2500  -999.2500   104.6573
  604.0000   -32.8259   -84.1762     9.5892     9.2834     9.0850  -999.2500  -999.2500  -999.2500  -999.2500   106.4921
  604.5000   -32.6630   -91.6490     9.3836     9.0191     9.0843  -999.2500  -999.2500  -999.2500  -999.2500   107.7183
  605.0000   -32.8086   -91.3459     9.2498     9.1493     9.1493  -999.2500  -999.2500  -999.2500  -999.2500   107.1318
  605.5000   -32.9540   -91.0426     9.3167     9.2148     9.2148  -999.2500  -999.2500  -999.2500  -999.2500   105.6390
  606.0000   -33.2553   -90.7394     9.3167     9.2807     9.2808  -999.2500  -999.2500  -999.2500  -999.2500   105.0480
  606.5000   -33.7099   -90.4354     9.3167     9.3471     9.2134  -999.2500  -999.2500  -999.2500  -999.2500   104.1632
  607.0000   -34.1673   -90.1244     9.3841     9.4140     9.2127  -999.2500  -999.2500  -999.2500  -999.2500   103.8570
  607.5000   -34.4686   -89.7540     9.3841     9.3457     9.2121  -999.2500  -999.2500  -999.2500  -999.2500   105.7249
  608.0000   -34.6166   -89.4508     9.4519     9.3450     9.2114  -999.2500  -999.2500  -999.2500  -999.2500   108.4467
  608.5000   -34.4472   -89.1476     9.4519     9.4119     9.2773  -999.2500  -999.2500  -999.2500  -999.2500   104.2392
  609.0000   -34.1245   -88.8444     9.4028     9.4112     9.2767  -999.2500  -999.2500  -999.2500  -999.2500   101.5379
  609.5000   -33.8018   -88.5412     9.4001     9.4787     9.4106  -999.2500  -999.2500  -999.2500  -999.2500   100.3427
  610.0000   -33.4789   -88.2380     9.3975     9.4779     9.4779  -999.2500  -999.2500  -999.2500  -999.2500   102.4797
  610.5000   -33.3120   -87.9347     9.3274     9.5457     9.4093  -999.2500  -999.2500  -999.2500  -999.2500   104.6122
