~VERSION INFORMATION
 VERS.                2.0:   CWLS LOG ASCII STANDARD - VERSION 2.0
 WRAP.                 NO:   ONE LINE PER DEPTH STEP
~WELL INFORMATION
#MNEM.UNIT      DATA TYPE    INFORMATION
#----------   ------------   ------------------------------
 STRT.F          199.0000:   START DEPTH
 STOP.F         2951.0000:   STOP DEPTH
 STEP.F            0.5000:   STEP LENGTH
 NULL.          -999.2500:   NO VALUE
 COMP.    FENIX & SCISSON:   COMPANY
 WELL. FENIX & SCISSON "A" #3-21:   WELL
 FLD .              XPR-3:   FIELD
 LOC .      S21 T39N R78W:   LOCATION
 CNTY.            NATRONA:   COUNTY
 STAT.            WYOMING:   STATE
 CTRY. UNITED STATES OF AMERICA:   COUNTRY
 SRVC.              WELEX:   SERVICE COMPANY
 DATE.        27-JUN-1977:   LOGDATE
 API .     49025103880000:   API NUMBER
~CURVE INFORMATION
#MNEM.UNIT       API CODE    CURVE DESCRIPTION
#----------   ------------   ------------------------------
 DEPT.F                  :   
 CALD.IN     45 280 60 00:   CALIPER FROM DENSITY LOG
 GRD .GAPI   45 310 01 00:   GAMMA RAY FROM DENSITY LOG
 CORR.G/C3   45 356 01 00:   DENSITY CORRECTION
 RHOB.G/C3   45 350 01 00:   BULK DENSITY
 SPR .MV     07 010 01 00:   SPONTANEOUS POTENTIAL
 ILD .OHMM   07 120 46 00:   DEEP INDUCTION RESISTIVITY
 ILM .OHMM   07 120 44 00:   INDUCTION LOG MEDIUM RESISTIVITY
 SGRD.OHMM   07 220 05 00:   SHALLOW SHORT GUARD RESISTIVITY
~PARAMETER INFORMATION
#MNEM.UNIT          VALUE    DESCRIPTION
#----------   ------------   ------------------------------
 EKB .F         4981.0000:   Kelly bushing
 EGL .F         4971.0000:   Ground level
 TD  .F         2953.0000:   Total depth
 CLNT.            A2DTECH:   Client Code
 SL  . 330' FSL & 1650' FWL:   Surface Location
 DATE.        27-JUN-1977:   Date Logged [DD-MMM-YYYY]
 DD  .F              2930:   Depth driller
 DL  .F              2953:   Depth logger
 BLI .F              2951:   Bottom log interval
 TLI .F               200:   Top log interval
 CS1 .              8.625:   Casing size
 CBD1.      8.625" @ 217':   Casing driller 1
 BS1 .IN            7.875:   Bit size
 BSD1.F              2930:   Depth drilled with bit1
 DFT .            KCL MUD:   Type fluid in hole
 DFD .                9.4:   Density
 DFV .                 37:   Viscosity
 DFPH.                9.0:   pH
 DFL .               16.0:   Fluid loss
 MSS .           FLOWLINE:   Source of sample
 RMS .OHMM           1.10:   Rm
 MST .F                92:   Rm Meas. temp.
 RMF .OHMM           0.85:   Rmf
 MFST.F                92:   Rmf Meas. temp.
 MFSS.           FANN KIT:   Source Rmf.
 RMC .OHMM           1.44:   Rmc
 MCST.F                92:   Rmc Meas. temp.
 MCSS.           FANN KIT:   Source Rmc.
 RMB .OHMM           0.93:   Rm. at BHT
 BHT .F               109:   BHT.
 TCS .HRS            0230:   Time Circ. stopped
 MRT .F               109:   Maximum recorded temp.
 LUN .               8611:   Logging unit number
 LUL .             CASPER:   Logging unit location
 ENGI.         G. BENTSEN:   Recorded By
 WITN.  MR. W. PETTINGILL:   Witnessed by
 ORIG.      2.5" 5" PRINT:   Origin of data
 UWI .     49025103880000:   Unique Well ID
 DICO. A2D TECHNOLOGIES, INC.:   Digitizing Company
 PD  .                 GL:   Permanent Datum
 EPD .               4971:   Elevation Permanent Datum
 LMF .                 KB:   Log Measured From
 DMF .                 KB:   Drilling Measured From
 DAPD.                 10:   Feet Above Permanent Datum
~OTHER INFORMATION
~A   DEPT       CALD       GRD       CORR        RHOB      SPR        ILD        ILM       SGRD   
# ...
 2183.5000     8.8738   121.7730     0.0187     2.5183   -35.7958     2.7109     2.9097     4.2020
 2184.0000     8.8730   119.9093     0.0172     2.5198   -35.9304     2.7117     2.9099     4.5979
 2184.5000     8.8723   118.6647     0.0155     2.5136   -35.6179     2.7124     2.9101     4.2337
 2185.0000     8.8715   117.4198     0.0154     2.5074   -35.3086     2.7508     2.9103     4.2645
 2185.5000     8.8708   116.4087     0.0154     2.5028   -34.9994     2.7706     2.9306     4.1909
 2186.0000     8.8700   116.4087     0.0185     2.4981   -34.6902     2.7905     2.9715     3.8214
 2186.5000     8.8692   115.5438     0.0199     2.4966   -34.8281     2.7912     3.0547     4.2318
 2187.0000     8.8685   114.6664     0.0230     2.5074   -34.8114     2.8307     3.1838     4.7035
 2187.5000     8.8677   113.6740     0.0292     2.5197   -34.7981     2.8708     3.2282     4.1223
 2188.0000     8.8668   111.8100     0.0354     2.5305   -34.7847     2.8715     3.1623     4.1000
 2188.5000     8.8661   109.6759     0.0400     2.5367   -34.9226     2.8723     3.1193     4.2794
 2189.0000     8.8653   107.8061     0.0367     2.5367   -34.7580     2.8731     3.0768     4.3657
 2189.5000     8.8955   106.7841     0.0304     2.5274   -34.7446     2.8739     3.0984     4.2736
 2190.0000     8.8947   110.4652     0.0226     2.5159   -34.8825     2.9146     3.1416     4.1590
 2190.5000     8.8939   112.6637     0.0163     2.5036   -34.8659     2.9355     3.1418     4.1071
 2191.0000     8.8932   113.9319     0.0101     2.4913   -34.8525     2.9363     3.1420     4.1405
 2191.5000     8.9069   114.8586     0.0020     2.4790   -34.8391     2.9168     3.0992     4.3801
 2192.0000     8.9226   116.1033    -0.0039     2.4736   -34.8258     2.9178     3.0781     3.9821
 2192.5000     8.9218   117.0279    -0.0089     2.4851   -34.8445     2.9186     3.1211     3.9189
 2193.0000     8.9210   117.6471    -0.0084     2.4953   -35.1253     2.9396     3.1646     4.1169
 2193.5000     8.9203   117.9795    -0.0023     2.5059   -35.3808     2.9404     3.1648     4.6592
 2194.0000     8.9195   117.9278     0.0039     2.5136   -35.3432     2.9615     3.1432     5.0638
 2194.5000     8.9187   116.6834     0.0083     2.5173   -35.2056     2.9624     3.2091     3.6107
 2195.0000     8.9180   115.4383     0.0020     2.5179   -35.1923     2.9630     3.2990     4.2011
 2195.5000     8.9346   114.1942    -0.0011     2.5179   -35.0311     2.9880     3.3450     5.2174
 2196.0000     8.9474   113.3127    -0.0043     2.5163   -35.0178     2.9614     3.2320     5.3585
 2196.5000     8.9466   112.6935    -0.0044     2.5132   -35.0045     2.8624     3.0801     4.8927
 2197.0000     8.9458   112.6935    -0.0044     2.5101   -34.9911     2.7881     2.9965     4.1774
 2197.5000     8.9449   113.9319    -0.0044     2.4993   -34.9680     2.7299     2.9761     3.9036
 2198.0000     8.9443   115.1703    -0.0014     2.4746   -34.5207     2.6401     2.9155     3.5938
 2198.5000     8.9434   117.0279    -0.0014     2.4823   -34.5074     2.6216     2.8956     3.4044
 2199.0000     8.9736   118.2663    -0.0015     2.4915   -34.6458     2.5869     2.8959     3.9922
 2199.5000     8.9728   119.5046    -0.0015     2.4992   -34.7767     2.5526     2.7220     4.3074
 2200.0000     8.9720   120.7430    -0.0016     2.5023   -34.7633     2.5187     2.6665     4.0478
 2200.5000     9.0022   121.3622     0.0015     2.5038   -34.5520     2.5079     2.6857     3.0949
 2201.0000     9.0014   122.6006     0.0015     2.5023   -34.3067     2.5202     2.7425     3.1000
 2201.5000     9.0007   123.8390     0.0045     2.5023   -34.4502     2.6093     2.8199     3.7605
 2202.0000     8.9999   125.0774     0.0045     2.5069   -34.5923     2.6646     2.8796     4.0562
 2202.5000     8.9991   122.9414     0.0044     2.5177   -34.7343     2.7780     3.0020     3.7097
 2203.0000     8.9984   118.0070     0.0075     2.5270   -34.4311     2.8957     3.1948     3.9797
 2203.5000     8.9976   114.2745     0.0106     2.5362   -35.1648     2.9784     3.4236     4.2649
 2204.0000     8.9968   110.5879     0.0136     2.5517   -35.1589     3.1905     3.6186     4.2055
 2204.5000     8.9960   108.0873     0.0198     2.5567   -35.0051     3.3253     3.8247     4.8047
 2205.0000     8.9953   105.6001     0.0198     2.5485   -34.7033     3.4207     4.0147     5.4112
 2205.5000     8.9945   103.1358     0.0197     2.5392   -34.4015     3.5416     4.2142     6.1601
 2206.0000     8.9937   101.2929     0.0166     2.5300   -34.5436     3.6416     4.2736     6.2851
 2206.5000     8.9930   100.6831     0.0165     2.5238   -35.1309     3.7188     4.1019     5.5534
 2207.0000     8.9922   101.2804     0.0134     2.5222   -35.1235     3.7964     3.9642     5.7112
 2207.5000     8.9605   101.9082     0.0102     2.5175   -34.9697     3.8239     3.9927     4.5483
 2208.0000     8.9287   102.5063     0.0070     2.5222   -34.8158     3.8780     4.0492     4.0763
 2208.5000     8.9280   103.7211     0.0070     2.5283   -34.8099     3.9044     4.1634     4.5646
 2209.0000     8.9272   105.5511     0.0038     2.5314   -34.6561     3.8787     4.2515     5.4318
 2209.5000     8.9264   106.8418     0.0038     2.5298   -34.2064     3.8797     4.2527     6.2336
 2210.0000     8.8947   100.7995     0.0037     2.5236   -34.3484     3.8808     4.2833     5.9563
 2210.5000     8.8939    97.2104     0.0006     2.5190   -35.0822     3.8552     4.4042     5.1291
 2211.0000     8.8622    95.9590     0.0005     2.5174   -34.7804     3.8829     4.5284     5.1631
 2211.5000     8.8614    96.1907     0.0005     2.5190   -34.3307     3.8840     4.4370     5.9120
 2212.0000     8.8607    97.0422     0.0004     2.5236   -34.1784     3.8851     4.3475     5.8019
 2212.5000     8.8599    98.2565     0.0035     2.5313   -34.3204     3.8884     4.2891     5.8237
 2213.0000     8.8591    99.4706     0.0066     2.5421   -34.3130     3.9165     4.2609     5.7726
 2213.5000     8.8584   100.6853     0.0096     2.5514   -34.3071     3.9422     4.2576     5.3940
 2214.0000     8.8576   101.6369     0.0158     2.5622   -34.4506     3.9979     4.6949     5.0040
 2214.5000     8.8568   101.9692     0.0189     2.5714   -34.4432     4.0545     4.8944     5.6987
 2215.0000     8.8560   100.7179     0.0220     2.5776   -34.4373     4.1118     4.9295     6.8320
 2215.5000     8.8553   100.0822     0.0281     2.5853   -34.2835     4.1699     4.9309     6.9778
 2216.0000     8.8714    99.7170     0.0265     2.5822   -34.2776     4.2581     4.9323     6.9807
 2216.5000     8.9018   100.3138     0.0202     2.5745   -34.2717     4.3482     4.9336     6.9355
 2217.0000     8.9149   100.5703     0.0171     2.5713   -34.1179     4.4132     5.0034     6.4313
 2217.5000     8.9451   101.7847     0.0140     2.5682   -34.1120     4.5066     5.0742     6.0466
 2218.0000     8.9930   102.1046     0.0140     2.5651   -34.1061     4.6020     5.1107     6.5261
 2218.5000     9.0234   100.5742     0.0140     2.5619   -34.1002     4.6632     5.1475     7.1414
 2219.0000     9.0356    99.3232     0.0140     2.5588   -34.0942     4.6645     5.2203     7.2938
 2219.5000     9.0842    97.4564     0.0171     2.5542   -34.2378     4.7347     5.3308     6.7635
 2220.0000     9.1577    96.4923     0.0171     2.5526   -34.2304     4.7688     5.4812     6.5814
 2220.5000     9.1260    96.4739     0.0171     2.5495   -34.3739     4.8698     5.5972     7.0067
 2221.0000     9.1252    96.4553     0.0171     2.5479   -34.3665     4.9001     5.4092     7.1554
 2221.5000     9.0935    97.0523     0.0171     2.5463   -34.3606     4.9015     5.5237     7.0117
 2222.0000     9.0927    97.6492     0.0140     2.5449   -34.3547     4.9028     5.6018     7.1128
 2222.5000     9.0610    97.6308     0.0109     2.5485   -34.7941     4.8705     5.5267     7.2146
 2223.0000     9.0602    98.2277     0.0078     2.5546   -34.1950     4.8052     5.4526     7.2176
 2223.5000     9.0285    98.2092     0.0047     2.5603   -34.0411     4.7307     5.3425     6.9751
