~VERSION INFORMATION
 VERS.                2.0:   CWLS LOG ASCII STANDARD - VERSION 2.0
 WRAP.                 NO:   ONE LINE PER DEPTH STEP
~WELL INFORMATION
#MNEM.UNIT      DATA TYPE    INFORMATION
#----------   ------------   ------------------------------
 STRT.F            5.5000:   START DEPTH
 STOP.F         3006.0000:   STOP DEPTH
 STEP.F            0.5000:   STEP LENGTH
 NULL.          -999.2500:   NO VALUE
 COMP.    FENIX & SCISSON:   COMPANY
 WELL.  FENIX "AX" #28-28:   WELL
 FLD .  TEAPOT DOME NPR-3:   FIELD
 LOC .      S28 T39N R78W:   LOCATION
 CNTY.            NATRONA:   COUNTY
 STAT.            WYOMING:   STATE
 CTRY. UNITED STATES OF AMERICA:   COUNTRY
 SRVC.           BIRDWELL:   SERVICE COMPANY
 DATE.        23-JAN-1980:   LOGDATE
 API .     49025107960000:   API NUMBER
~CURVE INFORMATION
#MNEM.UNIT       API CODE    CURVE DESCRIPTION
#----------   ------------   ------------------------------
 DEPT.F                  :   
 GRD .GAPI   45 310 01 00:   GAMMA RAY FROM DENSITY LOG
 CALD.IN     45 280 60 00:   CALIPER FROM DENSITY LOG
 DPHI.DEC    45 890 12 00:   DENSITY POROSITY SANDSTONE
 NPHI.DEC    42 890 03 00:   NEUTRON POROSITY SANDSTONE
 CORR.G/C3   45 356 01 00:   DENSITY CORRECTION
 SPR .MV     05 010 01 00:   SPONTANEOUS POTENTIAL FROM RES.
 ILD .OHMM   05 120 40 00:   INDUCTION LOG DEEP RESISTIVITY
 SN  .OHMM   05 040 16 00:   SHORT NORMAL 16"
~PARAMETER INFORMATION
#MNEM.UNIT          VALUE    DESCRIPTION
#----------   ------------   ------------------------------
 EKB .F         5120.0000:   Kelly bushing
 EGL .F         5110.0000:   Ground level
 EDF .F         5119.0000:   Drilling floor
 EPD .F         5110.0000:   Permanent datum
 TD  .F         3006.0000:   Total depth
 CLNT.            A2DTECH:   Client Code
 SL  . 600' FSL & 1300' FWL:   Surface Location
 PD  .                 GL:   Permanent Datum
 DAPD.F                 9:   Feet Above Permanent Datum
 DATE.        23-JAN-1980:   Date Logged [DD-MMM-YYYY]
 DD  .F              3006:   Depth driller
 DL  .F              3006:   Depth logger
 BLI .F              3006:   Bottom log interval
 TLI .F                10:   Top log interval
 CS1 .IN            8.625:   Casing size
 CBD1.      8.625" @ 440':   Casing driller 1
 CBL1.F               460:   Casing logger 1
 BS1 .IN            7.875:   Bit size
 BSD1.F              3006:   Depth drilled with bit1
 DFT .       GEL MUD FULL:   Type fluid in hole
 DFD .                  9:   Density
 DFV .                 46:   Viscosity
 DFPH.                 11:   pH
 DFL .               17.2:   Fluid loss
 MSS .           MUD TANK:   Source of sample
 RMS .OHMM            1.9:   Rm
 MST .F                60:   Rm Meas. temp.
 RMF .OHMM            .73:   Rmf
 MFST.F                62:   Rmf Meas. temp.
 MFSS.               MEAS:   Source Rmf.
 RMC .OHMM            .95:   Rmc
 MCST.F                62:   Rmc Meas. temp.
 TCS .HRS               5:   Time Circ. stopped
 MRT .F               110:   Maximum recorded temp.
 LUN .               3029:   Logging unit number
 LUL .             CASPER:   Logging unit location
 ENGI.           T. WOLFF:   Recorded By
 WITN.           DINSMORE:   Witnessed by
 ORIG.           5" PRINT:   Origin of data
 UWI .     49025107960000:   Unique Well ID
 DICO. A2D TECHNOLOGIES, INC.:   Digitizing Company
~OTHER INFORMATION
~A    DEPT      GRD      CALD       DPHI         NPHI     CORR        SPR        ILD         SN   
# ...
  775.0000    93.1122     9.1754     0.2556     0.0817     0.0214   -38.0903     9.2565    10.2006
  775.5000    92.5452     9.1777     0.2448     0.0790     0.0200   -38.7672     9.3315    10.3100
  776.0000    89.4607     9.1652     0.2340     0.0786     0.0187   -38.5205     9.4704    10.3919
  776.5000    87.8572     9.1675     0.2132     0.0807     0.0177   -38.1262     9.5451    10.5495
  777.0000    88.9462     9.1698     0.2147     0.0831     0.0165   -37.7476     9.6872    10.7094
  777.5000    90.4345     9.1722     0.2147     0.0824     0.0138   -37.4154     9.8314    10.9495
  778.0000    94.3125     9.1596     0.2131     0.0794     0.0110   -37.4728     9.9778    11.1155
  778.5000    97.4497     9.1620     0.2107     0.0800     0.0068   -37.6089    10.1263    11.2038
  779.0000    96.5870     9.1644     0.2206     0.0805     0.0055   -37.5612    10.2770    11.2928
  779.5000    98.0946     9.1672     0.2229     0.0775     0.0074   -38.7331    10.4300    11.3825
  780.0000    99.1512     9.1695     0.2211     0.0786     0.0318   -38.7554    10.5124    11.2299
  780.5000    93.1098     9.1719     0.2258     0.0762     0.0305   -37.7166    10.6689    11.1588
  781.0000    94.3211     9.1588     0.2312     0.0893     0.0201   -37.6105    10.7531    11.1675
  781.5000    97.0139     9.1617     0.2360     0.0881     0.0040   -37.3177    10.7634    11.0967
  782.0000    99.4104     9.1640     0.2407     0.0803     0.0058   -37.9037    10.7737    11.1055
  782.5000    96.6840     9.1509     0.2404     0.0790     0.0197   -38.3926    10.7841    11.1142
  783.0000    95.3145     9.1241     0.2407     0.0772     0.0154   -38.4290    10.7944    11.1247
  783.5000    95.6434     9.1265     0.2427     0.0793     0.0141   -37.5925    10.7301    11.1333
  784.0000    98.6325     9.1288     0.2433     0.0789     0.0100   -37.1594    10.6665    11.1420
  784.5000    98.9484     9.1312     0.2423     0.0759     0.0011   -37.1321    10.6033    11.1506
  785.0000    97.4930     9.1484     0.2393     0.0683     0.0150   -38.5427    10.5404    11.1593
  785.5000    97.8220     9.1512     0.2381     0.0709     0.0108   -38.7614    10.4778    11.1680
  786.0000    95.1814     9.1683     0.2287     0.0752     0.0066   -38.8477    10.4882    11.1766
  786.5000    91.0594     9.1707     0.2266     0.0778     0.0068   -39.2215    10.4256    11.1842
  787.0000    87.5289     9.1730     0.2335     0.0793     0.0009   -38.9942    10.4381    11.1940
  787.5000    87.8524     9.1902     0.2337     0.0810    -0.0016   -38.8548    10.3737    11.2027
  788.0000    97.0637     9.2073     0.2292     0.0831     0.0032   -38.7000    10.3121    11.1317
  788.5000    96.9540     9.2393     0.2271     0.0834     0.0019   -37.8479    10.3245    10.9804
  789.0000    90.1542     9.2565     0.2312     0.0839    -0.0022   -37.6197    10.2607    10.9108
  789.5000    87.9634     9.2736     0.2384     0.0920    -0.0035   -37.8895    10.2023    10.6901
  790.0000    87.6867     9.3056     0.2419     0.0926    -0.0032   -37.6340    10.2120    10.5469
  790.5000    91.5712     9.3093     0.2500     0.0845     0.0031   -37.5498    10.1490    10.4797
  791.0000    96.0418     9.3400     0.2641     0.0757     0.0094   -36.9925    10.0888    10.4134
  791.5000    97.5494     9.3126     0.2664     0.0819     0.0127   -36.6809    10.0289    10.4217
  792.0000    96.9829     9.3155     0.2550     0.0843     0.0100   -36.6026     9.9718    10.5044
  792.5000    91.9720     9.3178     0.2442     0.0878     0.0073   -37.4720     9.9813    10.5879
  793.0000    92.1463     9.3202     0.2339     0.0908     0.0060   -38.2562     9.9909    10.6721
  793.5000    93.8020     9.3077     0.2333     0.0920     0.0079   -39.0467     9.9292    10.6884
  794.0000   101.0874     9.3248     0.2351     0.0889     0.0112   -38.9742     9.9411    10.8425
  794.5000    99.7561     9.3271     0.2344     0.0817     0.0190   -38.4939     9.9506    10.9287
  795.0000    98.2766     9.3295     0.2290     0.0808     0.0298   -38.0972     9.9601    11.0172
  795.5000    97.1723     9.3615     0.2320     0.0903     0.0181   -37.7209    10.0388    11.0257
  796.0000    93.4947     9.3638     0.2358     0.0894     0.0214   -37.5991    10.0484    11.1133
  796.5000    92.3291     9.3958     0.2320     0.0817     0.0337   -37.8868    10.1278    11.2016
  797.0000    95.3247     9.4032     0.2183     0.0738     0.0521   -38.1719    10.1428    11.2905
  797.5000    96.8324     9.4598     0.2102     0.0698     0.0614   -38.3947    10.2178    11.2993
  798.0000    98.3334     9.4473     0.2105     0.0796     0.0406   -37.6997    10.2986    11.3081
  798.5000    93.7735     9.4348     0.2185     0.0892     0.0333   -37.2281    10.3820    11.3169
  799.0000    92.8849     9.4377     0.2319     0.0873     0.0384   -37.1914    10.3920    11.3256
  799.5000    93.8257     9.4400     0.2336     0.0840     0.0535   -36.6282    10.4740    11.2517
  800.0000    92.3740     9.4572     0.2378     0.0705     0.0809   -36.7945    10.5567    11.1518
  800.5000    93.2848     9.4441     0.2398     0.0686     0.0826   -37.0668    10.6588    10.9539
  801.0000    96.8622     9.4315     0.2326     0.0812     0.0572   -36.0322    10.7267    11.1191
  801.5000    94.0692     9.4342     0.2259     0.0820     0.0574   -36.6591    10.7327    11.1268
  802.0000    92.7523     9.4513     0.2250     0.0847     0.0531   -37.4895    10.5865    11.0554
  802.5000    93.9593     9.4381     0.2274     0.0831     0.0518   -35.9063    10.5156    11.1424
  803.0000    91.6163     9.4408     0.2294     0.0825     0.0520   -34.9938    10.5229    11.0709
  803.5000    90.4475     9.4430     0.2305     0.0849     0.0432   -34.8351    10.5288    11.0786
  804.0000    90.6229     9.4452     0.2287     0.0888     0.0434   -35.0884    10.5346    11.0865
  804.5000    92.8670     9.4474     0.2194     0.0895     0.0497   -35.4548    10.5405    11.0171
  805.0000    95.2593     9.4199     0.2130     0.0814     0.0635   -35.3025    10.5464    11.0234
  805.5000    93.6515     9.4221     0.2121     0.0738     0.0622   -35.2568    10.4772    11.0313
  806.0000    93.6733     9.4392     0.2252     0.0726     0.0624   -35.1610    10.4845    11.0401
  806.5000    92.8118     9.4264     0.2311     0.0744     0.0626   -34.8812    10.4903    10.9674
  807.0000    91.9393     9.4292     0.2335     0.0737     0.0567   -35.6860    10.4201    10.9763
  807.5000    91.6648     9.4314     0.2358     0.0752     0.0524   -36.6203    10.3518    10.9046
  808.0000    89.9144     9.4336     0.2438     0.0820     0.0451   -36.6514    10.2839    10.8365
  808.5000    88.7456     9.4358     0.2495     0.0790     0.0453   -36.6278    10.2164    10.7669
  809.0000    91.1433     9.4379     0.2527     0.0783     0.0455   -36.2848    10.1508    10.6979
  809.5000    91.7523     9.4247     0.2548     0.0834     0.0382   -36.0237    10.0126    10.6292
  810.0000    87.9277     9.4418     0.2523     0.0920     0.0263   -36.1335    10.0182    10.5628
  810.5000    88.5422     9.4445     0.2401     0.0929     0.0235   -35.6259     9.9525    10.4205
  811.0000    91.5270     9.4467     0.2360     0.0919     0.0407   -35.2540     9.9594    10.3518
  811.5000    92.5859     9.4489     0.2426     0.0819     0.0526   -35.2051     9.9650    10.3600
  812.0000    92.4593     9.4511     0.2455     0.0804     0.0450   -34.9917     9.9705    10.2925
  812.5000    91.2963     9.4533     0.2440     0.0874     0.0380   -35.0665     9.9761    10.2265
  813.0000    90.4293     9.4555     0.2427     0.0887     0.0322   -34.9258     9.9816    10.2354
  813.5000    92.0521     9.4280     0.2442     0.0887     0.0293   -34.2654     9.9162    10.2425
  814.0000    93.4414     9.4307     0.2552     0.0868     0.0356   -34.3204     9.9217    10.2497
  814.5000    92.5744     9.4329     0.2623     0.0820     0.0448   -34.8556     9.8502    10.2570
  815.0000    93.1888     9.4351     0.2590     0.0738     0.0420   -35.3415     9.7920    10.2657
