~VERSION INFORMATION
 VERS.                2.0:   CWLS LOG ASCII STANDARD - VERSION 2.0
 WRAP.                 NO:   ONE LINE PER DEPTH STEP
~WELL INFORMATION
#MNEM.UNIT      DATA TYPE    INFORMATION
#----------   ------------   ------------------------------
 STRT.F         1999.5000:   START DEPTH
 STOP.F         2762.5000:   STOP DEPTH
 STEP.F            0.5000:   STEP LENGTH
 NULL.          -999.2500:   NO VALUE
 COMP.          U.S. NAVY:   COMPANY
 WELL. LAWRENCE US NAVY 3 "A" #404-20:   WELL
 FLD .        TEAPOT DOME:   FIELD
 LOC .      S20 T39N R78W:   LOCATION
 CNTY.            NATRONA:   COUNTY
 STAT.            WYOMING:   STATE
 CTRY. UNITED STATES OF AMERICA:   COUNTRY
 SRVC.         MCCULLOUGH:   SERVICE COMPANY
 DATE.        09-JUL-1966:   LOGDATE
 API .     49025095910000:   API NUMBER
~CURVE INFORMATION
#MNEM.UNIT       API CODE    CURVE DESCRIPTION
#----------   ------------   ------------------------------
 DEPT.F                  :   
 TEMP.DEG    99 000 00 00:   TEMPERATURE AT TOOL
 GR  .GAPI   30 310 01 00:   GAMMA RAY
~PARAMETER INFORMATION
#MNEM.UNIT          VALUE    DESCRIPTION
#----------   ------------   ------------------------------
 EGL .F         5004.0000:   Ground level
 EDF .F         5008.0000:   Drilling floor
 TD  .F         2765.0000:   Total depth
 DATE.        09-JUL-1966:   Date logged
 CLNT.            A2DTECH:   Client Code
 PD  .                 GL:   Permanent Datum
 EPD .F              5004:   Elevation Permanent Datum
 LMF .                 GL:   Log Measured From
 DMF .                 GL:   Drilling Measured From
 DL  .F              2765:   Depth logger
 BLI .F              2763:   Bottom log interval
 TLI .F              2000:   Top log interval
 CS1 .IN           5.1875:   Casing size
 CBD1.    5.1875" @ 2790':   Casing driller 1
 DFT .              WATER:   Type fluid in hole
 ENGI.        FITZSIMMONS:   Recorded By
 WITN.             HUDSON:   Witnessed by
 ORIG.           5" PRINT:   Origin of data
 UWI .     49025095910000:   Unique Well ID
 DICO. A2D TECHNOLOGIES, INC.:   Digitizing Company
~OTHER INFORMATION
~A  DEPT      TEMP          GR  
# ...
 2364.0000  -999.2500   117.0906
 2364.5000  -999.2500   114.2237
 2365.0000  -999.2500   113.8999
 2365.5000  -999.2500   115.6405
 2366.0000  -999.2500   118.2532
 2366.5000  -999.2500   114.2796
 2367.0000  -999.2500   114.1305
 2367.5000  -999.2500   115.4452
 2368.0000  -999.2500   112.3958
 2368.5000  -999.2500   111.1370
 2369.0000  -999.2500   109.8449
 2369.5000  -999.2500   109.3180
 2370.0000  -999.2500   110.4159
 2370.5000  -999.2500   111.9455
 2371.0000  -999.2500   112.9247
 2371.5000  -999.2500   113.3044
 2372.0000  -999.2500   113.7066
 2372.5000  -999.2500   115.4531
 2373.0000  -999.2500   116.1870
 2373.5000  -999.2500   117.8863
 2374.0000  -999.2500   119.4355
 2374.5000  -999.2500   113.3603
 2375.0000  -999.2500   112.4527
 2375.5000  -999.2500   115.7386
 2376.0000  -999.2500   119.1265
 2376.5000  -999.2500   113.7047
 2377.0000  -999.2500   110.4218
 2377.5000  -999.2500   107.2576
 2378.0000  -999.2500   105.2629
 2378.5000  -999.2500   108.4673
 2379.0000  -999.2500   111.8876
 2379.5000  -999.2500   115.5894
 2380.0000  -999.2500   114.9046
 2380.5000  -999.2500   112.3997
 2381.0000  -999.2500   115.5983
 2381.5000  -999.2500   122.2112
 2382.0000  -999.2500   123.7830
 2382.5000  -999.2500   120.2842
 2383.0000  -999.2500   114.9792
 2383.5000  -999.2500   109.7153
 2384.0000  -999.2500   102.9249
 2384.5000  -999.2500   105.4130
 2385.0000  -999.2500   110.2511
 2385.5000  -999.2500   111.1046
 2386.0000  -999.2500   110.4698
 2386.5000  -999.2500   106.5600
 2387.0000  -999.2500   110.2501
 2387.5000  -999.2500   113.0100
 2388.0000  -999.2500   115.7101
 2388.5000  -999.2500   115.2774
 2389.0000  -999.2500   110.6474
 2389.5000  -999.2500   106.8828
 2390.0000  -999.2500   109.4828
 2390.5000  -999.2500   111.8935
 2391.0000  -999.2500   110.5503
 2391.5000  -999.2500   110.2304
 2392.0000  -999.2500   111.1046
 2392.5000  -999.2500   111.0105
 2393.0000  -999.2500   109.8929
 2393.5000  -999.2500   105.2207
 2394.0000  -999.2500    98.0692
 2394.5000  -999.2500   100.5162
 2395.0000  -999.2500   110.9849
 2395.5000  -999.2500   114.7977
 2396.0000  -999.2500   117.5429
 2396.5000  -999.2500   113.2995
 2397.0000  -999.2500   110.4129
 2397.5000  -999.2500   106.5394
 2398.0000  -999.2500   109.1325
 2398.5000  -999.2500   114.7192
 2399.0000  -999.2500   112.1074
 2399.5000  -999.2500   108.6145
 2400.0000  -999.2500   112.5538
 2400.5000  -999.2500   111.6335
 2401.0000  -999.2500   113.8214
 2401.5000  -999.2500   115.7759
 2402.0000  -999.2500   116.2380
 2402.5000  -999.2500   117.4634
 2403.0000  -999.2500   121.5607
 2403.5000  -999.2500   123.4209
 2404.0000  -999.2500   114.2600
 2404.5000  -999.2500   109.8704
 2405.0000  -999.2500   111.0203
 2405.5000  -999.2500   111.3529
 2406.0000  -999.2500   108.5900
 2406.5000  -999.2500   107.4420
 2407.0000  -999.2500   109.5486
 2407.5000  -999.2500   110.1804
 2408.0000  -999.2500   110.4522
 2408.5000  -999.2500   106.8857
 2409.0000  -999.2500   103.6588
 2409.5000  -999.2500    99.5115
 2410.0000  -999.2500    96.2099
 2410.5000  -999.2500    92.4394
 2411.0000  -999.2500    91.8478
 2411.5000  -999.2500    93.6570
 2412.0000  -999.2500   102.8621
 2412.5000  -999.2500   101.0872
 2413.0000  -999.2500    98.0731
 2413.5000  -999.2500    95.5006
 2414.0000  -999.2500    99.9795
 2414.5000  -999.2500   104.9519
 2415.0000  -999.2500   109.1021
 2415.5000  -999.2500   106.3128
 2416.0000  -999.2500   103.7637
 2416.5000  -999.2500   109.4092
 2417.0000  -999.2500   104.9038
 2417.5000  -999.2500   103.4105
 2418.0000  -999.2500   104.9136
 2418.5000  -999.2500   106.2333
 2419.0000  -999.2500   108.0199
 2419.5000  -999.2500   112.7608
 2420.0000  -999.2500   113.9706
 2420.5000  -999.2500   112.2673
 2421.0000  -999.2500   108.5488
 2421.5000  -999.2500   105.7447
 2422.0000  -999.2500   111.1086
 2422.5000  -999.2500   108.7116
 2423.0000  -999.2500   106.4374
 2423.5000  -999.2500   108.0307
 2424.0000  -999.2500   108.5036
 2424.5000  -999.2500   112.7971
 2425.0000  -999.2500   115.2696
 2425.5000  -999.2500   121.3016
 2426.0000  -999.2500   118.8900
 2426.5000  -999.2500   117.2005
 2427.0000  -999.2500   114.5916
 2427.5000  -999.2500   111.3568
 2428.0000  -999.2500   112.5656
 2428.5000  -999.2500   110.1667
 2429.0000  -999.2500   112.0907
 2429.5000  -999.2500   112.2418
 2430.0000  -999.2500   113.7773
 2430.5000  -999.2500   108.6488
 2431.0000  -999.2500   107.2968
 2431.5000  -999.2500   108.4654
 2432.0000  -999.2500   112.4959
 2432.5000  -999.2500   110.0578
 2433.0000  -999.2500   108.1887
 2433.5000  -999.2500   112.0632
 2434.0000  -999.2500   113.4152
 2434.5000  -999.2500   114.4984
 2435.0000  -999.2500   114.9537
 2435.5000  -999.2500   114.0854
 2436.0000  -999.2500   112.8766
 2436.5000  -999.2500   111.6865
 2437.0000  -999.2500   112.8962
 2437.5000  -999.2500   113.3250
 2438.0000  -999.2500   111.1341
 2438.5000  -999.2500   115.6316
 2439.0000  -999.2500   119.4708
 2439.5000  -999.2500   120.0605
 2440.0000  -999.2500   115.5129
 2440.5000  -999.2500   107.4411
 2441.0000  -999.2500   108.9255
 2441.5000  -999.2500   108.1553
 2442.0000  -999.2500   113.3269
 2442.5000  -999.2500   114.9291
 2443.0000  -999.2500   116.5313
 2443.5000  -999.2500   119.9840
 2444.0000  -999.2500   119.8839
 2444.5000  -999.2500   112.9129
 2445.0000  -999.2500   109.8321
 2445.5000  -999.2500   107.9954
 2446.0000  -999.2500   108.0876
 2446.5000  -999.2500   109.2836
 2447.0000  -999.2500   110.4904
 2447.5000  -999.2500   111.7424
 2448.0000  -999.2500   113.7665
 2448.5000  -999.2500   117.6479
 2449.0000  -999.2500   121.4292
 2449.5000  -999.2500   123.3218
 2450.0000  -999.2500   125.2919
 2450.5000  -999.2500   123.5926
 2451.0000  -999.2500   122.3917
 2451.5000  -999.2500   122.0444
 2452.0000  -999.2500   121.6833
 2452.5000  -999.2500   118.2581
 2453.0000  -999.2500   114.8418
 2453.5000  -999.2500   113.5182
 2454.0000  -999.2500   112.5911
 2454.5000  -999.2500   115.9368
 2455.0000  -999.2500   118.3896
 2455.5000  -999.2500   116.4676
 2456.0000  -999.2500   118.8400
 2456.5000  -999.2500   115.3883
 2457.0000  -999.2500   117.3771
 2457.5000  -999.2500   123.3669
 2458.0000  -999.2500   121.9286
 2458.5000  -999.2500   116.7178
 2459.0000  -999.2500   110.5228
 2459.5000  -999.2500   106.6208
 2460.0000  -999.2500   108.6439
 2460.5000  -999.2500   106.2392
 2461.0000  -999.2500   108.3054
 2461.5000  -999.2500   103.9786
 2462.0000  -999.2500   110.4757
 2462.5000  -999.2500   108.7342
 2463.0000  -999.2500   106.1126
 2463.5000  -999.2500   111.2734
 2464.0000  -999.2500   118.4573
 2464.5000  -999.2500   114.1540
 2465.0000  -999.2500   112.6028
 2465.5000  -999.2500   117.1298
 2466.0000  -999.2500   121.1967
 2466.5000  -999.2500   121.9217
 2467.0000  -999.2500   115.6866
 2467.5000  -999.2500   117.2221
 2468.0000  -999.2500   119.5837
 2468.5000  -999.2500   120.1204
 2469.0000  -999.2500   122.0767
 2469.5000  -999.2500   123.6034
 2470.0000  -999.2500   120.4706
 2470.5000  -999.2500   118.8792
 2471.0000  -999.2500   119.7838
 2471.5000  -999.2500   124.3746
 2472.0000  -999.2500   118.9008
 2472.5000  -999.2500   124.2912
 2473.0000  -999.2500   127.5025
 2473.5000  -999.2500   125.4165
 2474.0000  -999.2500   118.9862
 2474.5000  -999.2500   117.4850
 2475.0000  -999.2500   113.6586
 2475.5000  -999.2500   107.4744
 2476.0000  -999.2500   105.6799
 2476.5000  -999.2500   102.5697
 2477.0000  -999.2500    95.5663
 2477.5000  -999.2500    93.4490
 2478.0000  -999.2500    91.4475
 2478.5000  -999.2500    89.9463
 2479.0000  -999.2500    93.2724
 2479.5000  -999.2500    99.5458
 2480.0000  -999.2500   101.1667
 2480.5000  -999.2500   100.1168
 2481.0000  -999.2500   107.7089
 2481.5000  -999.2500   114.3355
 2482.0000  -999.2500   119.4963
 2482.5000  -999.2500   118.0050
 2483.0000  -999.2500   116.8051
 2483.5000  -999.2500   117.9628
 2484.0000  -999.2500   114.7496
 2484.5000  -999.2500   116.7943
 2485.0000  -999.2500   115.1155
