~VERSION INFORMATION
 VERS.                2.0:   CWLS LOG ASCII STANDARD - VERSION 2.0
 WRAP.                 NO:   ONE LINE PER DEPTH STEP
~WELL INFORMATION
#MNEM.UNIT      DATA TYPE    INFORMATION
#----------   ------------   ------------------------------
 STRT.F          748.0000:   START DEPTH
 STOP.F         2734.0000:   STOP DEPTH
 STEP.F            0.5000:   STEP LENGTH
 NULL.          -999.2500:   NO VALUE
 COMP.    FENIX & SCISSON:   COMPANY
 WELL. FENIX NPR 3 "SHX" #84-4:   WELL
 FLD .             TEAPOT:   FIELD
 LOC .       S4 T38N R78W:   LOCATION
 CNTY.            NATRONA:   COUNTY
 STAT.            WYOMING:   STATE
 CTRY. UNITED STATES OF AMERICA:   COUNTRY
 SRVC.              WELEX:   SERVICE COMPANY
 DATE.        08-MAY-1980:   LOGDATE
 API .     49025108050000:   API NUMBER
~CURVE INFORMATION
#MNEM.UNIT       API CODE    CURVE DESCRIPTION
#----------   ------------   ------------------------------
 DEPT.F                  :   
 CALD.IN     45 280 60 00:   CALIPER FROM DENSITY LOG
 GRD .GAPI   45 310 01 00:   GAMMA RAY FROM DENSITY LOG
 RHOB.G/C3   45 350 01 00:   BULK DENSITY
 CORR.G/C3   45 356 01 00:   DENSITY CORRECTION
~PARAMETER INFORMATION
#MNEM.UNIT          VALUE    DESCRIPTION
#----------   ------------   ------------------------------
 EKB .F         5244.0000:   Kelly bushing
 EGL .F         5234.0000:   Ground level
 EDF .F            0.0000:   Drilling floor
 TD  .F         2733.0000:   Total depth
 DATE.        08-MAY-1980:   Date logged
 CLNT.            A2DTECH:   Client Code
 SL  . 7461' FNL & 383' FEL:   Surface Location
 PD  .                 GL:   Permanent Datum
 EPD .F              5234:   Elevation Permanent Datum
 LMF .                 KB:   Log Measured From
 DMF .                 KB:   Drilling Measured From
 DAPD.F                10:   Feet Above Permanent Datum
 DD  .F              2700:   Depth driller
 DL  .F              2733:   Depth logger
 BLI .F              2731:   Bottom log interval
 TLI .F               752:   Top log interval
 CS1 .IN            9.625:   Casing size
 CBD1.      9.625" @ 260':   Casing driller 1
 BS1 .IN              8.5:   Bit size
 BSD1.F              2700:   Depth drilled with bit1
 DFT .                AIR:   Type fluid in hole
 MRT .F               118:   Maximum recorded temp.
 LUN .                  2:   Logging unit number
 ENGI.           TORTILLE:   Recorded By
 WITN.              AMEND:   Witnessed by
 ORIG.           5" PRINT:   Origin of data
 UWI .     49025108050000:   Unique Well ID
 DICO. A2D TECHNOLOGIES, INC.:   Digitizing Company
~OTHER INFORMATION
~A   DEPT       CALD       GRD        RHOB       CORR 
# ...
 1989.0000     8.9270    98.0070     2.4590     0.0570
 1989.5000     8.9240    97.9060     2.4510     0.0530
 1990.0000     8.9220    97.8240     2.4470     0.0470
 1990.5000     8.9200    97.7290     2.4450     0.0450
 1991.0000     8.9180    97.6230     2.4430     0.0520
 1991.5000     8.9160    97.5440     2.4400     0.0590
 1992.0000     8.9130    97.5590     2.4380     0.0610
 1992.5000     8.9110    98.2830     2.4360     0.0590
 1993.0000     8.9090    98.9370     2.4340     0.0570
 1993.5000     8.9070    99.3500     2.4370     0.0540
 1994.0000     8.9050    99.1560     2.4470     0.0520
 1994.5000     8.9030    98.8970     2.4520     0.0490
 1995.0000     8.9000    98.6490     2.4520     0.0500
 1995.5000     8.9000    98.4180     2.4590     0.0600
 1996.0000     8.9000    98.0830     2.4670     0.0760
 1996.5000     8.9000    98.6260     2.4760     0.0750
 1997.0000     8.9000   100.0540     2.4780     0.0690
 1997.5000     8.9000   101.4200     2.4730     0.0630
 1998.0000     8.9000   102.8040     2.4720     0.0610
 1998.5000     8.9000   104.2110     2.4740     0.0650
 1999.0000     8.9000   105.2970     2.4840     0.0810
 1999.5000     8.9000   105.5910     2.4800     0.0730
 2000.0000     8.9000   105.8510     2.4710     0.0580
 2000.5000     8.9000   106.0960     2.4630     0.0570
 2001.0000     8.9000   106.3440     2.4690     0.0680
 2001.5000     8.9000   106.5980     2.4740     0.0670
 2002.0000     8.9000   106.8430     2.4530     0.0600
 2002.5000     8.9000   107.0810     2.4410     0.0540
 2003.0000     8.9000   107.0940     2.4410     0.0470
 2003.5000     8.9000   106.8950     2.4440     0.0440
 2004.0000     8.9000   106.6160     2.4490     0.0500
 2004.5000     8.9000   106.3450     2.4550     0.0600
 2005.0000     8.9000   106.0750     2.4630     0.0690
 2005.5000     8.9000   105.8020     2.4720     0.0780
 2006.0000     8.9000   105.5310     2.4800     0.0880
 2006.5000     8.9000   105.2600     2.4880     0.0970
 2007.0000     8.9000   104.9880     2.4850     0.0970
 2007.5000     8.9000   104.6990     2.4810     0.0920
 2008.0000     8.9000   104.3000     2.4790     0.0850
 2008.5000     8.9000   103.8720     2.4890     0.0790
 2009.0000     8.9000   103.4450     2.4830     0.0720
 2009.5000     8.8990   103.0200     2.4720     0.0650
 2010.0000     8.9070   102.5880     2.4600     0.0580
 2010.5000     8.9220   102.1730     2.4760     0.0640
 2011.0000     8.9360   101.7330     2.5080     0.0720
 2011.5000     8.9500   101.3030     2.5040     0.0820
 2012.0000     8.9640   101.1560     2.4940     0.0850
 2012.5000     8.9790   102.1410     2.4970     0.0800
 2013.0000     8.9750   103.0170     2.5040     0.0760
 2013.5000     8.9700   103.9700     2.5060     0.0720
 2014.0000     8.9640   104.8610     2.4950     0.0690
 2014.5000     8.9580   105.8500     2.5080     0.0710
 2015.0000     8.9530   106.5200     2.5030     0.0770
 2015.5000     8.9470   107.2470     2.4980     0.0770
 2016.0000     8.9420   107.9470     2.4940     0.0730
 2016.5000     8.9360   108.6620     2.4950     0.0700
 2017.0000     8.9310   109.3750     2.5050     0.0700
 2017.5000     8.9250   110.0850     2.5150     0.0880
 2018.0000     8.9200   110.7890     2.5070     0.1010
 2018.5000     8.9140   111.5340     2.5040     0.0940
 2019.0000     8.9090   111.9580     2.5010     0.0840
 2019.5000     8.9030   111.6160     2.4960     0.0750
 2020.0000     8.9000   111.1170     2.4870     0.0650
 2020.5000     8.9000   110.6520     2.4770     0.0570
 2021.0000     8.9000   110.1790     2.4670     0.0460
 2021.5000     8.9000   109.7100     2.4600     0.0450
 2022.0000     8.9000   109.2320     2.4580     0.0450
 2022.5000     8.9000   108.7680     2.4590     0.0470
 2023.0000     8.9000   108.3250     2.4610     0.0500
 2023.5000     8.9000   108.3280     2.4660     0.0530
 2024.0000     8.9000   108.4170     2.4580     0.0560
 2024.5000     8.9000   108.5240     2.4560     0.0570
 2025.0000     8.9000   108.6160     2.4550     0.0560
 2025.5000     8.9000   108.7240     2.4560     0.0530
 2026.0000     8.9000   108.8180     2.4400     0.0510
 2026.5000     8.9000   108.8720     2.4380     0.0490
 2027.0000     8.9000   108.5680     2.4450     0.0580
 2027.5000     8.9000   108.3120     2.4520     0.0660
 2028.0000     8.9000   108.0310     2.4590     0.0750
 2028.5000     8.9000   107.7700     2.4660     0.0830
 2029.0000     8.9000   107.7140     2.4670     0.0930
 2029.5000     8.9000   108.0230     2.4570     0.0900
 2030.0000     8.9000   108.3520     2.4470     0.0670
 2030.5000     8.9000   108.6870     2.4410     0.0640
 2031.0000     8.9000   109.0160     2.4340     0.0580
 2031.5000     8.9000   109.3510     2.4290     0.0540
 2032.0000     8.9000   109.6780     2.4230     0.0500
 2032.5000     8.9000   110.0090     2.4170     0.0450
 2033.0000     8.8990   110.1380     2.4120     0.0450
 2033.5000     8.8980   110.2350     2.4150     0.0490
 2034.0000     8.8970   110.3310     2.4180     0.0540
 2034.5000     8.8960   110.4350     2.4200     0.0590
 2035.0000     8.8950   110.5330     2.4190     0.0610
 2035.5000     8.8940   110.6250     2.4140     0.0610
 2036.0000     8.8930   110.9170     2.4150     0.0590
 2036.5000     8.8920   111.5960     2.4210     0.0580
 2037.0000     8.8910   112.2740     2.4270     0.0580
 2037.5000     8.8900   112.9450     2.4320     0.0690
 2038.0000     8.8890   113.6790     2.4310     0.0680
 2038.5000     8.8880   114.4440     2.4180     0.0600
 2039.0000     8.8870   115.2600     2.3950     0.0520
 2039.5000     8.8860   116.1400     2.3970     0.0460
 2040.0000     8.8850   116.7660     2.4060     0.0470
 2040.5000     8.8830   118.4400     2.4140     0.0690
 2041.0000     8.8820   120.4410     2.4180     0.0730
 2041.5000     8.8810   122.4340     2.4030     0.0590
 2042.0000     8.8800   124.4460     2.3820     0.0390
 2042.5000     8.8790   126.3900     2.3700     0.0220
 2043.0000     8.8780   128.5790     2.3750     0.0180
 2043.5000     8.8770   130.0670     2.3820     0.0360
 2044.0000     8.8760   131.7450     2.3800     0.0360
 2044.5000     8.8750   133.3530     2.3840     0.0250
 2045.0000     8.8740   134.9640     2.3900     0.0190
 2045.5000     8.8730   137.2840     2.4030     0.0200
 2046.0000     8.8720   140.4920     2.4280     0.0300
 2046.5000     8.8710   143.6730     2.4410     0.0390
 2047.0000     8.8700   146.8570     2.4470     0.0480
 2047.5000     8.8690   150.0290     2.4530     0.0570
 2048.0000     8.8680   153.3150     2.4610     0.0550
 2048.5000     8.8670   156.4770     2.4650     0.0510
 2049.0000     8.8660   159.4840     2.4700     0.0490
 2049.5000     8.8650   162.6680     2.4750     0.0530
 2050.0000     8.8640   165.7190     2.4790     0.0600
 2050.5000     8.8630   168.8260     2.4820     0.0680
 2051.0000     8.8620   169.6460     2.4850     0.0730
 2051.5000     8.8600   170.1640     2.4770     0.0720
 2052.0000     8.8610   170.0570     2.4600     0.0620
 2052.5000     8.8620   170.1070     2.4430     0.0500
 2053.0000     8.8640   169.9730     2.4400     0.0410
 2053.5000     8.8650   169.8540     2.4530     0.0500
 2054.0000     8.8670   169.7250     2.4460     0.0640
 2054.5000     8.8680   169.6160     2.4290     0.0420
 2055.0000     8.8700   169.5030     2.4290     0.0380
 2055.5000     8.8710   170.1820     2.4420     0.0500
 2056.0000     8.8720   171.0640     2.4540     0.0610
 2056.5000     8.8740   171.9490     2.4660     0.0720
 2057.0000     8.8750   173.0270     2.4760     0.0820
 2057.5000     8.8770   173.5980     2.4790     0.0860
 2058.0000     8.8780   172.8210     2.4800     0.0850
 2058.5000     8.8800   169.9940     2.4670     0.0840
 2059.0000     8.8810   167.3950     2.4500     0.0710
 2059.5000     8.8820   163.4770     2.4320     0.0570
 2060.0000     8.8840   159.2430     2.4230     0.0400
 2060.5000     8.8850   155.4570     2.4280     0.0320
 2061.0000     8.8870   146.5170     2.4340     0.0340
 2061.5000     8.8880   141.5890     2.4400     0.0420
