~VERSION INFORMATION
 VERS.                2.0:   CWLS LOG ASCII STANDARD - VERSION 2.0
 WRAP.                 NO:   ONE LINE PER DEPTH STEP
~WELL INFORMATION
#MNEM.UNIT      DATA TYPE    INFORMATION
#----------   ------------   ------------------------------
 STRT.F           53.0000:   START DEPTH
 STOP.F         3110.0000:   STOP DEPTH
 STEP.F            0.5000:   STEP LENGTH
 NULL.          -999.2500:   NO VALUE
 COMP. LAWRENCE ALLISON & ASSOCIATES W:   COMPANY
 WELL. LAWRENCE NPR 3 "AX" #31-34:   WELL
 FLD .      NPR - WILDCAT:   FIELD
 LOC .      S34 T39N R78W:   LOCATION
 CNTY.            NATRONA:   COUNTY
 STAT.            WYOMING:   STATE
 CTRY. UNITED STATES OF AMERICA:   COUNTRY
 SRVC.      DRESSER ATLAS:   SERVICE COMPANY
 DATE.        11-JUL-1986:   LOGDATE
 API .     49025111020000:   API NUMBER
~CURVE INFORMATION
#MNEM.UNIT       API CODE    CURVE DESCRIPTION
#----------   ------------   ------------------------------
 DEPT.F                  :   
 DEN .G/C3   45 350 01 00:   BULK DENSITY
 TEND.LBS    45 635 01 00:   TENSION FROM DENSITY LOG
 CORR.G/C3   45 356 01 00:   DENSITY CORRECTION
 NPHI.DEC    42 890 03 00:   NEUTRON POROSITY SANDSTONE
 SPR .MV     07 010 01 00:   SPONTANEOUS POTENTIAL
 RILM.OHMM   07 120 44 00:   INDUCTION LOG MEDIUM RESISTIVITY
 RILD.OHMM   07 120 46 00:   DEEP INDUCTION RESISTIVITY
 RFOC.OHMM   07 220 04 00:   RESISTIVITY FOCUSED LOG RES.
 TENR.LBS    07 635 01 00:   TENSION FROM RESISTIVITY
 GRR .GAPI   07 310 01 00:   GAMMA RAY FROM RESISTIVITY
 CALR.IN     07 280 01 00:   CALIPER FROM RESISTIVITY
~PARAMETER INFORMATION
#MNEM.UNIT          VALUE    DESCRIPTION
#----------   ------------   ------------------------------
 EKB .F          5074.800:   Kelly bushing
 EGL .F          5063.000:   Ground level
 EDF .F            0.0000:   Drilling floor
 EPD .F            0.0000:   Permanent datum
 TD  .F         3108.0000:   Total depth
 DATE.        11-JUL-1986:   Date logged
 CLNT.            A2DTECH:   Client Code
 SL  . 1796' FWL & 318' FNL:   Surface Location
 PD  .                 GL:   Permanent Datum
 DAPD.F                11:   Feet Above Permanent Datum
 DD  .F              3103:   Depth driller
 DL  .F              3108:   Depth logger
 BLI .F              3106:   Bottom log interval
 CS1 .IN            8.625:   Casing size
 CBD1.      8.625" @ 602':   Casing driller 1
 CBL1.F               596:   Casing logger 1
 BS1 .IN            7.875:   Bit size
 BSD1.F              3103:   Depth drilled with bit1
 DFT .            KCL/GEL:   Type fluid in hole
 DFD .                  9:   Density
 DFV .                 42:   Viscosity
 MSS .           MUD/TANK:   Source of sample
 RMS .OHMM           .352:   Rm
 MST .F                82:   Rm Meas. temp.
 RMF .OHMM           .264:   Rmf
 MFST.F                82:   Rmf Meas. temp.
 RMC .OHMM            .44:   Rmc
 MCST.F                82:   Rmc Meas. temp.
 MFSS.               CALC:   Source Rmf.
 MCSS.               CALC:   Source Rmc.
 RMB .OHMM            .23:   Rm. at BHT
 BHT .F               115:   BHT.
 TCS .HRS               3:   Time Circ. stopped
 MRT .F               115:   Maximum recorded temp.
 LUN .            HL-6264:   Logging unit number
 LUL .           GILLETTE:   Logging unit location
 ENGI.     P. M. FASHSING:   Recorded By
 WITN.             STRONG:   Witnessed by
 ORIG.           5" PRINT:   Origin of data
 UWI .     49025111020000:   Unique Well ID
 DICO. A2D TECHNOLOGIES, INC.:   Digitizing Company
~OTHER INFORMATION
~A   DEPT      DEN       TEND       CORR       NPHI        SPR       RILM       RILD       RFOC       TENR         GRR      CALR   
# ...
 2096.5000  -999.2500  -999.2500  -999.2500  -999.2500   -92.2690     6.9270     7.6670     9.3570   -68.1700   103.0860     9.9080
 2097.0000  -999.2500  -999.2500  -999.2500  -999.2500   -92.2710     6.9950     7.6670     9.2300   -67.8810   104.3230     9.9070
 2097.5000  -999.2500  -999.2500  -999.2500  -999.2500   -92.1040     7.0800     7.6670     9.1030   -67.5910   107.6980     9.9060
 2098.0000  -999.2500  -999.2500  -999.2500  -999.2500   -91.8510     7.1640     7.6670     8.9760   -67.3020   109.8260     9.9050
 2098.5000  -999.2500  -999.2500  -999.2500  -999.2500   -91.5960     7.2490     7.6670     8.8490   -67.0120   111.0480     9.9040
 2099.0000  -999.2500  -999.2500  -999.2500  -999.2500   -91.3410     7.3330     7.6670     8.7230   -66.7220   108.6530     9.9030
 2099.5000  -999.2500  -999.2500  -999.2500  -999.2500   -91.0850     7.4180     7.6670     9.0150   -66.4330   107.6010     9.9030
 2100.0000  -999.2500  -999.2500  -999.2500  -999.2500   -90.8300     7.5020     7.6670     9.3040   -66.1430   107.2220     9.9020
 2100.5000  -999.2500  -999.2500  -999.2500  -999.2500   -90.5760     7.5550     7.7500     9.5930   -65.8530   105.8150     9.9010
 2101.0000  -999.2500  -999.2500  -999.2500  -999.2500   -90.5510     7.5960     7.9100     9.8340   -65.5640   102.0440     9.9000
 2101.5000  -999.2500  -999.2500  -999.2500  -999.2500   -90.8000     7.6360     8.0700     9.7880   -65.2740    99.4580     9.8990
 2102.0000  -999.2500  -999.2500  -999.2500  -999.2500   -91.0480     7.6770     8.2300     9.7440   -64.9840   101.0040     9.8980
 2102.5000  -999.2500  -999.2500  -999.2500  -999.2500   -91.2930     7.7170     8.2540     9.7600   -64.6950   103.4130     9.8970
 2103.0000  -999.2500  -999.2500  -999.2500  -999.2500   -91.4640     7.7380     8.2540     9.7840   -64.4050   104.4530     9.8970
 2103.5000  -999.2500  -999.2500  -999.2500  -999.2500   -91.4470     7.5890     8.2540     9.8090   -64.1150   102.1470     9.8960
 2104.0000  -999.2500  -999.2500  -999.2500  -999.2500   -91.4330     7.4750     8.1890     9.8340   -63.8260    99.1040     9.8950
 2104.5000  -999.2500  -999.2500  -999.2500  -999.2500   -91.4190     7.3610     8.1210     9.7080   -63.5360    94.6470     9.8940
 2105.0000  -999.2500  -999.2500  -999.2500  -999.2500   -91.4040     7.2470     8.0540     9.5000   -63.2470    90.7250     9.8930
 2105.5000  -999.2500  -999.2500  -999.2500  -999.2500   -91.3900     7.1330     7.9860     9.2200   -62.9570    89.6350     9.8920
 2106.0000  -999.2500  -999.2500  -999.2500  -999.2500   -91.3760     7.1220     7.9180     8.8630   -62.6670    90.7390     9.8910
 2106.5000  -999.2500  -999.2500  -999.2500  -999.2500   -91.3610     7.1220     7.8510     8.5060   -62.3780    91.0900     9.8910
 2107.0000  -999.2500  -999.2500  -999.2500  -999.2500   -91.3470     7.1220     7.7770     8.1500   -62.0880    91.2810     9.8900
 2107.5000  -999.2500  -999.2500  -999.2500  -999.2500   -91.3330     7.1220     7.6150     7.7930   -61.7980    89.3450     9.8910
 2108.0000  -999.2500  -999.2500  -999.2500  -999.2500   -91.3190     7.1220     7.5270     7.7380   -61.5090    88.2150     9.8920
 2108.5000  -999.2500  -999.2500  -999.2500  -999.2500   -91.3040     7.0560     7.6220     7.7380   -61.2190    88.6870     9.8930
 2109.0000  -999.2500  -999.2500  -999.2500  -999.2500   -91.2890     7.2030     7.6870     8.1350   -60.9290    91.5100     9.8940
 2109.5000  -999.2500  -999.2500  -999.2500  -999.2500   -91.2760     7.4060     7.7520     8.8860   -60.6400    94.1190     9.8940
 2110.0000  -999.2500  -999.2500  -999.2500  -999.2500   -91.3210     7.5430     7.8170     9.6380   -60.3500    93.7870     9.8950
 2110.5000  -999.2500  -999.2500  -999.2500  -999.2500   -91.5910     7.6190     7.8820    10.2030   -60.0600    93.4320     9.8960
 2111.0000  -999.2500  -999.2500  -999.2500  -999.2500   -91.8510     7.6960     7.9480     9.8450   -59.7710    94.4020     9.8970
 2111.5000  -999.2500  -999.2500  -999.2500  -999.2500   -92.1120     7.7720     8.0130     9.5050   -62.4170    96.1170     9.8980
 2112.0000  -999.2500  -999.2500  -999.2500  -999.2500   -92.3730     7.8490     8.0780     9.2190   -66.3060    98.2860     9.8990
 2112.5000  -999.2500  -999.2500  -999.2500  -999.2500   -92.6350     7.9250     8.1430     9.7360   -69.4440    98.8130     9.9000
 2113.0000  -999.2500  -999.2500  -999.2500  -999.2500   -92.8680     7.9550     8.2080    10.1830   -69.4440    98.4340     9.9000
 2113.5000  -999.2500  -999.2500  -999.2500  -999.2500   -92.8280     7.9290     8.2730    10.6850   -63.4820    96.3140     9.9010
 2114.0000  -999.2500  -999.2500  -999.2500  -999.2500   -92.7850     7.9110     8.3390    10.4810   -54.2900    95.6220     9.9020
 2114.5000  -999.2500  -999.2500  -999.2500  -999.2500   -92.7430     7.8930     8.4070    10.1830   -51.4560    95.0030     9.9030
 2115.0000  -999.2500  -999.2500  -999.2500  -999.2500   -92.7010     7.8820     8.3910     9.8850   -54.3730    95.1400     9.9040
 2115.5000  -999.2500  -999.2500  -999.2500  -999.2500   -92.6600     7.8820     8.3630     9.5870   -57.2900    95.3420     9.9050
 2116.0000  -999.2500  -999.2500  -999.2500  -999.2500   -92.6180     7.8820     8.3340     9.3050   -60.2060    96.7130     9.9060
 2116.5000  -999.2500  -999.2500  -999.2500  -999.2500   -92.5770     7.8820     8.3000     9.4390   -63.1230    95.3440     9.9060
 2117.0000  -999.2500  -999.2500  -999.2500  -999.2500   -92.5350     7.8820     8.2660     9.5950   -66.0400    97.4700     9.9070
 2117.5000  -999.2500  -999.2500  -999.2500  -999.2500   -92.4850     7.8820     8.2310     9.7520   -68.9560   100.1590     9.9080
 2118.0000  -999.2500  -999.2500  -999.2500  -999.2500   -92.1570     7.8820     8.1970     9.9090   -71.8730   101.5680     9.9090
 2118.5000  -999.2500  -999.2500  -999.2500  -999.2500   -92.0120     7.8830     8.1620    10.0650   -74.7900   102.7370     9.9100
 2119.0000  -999.2500  -999.2500  -999.2500  -999.2500   -91.9380     7.8840     8.1270    10.2220   -77.7060   100.8560     9.9170
 2119.5000  -999.2500  -999.2500  -999.2500  -999.2500   -91.8610     7.6690     8.0590    10.3930   -69.3900   100.6090     9.9250
 2120.0000  -999.2500  -999.2500  -999.2500  -999.2500   -91.7840     7.4260     7.9080    10.0570   -68.8460   100.2880     9.9330
 2120.5000  -999.2500  -999.2500  -999.2500  -999.2500   -91.7060     7.1820     7.7570     9.6860   -68.3030    99.9830     9.9400
 2121.0000  -999.2500  -999.2500  -999.2500  -999.2500   -91.6200     6.9390     7.5940     9.3150   -67.7590    99.6780     9.9480
 2121.5000  -999.2500  -999.2500  -999.2500  -999.2500   -91.5260     6.7960     7.4090     8.9450   -67.2150    99.3750     9.9560
 2122.0000  -999.2500  -999.2500  -999.2500  -999.2500   -91.5300     6.7770     7.2250     8.5740   -66.6720    99.0830     9.9640
 2122.5000  -999.2500  -999.2500  -999.2500  -999.2500   -91.9620     6.7580     7.0410     8.2030   -66.1280    98.3610     9.9700
 2123.0000  -999.2500  -999.2500  -999.2500  -999.2500   -92.3890     6.7380     6.9880     8.1030   -65.5850    96.3220     9.9690
 2123.5000  -999.2500  -999.2500  -999.2500  -999.2500   -92.8200     6.7250     6.9800     8.3000   -65.0410    98.1560     9.9670
 2124.0000  -999.2500  -999.2500  -999.2500  -999.2500   -93.2520     6.7110     6.9730     8.4590   -64.4970    99.3380     9.9660
 2124.5000  -999.2500  -999.2500  -999.2500  -999.2500   -93.1120     6.6970     6.9650     8.6180   -63.9540    99.7470     9.9650
 2125.0000  -999.2500  -999.2500  -999.2500  -999.2500   -93.0470     6.6830     6.9580     8.7780   -63.4100    99.4010     9.9640
 2125.5000  -999.2500  -999.2500  -999.2500  -999.2500   -93.0120     6.6030     6.9510     8.9680   -62.8670    98.8830     9.9620
 2126.0000  -999.2500  -999.2500  -999.2500  -999.2500   -92.9790     6.4620     6.9430     8.7720   -62.3230    98.3560     9.9610
 2126.5000  -999.2500  -999.2500  -999.2500  -999.2500   -92.9460     6.3760     6.9360     8.5640   -61.7790    98.1990     9.9600
