~VERSION INFORMATION
 VERS.                2.0:   CWLS LOG ASCII STANDARD - VERSION 2.0
 WRAP.                 NO:   ONE LINE PER DEPTH STEP
~WELL INFORMATION
#MNEM.UNIT      DATA TYPE    INFORMATION
#----------   ------------   ------------------------------
 STRT.F            0.0000:   START DEPTH
 STOP.F         4134.5000:   STOP DEPTH
 STEP.F            0.5000:   STEP LENGTH
 NULL.          -999.2500:   NO VALUE
 COMP. LAWRENCE ALLISON & ASSOCIATES:   COMPANY
 WELL. LAWRENCE NPR 3 "X" #72-10:   WELL
 FLD .            WILDCAT:   FIELD
 LOC .      S10 T38N R78W:   LOCATION
 CNTY.            NATRONA:   COUNTY
 STAT.            WYOMING:   STATE
 CTRY. UNITED STATES OF AMERICA:   COUNTRY
 SRVC.      DRESSER ATLAS:   SERVICE COMPANY
 DATE.        29-JUL-1983:   LOGDATE
 API .     49025109390000:   API NUMBER
~CURVE INFORMATION
#MNEM.UNIT       API CODE    CURVE DESCRIPTION
#----------   ------------   ------------------------------
 DEPT.F                  :   
 CALD.IN     45 280 60 00:   CALIPER FROM DENSITY LOG
 DEN .G/C3   45 350 01 00:   BULK DENSITY
 CORR.G/C3   45 356 01 00:   DENSITY CORRECTION
 TEND.LBS    45 635 01 00:   TENSION FROM DENSITY LOG
 NPHI.DEC    42 890 03 00:   NEUTRON POROSITY SANDSTONE
 GRD .GAPI   45 310 01 00:   GAMMA RAY FROM DENSITY LOG
 SPR .MV     07 010 01 00:   SPONTANEOUS POTENTIAL
 RILD.OHMM   07 120 46 00:   DEEP INDUCTION RESISTIVITY
 RILM.OHMM   07 120 44 00:   INDUCTION LOG MEDIUM RESISTIVITY
 RFOC.OHMM   07 220 04 00:   RESISTIVITY FOCUSED LOG RES.
 TENR.LBS    07 635 01 00:   TENSION FROM RESISTIVITY
 AC  .US/F   60 250 00 00:   ACCOUSTIC
 TENS.LBS    60 635 01 00:   TENSION FROM SONIC
 GRR .GAPI   07 310 01 00:   GAMMA RAY FROM RESISTIVITY
~PARAMETER INFORMATION
#MNEM.UNIT          VALUE    DESCRIPTION
#----------   ------------   ------------------------------
 EKB .F         5182.0000:   Kelly bushing
 EGL .F         5172.0000:   Ground level
 EDF .F            0.0000:   Drilling floor
 TD  .F         4139.0000:   Total depth
 DATE.        29-JUL-1983:   Date logged
 CLNT.            A2DTECH:   Client Code
 SL  . 900' FNL & 900' FEL:   Surface Location
 PD  .                 GL:   Permanent Datum
 EPD .F              5172:   Elevation Permanent Datum
 LMF .                 KB:   Log Measured From
 DMF .                 KB:   Drilling Measured From
 DAPD.F                10:   Feet Above Permanent Datum
 DD  .F              4139:   Depth driller
 DL  .F              4134:   Depth logger
 BLI .F              4132:   Bottom log interval
 CS1 .IN            9.625:   Casing size
 CBD1.      9.625" @ 476':   Casing driller 1
 BS1 .IN            7.875:   Bit size
 BSD1.F              4139:   Depth drilled with bit1
 DFT .               LSND:   Type fluid in hole
 DFD .                6.6:   Density
 DFV .                 41:   Viscosity
 DFPH.                8.5:   pH
 DFL .                 10:   Fluid loss
 MSS .           FLOWLINE:   Source of sample
 RMS .OHMM            .27:   Rm
 MST .F                91:   Rm Meas. temp.
 RMF .OHMM            .19:   Rmf
 MFST.F                87:   Rmf Meas. temp.
 RMC .OHMM            .34:   Rmc
 MCST.F                87:   Rmc Meas. temp.
 MFSS.               MEAS:   Source Rmf.
 MCSS.               CALC:   Source Rmc.
 RMB .OHMM            .19:   Rm. at BHT
 BHT .F               130:   BHT.
 TCS .HRS               3:   Time Circ. stopped
 MRT .F               130:   Maximum recorded temp.
 LUN .               6274:   Logging unit number
 LUL .               GLTF:   Logging unit location
 ENGI.             RAUTIC:   Recorded By
 WITN.             STRONG:   Witnessed by
 ORIG.           5" PRINT:   Origin of data
 UWI .     49025109390000:   Unique Well ID
 DICO. A2D TECHNOLOGIES, INC.:   Digitizing Company
~OTHER INFORMATION
~A    DEPT    CALD        DEN       CORR       TEND       NPHI        GRD        SPR       RILD       RILM       RFOC       TENR         AC       TENS         GRR  
# ...
 2180.5000     8.9590     2.3590     0.1070   -84.5450     0.3160   123.6610   -49.1480     2.6590     2.6350     3.5990   -57.8060   100.1380   -60.3420   113.7810
 2181.0000     8.9460     2.4040     0.1390   -91.2850     0.3230   127.9880   -49.4650     2.8050     2.8740     4.0960   -57.7100    96.1410   -60.4730   115.2040
 2181.5000     8.9320     2.4490     0.1450   -97.6520     0.3260   137.6820   -49.7800     3.0350     3.1620     3.8920   -57.6140    96.4460   -60.6050   119.1100
 2182.0000     8.9190     2.4940     0.1400   -95.0600     0.3180   140.3240   -50.0960     3.2640     3.4390     3.6940   -57.5180    96.1940   -60.7360   123.2430
 2182.5000     8.9050     2.5360     0.1340   -86.2140     0.3100   142.0040   -50.4140     3.4940     3.7040     4.0760   -57.4220    95.7910   -60.8680   124.4070
 2183.0000     8.8920     2.5500     0.1280   -77.3680     0.3010   142.2970   -50.7240     3.7020     3.9690     4.9240   -57.3270    95.6940   -60.9990   122.1460
 2183.5000     8.8860     2.5560     0.1260   -67.6820     0.3000   140.5770   -50.7540     4.0150     4.2340     5.1550   -57.2310    96.1100   -61.1310   118.7890
 2184.0000     8.8850     2.5620     0.1200   -69.9700     0.3000   137.9210   -50.3810     4.3010     4.5000     4.9920   -57.1350    96.1960   -61.2620   115.2590
 2184.5000     8.8840     2.5680     0.1130   -72.4980     0.3010   135.1420   -50.3330     4.5870     4.6940     4.8340   -57.0390    95.6900   -61.3940   111.7010
 2185.0000     8.8830     2.5810     0.1090   -75.0250     0.3010   134.3450   -50.2520     4.8780     4.8420     5.2960   -56.9440    94.8330   -61.5250   108.1320
 2185.5000     8.8820     2.5990     0.1120   -77.6720     0.3010   134.3230   -50.1690     4.9690     4.9900     6.1320   -56.8480    94.0130   -61.6570   107.9570
 2186.0000     8.8810     2.6160     0.1330   -73.7250     0.3010   134.9610   -50.1650     4.9690     5.2020     6.7290   -56.7520    93.3970   -61.7880   110.6250
 2186.5000     8.8800     2.6100     0.2240   -68.4950     0.3000   135.1000   -50.1650     4.9690     5.1920     6.6070   -56.6560    94.2070   -61.9200   113.2690
 2187.0000     8.8780     2.5840     0.2240   -63.2660     0.3000   133.3480   -50.1660     4.9690     5.1630     6.1220   -56.5610    94.9790   -62.0510   115.9040
 2187.5000     8.8770     2.5580     0.1870   -58.0370     0.2960   131.5900   -50.1660     5.0150     5.1340     5.6980   -56.4650    95.7500   -62.1830   118.5470
 2188.0000     8.8760     2.5360     0.1550   -52.8080     0.2910   131.5850   -50.1660     5.0150     5.1060     5.3970   -56.3690    96.5220   -62.3140   121.0530
 2188.5000     8.8750     2.5370     0.1290   -47.7020     0.2850   132.2220   -50.1660     5.0290     5.0770     5.3970   -56.2730    97.2190   -62.4460   120.5930
 2189.0000     8.8740     2.5350     0.1470   -57.4050     0.2800   130.8110   -50.1650     5.0520     5.0610     5.5490   -56.1780    97.2940   -62.5770   117.4120
 2189.5000     8.8730     2.5240     0.1590   -66.8830     0.2860   128.7130   -50.1670     5.1550     5.2690     5.7560   -56.0820    96.5930   -62.6660   111.3950
 2190.0000     8.8720     2.4900     0.1330   -76.3610     0.2940   126.6020   -50.1710     5.4080     5.5940     6.1380   -55.9860    95.3960   -62.5370   107.2350
 2190.5000     8.8710     2.4590     0.1070   -85.8390     0.2900   124.9490   -50.1280     5.7560     5.9180     6.6440   -55.8900    94.5950   -62.4070   106.9910
 2191.0000     8.8700     2.4400     0.0840   -90.1410     0.2840   126.0130   -49.9760     6.1040     6.2430     7.1220   -55.7950    94.4830   -62.2780   109.0440
 2191.5000     8.8680     2.4380     0.0780   -81.1720     0.2800   127.0870   -49.9650     6.4510     6.5680     7.5140   -55.6990    94.3200   -62.1480   108.6430
 2192.0000     8.8670     2.4410     0.0490   -72.2040     0.2820   128.4050   -49.8380     6.7990     6.8920     7.9690   -55.6030    93.7130   -62.0190   107.3800
 2192.5000     8.8680     2.4460     0.0450   -63.2350     0.2840   130.8020   -49.6950     7.1470     7.2430     8.2360   -55.5070    92.9970   -61.8890   107.4350
 2193.0000     8.8700     2.4520     0.0500   -54.2670     0.2860   133.1830   -49.5510     7.3770     7.4460     8.4680   -55.4120    92.8580   -61.7590   111.1780
 2193.5000     8.8710     2.4650     0.0460   -45.2980     0.2880   134.8140   -49.4080     7.5250     7.6670     8.5460   -55.3160    93.0840   -61.6300   113.4650
 2194.0000     8.8730     2.4780     0.0360   -37.7120     0.2870   130.0520   -49.2580     7.6720     7.8870     8.6250   -55.2200    93.0380   -61.5000   112.7460
 2194.5000     8.8740     2.4900     0.0260   -50.7300     0.2790   121.1040   -49.0210     7.8190     7.9460     8.3770   -55.1240    92.6970   -61.3710   109.9040
 2195.0000     8.8760     2.4920     0.0200   -64.3400     0.2740   112.1110   -48.6330     7.9400     7.9620     8.0140   -55.0280    91.6410   -61.2410   106.8550
 2195.5000     8.8770     2.4950     0.0350   -71.6980     0.2720   108.9070   -48.4160     7.9400     7.9790     8.4510   -54.9330    90.6320   -61.1110   104.9640
 2196.0000     8.8790     2.4970     0.0540   -69.1710     0.2690   114.3810   -47.9730     7.9400     7.9950     8.8220   -54.8370    89.8800   -60.9820   104.4390
 2196.5000     8.8800     2.4970     0.0490   -66.6430     0.2740   122.9710   -47.9510     7.9780     8.0110     9.1980   -54.7410    89.2690   -60.8520   106.6720
 2197.0000     8.8820     2.4870     0.0370   -64.1160     0.2880   131.5560   -47.9180     8.0150     8.0270     9.0020   -54.6450    89.1000   -60.7230   111.2580
 2197.5000     8.8840     2.4770     0.0230   -62.6870     0.2990   138.2650   -47.8920     8.0530     8.0430     8.8660   -54.5500    88.9310   -60.5930   116.1540
 2198.0000     8.8850     2.4670     0.0090   -63.8300     0.2930   142.6660   -47.8670     8.0900     8.0600     9.0310   -54.4540    89.0840   -60.4640   121.0690
 2198.5000     8.8870     2.4680     0.0170   -64.9290     0.2890   146.4070   -47.8410     8.1280     8.0760     8.9200   -54.3580    89.3770   -60.3340   125.0700
 2199.0000     8.8880     2.4740     0.0270   -66.0270     0.2860   141.7480   -47.8140     8.1620     8.1340     8.6780   -54.2620    89.6700   -60.2040   124.9850
 2199.5000     8.8900     2.4810     0.0380   -67.1260     0.2820   137.0650   -47.7900     8.4290     8.3040     8.4360   -54.1670    89.9630   -60.0750   121.1560
 2200.0000     8.8910     2.4870     0.0490   -65.1940     0.2770   132.4460   -47.8810     8.5600     8.4740     8.3140   -54.0710    90.2560   -59.9450   120.4630
 2200.5000     8.8930     2.4840     0.0520   -60.1570     0.2740   128.9230   -47.9790     8.6250     8.6250     9.2350   -53.9750    90.3630   -59.8160   120.1810
 2201.0000     8.8950     2.4830     0.0340   -55.1200     0.2740   134.0270   -48.0520     8.5460     8.4980     9.9920   -53.8790    90.2900   -59.6860   119.9000
 2201.5000     8.8960     2.4900     0.0100   -50.0830     0.2770   147.3540   -48.1280     8.3950     8.3590    10.1770   -53.7840    90.2170   -59.5570   119.6110
 2202.0000     8.8980     2.4960     0.0130   -45.0460     0.2790   142.0040   -48.2050     8.2600     8.2200     9.8060   -53.6880    90.5280   -59.4270   119.3190
 2202.5000     8.8990     2.5030     0.0410   -44.4060     0.2760   131.0100   -48.2830     8.1240     8.0810     9.3080   -53.5920    91.2990   -59.2970   118.5530
 2203.0000     8.9010     2.5100     0.0690   -49.4410     0.2720   120.3910   -48.3610     8.0140     7.9400     8.8110   -53.4960    91.4430   -59.1680   112.9160
 2203.5000     8.9020     2.5050     0.0880   -54.4760     0.2670   114.6930   -48.3770     8.0140     7.9400     8.5460   -53.4010    91.3420   -59.0380   106.3320
 2204.0000     8.9040     2.4980     0.0740   -59.5100     0.2640   112.8510   -48.3780     8.0140     7.9620     8.6880   -53.3050    91.0990   -58.9090   103.5310
 2204.5000     8.9050     2.4900     0.0610   -64.5450     0.2640   108.8590   -48.3780     8.0230     8.0670     8.9920   -53.2090    91.1870   -58.7790   103.1830
