~VERSION INFORMATION
 VERS.                2.0:   CWLS LOG ASCII STANDARD - VERSION 2.0
 WRAP.                 NO:   ONE LINE PER DEPTH STEP
~WELL INFORMATION
#MNEM.UNIT      DATA TYPE    INFORMATION
#----------   ------------   ------------------------------
 STRT.F           89.5000:   START DEPTH
 STOP.F         1300.5000:   STOP DEPTH
 STEP.F            0.5000:   STEP LENGTH
 NULL.          -999.2500:   NO VALUE
 COMP.            US NAVY:   COMPANY
 WELL. US NPR 3 "S" #62-11:   WELL
 FLD .             TEAPOT:   FIELD
 LOC .      S11 T38N R78W:   LOCATION
 CNTY.            NATRONA:   COUNTY
 STAT.            WYOMING:   STATE
 CTRY. UNITED STATES OF AMERICA:   COUNTRY
 SRVC.       SCHLUMBERGER:   SERVICE COMPANY
 DATE.        20-JUL-1964:   LOGDATE
 API .     49025063660000:   API NUMBER
~CURVE INFORMATION
#MNEM.UNIT       API CODE    CURVE DESCRIPTION
#----------   ------------   ------------------------------
 DEPT.F                  :   
 CALS.IN     60 280 50 00:   CALIPER FROM SONIC LOG
 DT  .US/F   60 520 33 00:   DELTA TIME
 SPR .MV     05 010 01 00:   SPONTANEOUS POTENTIAL FROM RES.
 ASN .OHMM   05 041 16 00:   AMPLIFIED SHORT NORMAL 16"
 ILD .OHMM   05 120 46 00:   INDUCTION LOG DEEP
~PARAMETER INFORMATION
#MNEM.UNIT          VALUE    DESCRIPTION
#----------   ------------   ------------------------------
 EKB .F         5223.0000:   Kelly bushing
 EGL .F         5215.0000:   Ground level
 EDF .F            0.0000:   Drilling floor
 TD  .F         1303.0000:   Total depth
 DATE.        20-JUL-1964:   Date logged
 CLNT.            A2DTECH:   Client Code
 PD  .                 GL:   Permanent Datum
 EPD .F              5215:   Elevation Permanent Datum
 LMF .                 KB:   Log Measured From
 DMF .                 KB:   Drilling Measured From
 DAPD.F                 8:   Feet Above Permanent Datum
 DD  .F              1303:   Depth driller
 DL  .F              1300:   Depth logger
 BLI .F              1299:   Bottom log interval
 TLI .F                94:   Top log interval
 CS1 .IN            12.25:   Casing size
 CBD1.       12.25" @ 10':   Casing driller 1
 BS1 .IN               11:   Bit size
 BSD1.F              1303:   Depth drilled with bit1
 DFT .            GEL/OIL:   Type fluid in hole
 DFD .                9.8:   Density
 DFV .                 60:   Viscosity
 DFL .                 10:   Fluid loss
 MSS .           FLOWLINE:   Source of sample
 RMS .OHMM           3.13:   Rm
 MST .F                86:   Rm Meas. temp.
 RMF .OHMM           1.81:   Rmf
 MFST.F                86:   Rmf Meas. temp.
 RMC .OHMM           3.39:   Rmc
 MCST.F                86:   Rmc Meas. temp.
 MFSS.                 FP:   Source Rmf.
 MCSS.                 FP:   Source Rmc.
 TCS .HRS             2.5:   Time Circ. stopped
 LUN .               4507:   Logging unit number
 LUL .               CSPR:   Logging unit location
 ENGI.             DANNER:   Recorded By
 WITN.         JORGENESEN:   Witnessed by
 ORIG.       2", 5" PRINT:   Origin of data
 UWI .     49025063660000:   Unique Well ID
 DICO. A2D TECHNOLOGIES, INC.:   Digitizing Company
~OTHER INFORMATION
~A   DEPT     CALS         DT        SPR        ASN          ILD 
# ...
  272.5000  -999.2500  -999.2500   -47.0540     6.2520     5.1270
  273.0000  -999.2500  -999.2500   -46.9440     6.0470     5.2100
  273.5000  -999.2500  -999.2500   -47.0000     5.7830     5.2780
  274.0000  -999.2500  -999.2500   -47.2070     5.7840     5.2880
  274.5000  -999.2500  -999.2500   -47.3610     5.9200     5.3330
  275.0000  -999.2500  -999.2500   -47.5260     5.9880     5.3640
  275.5000  -999.2500  -999.2500   -47.6960     6.0690     5.3940
  276.0000  -999.2500  -999.2500   -47.8840     6.1650     5.4330
  276.5000  -999.2500  -999.2500   -48.0450     6.2090     5.4610
  277.0000  -999.2500  -999.2500   -48.0970     6.2290     5.4970
  277.5000  -999.2500  -999.2500   -48.0350     6.3060     5.5300
  278.0000  -999.2500  -999.2500   -47.8670     6.4070     5.5620
  278.5000  -999.2500  -999.2500   -47.7560     6.4370     5.5980
  279.0000  -999.2500  -999.2500   -47.7240     6.4120     5.6280
  279.5000  -999.2500  -999.2500   -47.6530     6.3720     5.6670
  280.0000  -999.2500  -999.2500   -47.5820     6.3280     5.7020
  280.5000  -999.2500  -999.2500   -47.5410     6.3010     5.7080
  281.0000  -999.2500  -999.2500   -47.4740     6.2930     5.7030
  281.5000  -999.2500  -999.2500   -47.3450     6.2910     5.7060
  282.0000  -999.2500  -999.2500   -47.2150     6.2840     5.7050
  282.5000  -999.2500  -999.2500   -47.1070     6.2810     5.6840
  283.0000  -999.2500  -999.2500   -46.9910     6.2840     5.6400
  283.5000  -999.2500  -999.2500   -46.8740     6.2890     5.5900
  284.0000  -999.2500  -999.2500   -46.7610     6.2940     5.5450
  284.5000  -999.2500  -999.2500   -46.7110     6.2970     5.4980
  285.0000  -999.2500  -999.2500   -46.7460     6.3020     5.4490
  285.5000  -999.2500  -999.2500   -46.7860     6.3080     5.4050
  286.0000  -999.2500  -999.2500   -46.8170     6.3090     5.3570
  286.5000  -999.2500  -999.2500   -46.8540     6.3200     5.3070
  287.0000  -999.2500  -999.2500   -46.8890     6.3140     5.2690
  287.5000  -999.2500  -999.2500   -46.9230     6.2600     5.1990
  288.0000  -999.2500  -999.2500   -46.9590     6.2010     5.1170
  288.5000  -999.2500  -999.2500   -46.9940     6.1560     5.1000
  289.0000  -999.2500  -999.2500   -47.0270     6.1030     5.1150
  289.5000  -999.2500  -999.2500   -47.0660     6.0500     5.1410
  290.0000  -999.2500  -999.2500   -47.0960     6.0060     5.1860
  290.5000  -999.2500  -999.2500   -47.0890     5.9770     5.2230
  291.0000  -999.2500  -999.2500   -47.0720     5.9860     5.2630
  291.5000  -999.2500  -999.2500   -47.0620     6.0390     5.3030
  292.0000  -999.2500  -999.2500   -47.0490     6.1010     5.3400
  292.5000  -999.2500  -999.2500   -47.0360     6.1560     5.3840
  293.0000  -999.2500  -999.2500   -47.0240     6.1990     5.4160
  293.5000  -999.2500  -999.2500   -47.0110     6.2230     5.4650
  294.0000  -999.2500  -999.2500   -46.9990     6.2460     5.5010
  294.5000  -999.2500  -999.2500   -46.9860     6.2770     5.5110
  295.0000  -999.2500  -999.2500   -46.9730     6.3030     5.6040
  295.5000  -999.2500  -999.2500   -46.9610     6.3300     5.7050
  296.0000  -999.2500  -999.2500   -46.9480     6.3620     5.6760
  296.5000  -999.2500  -999.2500   -46.9360     6.3580     5.6000
  297.0000  -999.2500  -999.2500   -46.9230     6.3190     5.5330
  297.5000  -999.2500  -999.2500   -46.9110     6.3020     5.4570
  298.0000  -999.2500  -999.2500   -46.9050     6.3160     5.3880
  298.5000  -999.2500  -999.2500   -46.9060     6.3480     5.3140
  299.0000  -999.2500  -999.2500   -46.9050     6.3290     5.2420
  299.5000  -999.2500  -999.2500   -46.9060     6.1980     5.1730
  300.0000  -999.2500  -999.2500   -46.9060     6.0460     5.0930
  300.5000  -999.2500  -999.2500   -46.9040     5.9690     5.0350
  301.0000  -999.2500  -999.2500   -46.9070     5.9540     4.9450
  301.5000  -999.2500  -999.2500   -46.9030     5.9530     4.8210
  302.0000  -999.2500  -999.2500   -46.9040     5.9420     4.8030
  302.5000  -999.2500  -999.2500   -46.9080     5.9340     4.8620
  303.0000  -999.2500  -999.2500   -46.8970     5.9260     4.9050
  303.5000  -999.2500  -999.2500   -46.9160     5.9220     4.9550
  304.0000  -999.2500  -999.2500   -46.8890     5.9520     5.0080
  304.5000  -999.2500  -999.2500   -46.7320     6.0050     5.0540
  305.0000  -999.2500  -999.2500   -46.6260     6.0530     5.1060
  305.5000  -999.2500  -999.2500   -46.6280     6.1070     5.1560
  306.0000  -999.2500  -999.2500   -46.5200     6.1600     5.2010
  306.5000  -999.2500  -999.2500   -46.3530     6.1750     5.2580
  307.0000  -999.2500  -999.2500   -46.2990     6.1670     5.3030
  307.5000  -999.2500  -999.2500   -46.3470     6.1490     5.2950
  308.0000  -999.2500  -999.2500   -46.5650     6.1460     5.2700
  308.5000  -999.2500  -999.2500   -46.8610     6.2000     5.2560
  309.0000  -999.2500  -999.2500   -47.0820     6.2700     5.2370
  309.5000  -999.2500  -999.2500   -47.3830     6.3260     5.2180
  310.0000  -999.2500  -999.2500   -47.6570     6.3810     5.2020
  310.5000  -999.2500  -999.2500   -47.7050     6.3980     5.1820
  311.0000  -999.2500  -999.2500   -47.6610     6.3750     5.1640
  311.5000  -999.2500  -999.2500   -47.5290     6.3450     5.1470
  312.0000  -999.2500  -999.2500   -47.3130     6.3050     5.1270
  312.5000  -999.2500  -999.2500   -47.1300     6.2620     5.1100
  313.0000  -999.2500  -999.2500   -46.9340     6.2220     5.1150
  313.5000  -999.2500  -999.2500   -46.7360     6.1780     5.1330
  314.0000  -999.2500  -999.2500   -46.5510     6.1380     5.1490
  314.5000  -999.2500  -999.2500   -46.3440     6.0940     5.1650
  315.0000  -999.2500  -999.2500   -46.1690     6.0620     5.1820
  315.5000  -999.2500  -999.2500   -45.9540     6.0790     5.1980
  316.0000  -999.2500  -999.2500   -45.7520     6.1280     5.2150
  316.5000  -999.2500  -999.2500   -45.7390     6.1650     5.2320
  317.0000  -999.2500  -999.2500   -45.7410     6.2030     5.2480
  317.5000  -999.2500  -999.2500   -45.7510     6.2450     5.2660
  318.0000  -999.2500  -999.2500   -45.9750     6.2790     5.2820
  318.5000  -999.2500  -999.2500   -46.2440     6.3230     5.2990
  319.0000  -999.2500  -999.2500   -46.4630     6.3320     5.3080
  319.5000  -999.2500  -999.2500   -46.7290     6.3150     5.3060
  320.0000  -999.2500  -999.2500   -46.8990     6.3210     5.4090
  320.5000  -999.2500  -999.2500   -46.9110     6.2800     5.6590
  321.0000  -999.2500  -999.2500   -46.9040     6.3220     5.8890
  321.5000  -999.2500  -999.2500   -46.8680     6.5670     6.0990
  322.0000  -999.2500  -999.2500   -46.7660     6.8360     6.3440
  322.5000  -999.2500  -999.2500   -46.6640     7.0530     6.5340
  323.0000  -999.2500  -999.2500   -46.5630     7.2770     6.7990
  323.5000  -999.2500  -999.2500   -46.4600     7.5470     7.0720
  324.0000  -999.2500  -999.2500   -46.3600     7.7180     7.0230
  324.5000  -999.2500  -999.2500   -46.2540     7.6120     6.8100
  325.0000  -999.2500  -999.2500   -46.1600     7.3820     6.6490
  325.5000  -999.2500  -999.2500   -46.0470     7.2140     6.4620
  326.0000  -999.2500  -999.2500   -45.9430     7.1260     6.2780
  326.5000  -999.2500  -999.2500   -45.9300     7.0620     6.1050
  327.0000  -999.2500  -999.2500   -45.9390     6.9770     5.9170
  327.5000  -999.2500  -999.2500   -45.9340     6.8980     5.8050
  328.0000  -999.2500  -999.2500   -45.9380     6.8140     5.8010
  328.5000  -999.2500  -999.2500   -45.9330     6.7430     5.8270
  329.0000  -999.2500  -999.2500   -45.9410     6.7040     5.8760
  329.5000  -999.2500  -999.2500   -45.9290     6.7280     6.0140
  330.0000  -999.2500  -999.2500   -45.9460     6.8760     6.2190
  330.5000  -999.2500  -999.2500   -46.1120     7.0560     6.4280
  331.0000  -999.2500  -999.2500   -46.3630     7.2130     6.6370
  331.5000  -999.2500  -999.2500   -46.6000     7.3730     6.8420
  332.0000  -999.2500  -999.2500   -46.8320     7.5470     7.0540
  332.5000  -999.2500  -999.2500   -47.0860     7.7220     7.2610
  333.0000  -999.2500  -999.2500   -47.3110     7.8460     7.4660
