~VERSION INFORMATION
 VERS.                2.0:   CWLS LOG ASCII STANDARD - VERSION 2.0
 WRAP.                 NO:   ONE LINE PER DEPTH STEP
~WELL INFORMATION
#MNEM.UNIT      DATA TYPE    INFORMATION
#----------   ------------   ------------------------------
 STRT.F          198.0000:   START DEPTH
 STOP.F         3252.0000:   STOP DEPTH
 STEP.F            0.5000:   STEP LENGTH
 NULL.          -999.2500:   NO VALUE
 COMP. FENIX & SCISSON - U.S. NAVY:   COMPANY
 WELL.   FENIX A X #21-33:   WELL
 FLD .              NPR-3:   FIELD
 LOC .      S33 T39N R78W:   LOCATION
 CNTY.            NATRONA:   COUNTY
 STAT.            WYOMING:   STATE
 CTRY. UNITED STATES OF AMERICA:   COUNTRY
 SRVC.              WELEX:   SERVICE COMPANY
 DATE.        06-JUN-1977:   LOGDATE
 API .     49025103750000:   API NUMBER
~CURVE INFORMATION
#MNEM.UNIT       API CODE    CURVE DESCRIPTION
#----------   ------------   ------------------------------
 DEPT.F                  :   
 CALD.IN     45 280 60 00:   CALIPER FROM DENSITY LOG
 GRD .GAPI   45 310 01 00:   GAMMA RAY FROM DENSITY LOG
 RHOB.G/C3   45 350 01 00:   BULK DENSITY
 CORR.G/C3   45 356 01 00:   DENSITY CORRECTION
 NPHI.DEC    42 890 01 00:   NEUTRON POROSITY LIMESTONE
 SPR .MV     07 010 01 00:   SPONTANEOUS POTENTIAL
 GURD.OHMM   07 220 05 00:   GUARD LOG RESISTIVITY
 FORX.OHMM   07 220 00 00:   FORMATION FACTOR
~PARAMETER INFORMATION
#MNEM.UNIT          VALUE    DESCRIPTION
#----------   ------------   ------------------------------
 EKB .F         5147.0000:   Kelly bushing
 EGL .F         5137.0000:   Ground level
 EDF .F            0.0000:   Drilling floor
 EPD .F            0.0000:   Permanent datum
 TD  .F         3254.0000:   Total depth
 CLNT.            A2DTECH:   Client Code
 SL  . 660' FNL & 1320' FWL:   Surface Location
 PD  .                 GL:   Permanent Datum
 DAPD.F                10:   Feet Above Permanent Datum
 DATE.        06-JUN-1977:   Date Logged [DD-MMM-YYYY]
 DD  .F              3249:   Depth driller
 DL  .F              3254:   Depth logger
 BLI .F              3252:   Bottom log interval
 TLI .F               200:   Top log interval
 CS1 .IN            8.625:   Casing size
 CBD1.      8.625" @ 204':   Casing driller 1
 CBL1.F               221:   Casing logger 1
 BS1 .IN            7.875:   Bit size
 BSD1.F              3249:   Depth drilled with bit1
 DFT .            KCL MUD:   Type fluid in hole
 DFD .                  9:   Density
 DFV .                134:   Viscosity
 DFPH.                7.5:   pH
 DFL .                7.8:   Fluid loss
 MSS .           FLOWLINE:   Source of sample
 RMS .OHMM           0.64:   Rm
 MST .F                85:   Rm Meas. temp.
 RMF .OHMM           0.61:   Rmf
 MFST.F                85:   Rmf Meas. temp.
 MFSS.           FANN KIT:   Source Rmf.
 RMC .OHMM              1:   Rmc
 MCST.F                85:   Rmc Meas. temp.
 MCSS.           FANN KIT:   Source Rmc.
 RMB .OHMM           0.46:   Rm. at BHT
 BHT .F               116:   BHT.
 TCS .HRS             2.5:   Time Circ. stopped
 MRT .F               116:   Maximum recorded temp.
 LUN .               8611:   Logging unit number
 LUL .             CASPER:   Logging unit location
 ENGI.            C. DOAK:   Recorded By
 WITN.      B. HARRINGTON:   Witnessed by
 ORIG.           5" PRINT:   Origin of data
 UWI .     49025103750000:   Unique Well ID
 DICO. A2D TECHNOLOGIES, INC.:   Digitizing Company
~OTHER INFORMATION
~A   DEPT     CALD         GRD      RHOB       CORR       NPHI        SPR       GURD       FORX   
# ...
 2992.5000     8.2992   151.3790     2.4140     0.0336     0.2231   -35.2912     8.0586     4.7125
 2993.0000     8.3304   153.1575     2.4397     0.0337     0.2222   -34.9511     8.3469     4.6095
 2993.5000     8.3319   148.4576     2.4533     0.0353     0.2212   -34.9426     8.2907     4.2572
 2994.0000     8.3333   142.5549     2.4691     0.0399     0.2202   -34.9408     7.9663     4.0098
 2994.5000     8.3348   138.1402     2.5246     0.0460     0.2187   -34.8648     9.0247     4.1282
 2995.0000     8.3214   134.9161     2.5292     0.0520     0.2171   -34.3721    11.9062     4.3416
 2995.5000     8.3232   137.6443     2.5009     0.0551     0.2158   -33.8845     9.4089     4.9024
 2996.0000     8.3098   143.3487     2.4441     0.0552     0.2155   -33.5436     7.1312     6.1147
 2996.5000     8.3112   149.9460     2.4457     0.0538     0.2151   -32.9466     6.3661     7.1036
 2997.0000     8.3127   157.7337     2.4646     0.0569     0.2151   -32.7689     6.9752     5.4648
 2997.5000     8.3141   163.4381     2.4781     0.0615     0.2148   -32.5150     7.9004     4.2642
 2998.0000     8.3003   165.5797     2.4790     0.0676     0.2169   -32.3685     8.8240     3.6754
 2998.5000     8.2869   165.2936     2.4845     0.0722     0.2193   -32.0113     7.5904     3.5997
 2999.0000     8.2738   162.9918     2.4993     0.0738     0.2206   -31.5610     6.2665     3.8956
 2999.5000     8.2604   165.1372     2.5257     0.0754     0.2215   -31.5866     5.8142     3.8706
 3000.0000     8.2619   166.6750     2.5288     0.0755     0.2221   -31.5969     6.3191     3.3126
 3000.5000     8.2044   168.2127     2.5222     0.0756     0.2225   -31.4948     6.5451     3.0837
 3001.0000     8.1617   170.9409     2.5111     0.0742     0.2217   -31.3540     5.5157     2.9618
 3001.5000     8.1487   175.4548     2.4992     0.0713     0.2207   -31.2124     6.5555     3.0281
 3002.0000     8.1060   178.1830     2.4874     0.0684     0.2198   -31.0709     6.2951     3.0958
 3002.5000     8.0930   179.4232     2.4867     0.0685     0.2194   -30.9294     5.6822     3.2104
 3003.0000     8.0800   179.4728     2.4891     0.0671     0.2197   -30.7879     5.3819     3.2583
 3003.5000     8.0670   180.1177     2.5012     0.0673     0.2216   -30.6464     5.3123     3.0594
 3004.0000     8.0694   171.2388     2.5170     0.0687     0.2244   -30.5064     5.8942     2.9341
 3004.5000     8.0713   167.7042     2.5320     0.0703     0.2268   -30.4119     5.8579     2.8949
 3005.0000     8.0732   164.4051     2.5245     0.0704     0.2296   -30.4136     6.2809     2.9808
 3005.5000     8.0751   159.9235     2.4837     0.0705     0.2323   -30.4132     6.4596     3.2518
 3006.0000     8.0770   166.9438     2.4726     0.0706     0.2304   -30.4301     5.2964     3.3729
 3006.5000     8.0789   167.2883     2.4697     0.0737     0.2288   -30.4591     5.3737     3.2087
 3007.0000     8.0957   167.9304     2.4900     0.0768     0.2276   -30.4882     5.6819     2.9279
 3007.5000     8.0976   168.8702     2.5118     0.0828     0.2266   -30.5173     5.3081     2.8678
 3008.0000     8.1144   172.1909     2.5276     0.0874     0.2266   -30.5464     4.9579     3.1485
 3008.5000     8.1163   170.7241     2.5367     0.0905     0.2269   -30.5756     5.6237     3.1729
 3009.0000     8.1330   161.3540     2.5368     0.0921     0.2265   -30.6047     5.5450     3.0005
 3009.5000     8.1359   154.9459     2.5092     0.0936     0.2262   -30.6338     5.9853     2.8369
 3010.0000     8.1815   150.9618     2.4607     0.0803     0.2262   -30.6629     6.5500     2.7596
 3010.5000     8.2285   154.2825     2.4428     0.0683     0.2265   -30.6920     6.5988     2.8032
 3011.0000     8.3197   156.4128     2.4726     0.0685     0.2264   -30.7212     7.0258     3.0344
 3011.5000     8.3662   158.2454     2.5004     0.0731     0.2264   -30.7499     9.1308     3.2121
 3012.0000     8.2491   159.4828     2.5207     0.0747     0.2267   -30.7806     5.6857     3.5510
 3012.5000     8.1766   160.7202     2.5095     0.0762     0.2270   -30.7981     4.9935     3.6824
 3013.0000     8.1785   162.8504     2.4864     0.0778     0.2276   -31.4100    13.6383     3.3840
 3013.5000     8.1802   164.6713     2.4745     0.0734     0.2288   -32.2901     3.9577     3.0879
 3014.0000     8.1672   159.0752     2.4663     0.0690     0.2288   -32.3861     6.3664     2.8176
 3014.5000     8.1692   155.2413     2.4986     0.0661     0.2275   -32.3983    10.1910     2.5710
 3015.0000     8.1864   162.4428     2.5028     0.0632     0.2261   -31.6668     6.6903     2.3460
 3015.5000     8.1729   168.1445     2.4673     0.0588     0.2231   -31.5907     4.9477     2.6683
 3016.0000     8.1753   170.2747     2.5083     0.0559     0.2194   -31.5933     4.6854     3.1510
 3016.5000     8.1772   165.2621     2.5329     0.0575     0.2169   -31.5868     5.8043     3.2379
 3017.0000     8.1791   163.5120     2.5109     0.0561     0.2153   -31.5646     5.2382     2.9551
 3017.5000     8.1810   161.4290     2.4683     0.0517     0.2137   -32.0092     4.9969     2.6396
 3018.0000     8.1829   166.8822     2.4475     0.0457     0.2112   -31.5916     5.5441     2.4600
 3018.5000     8.1848   173.1996     2.4505     0.0368     0.2078   -31.2098     5.9831     2.9833
 3019.0000     8.1867   170.2703     2.4603     0.0355     0.2038   -31.1821     5.3635     3.0494
 3019.5000     8.2035   168.5316     2.4813     0.0371     0.2007   -31.5748     6.4629     2.6669
 3020.0000     8.2054   168.5785     2.4978     0.0372     0.1985   -32.0107     5.4706     2.5576
 3020.5000     8.2073   171.8992     2.5203     0.0373     0.1960   -31.9911     5.1950     2.4879
 3021.0000     8.2092   170.1604     2.5208     0.0374     0.1944   -31.9302     6.7518     2.5811
 3021.5000     8.2112   141.3383     2.5078     0.0360     0.1913   -31.8269    14.9042     2.8078
 3022.0000     8.2283   133.9447     2.4869     0.0361     0.1885   -31.7232     7.7595     3.2446
 3022.5000     8.2302   132.8011     2.4881     0.0362     0.1857   -31.6224     7.4002     3.4371
 3023.0000     8.2321   134.6338     2.5215     0.0378     0.1835   -31.3033     7.0562     3.8816
 3023.5000     8.2489   143.9069     2.5290     0.0408     0.1834   -30.9266     7.7234     4.0244
 3024.0000     8.2508   148.7157     2.4954     0.0394     0.1847   -30.5499     8.3941     3.5447
 3024.5000     8.2527   151.1436     2.4753     0.0291     0.1862   -30.1678     8.3017     3.6240
 3025.0000     8.2546   150.8929     2.4678     0.0306     0.1881   -30.1567     6.6844     3.7581
 3025.5000     8.2565   147.2960     2.4731     0.0338     0.1901   -30.3762     6.6584     3.9529
 3026.0000     8.2584   143.5462     2.4829     0.0400     0.1929   -30.5998     6.0112     4.1300
 3026.5000     8.2603   145.4882     2.4942     0.0444     0.1969   -30.8239     6.4884     3.5559
 3027.0000     8.2622   149.0089     2.5115     0.0460     0.2024   -31.0474     6.9066     3.3417
 3027.5000     8.2641   151.1392     2.5280     0.0445     0.2052   -31.2700     5.9422     3.0710
 3028.0000     8.2661   153.5670     2.5184     0.0417     0.2080   -31.3995     5.3636     2.8830
 3028.5000     8.2680   157.4830     2.5065     0.0388     0.2107   -31.4413     5.7894     3.0325
 3029.0000     8.2703   158.7086     2.4953     0.0359     0.2132   -31.5429     5.9964     3.1441
 3029.5000     8.2722   154.0054     2.4854     0.0344     0.2156   -31.6432     6.9330     2.9313
 3030.0000     8.2587   154.9452     2.4739     0.0345     0.2175   -31.7440     5.4913     2.7130
 3030.5000     8.2611   159.4564     2.4656     0.0346     0.2187   -31.8447     7.3374     2.7152
 3031.0000     8.2630   151.7652     2.4649     0.0362     0.2193   -31.9453     8.6608     2.7759
 3031.5000     8.2649   145.8597     2.4680     0.0378     0.2199   -32.0460     6.4038     2.9445
 3032.0000     8.2668   143.4283     2.4755     0.0394     0.2208   -32.1467     6.0654     3.0718
 3032.5000     8.2687   145.9536     2.4883     0.0410     0.2217   -32.2474     5.2174     3.2311
