~VERSION INFORMATION
 VERS.                2.0:   CWLS LOG ASCII STANDARD - VERSION 2.0
 WRAP.                 NO:   ONE LINE PER DEPTH STEP
~WELL INFORMATION
#MNEM.UNIT      DATA TYPE    INFORMATION
#----------   ------------   ------------------------------
 STRT.F          450.0000:   START DEPTH
 STOP.F         3070.0000:   STOP DEPTH
 STEP.F            0.5000:   STEP LENGTH
 NULL.          -999.2500:   NO VALUE
 COMP. LAWRENCE ALLISON & ASSOCIATES:   COMPANY
 WELL. LAWRENCE "X" #86-28:   WELL
 FLD .             NPR #3:   FIELD
 LOC .      S28 T39N R78W:   LOCATION
 CNTY.            NATRONA:   COUNTY
 STAT.            WYOMING:   STATE
 CTRY. UNITED STATES OF AMERICA:   COUNTRY
 SRVC.      WESTERN ATLAS:   SERVICE COMPANY
 DATE.        03-JAN-1988:   LOGDATE
 API .     49025111920000:   API NUMBER
~CURVE INFORMATION
#MNEM.UNIT       API CODE    CURVE DESCRIPTION
#----------   ------------   ------------------------------
 DEPT.F                  :   
 TEND.LBS    45 635 01 00:   TENSION FROM DENSITY LOG
 CALD.IN     45 280 60 00:   CALIPER FROM DENSITY LOG
 NPHI.DEC    42 890 03 00:   NEUTRON POROSITY SANDSTONE
 DEN .G/C3   45 350 01 00:   BULK DENSITY
 CORR.G/C3   45 356 01 00:   DENSITY CORRECTION
 TENR.LBS    07 635 01 00:   TENSION FROM RESISTIVITY
 RFOC.OHMM   07 220 04 00:   RESISTIVITY FOCUSED LOG RES.
 RILD.OHMM   07 120 46 00:   DEEP INDUCTION RESISTIVITY
 RILM.OHMM   07 120 44 00:   INDUCTION LOG MEDIUM RESISTIVITY
 SPR .MV     07 010 01 00:   SPONTANEOUS POTENTIAL
 GRR .GAPI   07 310 01 00:   GAMMA RAY FROM RESISTIVITY
~PARAMETER INFORMATION
#MNEM.UNIT          VALUE    DESCRIPTION
#----------   ------------   ------------------------------
 EKB .F         5072.0000:   Kelly bushing
 EGL .F         5061.0000:   Ground level
 EDF .F         5071.0000:   Drilling floor
 TD  .F         3062.0000:   Total depth
 DATE.        03-JAN-1988:   Date logged
 CLNT.            A2DTECH:   Client Code
 SL  . 1721' FSL & 556' FEL:   Surface Location
 PD  .                 GL:   Permanent Datum
 DD  .F              3060:   Depth driller
 DL  .F              3062:   Depth logger
 BLI .F              3060:   Bottom log interval
 CS1 .IN            8.625:   Casing size
 CBD1.      8.625" @ 480':   Casing driller 1
 CBL1.F               480:   Casing logger 1
 BS1 .IN            7.875:   Bit size
 DFT .        KCL-POLYMER:   Type fluid in hole
 DFD .                8.9:   Density
 DFV .                 36:   Viscosity
 DFPH.                9.5:   pH
 DFL .                8.4:   Fluid loss
 MSS .               TANK:   Source of sample
 RMS .OHMM           0.45:   Rm
 MST .F                80:   Rm Meas. temp.
 RMF .OHMM           0.41:   Rmf
 MFST.F                60:   Rmf Meas. temp.
 RMC .OHMM           0.65:   Rmc
 MCST.F                60:   Rmc Meas. temp.
 MFSS.               MEAS:   Source Rmf.
 RMB .OHMM           0.31:   Rm. at BHT
 BHT .F               110:   BHT.
 TCS .HRS               4:   Time Circ. stopped
 MRT .F               110:   Maximum recorded temp.
 LUN .            HL 6343:   Logging unit number
 LUL .               CODY:   Logging unit location
 ENGI.               RALL:   Recorded By
 WITN.              FIVRS:   Witnessed by
 ORIG.     2.5", 5" PRINT:   Origin of data
 UWI .     49025111920000:   Unique Well ID
 DICO. A2D TECHNOLOGIES, INC.:   Digitizing Company
 DAPD.                 11:   Feet Above Permanent Datum
 BSD1.               3060:   Depth drilled with bit1
 MCSS.               CALC:   Source Rmc.
 EPD .               5061:   Elevation Permanent Datum
 LMF .                 KB:   Log Measured From
 DMF .                 KB:   Drilling Measured From
 TLI .                480:   Top log interval
~OTHER INFORMATION
~A   DEPT     TEND       CALD       NPHI        DEN       CORR       TENR       RFOC       RILD       RILM        SPR         GRR  
# ...
 2371.5000   -18.1450     8.3030     0.3000     2.5110     0.0740   -72.5150     4.2760     3.4580     3.8680    -8.6920   129.8160
 2372.0000   -18.1450     8.2990     0.3200     2.4950     0.0910   -72.5150     4.1310     3.3720     3.8030    -8.8940   135.1810
 2372.5000   -18.1450     8.2950     0.3200     2.4960     0.0870   -72.5150     4.2890     3.3040     3.7270    -9.0960   134.0550
 2373.0000   -18.1450     8.2900     0.3190     2.5030     0.0510   -72.5150     4.4470     3.2390     3.7900    -9.0080   130.1290
 2373.5000   -21.3040     8.2860     0.3090     2.5110     0.0270   -72.5150     4.6040     3.2090     3.8330    -8.6250   126.4310
 2374.0000   -29.7720     8.2820     0.2990     2.5170     0.0310   -72.5150     4.8440     3.3000     3.9420    -8.7570   125.3310
 2374.5000   -38.2390     8.2780     0.2920     2.5140     0.0350   -72.5150     4.7690     3.4070     4.0550    -9.1660   127.5630
 2375.0000   -46.7070     8.2730     0.2900     2.5120     0.0300   -72.5150     4.6130     3.5140     4.0550    -9.5420   130.2870
 2375.5000   -55.1750     8.2690     0.2900     2.5120     0.0180   -72.5150     4.5370     3.6200     4.1750    -9.8850   130.8900
 2376.0000   -52.2580     8.2650     0.2890     2.5190     0.0050   -72.5150     4.9530     3.7160     4.3080   -10.2300   129.3330
 2376.5000   -42.0970     8.2600     0.2780     2.5270     0.0040   -72.5150     5.4190     3.7900     4.3950   -10.5710   127.0760
 2377.0000   -31.9350     8.2560     0.2690     2.5340     0.0070   -72.5150     5.3730     3.8640     4.4420   -10.4910   125.0830
 2377.5000   -21.7740     8.2520     0.2670     2.5350     0.0140   -72.5150     5.3100     3.9370     4.4880   -10.3790   123.6550
 2378.0000   -18.1450     8.2470     0.2670     2.5380     0.0210   -72.5150     5.2480     4.0110     4.5350   -10.0150   121.9680
 2378.5000   -20.6830     8.2430     0.2700     2.5390     0.0250   -72.5150     5.1860     4.0550     4.5820    -9.9760   121.3600
 2379.0000   -23.6720     8.2390     0.2730     2.5410     0.0290   -72.5150     5.1230     4.0950     4.6280   -10.4690   122.1350
 2379.5000   -26.6600     8.2340     0.2770     2.5350     0.0330   -72.5150     5.0280     4.1450     4.6750   -10.9560   124.8180
 2380.0000   -29.6490     8.2300     0.2800     2.5270     0.0360   -72.5150     5.1670     4.1940     4.7520   -11.4470   124.7670
 2380.5000   -32.6380     8.2260     0.2830     2.5220     0.0400   -72.5150     5.3800     4.2440     4.9200   -11.9360   124.2600
 2381.0000   -35.6260     8.2270     0.2860     2.5270     0.0440   -72.5150     5.5940     4.2890     5.0870   -12.2220   123.7260
 2381.5000   -38.3060     8.2310     0.2890     2.5340     0.0440   -72.5150     5.8070     4.4630     5.2550   -12.4010   123.2290
 2382.0000   -34.5700     8.2360     0.2890     2.5400     0.0350   -72.5150     6.0200     4.6240     5.4220   -12.1410   125.4350
 2382.5000   -31.1830     8.2400     0.2870     2.5440     0.0270   -72.5150     6.2330     4.7840     5.5890   -11.8560   130.4900
 2383.0000   -27.7960     8.2440     0.2840     2.5440     0.0190   -72.5150     6.4420     4.9440     5.7570   -11.5730   133.0460
 2383.5000   -24.4090     8.2480     0.2800     2.5450     0.0120   -72.5150     6.6230     5.1040     5.8960   -11.4070   126.9060
 2384.0000   -21.0220     8.2520     0.2770     2.5440     0.0160   -72.5150     6.8940     5.2100     5.9060   -11.5240   123.6130
 2384.5000   -18.1450     8.2560     0.2730     2.5380     0.0260   -72.5150     6.8450     5.2760     5.9160   -11.5930   125.8150
 2385.0000   -18.1450     8.2600     0.2710     2.5370     0.0360   -72.5150     6.6730     5.3430     5.9260   -11.5230   128.6090
 2385.5000   -18.1450     8.2630     0.2730     2.5390     0.0470   -72.5150     6.5020     5.4090     5.9360   -11.3510   129.6430
 2386.0000   -18.1450     8.2590     0.2750     2.5400     0.0530   -72.5150     6.4230     5.4190     5.9460   -11.1780   129.5580
 2386.5000   -18.1450     8.2560     0.2760     2.5410     0.0530   -72.5150     6.4930     5.4190     5.9510   -11.0110   127.1540
 2387.0000   -18.1450     8.2520     0.2770     2.5370     0.0600   -72.5150     6.5840     5.4190     5.9630   -11.4970   124.6260
 2387.5000   -28.2260     8.2480     0.2780     2.5340     0.0630   -72.5150     6.6760     5.4190     5.9770   -12.0820   121.8510
 2388.0000   -45.1610     8.2440     0.2790     2.5300     0.0510   -72.5150     6.7680     5.4190     5.9900   -12.6250   121.2290
 2388.5000   -57.7420     8.2400     0.2760     2.5300     0.0400   -72.5150     6.8480     5.4190     6.0040   -12.8560   125.3690
 2389.0000   -54.3550     8.2360     0.2740     2.5310     0.0290   -72.5150     6.6180     5.4600     6.0070   -13.0560   128.9490
 2389.5000   -50.9680     8.2330     0.2740     2.5340     0.0280   -72.5150     6.3720     5.5790     6.1330   -13.2190   130.5450
 2390.0000   -47.5810     8.2290     0.2790     2.5390     0.0280   -72.5150     6.1210     5.6980     6.2650   -13.3790   132.1570
 2390.5000   -44.1940     8.2250     0.2860     2.5430     0.0290   -72.5150     6.5160     5.8170     6.3980   -13.5390   132.0010
 2391.0000   -40.8060     8.2210     0.2920     2.5490     0.0390   -72.5150     7.0190     5.8770     6.5300   -13.7000   130.8740
 2391.5000   -37.4190     8.2170     0.2880     2.5440     0.0560   -72.5150     7.8070     5.9360     6.6590   -13.8630   129.9990
 2392.0000   -34.0320     8.2140     0.2800     2.5340     0.0490   -72.5150     7.7670     5.9950     6.7210   -13.9960   131.3280
 2392.5000   -30.6450     8.2100     0.2710     2.5250     0.0330   -72.5150     7.6760     6.0540     6.7210   -13.6100   132.5480
 2393.0000   -27.2580     8.2060     0.2650     2.5160     0.0190   -71.9690     7.5910     6.1130     6.5130   -13.2150   130.6680
 2393.5000   -23.8710     8.2020     0.2650     2.5090     0.0290   -71.4540     7.2570     6.1210     6.3170   -12.8250   123.5290
 2394.0000   -20.4840     8.1980     0.2650     2.5030     0.0420   -70.9380     6.9450     5.9500     6.1200   -12.4090   125.3480
 2394.5000   -17.5840     8.1940     0.2650     2.4980     0.0560   -70.4230     6.6340     5.8180     6.0520   -11.6000   128.7470
 2395.0000   -15.7690     8.1910     0.2650     2.5010     0.0550   -69.9080     6.3230     5.6860     6.0360   -11.4460   130.8380
 2395.5000   -13.9540     8.1860     0.2720     2.5050     0.0460   -69.3920     6.0640     5.5540     6.0200   -11.5320   131.0520
 2396.0000   -12.1400     8.1920     0.2780     2.5110     0.0460   -68.8770     6.3280     5.5220     6.0070   -11.6270   132.6100
 2396.5000   -10.3250     8.2070     0.2830     2.5120     0.0410   -68.3610     6.6050     5.5490     6.1080   -11.7200   133.9690
 2397.0000    -8.5110     8.2210     0.2790     2.5080     0.0360   -67.8460     6.8810     5.5720     6.2120   -11.7550   133.1090
 2397.5000    -6.6960     8.2350     0.2710     2.5040    -0.0270   -67.3300     7.1520     5.5950     6.3150   -11.5140   130.2990
 2398.0000    -4.8820     8.2490     0.2660     2.5010    -0.0390   -66.8150     7.4140     5.6240     6.4140   -11.2350   127.1910
 2398.5000    -3.0670     8.2630     0.2620     2.5020    -0.0400   -66.2990     7.6620     5.5220     6.1150   -11.3880   124.6950
 2399.0000    -1.2530     8.2620     0.2620     2.5070    -0.0190   -65.7840     7.3670     5.3590     5.8260   -11.5890   126.5860
 2399.5000     0.5620     8.2600     0.2620     2.5100    -0.0070   -65.2680     6.7260     5.1960     5.5370   -11.7880   129.3550
 2400.0000     2.0160     8.2580     0.2620     2.5060    -0.0090   -64.7530     6.0850     5.0330     5.2200   -11.9870   132.8230
 2400.5000     2.0160     8.2560     0.2750     2.5020    -0.0040   -64.2380     5.4450     4.8440     5.1720   -12.1890   138.4720
 2401.0000     2.0160     8.2540     0.2870     2.4950     0.0040   -63.7220     4.8890     4.9190     5.1720   -12.1980   147.9150
 2401.5000     2.0160     8.2520     0.2890     2.4840     0.0120   -63.2070     4.8890     5.0610     5.4140   -12.2000   160.0400
