~VERSION INFORMATION
 VERS.                2.0:   CWLS LOG ASCII STANDARD - VERSION 2.0
 WRAP.                 NO:   ONE LINE PER DEPTH STEP
~WELL INFORMATION
#MNEM.UNIT      DATA TYPE    INFORMATION
#----------   ------------   ------------------------------
 STRT.F          200.0000:   START DEPTH
 STOP.F         3150.0000:   STOP DEPTH
 STEP.F            0.5000:   STEP LENGTH
 NULL.          -999.2500:   NO VALUE
 COMP.  FENIX AND SCISSON:   COMPANY
 WELL.  FENIX "AX" #88-10:   WELL
 FLD .              NPR 3:   FIELD
 LOC .      S10 T38N R78W:   LOCATION
 CNTY.            NATRONA:   COUNTY
 STAT.            WYOMING:   STATE
 CTRY. UNITED STATES OF AMERICA:   COUNTRY
 SRVC.              WELEX:   SERVICE COMPANY
 DATE.        13-JUN-1977:   LOGDATE
 API .     49025103780000:   API NUMBER
~CURVE INFORMATION
#MNEM.UNIT       API CODE    CURVE DESCRIPTION
#----------   ------------   ------------------------------
 DEPT.F                  :   
 CALD.IN     45 280 60 00:   CALIPER FROM DENSITY LOG
 GRD .GAPI   45 310 01 00:   GAMMA RAY FROM DENSITY LOG
 RHOB.G/C3   45 350 01 00:   BULK DENSITY
 CORR.G/C3   45 356 01 00:   DENSITY CORRECTION
 SPR .MV     07 010 01 00:   SPONTANEOUS POTENTIAL
 GURD.OHMM   07 220 05 00:   GUARD LOG RESISTIVITY
 ILD .OHMM   07 120 46 00:   INDUCTION LOG DEEP RESISTIVITY
 ILM .OHMM   07 120 44 00:   INDUCTION LOG MEDIUM RESISTIVITY
~PARAMETER INFORMATION
#MNEM.UNIT          VALUE    DESCRIPTION
#----------   ------------   ------------------------------
 EKB .F         5264.0000:   Kelly bushing
 EGL .F         5254.0000:   Ground level
 EDF .F            0.0000:   Drilling floor
 TD  .F         3160.0000:   Total depth
 DATE.        13-JUN-1977:   Date logged
 CLNT.            A2DTECH:   Client Code
 SL  . 430' FSL & 330' FEL:   Surface Location
 PD  .                 GL:   Permanent Datum
 EPD .F              5254:   Elevation Permanent Datum
 LMF .                 KB:   Log Measured From
 DMF .                 KB:   Drilling Measured From
 DAPD.F                10:   Feet Above Permanent Datum
 DD  .F              3160:   Depth driller
 DL  .F              3151:   Depth logger
 BLI .F              3149:   Bottom log interval
 CS1 .IN            8.625:   Casing size
 CBD1.      8.625" @ 208':   Casing driller 1
 BS1 .IN            7.875:   Bit size
 BSD1.F              3160:   Depth drilled with bit1
 DFT .            KCL MUD:   Type fluid in hole
 DFD .                9.1:   Density
 DFV .                 31:   Viscosity
 DFPH.                7.5:   pH
 DFL .                 20:   Fluid loss
 MSS .           FLOWLINE:   Source of sample
 RMS .OHMM            .90:   Rm
 MST .F                60:   Rm Meas. temp.
 RMF .OHMM            .53:   Rmf
 MFST.F                60:   Rmf Meas. temp.
 RMC .OHMM           1.47:   Rmc
 MCST.F                60:   Rmc Meas. temp.
 MFSS.               MEAS:   Source Rmf.
 MCSS.               MEAS:   Source Rmc.
 RMB .OHMM            .46:   Rm. at BHT
 BHT .F               116:   BHT.
 TCS .HRS               8:   Time Circ. stopped
 MRT .F               116:   Maximum recorded temp.
 LUN .               8611:   Logging unit number
 LUL .             CASPER:   Logging unit location
 ENGI.            C. DOAK:   Recorded By
 WITN.         D. RHOADES:   Witnessed by
 ORIG.           5" PRINT:   Origin of data
 UWI .     49025103780000:   Unique Well ID
 DICO. A2D TECHNOLOGIES, INC.:   Digitizing Company
~OTHER INFORMATION
~A   DEPT       CALD       GRD      RHOB       CORR        SPR       GURD        ILD        ILM   
# ...
 2346.5000     9.2491   118.8436     2.4667    -0.0178   -56.1458    13.4945     8.3718     9.6112
 2347.0000     9.2291   118.0476     2.4707    -0.0178   -56.1427    13.2513     8.0711     9.3509
 2347.5000     9.2487   116.0635     2.4767    -0.0158   -56.3373    13.3760     7.8527     9.3526
 2348.0000     9.2485   115.6636     2.4787    -0.0119   -56.3342    13.3784     7.5007     9.4412
 2348.5000     9.2682   112.4914     2.4806    -0.0059   -56.3311    12.6633     7.1653     9.4425
 2349.0000     9.2878   110.9033     2.4816    -0.0099   -56.3280    14.1417     7.1658     9.1875
 2349.5000     9.3272   110.5034     2.4816    -0.0099   -56.3250    14.5390     6.8456     8.7756
 2350.0000     9.3270   109.7074     2.4826    -0.0099   -56.3219    11.6648     6.7218     7.2358
 2350.5000     9.3862   108.9113     2.4836    -0.0099   -56.3188     9.8887     6.5400     6.9753
 2351.0000     9.4256   107.3233     2.4866    -0.0099   -56.3157     8.7778     6.4812     6.9122
 2351.5000     9.4254   105.7352     2.4886    -0.0100   -56.3127     7.7196     6.4822     6.6641
 2352.0000     9.4450   104.9392     2.4866    -0.0100   -56.3096     8.4639     6.4839     6.4242
 2352.5000     9.4250   101.3711     2.4866    -0.0100   -56.3065    14.2905     6.4848     8.0136
 2353.0000     9.4248   100.1782     2.4866    -0.0100   -56.5010    13.5266     6.5462     8.0147
 2353.5000     9.4048    99.3822     2.4885    -0.0100   -56.4979    13.1613     6.6688     7.9431
 2354.0000     9.3650    99.3783     2.4915    -0.0100   -56.6925    12.9241     6.9203     7.7991
 2354.5000     9.3252    98.5823     2.4925    -0.0080   -56.4918    11.9007     7.1811     7.5887
 2355.0000     9.3250    98.5783     2.4915    -0.0080   -56.4887    11.2645     7.3832     7.9474
 2355.5000     9.3050    97.3855     2.4885    -0.0080   -56.2880    11.6883     7.5909     8.5561
 2356.0000     9.3048    97.3823     2.4865    -0.0061   -56.2849    12.8153     7.8772     9.0434
 2356.5000     9.2848    96.9823     2.4746    -0.0061   -56.0843    16.5775     8.0253     8.9619
 2357.0000     9.3044    96.5823     2.4676    -0.0041   -56.0812    17.2270     8.0268     8.8811
 2357.5000     9.3042    96.9744     2.4607    -0.0001   -56.0781    16.2817     8.0280     9.8296
 2358.0000     9.3040   100.1386     2.4577    -0.0001   -56.0751    15.5536     7.9559    10.2943
 2358.5000     9.3038   102.1156     2.4477     0.0058   -56.0720    14.3219     7.8848     8.6939
 2359.0000     9.3234   106.0719     2.4308     0.0118   -55.6738    13.1878     7.8140     7.4626
 2359.5000     9.3232   110.4242     2.4080     0.0177   -55.4731    10.1990     7.7432     6.7455
 2360.0000     9.3428   113.9844     2.3980     0.0177   -55.4701     7.6035     7.8897     6.3838
 2360.5000     9.3426   119.9208     2.3752     0.0177   -55.4670     8.4893     7.9635     8.9714
 2361.0000     9.4216   122.6898     2.3771    -0.0002   -55.2664    16.4548     8.3399    12.7347
 2361.5000     9.4413   127.4381     2.3910    -0.0022   -55.0658    16.0087     8.6542    10.2131
 2362.0000     9.5202   130.6024     2.4060    -0.0002   -55.0627    15.4538     8.7349     9.4901
 2362.5000     9.5596   135.3507     2.4109    -0.0002   -55.4548    19.2439     8.9816     9.7571
 2363.0000     9.4802   138.9110     2.4129    -0.0002   -55.4517    15.3001     8.7390     9.9398
 2363.5000     9.4800   140.0959     2.4139     0.0037   -55.4487    14.0870     8.7400    10.0339
 2364.0000     9.4798   142.0720     2.4159     0.0037   -55.8407    13.0912     8.6618     9.9442
 2364.5000     9.4994   145.2362     2.4178     0.0077   -55.6401    13.8356     8.2742     9.1002
 2365.0000     9.4992   147.2124     2.4218     0.0136   -55.6370    14.6223     7.4796     8.5869
 2365.5000     9.5386   149.5846     2.4288     0.0176   -55.6339     8.5067     7.3440     8.5089
 2366.0000     9.5384   150.3711     2.4288     0.0236   -55.8284     8.5859     6.6383     8.0533
 2366.5000     9.5382   148.7846     2.4248     0.0315   -55.8253    14.1029     6.2255     7.6221
 2367.0000     9.5578   146.8005     2.4148     0.0355   -55.8222    12.8674     5.5759     6.7640
 2367.5000     9.5972   142.4403     2.4089     0.0354   -56.0161     9.1659     5.0399     5.5909
 2368.0000     9.5970   141.2483     2.3908     0.0354   -56.0130     7.3507     4.8587     5.1821
 2368.5000     9.6563   134.5111     2.3651     0.0295   -56.2074     5.2813     4.6839     5.2791
 2369.0000     9.7946   130.5469     2.3442     0.0195   -56.2043     5.4798     4.6417     5.0427
 2369.5000     9.8935   127.7708     2.3393     0.0056   -56.2013     6.6473     4.5162     4.8166
 2370.0000    10.0121   126.1827     2.3442    -0.0083   -56.3957     8.0660     4.4348     4.6865
 2370.5000    10.0713   121.4265     2.4754    -0.0103   -56.3926     6.6497     4.3950     4.5180
 2371.0000    10.0514   119.4416     2.4904    -0.0143   -56.3895     6.1231     4.3956     4.4363
 2371.5000    10.0709   118.2496     2.4903    -0.0143   -56.3864     6.7755     4.3961     4.4371
 2372.0000    10.1103   117.8496     2.4903    -0.0143   -56.3834     7.1608     4.4377     4.6044
 2372.5000    10.1893   115.0735     2.4903    -0.0163   -56.3803     7.4299     4.4796     4.7778
 2373.0000    10.2287   114.2775     2.4913    -0.0163   -56.5747     7.1634     4.6061     4.8674
 2373.5000    10.2483   113.8775     2.4923    -0.0144   -56.5716     7.1647     4.5653     5.0046
 2374.0000    10.2680   113.8735     2.4913    -0.0144   -56.5685     7.1660     4.6078     5.0053
 2374.5000    10.3074   113.8696     2.4933    -0.0164   -56.5654     6.8456     4.6943     5.0529
 2375.0000    10.3270   113.0736     2.4983    -0.0164   -56.5623     6.8468     4.7385     5.0075
 2375.5000    10.3268   112.6736     2.5012    -0.0184   -56.5593     7.0398     4.7394     5.0084
 2376.0000    10.3068   113.0656     2.5042    -0.0085   -56.5562     6.7245     4.7403     4.9633
 2376.5000    10.3066   112.2696     2.5082     0.0015   -56.5531     6.3644     4.7410     4.9644
 2377.0000    10.3064   111.8696     2.4973    -0.0105   -56.5500     6.7269     4.6984     4.9198
 2377.5000    10.3062   112.2617     2.4933    -0.0125   -56.5469     7.0447     4.6564     4.9207
 2378.0000    10.3060   113.0498     2.5002    -0.0125   -56.5439     7.2432     4.6569     5.0128
 2378.5000    10.3058   115.0260     2.5062    -0.0125   -56.1459     7.3117     4.6154     5.0139
 2379.0000    10.3056   115.0220     2.5171    -0.0125   -56.1429     7.3128     4.4907     4.9689
 2379.5000    10.3054   115.0180     2.5171    -0.0125   -56.1398     6.7331     4.3691     4.9241
 2380.0000    10.3052   115.0141     2.5191    -0.0006   -56.3341     6.0878     4.2904     4.6606
 2380.5000    10.3050   115.0101     2.5032    -0.0046   -56.3311     6.0883     4.2519     4.4932
 2381.0000    10.3246   115.7982     2.4982    -0.0046   -56.3280     5.9785     4.2135     4.4121
 2381.5000    10.3442   116.1903     2.4932    -0.0046   -56.5223     5.8708     4.1759     4.2927
 2382.0000    10.3836   117.7704     2.4992    -0.0046   -56.5192     5.7122     4.1005     4.2152
 2382.5000    10.4428   116.1823     2.5022    -0.0006   -56.5161     5.8192     4.0264     4.1391
 2383.0000    10.5020   116.1784     2.5002    -0.0026   -56.7104     5.5590     3.9537     4.0641
 2383.5000    10.5216   117.7585     2.4972    -0.0046   -56.7074     5.6113     3.8822     3.9910
 2384.0000    10.5016   118.1506     2.4912    -0.0046   -56.9016     5.8224     3.7773     3.9916
 2384.5000    10.4618   118.1466     2.4882    -0.0046   -56.8986     5.8235     3.6415     3.9923
 2385.0000    10.4220   118.5387     2.4843    -0.0027   -56.8955     5.6664     3.6087     3.9566
 2385.5000    10.4020   118.9308     2.4813     0.0013   -57.0897     5.6674     3.5113     3.8498
 2386.0000    10.3820   118.5308     2.4803    -0.0027   -57.2840     5.4140     3.4162     3.6435
 2386.5000    10.3818   119.7149     2.4803    -0.0027   -57.2809     4.8054     3.2934     3.3238
