~VERSION INFORMATION
 VERS.                2.0:   CWLS LOG ASCII STANDARD - VERSION 2.0
 WRAP.                 NO:   ONE LINE PER DEPTH STEP
~WELL INFORMATION
#MNEM.UNIT      DATA TYPE    INFORMATION
#----------   ------------   ------------------------------
 STRT.F           10.0000:   START DEPTH
 STOP.F         4008.0000:   STOP DEPTH
 STEP.F            0.5000:   STEP LENGTH
 NULL.          -999.2500:   NO VALUE
 COMP. LAWRENCE ALLISON & ASSOC.:   COMPANY
 WELL. LAWRENCE NPR 3 "AX" #75-28:   WELL
 FLD .                NPR:   FIELD
 LOC .      S28 T39N R78W:   LOCATION
 CNTY.            NATRONA:   COUNTY
 STAT.            WYOMING:   STATE
 CTRY. UNITED STATES OF AMERICA:   COUNTRY
 SRVC.      DRESSER ATLAS:   SERVICE COMPANY
 DATE.        28-APR-1983:   LOGDATE
 API .     49025109060000:   API NUMBER
~CURVE INFORMATION
#MNEM.UNIT       API CODE    CURVE DESCRIPTION
#----------   ------------   ------------------------------
 DEPT.F                  :   
 RHOB.G/C3   45 350 01 00:   BULK DENSITY
 CORR.G/C3   45 356 01 00:   DENSITY CORRECTION
 TEND.LBS    45 635 01 00:   TENSION FROM DENSITY LOG
 NPHI.DEC    42 890 03 00:   NEUTRON POROSITY SANDSTONE
 GRR .GAPI   07 310 01 00:   GAMMA RAY FROM RESISTIVITY
 CALR.IN     07 280 01 00:   CALIPER FROM RESISTIVITY
 RFOC.OHMM   07 220 01 00:   RESISTIVITY FOCUSED LOG RES.
 RILD.OHMM   07 120 46 00:   DEEP INDUCTION RESISTIVITY
 TENR.LBS    01 635 01 00:   TENSION FROM RES.
 RILM.OHMM   07 120 44 00:   INDUCTION LOG MEDIUM RESISTIVITY
 TENS.LBS    60 635 01 00:   TENSION FROM SONIC LOG
 DT  .US/F   60 520 00 00:   DELTA TIME
 SPR .MV     07 010 01 00:   SPONTANEOUS POTENTIAL
~PARAMETER INFORMATION
#MNEM.UNIT          VALUE    DESCRIPTION
#----------   ------------   ------------------------------
 EKB .F         5068.0000:   Kelly bushing
 EGL .F         5058.0000:   Ground level
 EDF .F            0.0000:   Drilling floor
 TD  .F         4003.0000:   Total depth
 DATE.        28-APR-1983:   Date logged
 CLNT.            A2DTECH:   Client Code
 SL  . 2100' FSL & 1050' FEL:   Surface Location
 PD  .                 GL:   Permanent Datum
 EPD .F              5058:   Elevation Permanent Datum
 LMF .                 KB:   Log Measured From
 DMF .                 KB:   Drilling Measured From
 DAPD.F                10:   Feet Above Permanent Datum
 DD  .F              4000:   Depth driller
 DL  .F              4003:   Depth logger
 BLI .F              4000:   Bottom log interval
 CS1 .IN            8.625:   Casing size
 CBD1.      8.625" @ 498':   Casing driller 1
 CBL1.F               497:   Casing logger 1
 BS1 .IN            7.875:   Bit size
 BSD1.F              4000:   Depth drilled with bit1
 DFT .            KCL/GEL:   Type fluid in hole
 DFD .                  9:   Density
 DFV .                 43:   Viscosity
 DFPH.                8.5:   pH
 DFL .               12.4:   Fluid loss
 MSS .           MUD/TANK:   Source of sample
 RMS .OHMM            .45:   Rm
 MST .F                43:   Rm Meas. temp.
 RMF .OHMM            .27:   Rmf
 MFST.F                51:   Rmf Meas. temp.
 RMC .OHMM            .56:   Rmc
 MCST.F                43:   Rmc Meas. temp.
 MFSS.               MEAS:   Source Rmf.
 MCSS.               CALC:   Source Rmc.
 RMB .OHMM            .16:   Rm. at BHT
 BHT .F               121:   BHT.
 TCS .HRS               7:   Time Circ. stopped
 MRT .F               121:   Maximum recorded temp.
 LUN .               6274:   Logging unit number
 LUL .               GLTE:   Logging unit location
 ENGI.            WACDELL:   Recorded By
 WITN.             STRONG:   Witnessed by
 ORIG.           5" PRINT:   Origin of data
 UWI .     49025109060000:   Unique Well ID
 DICO. A2D TECHNOLOGIES, INC.:   Digitizing Company
~OTHER INFORMATION
~A   DEPT     RHOB       CORR       TEND       NPHI         GRR      CALR       RFOC       RILD       TENR       RILM       TENS         DT        SPR   
# ...
 3052.0000     2.4940     0.0170   -34.7850     0.1900   103.1330     8.3490     4.3220     4.3390   -78.9620     4.3890   -56.9250    81.0090   -66.8610
 3052.5000     2.4970     0.0260   -34.7850     0.1880   103.7970     8.3490     4.4230     4.1660   -78.2730     4.2630   -56.9250    80.7720   -66.8680
 3053.0000     2.4930     0.0270   -34.7850     0.1890   103.1870     8.3490     4.5060     4.1660   -77.5840     4.1660   -56.9250    80.5350   -66.8690
 3053.5000     2.4900     0.0220   -34.7850     0.1910   101.0340     8.3490     4.5890     4.0230   -76.8950     4.0580   -56.9250    80.2980   -66.8580
 3054.0000     2.4870     0.0130   -34.7850     0.2040    97.9230     8.3490     4.6530     3.9340   -76.2060     3.9690   -56.9250    80.2890   -66.8570
 3054.5000     2.4850     0.0020   -34.7850     0.2160    95.0410     8.3490     4.3470     3.8460   -75.5170     3.8810   -56.9250    80.7440   -66.9060
 3055.0000     2.4800    -0.0150   -34.7850     0.2290    93.5380     8.3490     4.0970     3.7580   -74.8280     3.7930   -56.9250    81.3000   -67.0250
 3055.5000     2.4800    -0.0320   -34.7850     0.2300    93.8960     8.3490     3.8480     3.6700   -74.1390     3.7050   -56.9250    82.4800   -67.1970
 3056.0000     2.4850    -0.0440   -34.7850     0.2160    95.6290     8.3490     3.6610     3.5820   -73.4500     3.6170   -56.9250    83.6590   -67.3810
 3056.5000     2.4920    -0.0100   -34.7850     0.2140    97.5340     8.3490     3.5940     3.4930   -72.7610     3.5290   -56.9250    84.4640   -67.5510
 3057.0000     2.4990     0.0130   -34.7850     0.2120    98.3640     8.3500     3.6120     3.4050   -72.0720     3.4400   -56.9250    84.5760   -67.7080
 3057.5000     2.4950     0.0050   -34.7850     0.2100    97.5650     8.3500     3.6280     3.3170   -71.3820     3.3520   -56.9250    84.6250   -67.8750
 3058.0000     2.4910    -0.0030   -34.7850     0.2160    95.5570     8.3490     3.6450     3.2170   -70.6930     3.2170   -56.9250    84.6250   -68.0620
 3058.5000     2.4870    -0.0100   -34.7850     0.2240    93.4390     8.3490     3.6620     3.2170   -70.0040     3.2170   -56.9250    84.6250   -68.2500
 3059.0000     2.4830    -0.0120   -34.7850     0.2250    92.3750     8.3500     3.6790     3.2430   -69.3150     3.2730   -56.9250    84.6250   -68.4050
 3059.5000     2.4800    -0.0120   -34.7850     0.2230    93.0140     8.3500     3.6960     3.2610   -68.6260     3.3250   -56.9250    84.6250   -68.5050
 3060.0000     2.4820    -0.0230   -34.7850     0.2180    95.0490     8.3500     3.7130     3.2790   -67.9370     3.3770   -56.9250    84.6250   -68.5600
 3060.5000     2.4870    -0.0490   -34.7850     0.2130    97.1460     8.3480     3.7290     3.2970   -67.2480     3.4290   -56.9250    84.6250   -68.5960
 3061.0000     2.4920    -0.0440   -34.7850     0.2150    97.6010     8.3430     3.7440     3.3150   -66.5590     3.4810   -56.9250    84.3600   -68.6390
 3061.5000     2.4960    -0.0190   -34.7850     0.2180    95.6380     8.3360     3.7660     3.3380   -65.8700     3.5280   -56.9250    84.0900   -68.6920
 3062.0000     2.5010     0.0010   -34.7850     0.2200    92.3690     8.3290     3.7980     3.3230   -65.1810     3.4840   -56.9250    84.1130   -68.7470
 3062.5000     2.4960     0.0080   -34.7850     0.2220    90.2910     8.3220     3.7980     3.3020   -64.4920     3.4440   -56.9250    84.5860   -68.7970
 3063.0000     2.4820     0.0010   -34.7850     0.2220    91.4730     8.3150     3.5940     3.2800   -63.8030     3.4030   -56.9250    85.0590   -68.8440
 3063.5000     2.4720    -0.0100   -34.7850     0.2190    95.9480     8.3090     3.5940     3.2590   -63.1140     3.3630   -56.9250    85.5310   -68.8920
 3064.0000     2.4700    -0.0220   -34.7850     0.2230   101.7730     8.3020     3.7230     3.2370   -62.4250     3.3220   -56.9250    85.6190   -68.9420
 3064.5000     2.4670    -0.0320   -34.7850     0.2270   106.5930     8.2950     3.7980     3.2160   -61.7360     3.2820   -56.9250    85.3690   -68.9910
 3065.0000     2.4650    -0.0050   -34.7850     0.2310   109.1370     8.2880     3.7440     3.1940   -61.0470     3.2420   -56.9250    85.1230   -69.0380
 3065.5000     2.4630     0.0150   -34.7850     0.2280   109.5220     8.2810     3.6690     3.1730   -60.3580     3.2010   -56.9250    85.2080   -69.0860
 3066.0000     2.4630     0.0100   -34.7850     0.2250   108.4920     8.2750     3.5930     3.1580   -59.6190     3.1580   -56.9250    85.6360   -69.1380
 3066.5000     2.4690     0.0030   -34.7850     0.2220   106.7160     8.2700     3.5280     3.2610   -60.0080     3.2300   -56.9250    86.1360   -69.1930
 3067.0000     2.4740    -0.0050   -34.7850     0.2190   104.6310     8.2680     3.5280     3.3380   -60.4280     3.3070   -56.9250    86.3470   -69.2390
 3067.5000     2.4800    -0.0120   -34.7850     0.2160   102.6120     8.2680     3.7420     3.4150   -60.8470     3.3850   -56.9250    86.0660   -69.2650
 3068.0000     2.4860    -0.0190   -34.7850     0.2110   101.0280     8.2690     3.9020     3.5280   -61.2660     3.4620   -56.9250    85.4230   -69.2640
 3068.5000     2.4920    -0.0270   -34.7850     0.1990   100.0860     8.2690     4.1660     3.5940   -61.6850     3.5280   -56.9250    84.7790   -69.2420
 3069.0000     2.4960    -0.0310   -34.7850     0.1920    99.6640     8.2690     4.1660     3.9690   -62.1040     3.8380   -56.9250    83.6780   -69.2130
 3069.5000     2.4970    -0.0320   -34.7850     0.1860    99.2590     8.2680     4.7840     4.2950   -62.5230     4.1650   -56.9250    82.0190   -69.1850
 3070.0000     2.4980    -0.0190   -34.7850     0.1790    98.1280     8.2690     5.2420     4.6220   -62.9430     4.4920   -56.9250    80.3600   -69.1620
 3070.5000     2.4990    -0.0090   -34.7850     0.1730    95.6720     8.2700     5.8070     4.9490   -63.3620     4.8190   -56.9250    78.7010   -69.1400
 3071.0000     2.4990    -0.0160   -34.7850     0.1680    92.0040     8.2730     5.9420     5.2760   -63.7810     5.1460   -56.9250    77.5100   -69.1170
 3071.5000     2.5000    -0.0250   -34.7850     0.1660    88.2490     8.2760     6.1180     5.8070   -64.2000     5.4720   -56.9250    76.5540   -69.0920
 3072.0000     2.4990    -0.0330   -34.7850     0.1670    86.0510     8.2790     6.3680     5.8070   -64.6190     5.8070   -56.9250    75.9990   -69.0670
 3072.5000     2.4990    -0.0270   -34.7850     0.1700    86.4570     8.2820     6.3680     5.8070   -65.0380     5.8070   -56.9250    75.8880   -69.0420
 3073.0000     2.4980    -0.0210   -34.7850     0.1740    88.9980     8.2840     6.0140     5.5790   -65.4580     5.6370   -56.9250    76.4810   -69.0180
 3073.5000     2.4980    -0.0170   -34.7850     0.1780    91.8650     8.2870     5.7900     5.4350   -65.8770     5.4920   -56.9250    77.4020   -68.9960
 3074.0000     2.4970    -0.0410   -34.7850     0.1910    93.1400     8.2900     5.5650     5.2900   -66.2960     5.3480   -56.9250    78.3240   -68.9740
 3074.5000     2.4960    -0.0620   -34.7850     0.1990    92.1120     8.2920     5.2950     5.1460   -66.7150     5.2030   -56.9250    79.2460   -68.9490
 3075.0000     2.4970    -0.0460   -34.7850     0.1950    89.6390     8.2950     5.2300     5.0010   -67.1340     5.0590   -56.9250    79.5410   -68.9200
 3075.5000     2.5000    -0.0130   -34.7850     0.1920    87.3680     8.2980     5.1480     4.8280   -67.5530     4.8280   -56.9250    79.1420   -68.8940
 3076.0000     2.5010     0.0060   -34.7850     0.1900    86.5130     8.3010     5.0660     4.7720   -67.9730     4.8280   -56.9250    79.5470   -68.8830
 3076.5000     2.5020     0.0020   -34.7850     0.1910    87.1010     8.3030     4.9840     4.7010   -68.3920     4.7800   -56.9250    79.9950   -68.8960
 3077.0000     2.5020    -0.0030   -34.7850     0.1950    88.1560     8.3060     4.9020     4.6300   -68.8110     4.7450   -56.9250    80.4430   -68.9400
 3077.5000     2.5070    -0.0080   -34.7850     0.1990    88.5870     8.3080     4.8200     4.5600   -69.2300     4.7110   -56.9580    80.8210   -69.0190
