~VERSION INFORMATION
 VERS.                2.0:   CWLS LOG ASCII STANDARD - VERSION 2.0
 WRAP.                 NO:   ONE LINE PER DEPTH STEP
~WELL INFORMATION
#MNEM.UNIT      DATA TYPE    INFORMATION
#----------   ------------   ------------------------------
 STRT.F          712.0000:   START DEPTH
 STOP.F         3352.0000:   STOP DEPTH
 STEP.F            0.5000:   STEP LENGTH
 NULL.          -999.2500:   NO VALUE
 COMP.    FENIX & SCISSON:   COMPANY
 WELL. FENIX & SCISSON "AX" #24-14:   WELL
 FLD .              NPR 3:   FIELD
 LOC .      S14 T38N R78W:   LOCATION
 CNTY.            NATRONA:   COUNTY
 STAT.            WYOMING:   STATE
 CTRY. UNITED STATES OF AMERICA:   COUNTRY
 SRVC.       SCHLUMBERGER:   SERVICE COMPANY
 DATE.        19-JUN-1981:   LOGDATE
 API .     49025108750000:   API NUMBER
~CURVE INFORMATION
#MNEM.UNIT       API CODE    CURVE DESCRIPTION
#----------   ------------   ------------------------------
 DEPT.F                  :   
 TENR.LBS    07 635 01 00:   TENSION
 ILD .OHMM   07 120 46 00:   DEEP INDUCTION RESISTIVITY
 SFL .OHMM   07 220 01 00:   SHALLOW FOCUSED LOG RESISTIVITY
 ILM .OHMM   07 120 44 00:   INDUCTION LOG MEDIUM RESISTIVITY
 SPR .MV     07 010 01 00:   SPONTANEOUS POTENTIAL
 TEND.LBS    45 635 01 00:   TENSION FROM DENSITY LOG
 DRHO.G/C3   45 356 01 00:   DENSITY CORRECTION
 CALD.IN     45 280 60 00:   CALIPER FROM DENSITY LOG
 GRD .GAPI   45 310 01 00:   GAMMA RAY FROM DENSITY LOG
 RHOB.G/C3   45 350 01 00:   BULK DENSITY
~PARAMETER INFORMATION
#MNEM.UNIT          VALUE    DESCRIPTION
#----------   ------------   ------------------------------
 EKB .F         5216.0000:   Kelly bushing
 EGL .F         5206.0000:   Ground level
 EDF .F         5215.0000:   Drilling floor
 EPD .F            0.0000:   Permanent datum
 TD  .F         3360.0000:   Total depth
 DATE.        19-JUN-1981:   Date logged
 CLNT.            A2DTECH:   Client Code
 SL  . 2413' FNL & 827' FWL:   Surface Location
 PD  .                 GL:   Permanent Datum
 DAPD.F                10:   Feet Above Permanent Datum
 DD  .F              3360:   Depth driller
 DL  .F              3348:   Depth logger
 BLI .F              3342:   Bottom log interval
 TLI .F               728:   Top log interval
 CS1 .IN            8.625:   Casing size
 CBD1.      8.625" @ 728':   Casing driller 1
 CBL1.F               728:   Casing logger 1
 BS1 .IN            7.875:   Bit size
 BSD1.F              3360:   Depth drilled with bit1
 DFT .                FGM:   Type fluid in hole
 DFD .                  9:   Density
 DFV .                 45:   Viscosity
 DFPH.                9.5:   pH
 DFL .                 10:   Fluid loss
 MSS .               TANK:   Source of sample
 RMS .OHMM           5.71:   Rm
 MST .F                68:   Rm Meas. temp.
 RMF .OHMM           1.27:   Rmf
 MFST.F                68:   Rmf Meas. temp.
 MFSS.               MEAS:   Source Rmf.
 RMB .OHMM           3.29:   Rm. at BHT
 BHT .F               118:   BHT.
 TCS .HRS            0800:   Time Circ. stopped
 TLAB.HRS            1130:   Time logger at bottom
 MRT .F               118:   Maximum recorded temp.
 LUN .               8039:   Logging unit number
 LUL .               CSPR:   Logging unit location
 ENGI.           G. PFARR:   Recorded By
 WITN.           R. SCOTT:   Witnessed by
 ORIG.           5" PRINT:   Origin of data
 UWI .     49025108750000:   Unique Well ID
 DICO. A2D TECHNOLOGIES, INC.:   Digitizing Company
~OTHER INFORMATION
~A   DEPT     TENR        ILD        SFL        ILM        SPR       TEND       DRHO       CALD         GRD      RHOB   
# ...
 2588.0000  1237.7209     5.5340     6.6960     5.3240   -38.4220  1312.9530     0.0110     8.5370   126.5000     2.5560
 2588.5000  1237.7209     5.5580     6.5340     5.2840   -38.4770  1313.1680     0.0080     8.5370   125.7220     2.5470
 2589.0000  1237.7209     5.6040     6.3720     5.2420   -38.5640  1313.3820     0.0080     8.5360   124.4070     2.5420
 2589.5000  1237.7209     5.6500     6.1690     5.3090   -38.3670  1313.5970     0.0100     8.5360   123.1050     2.5440
 2590.0000  1237.7209     5.6960     6.2830     5.3800   -37.9860  1313.8110     0.0130     8.5360   122.8220     2.5480
 2590.5000  1237.7209     5.7420     6.6050     5.4510   -37.6310  1314.0260     0.0160     8.5350   121.2740     2.5510
 2591.0000  1237.7209     5.7880     6.9260     5.5220   -37.2730  1314.2400     0.0180     8.5350   118.1070     2.5550
 2591.5000  1237.7209     5.8430     7.2480     5.5930   -37.0360  1314.4550     0.0210     8.5340   116.2980     2.5600
 2592.0000  1238.4570     5.8630     7.5690     5.6440   -37.1170  1314.6689     0.0230     8.5340   116.6440     2.5600
 2592.5000  1239.3790     5.8870     7.9480     5.6640   -37.1870  1314.8840     0.0210     8.5340   119.1550     2.5510
 2593.0000  1240.3010     5.9120     7.7490     5.6840   -37.2670  1315.0980     0.0190     8.5330   120.5180     2.5420
 2593.5000  1241.2230     5.9360     7.5070     5.7040   -37.3440  1315.3130     0.0160     8.5330   119.8600     2.5380
 2594.0000  1242.1450     5.9630     7.2650     5.7250   -37.4200  1315.5270     0.0140     8.5320   119.3220     2.5400
 2594.5000  1243.0670     5.9920     7.0230     5.7450   -37.4980  1315.7419     0.0110     8.5320   120.7340     2.5420
 2595.0000  1243.9890     6.0220     6.7810     5.7650   -37.5750  1315.9561     0.0080     8.5320   121.9950     2.5400
 2595.5000  1244.9110     6.0510     6.5130     5.7850   -37.6530  1316.1710     0.0090     8.5310   120.4300     2.5380
 2596.0000  1245.8340     6.0800     7.0440     5.8060   -37.7300  1316.3850     0.0120     8.5310   117.9310     2.5380
 2596.5000  1246.7560     6.1100     7.6380     5.8260   -37.8060  1316.6000     0.0120     8.5300   115.8830     2.5460
 2597.0000  1247.6780     6.1390     8.2320     5.8440   -37.8840  1316.8140     0.0080     8.5300   116.3060     2.5510
 2597.5000  1248.6000     6.1690     8.3910     5.8430   -37.9610  1317.0291     0.0050     8.5300   116.2130     2.5530
 2598.0000  1249.5220     6.1230     8.3910     5.8030   -38.0360  1317.2430     0.0100     8.5290   115.9000     2.5540
 2598.5000  1250.4440     6.0380     7.9440     5.7290   -38.1190  1317.4580     0.0180     8.5290   118.1770     2.5620
 2599.0000  1251.3660     5.9540     7.5550     5.6550   -38.1830  1317.6720     0.0250     8.5280   120.9050     2.5710
 2599.5000  1252.2880     5.8690     7.1660     5.5810   -38.4300  1317.8870     0.0290     8.5280   122.3390     2.5740
 2600.0000  1253.2100     5.7850     6.7780     5.5080   -38.7650  1318.1010     0.0240     8.5280   123.2210     2.5630
 2600.5000  1254.1320     5.7000     6.3960     5.4350   -39.1030  1318.3160     0.0190     8.5270   123.9240     2.5450
 2601.0000  1255.0540     5.6280     6.4650     5.3890   -39.2640  1318.5300     0.0190     8.5270   126.1570     2.5380
 2601.5000  1255.9760     5.5980     6.5310     5.3430   -38.9660  1318.7450     0.0230     8.5260   128.4140     2.5440
 2602.0000  1256.8979     5.5680     6.6320     5.2970   -38.6780  1318.9590     0.0270     8.5260   129.5090     2.5560
 2602.5000  1257.8199     5.5380     6.5360     5.2510   -38.3780  1319.1740     0.0300     8.5260   125.4230     2.5560
 2603.0000  1258.7419     5.5080     6.3390     5.2050   -38.0740  1319.3879     0.0200     8.5250   121.7360     2.5480
 2603.5000  1259.6639     5.4780     6.1690     5.1580   -37.7850  1321.2400     0.0100     8.5210   118.7520     2.5370
 2604.0000  1260.5861     5.4480     6.2820     5.1780   -37.4870  1323.6740     0.0060     8.5130   115.1690     2.5360
 2604.5000  1261.5081     5.4170     6.5480     5.2420   -37.1550  1326.1080     0.0140     8.5050   111.1210     2.5440
 2605.0000  1262.4301     5.3840     6.8250     5.2210   -37.0410  1328.5420     0.0220     8.4980   108.5840     2.5520
 2605.5000  1263.3521     5.3510     7.1030     5.1660   -36.6200  1330.9771     0.0280     8.4900   111.1280     2.5610
 2606.0000  1264.2740     5.3180     7.2600     5.1120   -36.2590  1333.4110     0.0270     8.5070   116.8740     2.5600
 2606.5000  1265.1960     5.2850     6.9290     5.0580   -36.3900  1335.8450     0.0250     8.5080   122.0660     2.5530
 2607.0000  1266.1180     5.2520     6.6100     5.0030   -36.5380  1338.2791     0.0240     8.5110   123.5140     2.5460
 2607.5000  1267.0410     5.1640     6.2920     4.9310   -36.6750  1339.2860     0.0260     8.5150   124.4840     2.5470
 2608.0000  1267.9630     5.0510     5.9730     4.8170   -36.8180  1339.2860     0.0290     8.5180   125.5210     2.5520
 2608.5000  1268.8850     4.9370     5.6350     4.7030   -36.9660  1339.2860     0.0280     8.5210   125.2020     2.5520
 2609.0000  1269.8070     4.8240     5.5340     4.5890   -37.0090  1339.2860     0.0210     8.5240   124.6460     2.5480
 2609.5000  1270.7290     4.7100     5.5340     4.4740   -37.1410  1339.2860     0.0150     8.5280   124.0900     2.5470
 2610.0000  1271.6510     4.5970     5.5340     4.3600   -37.4620  1339.2860     0.0190     8.5310   123.8010     2.5490
 2610.5000  1272.5730     4.4840     5.5340     4.2460   -37.7600  1339.2860     0.0240     8.5340   124.4430     2.5490
 2611.0000  1273.4950     4.3700     5.5340     4.1320   -38.0690  1339.2860     0.0280     8.5370   125.0620     2.5400
 2611.5000  1274.4170     4.2570     5.3240     4.0120   -38.3880  1339.2860     0.0290     8.5410   125.6750     2.5290
 2612.0000  1275.3390     4.1360     4.9050     3.8840   -38.5650  1339.2860     0.0300     8.5440   126.9150     2.5180
 2612.5000  1276.2610     4.0120     4.3990     3.7570   -38.1420  1339.2860     0.0290     8.5430   128.4470     2.5050
 2613.0000  1277.1830     3.8870     3.8540     3.6300   -37.7240  1339.2860     0.0200     8.5410   130.0860     2.5010
 2613.5000  1278.1050     3.7630     3.8540     3.5210   -37.4160  1339.2860     0.0120     8.5380   132.5330     2.5010
 2614.0000  1279.0270     3.5850     3.9030     3.4940   -37.2060  1339.2860     0.0070     8.5360   130.6990     2.5020
 2614.5000  1279.9490     3.6060     4.0420     3.4570   -36.6580  1339.2860     0.0110     8.5340   127.2470     2.5120
 2615.0000  1280.8710     3.6420     4.1810     3.4810   -36.6330  1339.2860     0.0180     8.5310   124.8210     2.5240
 2615.5000  1281.7930     3.6780     4.3210     3.5410   -36.6210  1339.2860     0.0270     8.5290   126.4170     2.5360
 2616.0000  1282.7150     3.7150     4.4540     3.6010   -36.6310  1339.2860     0.0370     8.5260   129.8830     2.5470
 2616.5000  1283.6370     3.7510     4.2190     3.6610   -36.6260  1339.2860     0.0290     8.5240   128.7890     2.5430
 2617.0000  1284.5590     3.7850     4.3680     3.7210   -36.6270  1339.2860     0.0200     8.5220   126.8990     2.5310
 2617.5000  1285.4810     3.8640     4.6850     3.7810   -36.6390  1339.2860     0.0100     8.5190   125.9330     2.5250
 2618.0000  1286.4030     3.9380     5.0020     3.8410   -36.3580  1339.3840     0.0050     8.5170   127.4490     2.5250
 2618.5000  1287.3250     4.0120     5.3380     3.9010   -35.8990  1339.6970     0.0030     8.5140   128.9410     2.5230
 2619.0000  1288.2469     4.0860     5.2790     3.9610   -36.5980  1340.0100     0.0020     8.5120   127.8710     2.5190
 2619.5000  1289.1700     4.1600     5.1720     4.0210   -36.6090  1340.3230     0.0020     8.5090   126.8690     2.5190
 2620.0000  1290.0920     4.2190     5.0650     4.0690   -36.6370  1340.6350     0.0050     8.5070   128.8920     2.5260
 2620.5000  1291.0140     4.3010     4.9580     4.1070   -36.6350  1340.9480     0.0180     8.5050   132.2780     2.5320
 2621.0000  1291.9360     4.3690     4.8760     4.1430   -36.6080  1341.2610     0.0170     8.5020   131.4220     2.5300
