~VERSION INFORMATION
 VERS.                2.0:   CWLS LOG ASCII STANDARD - VERSION 2.0
 WRAP.                 NO:   ONE LINE PER DEPTH STEP
~WELL INFORMATION
#MNEM.UNIT      DATA TYPE    INFORMATION
#----------   ------------   ------------------------------
 STRT.F            0.0000:   START DEPTH
 STOP.F         3440.0000:   STOP DEPTH
 STEP.F            0.5000:   STEP LENGTH
 NULL.          -999.2500:   NO VALUE
 COMP. FLOOR DANIEL (NPSOR):   COMPANY
 WELL. FLOOR DANIEL "SHX" #48-34:   WELL
 FLD .                NPR:   FIELD
 LOC .      S34 T39N R78W:   LOCATION
 CNTY.            NATRONA:   COUNTY
 STAT.            WYOMING:   STATE
 CTRY. UNITED STATES OF AMERICA:   COUNTRY
 SRVC.      WESTERN ATLAS:   SERVICE COMPANY
 DATE.        06-APR-1995:   LOGDATE
 API .     49025109220000:   API NUMBER
~CURVE INFORMATION
#MNEM.UNIT       API CODE    CURVE DESCRIPTION
#----------   ------------   ------------------------------
 DEPT.F                  :   
 TEND.LBS    45 635 01 00:   TENSION FROM DENSITY LOG
 ZCOR.G/C3   45 356 01 00:   DENSITY CORRECTION
 ZDEN.G/C3   45 350 01 00:   BULK DENSITY
 CALD.IN     45 280 60 00:   CALIPER FROM DENSITY LOG
 CNC .DEC    42 890 03 00:   NEUTRON POROSITY SANDSTONE
 GRR .GAPI   07 310 01 00:   GAMMA RAY FROM RESISTIVITY
 TENR.LBS    07 635 01 00:   TENSION FROM RESISTIVITY
 RFOC.OHMM   07 220 04 00:   RESISTIVITY FOCUSED LOG RES.
 RILD.OHMM   07 120 46 00:   DEEP INDUCTION RESISTIVITY
 RILM.OHMM   07 120 44 00:   INDUCTION LOG MEDIUM RESISTIVITY
~PARAMETER INFORMATION
#MNEM.UNIT          VALUE    DESCRIPTION
#----------   ------------   ------------------------------
 EKB .F         5182.0000:   Kelly bushing
 EGL .F         5172.0000:   Ground level
 EDF .F            0.0000:   Drilling floor
 EPD .F            0.0000:   Permanent datum
 TD  .F         3442.0000:   Total depth
 DATE.        06-APR-1995:   Date logged
 CLNT.            A2DTECH:   Client Code
 SL  . 97' FSL & 2256 FWL:   Surface Location
 PD  .                 GL:   Permanent Datum
 DD  .F              3442:   Depth driller
 DL  .F              3422:   Depth logger
 BLI .F              3420:   Bottom log interval
 CS1 .IN            8.625:   Casing size
 CBD1.      8.625" @ 667':   Casing driller 1
 BS1 .IN            7.875:   Bit size
 BSD1.F               AIR:   Depth drilled with bit1
 ENGI.      PAT RASMUSSEN:   Recorded By
 WITN.        GARY STRONG:   Witnessed by
 ORIG.           5" PRINT:   Origin of data
 UWI .     49025109220000:   Unique Well ID
 DICO. A2D TECHNOLOGIES, INC.:   Digitizing Company
 MRT .F               142:   Maximum recorded temp.
~OTHER INFORMATION
~A    DEPT    TEND       ZCOR       ZDEN       CALD        CNC         GRR      TENR       RFOC       RILD       RILM   
# ...
 1708.5000   -62.6230     0.3950  -999.2500  -999.2500  -999.2500   142.7970   -44.6320  -999.2500     8.8800     9.2860
 1709.0000   -62.6230     0.3960  -999.2500  -999.2500  -999.2500   143.5710   -46.8270  -999.2500     8.9250     9.3680
 1709.5000   -62.6230     0.3960  -999.2500  -999.2500  -999.2500   145.0820   -49.0220  -999.2500     8.9690     9.4510
 1710.0000   -62.6230     0.3950  -999.2500    12.0360  -999.2500   145.5470   -51.2180  -999.2500     9.0140     9.5330
 1710.5000   -62.6230     0.4000  -999.2500    12.0230  -999.2500   143.8070   -53.4130  -999.2500     9.0580     9.6150
 1711.0000   -62.6230     0.4040     2.0780    11.9960     0.2560   142.1580   -55.6080  -999.2500     9.1020     9.7000
 1711.5000   -62.6230     0.4210     2.1180    11.8080     0.2740   142.0180   -57.8040  -999.2500     9.1470     9.7940
 1712.0000   -62.6230     0.4610     2.1880    11.6020     0.2700   140.0190   -59.9990  -999.2500     9.2980     9.8870
 1712.5000   -62.6230     0.4420     2.1460    11.3960     0.2620   135.6590   -62.6230  -999.2500     9.4840     9.9800
 1713.0000   -62.6230     0.3770     2.0850    11.1900     0.2540   133.3220   -58.1090  -999.2500     9.6700    10.0740
 1713.5000   -61.6090     0.4290     2.0150    11.0830     0.2550   134.3120   -52.4980  -999.2500     9.8560    10.1670
 1714.0000   -56.8750     0.4850     2.0400    10.8850     0.2600   135.6090   -46.8880  -999.2500    10.0280    10.2600
 1714.5000   -52.1410     0.4680     2.0660    10.6750     0.2620   136.5070   -43.7100  -999.2500    10.0840    10.3530
 1715.0000   -47.4080     0.4160     2.0860    10.6080     0.2660   137.9730   -46.5150  -999.2500    10.1370    10.4500
 1715.5000   -42.6740     0.4140     2.0340    10.7690     0.2700   137.8890   -49.3210  -999.2500    10.2120    10.5490
 1716.0000   -37.9400     0.4350     2.0130    11.0580     0.2680   137.2570   -52.1260  -999.2500    10.2050    10.6490
 1716.5000   -33.2070     0.4730     1.9850    11.3350     0.2650   134.2910   -54.9310  -999.2500    10.1930    10.7480
 1717.0000   -28.4730     0.5200     2.0550    11.6370     0.2660   132.4980   -57.7360  -999.2500    10.1810    10.8470
 1717.5000   -23.1760     0.6280     2.3010    11.8630     0.3000   134.2580   -60.5410  -999.2500    10.1680    10.9820
 1718.0000   -28.0410     0.5960     2.2650    12.4880     0.3020   136.9130   -61.8100  -999.2500    10.1560    10.9540
 1718.5000   -33.5630     0.4870     2.1800    13.3180     0.3020   137.4410   -58.6540  -999.2500    10.1430    10.9100
 1719.0000   -39.0860     0.2930     2.0570    14.1130     0.3010   134.0400   -55.4980  -999.2500    10.1310    10.8660
 1719.5000   -37.7710     0.3370     2.0120    14.9110     0.3030   132.7860   -52.3420  -999.2500    10.1190    10.8230
 1720.0000   -21.2030     0.4550     1.9780    15.0940     0.3080   136.2300   -49.1860  -999.2500    10.1060    10.7790
 1720.5000    -3.4520     0.5070     1.8530    14.9680     0.3160   139.4220   -46.0310  -999.2500    10.0940    10.7350
 1721.0000   -21.9130     0.5580     1.8680    14.8770     0.3210   137.5200   -42.8990  -999.2500    10.0810    10.6920
 1721.5000   -41.7950     0.5660     1.9440    14.8370     0.3200   136.2470   -42.8990  -999.2500    10.0690    10.6480
 1722.0000   -61.6770     0.5160     1.9360    15.0440     0.3200   134.8870   -42.8990  -999.2500    10.0570    10.6050
 1722.5000   -82.3470     0.5380     1.9000    14.8560     0.3340   131.3700   -42.8990  -999.2500    10.0440    10.5490
 1723.0000   -70.4140     0.6200     1.8960    14.9840     0.3470   129.2650   -42.8990  -999.2500    10.0330    10.4880
 1723.5000   -57.9880     0.6080     1.9490    15.4770     0.3560   133.3710   -42.8990  -999.2500    10.0280    10.3990
 1724.0000   -45.5620     0.5620     1.9930    16.3800     0.3610   136.4170   -42.8990  -999.2500    10.0270    10.5900
 1724.5000   -47.3600     0.4180     1.8630    17.4100     0.3590   136.9270   -42.8990  -999.2500    10.0350    10.4290
 1725.0000   -58.8300     0.4410     1.6520    19.2290     0.3570   136.4900   -42.8990  -999.2500     9.9530    10.2890
 1725.5000   -70.3000     0.4540     1.4400    19.5480     0.3640   137.2770   -42.8990  -999.2500     9.8240    10.1490
 1726.0000   -81.7710     0.4330     1.1770    19.9090     0.3700   139.9150   -42.8990  -999.2500     9.6960    10.0090
 1726.5000   -93.2410     0.2280     1.0050    19.2700     0.3800   142.6060   -42.8990  -999.2500     9.5670     9.8690
 1727.0000  -102.0710     0.2740     1.0050    18.5530     0.3780   144.2210   -42.8990  -999.2500     9.4390     9.7290
 1727.5000  -102.0710     0.4390     1.0540    17.8010     0.3700   143.4420   -42.8990  -999.2500     9.3250     9.5890
 1728.0000  -102.0710     0.3970     1.0380    18.2570     0.3530   141.2420   -42.8990  -999.2500     9.2440     9.4960
 1728.5000  -102.0710     0.1870     1.0120    20.2280     0.3370   139.8040   -42.8990  -999.2500     9.1330     9.4960
 1729.0000  -102.0710    -0.0740     1.0030    20.1120     0.3420   139.5940   -42.8990  -999.2500     9.0210     9.4960
 1729.5000  -102.0710    -0.0360     1.0040    19.8550     0.3540   136.7800   -42.8990  -999.2500     8.9100     9.3860
 1730.0000  -102.0710     0.0090     1.0040    17.6900     0.3280   131.4190   -42.8990  -999.2500     8.7980     9.2010
 1730.5000   -78.0080     0.2020     1.0060    14.2100     0.2960   125.7300   -42.8990  -999.2500     8.6720     8.9930
 1731.0000   -28.3040     0.4790     1.4000    14.3270     0.2990   126.4300   -42.8990  -999.2500     8.5420     8.9060
 1731.5000     2.7610     0.4960     1.5470    14.1940     0.3000   132.2650   -42.8990  -999.2500     8.3910     8.7230
 1732.0000    16.2720     0.5040     1.7190    14.6140     0.3130   138.0110   -42.8990  -999.2500     8.2410     8.5400
 1732.5000   -12.5960     0.5200     1.6920    15.7310     0.3310   138.7920   -42.8990  -999.2500     8.0910     8.3570
 1733.0000   -44.2260     0.5350     1.7040    16.7770     0.3370   134.8290   -42.8990  -999.2500     7.9410     8.1750
 1733.5000   -75.8560     0.5470     1.7280    16.6210     0.3250   130.8370   -42.8990  -999.2500     7.7910     7.9920
 1734.0000  -107.4860     0.5450     1.8670    16.3470     0.3110   127.7590   -42.8990  -999.2500     7.6410     7.8090
 1734.5000  -116.3510     0.5300     1.9380    16.0920     0.3000   128.4550   -42.8990  -999.2500     7.4990     7.6360
 1735.0000  -106.4100     0.5060     1.8980    15.7490     0.2990   132.3350   -42.8990  -999.2500     7.5200     7.6740
 1735.5000   -96.4690     0.3840     1.8240    14.8040     0.2980   136.5280   -42.8990  -999.2500     7.5530     7.7110
 1736.0000   -86.5290     0.3640     1.7190    13.4950     0.2950   139.4970   -42.8990  -999.2500     7.5850     7.7470
 1736.5000   -76.5880     0.3920     1.7650    12.2740     0.2910   139.1360   -42.8990  -999.2500     7.6170     7.7830
 1737.0000   -66.6470     0.5160     1.8460    12.0690     0.2850   138.2610   -42.8990  -999.2500     7.6490     7.8190
 1737.5000   -61.9350     0.6970     1.9270    12.0540     0.2750   136.9330   -42.8990  -999.2500     7.6820     7.8550
 1738.0000   -60.7790     0.6880     2.0070    11.8510     0.2800   133.1170   -42.8990  -999.2500     7.7140     7.8910
 1738.5000   -59.6230     0.5970     2.1900    11.3560     0.2770   130.5980   -42.8990  -999.2500     7.7460     7.9190
 1739.0000   -58.4680     0.5430     2.0920    11.4600     0.2680   129.3770   -42.8990  -999.2500     7.7760     7.9190
 1739.5000   -57.3120     0.4350     1.9280    11.5930     0.2580   132.4000   -42.8990  -999.2500     7.7760     7.9190
 1740.0000   -56.1560     0.4360     1.6480    11.7610     0.2490   135.0300   -42.8990  -999.2500     7.7760     7.9190
 1740.5000   -55.0000     0.5080     1.8390    11.7360     0.2600   141.3160   -42.8990  -999.2500     7.7760     7.9190
 1741.0000   -53.8440     0.5150     1.8870    11.4920     0.2690   144.5230   -42.8990  -999.2500     7.7760     7.9190
 1741.5000   -52.6880     0.5270     1.9620    11.2590     0.2770   144.5910   -42.8990  -999.2500     7.7760     7.9190
