~VERSION INFORMATION
 VERS.                2.0:   CWLS LOG ASCII STANDARD - VERSION 2.0
 WRAP.                 NO:   ONE LINE PER DEPTH STEP
~WELL INFORMATION
#MNEM.UNIT      DATA TYPE    INFORMATION
#----------   ------------   ------------------------------
 STRT.F          482.0000:   START DEPTH
 STOP.F         4000.0000:   STOP DEPTH
 STEP.F            0.5000:   STEP LENGTH
 NULL.          -999.2500:   NO VALUE
 COMP.    FENIX & SCISSON:   COMPANY
 WELL. FENIX  NPR 3 "LX" #56-10:   WELL
 FLD .              N P R:   FIELD
 LOC .      S10 T38N R78W:   LOCATION
 CNTY.            NATRONA:   COUNTY
 STAT.            WYOMING:   STATE
 CTRY. UNITED STATES OF AMERICA:   COUNTRY
 SRVC.       SCHLUMBERGER:   SERVICE COMPANY
 DATE.        11-JUL-1978:   LOGDATE
 API .     49025107100000:   API NUMBER
~CURVE INFORMATION
#MNEM.UNIT       API CODE    CURVE DESCRIPTION
#----------   ------------   ------------------------------
 DEPT.F                  :   
 GRD .GAPI   45 310 01 00:   GAMMA RAY FROM DENSITY LOG
 CALD.IN     45 280 60 00:   CALIPER FROM DENSITY LOG
 RHOB.G/C3   45 350 01 00:   BULK DENSITY
 NPHI.DEC    42 890 03 00:   NEUTRON POROSITY SANDSTONE
 DRHO.G/C3   45 356 01 00:   DENSITY CORRECTION
 TEND.LBS    45 635 01 00:   TENSION FROM DENSITY LOG
 SPR .MV     07 010 01 00:   SPONTANEOUS POTENTIAL
 TENR.LBS    07 635 01 00:   TENSION FROM RESISTIVITY
 ILD .OHMM   07 120 46 00:   DEEP INDUCTION RESISTIVITY
 ILM .OHMM   07 120 44 00:   INDUCTION LOG MEDIUM RESISTIVITY
 SFLU.OHMM   07 220 01 00:   SPHERICALLY FOCUSED LOG UNAVERAGED RESISTIVITY
~PARAMETER INFORMATION
#MNEM.UNIT          VALUE    DESCRIPTION
#----------   ------------   ------------------------------
 EKB .F         5212.0000:   Kelly bushing
 EGL .F         5202.0000:   Ground level
 EDF .F            0.0000:   Drilling floor
 TD  .F         4000.0000:   Total depth
 DATE.        11-JUL-1978:   Date logged
 CLNT.            A2DTECH:   Client Code
 SL  . 1144' FSL & 2183' FEL:   Surface Location
 PD  .                 GL:   Permanent Datum
 EPD .F              5202:   Elevation Permanent Datum
 LMF .                 KB:   Log Measured From
 DMF .                 KB:   Drilling Measured From
 DD  .F              4000:   Depth driller
 DL  .F              3990:   Depth logger
 BLI .F              3985:   Bottom log interval
 TLI .F               501:   Top log interval
 CS1 .IN            9.625:   Casing size
 CBD1.      9.625" @ 500':   Casing driller 1
 CBL1.F               501:   Casing logger 1
 BS1 .IN            7.875:   Bit size
 DFT .                FGM:   Type fluid in hole
 DFD .                9.1:   Density
 DFV .                 50:   Viscosity
 DFPH.                 12:   pH
 DFL .                4.4:   Fluid loss
 MSS .           MUD/TANK:   Source of sample
 RMS .OHMM           .714:   Rm
 MST .F                83:   Rm Meas. temp.
 RMF .OHMM           .585:   Rmf
 MFST.F                83:   Rmf Meas. temp.
 MFSS.               MEAS:   Source Rmf.
 RMB .OHMM            .42:   Rm. at BHT
 BHT .F               140:   BHT.
 TCS .HRS            1000:   Time Circ. stopped
 MRT .F               140:   Maximum recorded temp.
 LUN .               8035:   Logging unit number
 LUL .       ROCK SPRINGS:   Logging unit location
 ENGI.             MARTIN:   Recorded By
 WITN.           MCCINLEY:   Witnessed by
 ORIG.           5" PRINT:   Origin of data
 UWI .     49025107100000:   Unique Well ID
 DICO. A2D TECHNOLOGIES, INC.:   Digitizing Company
 DAPD.F                10:   Feet Above Permanent Datum
 BSD1.F              4000:   Depth drilled with bit1
 TLAB.HRS            1300:   Time logger at bottom
~OTHER INFORMATION
~A   DEPT       GRD      CALD       RHOB         NPHI     DRHO       TEND        SPR       TENR        ILD        ILM       SFLU   
# ...
 3044.0000   106.3010     9.5770     2.5160     0.2490     0.0250  1210.3170    -1.4020  1030.2460     5.0380     4.9650     7.2960
 3044.5000   106.3270     9.5770     2.5160     0.2380     0.0240  1210.3170    -1.4090  1029.7980     5.1310     5.2210     7.5490
 3045.0000   106.3580     9.5770     2.5140     0.2380     0.0200  1210.3170    -1.5690  1029.3510     5.1310     5.3230     6.8260
 3045.5000   107.1420     9.5770     2.5080     0.2530     0.0190  1210.3170    -1.7300  1028.9041     5.1310     5.2850     6.1030
 3046.0000   108.0910     9.5770     2.4970     0.2690     0.0200  1210.3170    -1.9030  1028.4570     5.1310     5.2530     5.3800
 3046.5000   109.2370     9.5770     2.4870     0.2790     0.0210  1210.3170    -2.0680  1028.0100     5.0400     5.2210     4.8560
 3047.0000   108.4910     9.5770     2.4750     0.2740     0.0220  1210.3170    -2.1910  1027.5620     4.9260     5.1890     5.1310
 3047.5000   106.5760     9.5770     2.4760     0.2690     0.0220  1210.3170    -2.1110  1027.1150     4.8130     5.1570     5.4420
 3048.0000   104.7570     9.5770     2.4810     0.2650     0.0230  1210.3170    -2.0440  1026.6680     4.7170     5.1310     5.7010
 3048.5000   102.9470     9.5770     2.4860     0.2600     0.0250  1210.3170    -1.9700  1026.2209     4.6320     5.0590     5.9600
 3049.0000   102.4950     9.5770     2.4940     0.2580     0.0280  1210.3170    -1.9030  1025.7729     4.5480     4.8790     6.1670
 3049.5000   106.2930     9.5760     2.5010     0.2580     0.0300  1210.3170    -1.8170  1025.3260     4.4630     4.6980     5.7610
 3050.0000   109.7990     9.5830     2.5000     0.2630     0.0330  1210.3170    -1.9060  1024.8790     4.3470     4.5180     5.4550
 3050.5000   113.2660     9.5990     2.4980     0.2680     0.0340  1210.3170    -2.1210  1024.4320     4.2090     4.3380     5.1700
 3051.0000   115.5180     9.6060     2.4930     0.2710     0.0340  1210.3170    -2.3220  1023.9850     4.0710     4.1580     4.8860
 3051.5000   114.4080     9.6480     2.4890     0.2750     0.0360  1210.3170    -2.5190  1023.5370     3.9330     3.9770     4.6020
 3052.0000   113.1610     9.6650     2.4880     0.2790     0.0390  1210.3170    -2.7180  1023.0900     3.7950     3.7970     4.3180
 3052.5000   113.8630     9.6800     2.4980     0.2830     0.0360  1210.3170    -2.9310  1022.6430     3.6570     3.6860     4.0340
 3053.0000   117.1950     9.6940     2.5070     0.2980     0.0710  1210.3170    -2.9370  1022.1960     3.5190     3.6450     3.7490
 3053.5000   120.2750     9.6970     2.5080     0.3170     0.1070  1210.3170    -2.7920  1021.7480     3.3010     3.5740     3.5520
 3054.0000   121.3150     9.6750     2.4750     0.3240     0.0860  1210.3170    -2.6640  1021.3010     3.3010     3.5040     3.4880
 3054.5000   118.4180     9.5970     2.4320     0.3160     0.0400  1210.3170    -2.5380  1020.8540     3.4730     3.4880     3.6880
 3055.0000   114.9400     9.5220     2.4450     0.3080     0.0250  1210.3170    -2.4060  1020.4070     3.7790     3.7180     4.0590
 3055.5000   111.8860     9.4420     2.4810     0.3000     0.0270  1210.3170    -2.2780  1019.9600     4.0840     4.1270     4.4300
 3056.0000   109.6220     9.4190     2.5070     0.2880     0.0260  1210.3170    -2.1490  1019.5120     4.3890     4.5360     5.2310
 3056.5000   109.5340     9.4250     2.5150     0.2730     0.0230  1210.3170    -2.0190  1019.0650     4.6940     4.9450     6.3800
 3057.0000   109.3920     9.4290     2.5210     0.2560     0.0180  1210.3170    -1.8900  1018.6180     5.0000     5.3540     7.5280
 3057.5000   108.4940     9.4320     2.5330     0.2400     0.0170  1210.3170    -1.7610  1018.1710     5.3230     5.7640     8.7450
 3058.0000   105.3290     9.4360     2.5450     0.2360     0.0510  1210.3170    -1.6320  1018.4590     5.6650     6.1730     8.4100
 3058.5000   102.4280     9.4400     2.5580     0.2480     0.0940  1210.3170    -1.5010  1019.3800     6.0540     6.2810     8.0540
 3059.0000   101.9880     9.4440     2.5330     0.2510     0.0890  1210.3170    -1.4000  1020.3000     6.0540     6.2810     7.6980
 3059.5000   102.7570     9.4470     2.4880     0.2490     0.0630  1210.3170    -1.4030  1021.2210     6.0540     6.2810     7.3420
 3060.0000   103.7240     9.4510     2.4710     0.2480     0.0360  1210.3170    -1.3930  1022.1410     6.0540     6.2810     6.9090
 3060.5000   102.9840     9.4550     2.4910     0.2500     0.0450  1210.3170    -1.4020  1023.0610     6.0540     6.2810     6.9620
 3061.0000    99.6900     9.4570     2.5130     0.2520     0.0550  1210.3170    -1.4250  1023.9820     6.3950     6.3980     7.0140
 3061.5000    95.0140     9.4730     2.5370     0.2540     0.0470  1210.3170    -1.7510  1024.9020     6.7670     6.6290     7.8310
 3062.0000    90.3570     9.5030     2.5590     0.2400     0.0330  1210.3170    -2.0220  1025.8220     7.1390     6.9940     8.7560
 3062.5000    83.2400     9.5300     2.5920     0.2220     0.0110  1210.3170    -2.3160  1026.7430     7.5490     7.3590     9.7750
 3063.0000    85.3230     9.5580     2.6330     0.2020     0.0160  1210.3170    -2.6000  1027.6630     7.3880     7.6890    11.1060
 3063.5000    93.4580     9.5850     2.6610     0.2040     0.0440  1210.3170    -2.8830  1028.5840     7.2100     7.8310    10.0010
 3064.0000   100.5390     9.6130     2.6090     0.2170     0.0460  1210.3170    -3.1770  1029.5040     7.0310     7.5490     8.4120
 3064.5000   104.4660     9.6420     2.5630     0.2220     0.0380  1210.3170    -3.4490  1030.4240     6.8530     6.6680     7.2760
 3065.0000   106.7660     9.6580     2.5400     0.2210     0.0300  1210.3170    -3.7760  1031.3450     6.4180     5.7820     7.3960
 3065.5000   106.6200     9.6580     2.5470     0.2220     0.0320  1210.3170    -3.8440  1032.2650     5.7060     4.8960     7.5490
 3066.0000   109.5630     9.6610     2.5570     0.2310     0.0580  1210.3170    -3.9120  1033.1851     4.9950     4.4290     6.7210
 3066.5000   115.4430     9.6630     2.5320     0.2530     0.0860  1210.3170    -3.9640  1034.1060     4.2840     4.2330     5.7770
 3067.0000   120.9270     9.6650     2.4840     0.2740     0.0610  1210.3170    -4.0230  1035.0260     3.6180     4.0610     4.8320
 3067.5000   124.4340     9.6670     2.4270     0.3000     0.0390  1210.3170    -4.0880  1035.9470     3.4560     3.8880     3.7540
 3068.0000   124.2330     9.6700     2.4320     0.3150     0.0130  1210.3170    -4.1380  1036.8669     3.3030     3.7160     3.6400
 3068.5000   121.1000     9.6720     2.4430     0.3130     0.0080  1210.3170    -4.1840  1037.7870     3.1510     3.5430     3.4880
 3069.0000   119.2750     9.6740     2.4540     0.3090     0.0190  1210.3170    -3.9250  1038.7080     3.0670     3.3710     3.7220
 3069.5000   119.1880     9.6760     2.4660     0.3040     0.0310  1210.3170    -3.6590  1039.6281     3.0670     3.2300     4.0400
 3070.0000   121.1650     9.6780     2.4700     0.2990     0.0320  1210.3170    -3.3810  1040.5490     3.0670     3.1850     4.0400
 3070.5000   124.0690     9.6810     2.4630     0.2920     0.0270  1210.3170    -3.1100  1041.4690     3.0670     3.1410     3.8630
 3071.0000   126.9440     9.6830     2.4570     0.2920     0.0220  1210.3170    -2.8360  1042.3890     3.0670     3.0970     3.6930
 3071.5000   128.5590     9.6850     2.4550     0.2960     0.0170  1210.3170    -2.5640  1043.3101     3.0110     3.0520     3.5220
 3072.0000   130.8730     9.6870     2.4570     0.2980     0.0280  1210.3170    -2.2890  1044.2300     2.9220     3.0080     3.3620
 3072.5000   134.0820     9.6890     2.4620     0.3040     0.0460  1210.3170    -2.0140  1045.1500     2.8340     2.9560     3.3360
 3073.0000   137.2050     9.6920     2.4560     0.3170     0.0600  1210.3170    -1.8050  1046.0710     2.7460     2.8990     3.3100
 3073.5000   138.5010     9.6940     2.4450     0.3310     0.0580  1210.3170    -1.7970  1046.9910     2.6570     2.8290     3.2400
 3074.0000   139.0900     9.6960     2.4350     0.3420     0.0470  1210.3170    -1.8010  1047.9120     2.5690     2.7600     3.1240
