~VERSION INFORMATION
 VERS.                2.0:   CWLS LOG ASCII STANDARD - VERSION 2.0
 WRAP.                 NO:   ONE LINE PER DEPTH STEP
~WELL INFORMATION
#MNEM.UNIT      DATA TYPE    INFORMATION
#----------   ------------   ------------------------------
 STRT.F          220.0000:   START DEPTH
 STOP.F         3284.5000:   STOP DEPTH
 STEP.F            0.5000:   STEP LENGTH
 NULL.          -999.2500:   NO VALUE
 COMP.    FENIX & SCISSON:   COMPANY
 WELL. FENIX HARPEL "A" #85-28:   WELL
 FLD .              NPR-3:   FIELD
 LOC .      S28 T39N R78W:   LOCATION
 CNTY.            NATRONA:   COUNTY
 STAT.            WYOMING:   STATE
 CTRY. UNITED STATES OF AMERICA:   COUNTRY
 SRVC.      DRESSER ATLAS:   SERVICE COMPANY
 DATE.        07-AUG-1977:   LOGDATE
 API .     49025104040000:   API NUMBER
~CURVE INFORMATION
#MNEM.UNIT       API CODE    CURVE DESCRIPTION
#----------   ------------   ------------------------------
 DEPT.F                  :   
 GRD .GAPI   45 310 01 00:   GAMMA RAY FROM DENSITY LOG
 CALD.IN     45 280 60 00:   CALIPER FROM DENSITY LOG
 CORR.G/C3   45 356 01 00:   DENSITY CORRECTION
 RHOB.G/C3   45 350 01 00:   BULK DENSITY
 TEND.LBS    45 635 01 00:   TENSION FORM DENSITY LOG
 NPHI.DEC    42 890 03 00:   NEUTRON POROSITY SANDSTONE
 SPR .MV     11 010 01 00:   SPONTANEOUS POTENTIAL FROM RES.
 TENR.LBS    11 635 01 00:   TENSION FROM RES.
 LLD .OHMM   11 220 10 00:   LATEROLOG LOG DEEP
 LLS .OHMM   11 220 09 00:   LATEROLOG SHALLOW
 RXO .OHMM   11 270 04 00:   FLUSHED ZONE RESISTIVITY
~PARAMETER INFORMATION
#MNEM.UNIT          VALUE    DESCRIPTION
#----------   ------------   ------------------------------
 EKB .F         5059.0000:   Kelly bushing
 EGL .F         5049.0000:   Ground level
 EDF .F            0.0000:   Drilling floor
 EPD .F            0.0000:   Permanent datum
 TD  .F         3240.0000:   Total depth
 CLNT.            A2DTECH:   Client Code
 SL  . 2310' FSL & 330' FEL:   Surface Location
 PD  .                 GL:   Permanent Datum
 DAPD.F                10:   Feet Above Permanent Datum
 DATE.        07-AUG-1977:   Date Logged [DD-MMM-YYYY]
 DD  .F              3240:   Depth driller
 DL  .F              3267:   Depth logger
 BLI .F              3265:   Bottom log interval
 TLI .F               224:   Top log interval
 CS1 .IN            8.625:   Casing size
 CBD1.      8.625" @ 254':   Casing driller 1
 CBL1.F               224:   Casing logger 1
 BS1 .IN            7.875:   Bit size
 BSD1.F              3240:   Depth drilled with bit1
 DFT .                KCL:   Type fluid in hole
 DFD .                8.8:   Density
 DFV .                 36:   Viscosity
 DFPH.               10.5:   pH
 DFL .                9.6:   Fluid loss
 MSS .         CIRCULATED:   Source of sample
 RMS .OHMM           0.22:   Rm
 MST .F                78:   Rm Meas. temp.
 RMF .OHMM           0.16:   Rmf
 MFST.F                78:   Rmf Meas. temp.
 MFSS.               MEAS:   Source Rmf.
 RMC .OHMM           0.28:   Rmc
 MCST.F                78:   Rmc Meas. temp.
 MCSS.               MEAS:   Source Rmc.
 RMB .OHMM           0.14:   Rm. at BHT
 BHT .F               125:   BHT.
 TCS .HRS               7:   Time Circ. stopped
 MRT .F               125:   Maximum recorded temp.
 LUN .               6134:   Logging unit number
 LUL .              GLTTE:   Logging unit location
 ENGI.              GOULD:   Recorded By
 WITN.         HARRINGTON:   Witnessed by
 ORIG.      2.5" 5" PRINT:   Origin of data
 UWI .     49025104040000:   Unique Well ID
 DICO. A2D TECHNOLOGIES, INC.:   Digitizing Company
~OTHER INFORMATION
~A   DEPT      GRD       CALD       CORR       RHOB       TEND         NPHI      SPR       TENR        LLD        LLS        RXO   
# ...
 2233.0000    63.2691     8.4678     0.0127     2.5186  1032.6963     0.3324   -77.6377   717.6646    12.7068     8.7161     6.7313
 2233.5000    63.2908     8.4696     0.0068     2.5179  1075.7982     0.3297   -77.6502   730.2238    11.8536     8.0189     6.8195
 2234.0000    63.1634     8.4719     0.0025     2.4963   998.8825     0.3260   -77.6600   750.2996     7.5626     7.5840     7.3052
 2234.5000    63.4891     8.4735     0.0042     2.4874   982.6288     0.3185   -77.6698   751.8842     6.9510     7.3736     7.7164
 2235.0000    60.8189     8.4754     0.0134     2.4935  1010.7831     0.3130   -77.6796   753.1523     7.9783     7.4827     8.0391
 2235.5000    56.3685     8.4856     0.0196     2.4987  1023.6173     0.3175   -77.3901   754.4205     9.8130     7.9472     8.3753
 2236.0000    53.1013     8.4853     0.0213     2.5051  1036.7599     0.3285   -77.7006   755.6886    10.5186     8.6705     8.6254
 2236.5000    57.9046     8.4809     0.0199     2.5180  1034.9777     0.3321   -77.7111   757.0356    10.9745     9.6449     9.0668
 2237.0000    59.4190     8.4835     0.0232     2.5084  1032.8414     0.3372   -78.0210   750.8984    12.6799    10.7566     9.7356
 2237.5000    57.9482     8.4851     0.0293     2.4927  1046.4832     0.3294   -78.0331   729.5529    18.6810    12.4191     9.4836
 2238.0000    58.2854     8.4870     0.0265     2.4853  1044.3058     0.3153   -78.0429   731.1375    19.3995    13.8625     9.3328
 2238.5000    59.1858     8.4892     0.0297     2.4876   997.7217     0.3060   -78.0527   732.7227    17.7327    13.4778     9.4585
 2239.0000    58.9091     8.4909     0.0359     2.4900   981.0328     0.3112   -78.0629   733.9908    16.0893    12.7469     9.3247
 2239.5000    60.2742     8.4928     0.0451     2.4931  1083.9244     0.3054   -78.0733   765.1991    14.1999    12.0275     8.8209
 2240.0000    56.8686     8.4798     0.0438     2.5292  1156.9508     0.2988   -78.0838   766.4673    15.0285    11.7205     8.9439
 2240.5000    55.0993     8.4804     0.0408     2.5510  1064.6604     0.2924   -78.0943   767.8143    15.6711    11.7653     9.3531
 2241.0000    53.4739     8.4808     0.0366     2.5474  1003.8864     0.2889   -77.8074   769.1614    15.2691    12.1074     9.7033
 2241.5000    56.3369     8.4812     0.0353     2.5355  1106.4189     0.2834   -77.8172   770.5092    14.7730    12.2884     9.3058
 2242.0000    58.2320     8.4817     0.0325     2.5183  1044.8864     0.2956   -77.8270   771.8563    15.3899    12.0926     9.4979
 2242.5000    59.8206     8.4821     0.0281     2.5122   983.7897     0.2999   -77.8368   773.4415    16.4842    12.5433     9.4265
 2243.0000    62.3731     8.4896     0.0223     2.5305  1160.9854     0.3069   -77.8473   774.7096    16.9388    12.9439     9.8208
 2243.5000    65.0862     8.4979     0.0164     2.5298  1219.4694     0.3087   -77.8578   775.9771    16.6986    13.1175    10.2315
 2244.0000    66.7444     8.4984     0.0136     2.5187  1112.6592     0.3098   -77.8683   747.3051    15.2318    12.4058    10.3696
 2244.5000    63.9358     8.4989     0.0138     2.5118  1065.8582     0.3206   -77.7989   748.6529    13.7013    12.0624    10.3806
 2245.0000    60.0770     8.4993     0.0077     2.5020  1079.2805     0.3121   -77.5898   749.9999    13.8096    11.7285    10.6839
 2245.5000    58.8993     8.4997     0.0112     2.4883  1092.4871     0.3082   -77.4805   751.3470    16.7343    11.8977    10.8457
 2246.0000    57.8818     8.5151     0.0204     2.4891   985.6759     0.3106   -77.1717   752.6948    18.1936    12.4840    10.9394
 2246.5000    58.9483     8.5155     0.0191     2.5012   968.9871     0.3063   -77.0221   754.2794    17.3546    13.5047    10.7843
 2247.0000    60.7612     8.5308     0.0132     2.5088  1027.4719     0.3024   -76.9731   755.5475    18.3333    13.8994    10.3433
 2247.5000    58.9230     8.5313     0.0179     2.5067  1085.0853     0.3120   -76.7424   756.8157    18.5802    13.8937    10.0580
 2248.0000    56.0341     8.5318     0.0226     2.4992  1083.3441     0.3155   -76.7545   758.0838    17.8535    13.2412     9.7806
 2248.5000    52.7723     8.5173     0.0212     2.5046  1021.8123     0.3029   -76.7669   729.4908    15.2210    12.5240     9.5031
 2249.0000    53.9881     8.5177     0.0245     2.5129  1051.3087     0.2998   -76.7768   730.8385    13.6881    12.1773     9.5303
 2249.5000    55.1985     8.5209     0.0307     2.5040  1093.0675     0.3064   -76.7866   732.1855    12.2358    12.0048     9.8089
 2250.0000    50.5999     8.5336     0.0365     2.5079  1087.4996     0.3131   -76.7964   733.5327    12.9362    12.9472    10.0155
 2250.5000    52.2589     8.5340     0.0355     2.5222  1029.6775     0.3177   -76.5068   735.1179    15.6926    13.5810    10.3140
 2251.0000    52.8689     8.5195     0.0295     2.5328  1013.2621     0.3071   -76.5180   736.3860    16.1256    13.4973    10.3090
 2251.5000    51.9907     8.5200     0.0238     2.5142  1071.5852     0.3035   -76.5285   707.6345    16.1052    13.3810    10.3050
 2252.0000    51.7137     8.5163     0.0179     2.5075  1129.9077     0.3134   -76.8383   708.9823    15.6705    13.3734    10.3009
 2252.5000    50.2264     8.5060     0.0166     2.5054  1113.4924     0.3178   -76.5510   710.3293    15.4478    13.3673    10.2969
 2253.0000    52.1974     8.4915     0.0182     2.5077  1067.1818     0.3208   -76.5609   711.6765    15.2283    13.3613    10.3116
 2253.5000    54.7825     8.4920     0.0168     2.5078  1080.6611     0.3200   -76.5707   713.0242    15.2195    13.5409    10.7602
 2254.0000    63.7259     8.4775     0.0138     2.5047  1094.1704     0.3138   -76.5808   714.3713    15.4244    13.9403    11.0189
 2254.5000    69.8626     8.4731     0.0126     2.4750  1077.7252     0.3177   -76.2909   715.9565    16.0705    14.8590    11.0136
 2255.0000    66.6211     8.4578     0.0083     2.4639  1060.3031     0.3467   -76.3024   717.2246    20.0414    16.1293    11.1610
 2255.5000    62.5880     8.4490     0.0069     2.4339   999.9998     0.3614   -76.1732   718.4928    20.3112    16.2834    10.8532
 2256.0000    59.1724     8.4346     0.0101     2.4288  1013.1640     0.3410   -76.0239   719.7603    17.5504    15.2944    10.4094
 2256.5000    56.9509     8.4350     0.0133     2.4559  1071.4872     0.3301   -76.0357   721.1080    15.9614    14.2675    10.1223
 2257.0000    58.1622     8.4205     0.0179     2.4702  1085.3341     0.3415   -76.0456   722.4551    16.2512    13.6823     9.9798
 2257.5000    59.6840     8.4210     0.0226     2.4673  1053.6035     0.3455   -76.0554   723.8022    17.1702    13.4885    10.6014
 2258.0000    57.5997     8.4215     0.0257     2.4679  1007.2928     0.3363   -76.0659   725.1499    16.6942    13.6911    10.8320
 2258.5000    60.6064     8.4220     0.0259     2.4855   990.8776     0.3260   -76.0763   726.7345    16.0085    13.8536    10.3252
 2259.0000    58.6833     8.4224     0.0290     2.4961  1034.6193     0.3195   -76.0868   728.0026    16.4514    13.5895    10.1014
 2259.5000    57.0588     8.4377     0.0307     2.4880  1048.0992     0.3311   -76.0973   729.2708    16.6715    13.3742    10.0966
 2260.0000    61.2552     8.4382     0.0385     2.5023  1031.3171     0.3320   -76.1094   730.5389    16.1489    12.9088    10.0927
 2260.5000    63.2127     8.4386     0.0387     2.5092   985.0057     0.3223   -76.1192   731.8860    15.6726    12.7260    10.2290
 2261.0000    64.5783     8.4539     0.0389     2.5025   983.5381     0.3136   -76.1291   733.2338    15.0016    12.8975    10.8102
 2261.5000    61.2374     8.4545     0.0360     2.4944  1027.2028     0.3211   -76.1392   734.5808    14.2896    12.8912    10.7312
 2262.0000    57.8957     8.4847     0.0316     2.4877  1041.7552     0.3201   -76.1497   735.9280    15.7349    13.2461    10.0007
 2262.5000    57.7637     8.4852     0.0288     2.4871  1038.8640     0.3162   -76.1602   707.5730    16.8538    13.4624     9.6117
 2263.0000    56.8811     8.5005     0.0290     2.5144   992.2470     0.3063   -76.1707   708.8412    17.3297    13.9856     9.3944
