~VERSION INFORMATION
 VERS.                2.0:   CWLS LOG ASCII STANDARD - VERSION 2.0
 WRAP.                 NO:   ONE LINE PER DEPTH STEP
~WELL INFORMATION
#MNEM.UNIT      DATA TYPE    INFORMATION
#----------   ------------   ------------------------------
 STRT.F           10.0000:   START DEPTH
 STOP.F         3180.0000:   STOP DEPTH
 STEP.F            0.5000:   STEP LENGTH
 NULL.          -999.2500:   NO VALUE
 COMP. LAWRENCE - ALLISON WEST:   COMPANY
 WELL. LAWRENCE ALLISON NPR 3 "AX" #17-2:   WELL
 FLD .                NPR:   FIELD
 LOC .       S2 T38N R78W:   LOCATION
 CNTY.            NATRONA:   COUNTY
 STAT.            WYOMING:   STATE
 CTRY. UNITED STATES OF AMERICA:   COUNTRY
 SRVC.      DRESSER ATLAS:   SERVICE COMPANY
 DATE.        16-FEB-1987:   LOGDATE
 API .     49025111210000:   API NUMBER
~CURVE INFORMATION
#MNEM.UNIT       API CODE    CURVE DESCRIPTION
#----------   ------------   ------------------------------
 DEPT.F                  :   
 DEN .LBS    45 350 01 00:   BULK DENSITY
 CORR.G/C3   45 356 01 00:   DENSITY CORRECTION
 TEND.LBS    45 635 01 00:   TENSION FROM DENSITY LOG
 CNC .DEC    42 890 01 00:   NEUTRON PORISITY LIMESTONE
 CALR.IN     07 280 01 00:   CALIPER FROM RESISTIVITY
 SPR .MV     07 010 01 00:   SPONTANEOUS POTENTIAL
 GRR .GAPI   07 310 01 00:   GAMMA RAY FROM RESISTIVITY
 RFOC.OHMM   07 220 04 00:   RESISTIVITY FOCUSED LOG RES.
 ILD .OHMM   07 120 46 00:   DEEP INDUCTION RESISTIVITY
 ILM .OHMM   07 120 44 00:   INDUCTION LOG MEDIUM RESISTIVITY
 TENR.LBS    07 635 01 00:   TENSION FROM RESISTIVITY
~PARAMETER INFORMATION
#MNEM.UNIT          VALUE    DESCRIPTION
#----------   ------------   ------------------------------
 EKB .F         5141.0000:   Kelly bushing
 EGL .F         5129.0000:   Ground level
 EDF .F            0.0000:   Drilling floor
 EPD .F            0.0000:   Permanent datum
 TD  .F         3161.0000:   Total depth
 DATE.        16-FEB-1987:   Date logged
 CLNT.            A2DTECH:   Client Code
 SL  . 1125' FSL & 220' FWL:   Surface Location
 PD  .                 GL:   Permanent Datum
 DAPD.F                12:   Feet Above Permanent Datum
 DD  .F              3161:   Depth driller
 DL  .F              3158:   Depth logger
 BLI .F              3156:   Bottom log interval
 TLI .F                12:   Top log interval
 CS1 .IN            8.625:   Casing size
 CBD1.      8.625" @ 626':   Casing driller 1
 CBL1.F               626:   Casing logger 1
 BS1 .IN            7.875:   Bit size
 BSD1.F              3161:   Depth drilled with bit1
 DFT .        KCL/POLYMER:   Type fluid in hole
 DFD .                8.8:   Density
 DFV .                 39:   Viscosity
 DFPH.                 10:   pH
 DFL .                8.4:   Fluid loss
 MSS .           FLOWLINE:   Source of sample
 RMS .OHMM           .292:   Rm
 MST .F                82:   Rm Meas. temp.
 RMF .OHMM           .231:   Rmf
 MFST.F                82:   Rmf Meas. temp.
 RMC .OHMM           .365:   Rmc
 MCST.F                82:   Rmc Meas. temp.
 MFSS.               MEAS:   Source Rmf.
 MCSS.               CALC:   Source Rmc.
 RMB .OHMM           .203:   Rm. at BHT
 BHT .F               118:   BHT.
 TCS .HRS               3:   Time Circ. stopped
 MRT .F               118:   Maximum recorded temp.
 LUN .            HL-6274:   Logging unit number
 LUL .           GALLETTE:   Logging unit location
 ENGI.            PANASUK:   Recorded By
 WITN.             STRONG:   Witnessed by
 ORIG.           5" PRINT:   Origin of data
 UWI .     49025111210000:   Unique Well ID
 DICO. A2D TECHNOLOGIES, INC.:   Digitizing Company
~OTHER INFORMATION
~A   DEPT      DEN       CORR       TEND        CNC       CALR        SPR          GRR     RFOC        ILD        ILM       TENR   
# ...
 2114.5000  -999.2500  -999.2500  -999.2500  -999.2500     8.9503   -22.8943   106.8285    12.1179     8.8370     9.1373   -75.0000
 2115.0000  -999.2500  -999.2500  -999.2500  -999.2500     8.9505   -22.8938   106.0340    11.6801     8.5963     9.0537   -75.0000
 2115.5000  -999.2500  -999.2500  -999.2500  -999.2500     8.9705   -23.0925   104.4432    11.4671     8.0599     8.8073   -85.0000
 2116.0000  -999.2500  -999.2500  -999.2500  -999.2500     8.9706   -22.8929   101.2598    10.5558     8.1344     8.5677   -75.0000
 2116.5000  -999.2500  -999.2500  -999.2500  -999.2500     8.9708   -22.6934    99.6692    10.0813     8.1344     8.4893   -75.0000
 2117.0000  -999.2500  -999.2500  -999.2500  -999.2500     8.9710   -22.6929   104.4489     9.9889     8.3622     8.7267   -75.0000
 2117.5000  -999.2500  -999.2500  -999.2500  -999.2500     8.9711   -22.6927   113.2098    10.2685     8.6758     8.8073   -75.0000
 2118.0000  -999.2500  -999.2500  -999.2500  -999.2500     8.9712   -22.4981   120.3780    12.1179     8.7560     9.0537   -85.0000
 2118.5000  -999.2500  -999.2500  -999.2500  -999.2500     8.9714   -22.2935   117.1944    13.0435     8.9187     9.5672   -85.0000
 2119.0000  -999.2500  -999.2500  -999.2500  -999.2500     8.9715   -22.2930   115.6036    13.5325     9.0845     9.6556   -85.0000
 2119.5000  -999.2500  -999.2500  -999.2500  -999.2500     8.9517   -22.0935   113.2166    13.5325     9.0012     9.6556   -85.0000
 2120.0000  -999.2500  -999.2500  -999.2500  -999.2500     8.9519   -22.0931   112.0241    13.0435     9.0845     9.6556   -75.0000
 2120.5000  -999.2500  -999.2500  -999.2500  -999.2500     8.9520   -22.0926   104.0641    12.5722     9.3388     9.6556   -75.0000
 2121.0000  -999.2500  -999.2500  -999.2500  -999.2500     8.9522   -22.0921   100.0852    12.3430     9.3388     9.6556   -75.0000
 2121.5000  -999.2500  -999.2500  -999.2500  -999.2500     8.9523   -22.0918   101.2814    12.3430     9.0845     9.6556   -75.0000
 2122.0000  -999.2500  -999.2500  -999.2500  -999.2500     8.9923   -22.3823   106.8563    12.0069     9.0845     9.6556   -75.0000
 2122.5000  -999.2500  -999.2500  -999.2500  -999.2500     8.9924   -22.4888   115.6153    11.4671     8.9187     9.4797   -75.0000
 2123.0000  -999.2500  -999.2500  -999.2500  -999.2500     8.9925   -22.4884   119.1994    11.0528     9.0012     9.3929   -75.0000
 2123.5000  -999.2500  -999.2500  -999.2500  -999.2500     8.9927   -22.2889   119.5990    11.1549     9.0012     9.4797   -75.0000
 2124.0000  -999.2500  -999.2500  -999.2500  -999.2500     8.9929   -22.0895   114.4262    11.5731     9.0012     9.7448   -85.0000
 2124.5000  -999.2500  -999.2500  -999.2500  -999.2500     9.0129   -21.8900   106.4675    12.3430     8.9187     9.7448   -85.0000
 2125.0000  -999.2500  -999.2500  -999.2500  -999.2500     8.9931   -21.8896   106.0721    12.6884     8.8370     9.7448   -85.0000
 2125.5000  -999.2500  -999.2500  -999.2500  -999.2500     8.9933   -22.2871   106.0728    12.5722     8.6758     9.4797   -75.0000
 2126.0000  -999.2500  -999.2500  -999.2500  -999.2500     8.9934   -22.2867   105.6771    12.0069     8.6758     9.1373   -75.0000
 2126.5000  -999.2500  -999.2500  -999.2500  -999.2500     9.0134   -23.0822   103.2910    11.5731     8.6758     9.1373   -85.0000
 2127.0000  -999.2500  -999.2500  -999.2500  -999.2500     9.0335   -23.0818    99.7115    11.1549     8.6758     9.1373   -85.0000
 2127.5000  -999.2500  -999.2500  -999.2500  -999.2500     9.0336   -23.2803    99.7135    11.0528     8.6758     8.7267   -85.0000
 2128.0000  -999.2500  -999.2500  -999.2500  -999.2500     9.0337   -23.2798   101.7052    10.9516     8.5175     8.2583   -85.0000
 2128.5000  -999.2500  -999.2500  -999.2500  -999.2500     9.0737   -23.0804   104.8909    10.9516     8.0599     8.0336   -85.0000
 2129.0000  -999.2500  -999.2500  -999.2500  -999.2500     9.0738   -22.6820   105.2907    10.6534     7.7685     8.0336   -85.0000
 2129.5000  -999.2500  -999.2500  -999.2500  -999.2500     9.0740   -22.2836   104.4967    10.1744     7.7685     7.8872   -85.0000
 2130.0000  -999.2500  -999.2500  -999.2500  -999.2500     9.0741   -22.2832   103.7027    10.1744     7.5569     7.8872   -75.0000
 2130.5000  -999.2500  -999.2500  -999.2500  -999.2500     9.0742   -22.2831   102.1130    10.0813     7.5569     7.8872   -75.0000
 2131.0000  -999.2500  -999.2500  -999.2500  -999.2500     9.0744   -22.2823   100.1253    10.0813     7.7685     7.8872   -75.0000
 2131.5000  -999.2500  -999.2500  -999.2500  -999.2500     9.0944   -22.2818    99.7294     9.9889     7.6973     7.8872   -75.0000
 2132.0000  -999.2500  -999.2500  -999.2500  -999.2500     9.1144   -22.2814   100.1293     9.9889     7.6973     7.8872   -85.0000
 2132.5000  -999.2500  -999.2500  -999.2500  -999.2500     9.1145   -22.4799   101.7228     9.9889     7.7685     7.8872   -85.0000
 2133.0000  -999.2500  -999.2500  -999.2500  -999.2500     9.1147   -22.6784   102.5205     9.9889     7.7685     7.8872   -75.0000
 2133.5000  -999.2500  -999.2500  -999.2500  -999.2500     9.1148   -22.6779    97.7479    10.0813     7.7685     7.9601   -75.0000
 2134.0000  -999.2500  -999.2500  -999.2500  -999.2500     9.1150   -23.0753    97.3521    10.4592     8.1344     8.1078   -75.0000
 2134.5000  -999.2500  -999.2500  -999.2500  -999.2500     9.1150   -22.5747    97.7520    11.1549     8.0599     8.3346   -75.0000
 2135.0000  -999.2500  -999.2500  -999.2500  -999.2500     9.1152   -22.4775    98.1519    11.4671     8.1935     8.4893   -75.0000
 2135.5000  -999.2500  -999.2500  -999.2500  -999.2500     9.1154   -22.4771    98.1539    11.3621     8.3622     8.6468   -75.0000
 2136.0000  -999.2500  -999.2500  -999.2500  -999.2500     9.1354   -22.4766    98.1559    11.1549     8.3622     8.7267   -65.0000
 2136.5000  -999.2500  -999.2500  -999.2500  -999.2500     9.1157   -22.2773   100.1471    10.9516     8.3622     8.7267   -85.0000
 2137.0000  -999.2500  -999.2500  -999.2500  -999.2500     9.1157   -22.2768   102.9339    11.0528     8.3622     8.7267   -85.0000
 2137.5000  -999.2500  -999.2500  -999.2500  -999.2500     9.1159   -22.4753   103.3336    11.2580     8.3622     8.8073   -85.0000
 2138.0000  -999.2500  -999.2500  -999.2500  -999.2500     9.1160   -22.6738   103.3355    11.4671     8.3622     8.8073   -85.0000
 2138.5000  -999.2500  -999.2500  -999.2500  -999.2500     9.1162   -22.8723   103.7349    11.4671     8.3622     8.8073   -85.0000
 2139.0000  -999.2500  -999.2500  -999.2500  -999.2500     9.1362   -23.0027    99.7592    11.3621     8.3622     8.8073   -85.0000
 2139.5000  -999.2500  -999.2500  -999.2500  -999.2500     9.1364   -23.0702    98.5678    11.0528     8.4395     8.8073   -75.0000
 2140.0000  -999.2500  -999.2500  -999.2500  -999.2500     9.1365   -23.0697    99.7632    10.7519     8.4395     8.8073   -75.0000
 2140.5000  -999.2500  -999.2500  -999.2500  -999.2500     9.1366   -23.2682   105.7317    10.8513     8.3622     8.8073   -75.0000
 2141.0000  -999.2500  -999.2500  -999.2500  -999.2500     9.1368   -23.0688   108.5180    10.8513     8.5963     8.8887   -75.0000
 2141.5000  -999.2500  -999.2500  -999.2500  -999.2500     9.1369   -23.0683   110.5082    10.9516     8.6758     8.9708   -75.0000
 2142.0000  -999.2500  -999.2500  -999.2500  -999.2500     9.1370   -23.0679   108.1238    10.9516     8.6758     9.1373   -75.0000
 2142.5000  -999.2500  -999.2500  -999.2500  -999.2500     9.1372   -22.8686   104.1483    11.3621     8.8370     9.2217   -75.0000
 2143.0000  -999.2500  -999.2500  -999.2500  -999.2500     9.1374   -22.8685   100.5710    11.8970     8.8370     9.4797   -75.0000
 2143.5000  -999.2500  -999.2500  -999.2500  -999.2500     9.1574   -22.2711    98.1866    12.2299     8.9187     9.8348   -75.0000
 2144.0000  -999.2500  -999.2500  -999.2500  -999.2500     9.1575   -22.2706    97.7909    12.4571     9.1685     9.9257   -75.0000
 2144.5000  -999.2500  -999.2500  -999.2500  -999.2500     9.1775   -22.4689    95.4067    12.5722     9.4252     9.9257   -85.0000
