~VERSION INFORMATION
 VERS.                2.0:   CWLS LOG ASCII STANDARD - VERSION 2.0
 WRAP.                 NO:   ONE LINE PER DEPTH STEP
~WELL INFORMATION
#MNEM.UNIT      DATA TYPE    INFORMATION
#----------   ------------   ------------------------------
 STRT.F          629.0000:   START DEPTH
 STOP.F         4090.0000:   STOP DEPTH
 STEP.F            0.5000:   STEP LENGTH
 NULL.          -999.2500:   NO VALUE
 COMP. LAWRENCE ALLISON & ASSOCIATES:   COMPANY
 WELL. LAWRENCE NPR 3 "SHX" #36-10:   WELL
 FLD .      NPR - WILDCAT:   FIELD
 LOC .      S10 T38N R78W:   LOCATION
 CNTY.            NATRONA:   COUNTY
 STAT.            WYOMING:   STATE
 CTRY. UNITED STATES OF AMERICA:   COUNTRY
 SRVC.      DRESSER ATLAS:   SERVICE COMPANY
 DATE.        24-DEC-1981:   LOGDATE
 API .     49025108310000:   API NUMBER
~CURVE INFORMATION
#MNEM.UNIT       API CODE    CURVE DESCRIPTION
#----------   ------------   ------------------------------
 DEPT.F                  :   
 DT  .US/F   60 520 00 00:   DELTA TIME
 TENS.LBS    60 635 01 00:   TENSION FROM SONIC
 GRR .GAPI   07 310 01 00:   GAMMA RAY FROM RESISTIVITY
 SPR .MV     07 010 01 00:   SPONTANEOUS POTENTIAL
 RFOC.OHMM   07 220 04 00:   RESISTIVITY FOCUSED LOG RES.
 RILM.OHMM   07 120 44 00:   INDUCTION LOG MEDIUM RESISTIVITY
 RILD.OHMM   07 120 46 00:   DEEP INDUCTION RESISTIVITY
 TENR.LBS    07 635 01 00:   TENSION FROM RESISTIVITY
 NPHI.DEC    42 890 03 00:   NEUTRON POROSITY SANDSTONE
 RHOB.G/C3   45 350 01 00:   BULK DENSITY
 CORR.G/C3   45 356 01 00:   DENSITY CORRECTION
 TEND.LBS    45 635 01 00:   TENSION FROM DENSITY LOG
 CALD.IN     45 280 60 00:   CALIPER FROM DENSITY LOG
~PARAMETER INFORMATION
#MNEM.UNIT          VALUE    DESCRIPTION
#----------   ------------   ------------------------------
 EKB .F         5234.0000:   Kelly bushing
 EGL .F         5224.0000:   Ground level
 EDF .F         5233.0000:   Drilling floor
 EPD .F            0.0000:   Permanent datum
 TD  .F         4100.0000:   Total depth
 DATE.        24-DEC-1981:   Date logged
 CLNT.            A2DTECH:   Client Code
 SL  . 1798' FSL & 1455' FWL:   Surface Location
 PD  .                 GL:   Permanent Datum
 DAPD.F                10:   Feet Above Permanent Datum
 DD  .F              4100:   Depth driller
 DL  .F              4082:   Depth logger
 BLI .F              4074:   Bottom log interval
 TLI .F              2300:   Top log interval
 CS1 .IN            9.625:   Casing size
 CBD1.      9.625" @ 650':   Casing driller 1
 BS1 .IN            7.875:   Bit size
 BSD1.F              4100:   Depth drilled with bit1
 DFT .            KCL/GEL:   Type fluid in hole
 DFD .                9.1:   Density
 DFV .                 60:   Viscosity
 DFPH.                  8:   pH
 DFL .                 12:   Fluid loss
 MSS .           FLOWLINE:   Source of sample
 RMS .OHMM           .536:   Rm
 RMF .OHMM           .402:   Rmf
 RMC .OHMM            067:   Rmc
 MFSS.               CALC:   Source Rmf.
 MCSS.               CALC:   Source Rmc.
 RMB .OHMM            .35:   Rm. at BHT
 BHT .F               135:   BHT.
 TCS .HRS               6:   Time Circ. stopped
 MRT .F               141:   Maximum recorded temp.
 LUL .               GLT1:   Logging unit location
 UWI .     49025108310000:   Unique Well ID
 DICO. A2D TECHNOLOGIES, INC.:   Digitizing Company
~OTHER INFORMATION
~A   DEPT       DT       TENS         GRR       SPR       RFOC       RILM       RILD       TENR       NPHI       RHOB       CORR       TEND       CALD   
# ...
 2891.0000    86.6300   -90.0140   129.2280   -32.9680     8.0300     6.6770     5.8910   -87.6030     0.2740     2.5470     0.0580   -55.3890     8.6390
 2891.5000    85.8040   -90.1620   128.1200   -33.0770     8.1780     6.7380     5.9770   -87.8210     0.2760     2.5410     0.0490   -55.3890     8.6390
 2892.0000    84.9780   -90.3100   130.4820   -33.1860     8.0940     6.7380     6.0890   -88.0390     0.2790     2.5370     0.0020   -55.3890     8.6390
 2892.5000    84.9900   -90.4580   132.8400   -33.2940     7.9750     6.7380     6.0890   -88.2570     0.2800     2.5370     0.0110   -61.2280     8.6400
 2893.0000    85.4390   -90.6060   132.5130   -33.4030     7.8550     6.6700     6.0770   -88.4750     0.2800     2.5390     0.0250   -68.7720     8.6400
 2893.5000    85.8880   -90.7540   129.4690   -33.5020     7.7360     6.5940     6.0540   -88.6920     0.2840     2.5440     0.0390   -76.3170     8.6410
 2894.0000    86.3370   -90.9010   126.4190   -33.6720     7.6160     6.5170     6.0310   -88.9100     0.2780     2.5440     0.0470   -83.8620     8.6420
 2894.5000    86.7860   -91.0490   124.6550   -33.8620     7.4970     6.4350     6.0080   -89.1280     0.2860     2.5420     0.0330   -85.3290     8.6420
 2895.0000    87.2350   -91.1970   127.1540   -34.0530     7.3890     6.4350     5.9850   -89.3460     0.2920     2.5410     0.0240   -78.9670     8.6430
 2895.5000    87.7120   -91.3450   130.1480   -34.2430     7.3890     6.4350     5.9620   -89.5640     0.2980     2.5440     0.0480   -72.6800     8.6430
 2896.0000    88.3060   -91.4930   132.4020   -34.4340     7.4640     6.4350     5.9390   -89.7820     0.3110     2.5480     0.0620   -66.3920     8.6440
 2896.5000    88.7600   -91.6410   134.5550   -34.6240     7.6120     6.4550     5.9220   -90.0000     0.3000     2.5440     0.0580   -64.7400     8.6440
 2897.0000    88.5350   -91.7890   136.7340   -34.8130     7.7610     6.5210     5.9220   -90.2180     0.2990     2.5370     0.0270   -63.9890     8.6450
 2897.5000    88.2980   -91.9360   134.4950   -34.8790     7.9100     6.5870     5.9230   -90.4360     0.2910     2.5400     0.0060   -63.2370     8.6460
 2898.0000    87.7420   -92.0840   132.0360   -34.7680     7.9550     6.6530     5.9220   -90.6540     0.2710     2.5440     0.0550   -62.4860     8.6460
 2898.5000    87.1570   -92.2320   130.4500   -34.6610     7.8940     6.7190     5.9220   -90.8720     0.2660     2.5390     0.0630   -61.7350     8.6470
 2899.0000    87.2970   -92.3800   131.0480   -34.5520     7.6920     6.7700     5.9270   -91.0900     0.2790     2.5330     0.0530   -60.9830     8.6470
 2899.5000    87.8260   -92.5280   132.3450   -34.4440     7.4900     6.8010     5.9440   -91.3080     0.2770     2.5300     0.0400   -60.2320     8.6480
 2900.0000    88.3980   -92.6760   131.2170   -34.3360     7.3890     6.8640     5.9610   -91.5260     0.2880     2.5330     0.0270   -59.4810     8.6490
 2900.5000    88.4640   -92.8240   130.1010   -34.2280     7.3890     6.8840     5.9770   -91.7440     0.2950     2.5390     0.0150   -58.7290     8.6490
 2901.0000    88.5580   -92.9710   130.8610   -34.1190     7.4990     6.9240     5.9940   -91.9620     0.3050     2.5410     0.0040   -57.9780     8.6500
 2901.5000    88.6520   -93.1190   131.6500   -34.0110     7.6550     6.9630     6.0110   -92.1800     0.3000     2.5400    -0.0010   -57.2270     8.6500
 2902.0000    88.6370   -93.2670   130.1870   -33.9030     7.8120     7.0230     6.0280   -92.3980     0.3000     2.5380    -0.0080   -56.4750     8.6510
 2902.5000    88.5140   -93.4150   127.2190   -33.7940     7.9550     7.0560     6.0330   -92.6160     0.2970     2.5380     0.0230   -55.7240     8.6510
 2903.0000    88.3920   -93.5630   126.2660   -33.6860     8.0290     7.0560     6.0890   -92.8330     0.2840     2.5410     0.0520   -55.3890     8.6520
 2903.5000    88.2700   -93.7110   125.8810   -33.5810     8.0960     7.0560     6.0890   -93.0510     0.2730     2.5450     0.0520   -55.3890     8.6530
 2904.0000    88.1470   -93.8590   130.0960   -33.5970     8.1640     7.0560     6.0890   -93.2690     0.2710     2.5490     0.0600   -55.3890     8.6530
 2904.5000    88.0250   -94.0060   134.2010   -33.9890     8.2320     6.9920     6.0890   -93.4870     0.2800     2.5470     0.0750   -55.3890     8.6540
 2905.0000    87.9030   -94.1540   138.2680   -34.3690     8.2540     6.8800     6.1430   -93.7050     0.2900     2.5440     0.0590   -55.3890     8.6540
 2905.5000    87.7800   -94.3020   139.8180   -34.7490     8.0330     6.7770     6.1930   -93.9230     0.2970     2.5400     0.0380   -55.3890     8.6550
 2906.0000    87.6980   -94.4500   135.4170   -35.1290     7.8610     6.6740     6.2590   -94.1410     0.2930     2.5380     0.0320   -55.3890     8.6560
 2906.5000    88.3520   -94.5980   132.0780   -35.5090     7.6880     6.5720     6.1820   -94.3590     0.2850     2.5360     0.0360   -55.3890     8.6560
 2907.0000    89.0600   -94.7460   128.7200   -35.8910     7.5160     6.4690     6.0680   -94.5770     0.2890     2.5340     0.0400   -55.3890     8.6570
 2907.5000    89.7680   -94.8450   128.1420   -36.2670     7.3440     6.3760     5.9530   -94.7950     0.2960     2.5370     0.0550   -55.3890     8.6570
 2908.0000    90.1550   -94.8450   130.7530   -36.0800     7.3210     6.3170     5.8390   -95.0130     0.3000     2.5420     0.0860   -55.3890     8.6580
 2908.5000    90.3230   -94.8450   133.3330   -35.8070     7.3210     6.3170     5.7250   -95.2310     0.3050     2.5470     0.1130   -55.3890     8.6580
 2909.0000    90.4560   -94.8450   135.2630   -35.5320     7.3210     6.2590     5.6100   -95.4490     0.3100     2.5430     0.1130   -55.3890     8.6590
 2909.5000    90.5600   -94.8450   134.0850   -35.2580     7.3210     6.1920     5.4960   -95.6670     0.3140     2.5390     0.0510   -55.3890     8.6590
 2910.0000    90.6630   -94.8450   133.2330   -34.8540     7.3210     6.1300     5.3820   -95.8850     0.3190     2.5360     0.0280   -55.3890     8.6590
 2910.5000    90.7670   -94.8450   134.2670   -34.2960     7.2540     6.0330     5.2670   -96.1030     0.3290     2.5390     0.0200   -55.3890     8.6590
 2911.0000    90.8710   -94.8450   140.1950   -33.7360     7.0640     6.0520     5.2050   -96.3210     0.3320     2.5400     0.0270   -55.3890     8.6590
 2911.5000    90.9750   -94.8450   146.0910   -33.1790     6.8830     6.0930     5.1580   -96.5390     0.3300     2.5390     0.0350   -55.3890     8.6590
 2912.0000    91.3440   -94.8450   152.3730   -33.3850     6.7030     6.1340     5.1580   -96.7570     0.3010     2.5390     0.0440   -55.3890     8.6590
 2912.5000    91.9710   -94.8450   150.7030   -33.7180     6.6770     6.1760     5.1580   -96.9740     0.3070     2.5410     0.0600   -55.3890     8.6620
 2913.0000    92.4570   -94.8450   147.5570   -34.0510     6.9170     6.2170     5.1580   -97.1920     0.2830     2.5390     0.0660   -55.3890     8.6680
 2913.5000    92.1560   -94.8450   144.2850   -34.1810     7.1090     6.2580     5.1580   -97.4100     0.2840     2.5350     0.0560   -55.3890     8.6730
 2914.0000    91.8550   -94.8450   145.1430   -34.2710     7.3210     6.3000     5.2300   -97.6280     0.2940     2.5340     0.0510   -55.3890     8.6790
 2914.5000    91.6120   -94.8450   146.8700   -34.3610     7.2970     6.3410     5.3420   -97.8460     0.2990     2.5330     0.0460   -55.3890     8.6840
 2915.0000    91.6790   -94.8450   142.1220   -34.4510     7.2410     6.3820     5.4540   -98.0640     0.3000     2.5310     0.0410   -55.3890     8.6900
 2915.5000    91.7460   -94.8450   134.9100   -34.5410     7.1880     6.4240     5.5670   -98.2820     0.3000     2.5260     0.0360   -55.3890     8.6950
 2916.0000    91.8020   -94.8450   127.6370   -34.6320     7.1880     6.4650     5.6790   -98.5000     0.3010     2.5230     0.0330   -55.3890     8.6990
 2916.5000    91.4910   -94.8450   127.0370   -34.7220     7.2950     6.5060     5.7910   -98.7180     0.3010     2.5220     0.0420   -55.3890     8.6960
