~VERSION INFORMATION
 VERS.                2.0:   CWLS LOG ASCII STANDARD - VERSION 2.0
 WRAP.                 NO:   ONE LINE PER DEPTH STEP
~WELL INFORMATION
#MNEM.UNIT      DATA TYPE    INFORMATION
#----------   ------------   ------------------------------
 STRT.F          620.0000:   START DEPTH
 STOP.F         4350.5000:   STOP DEPTH
 STEP.F            0.5000:   STEP LENGTH
 NULL.          -999.2500:   NO VALUE
 COMP.    FENIX & SCISSON:   COMPANY
 WELL. FENIX NPR 3 "LX" #25-10:   WELL
 FLD .                NPR:   FIELD
 LOC .      S10 T38N R78W:   LOCATION
 CNTY.            NATRONA:   COUNTY
 STAT.            WYOMING:   STATE
 CTRY. UNITED STATES OF AMERICA:   COUNTRY
 SRVC.              WELEX:   SERVICE COMPANY
 DATE.        06-MAR-1980:   LOGDATE
 API .     49025108070000:   API NUMBER
~CURVE INFORMATION
#MNEM.UNIT       API CODE    CURVE DESCRIPTION
#----------   ------------   ------------------------------
 DEPT.F                  :   
 CALD.IN     45 280 60 00:   CALIPER FROM DENSITY LOG
 GRD .GAPI   45 310 01 00:   GAMMA RAY FROM DENSITY LOG
 RHOB.G/C3   45 350 01 00:   BULK DENSITY
 CORR.G/C3   45 356 01 00:   DENSITY CORRECTION
 NPHI.DEC    42 890 03 00:   NEUTRON POROSITY SANDSTONE
 SPR .MV     07 010 01 00:   SPONTANEOUS POTENTIAL
 ILD .OHMM   07 120 46 00:   DEEP INDUCTION RESISTIVITY
 ILM .OHMM   07 120 44 00:   INDUCTION LOG MEDIUM RESISTIVITY
 SGRD.OHMM   07 220 05 00:   SHALLOW SHORT GUARD RESISTIVITY
~PARAMETER INFORMATION
#MNEM.UNIT          VALUE    DESCRIPTION
#----------   ------------   ------------------------------
 EKB .F         5247.0000:   Kelly bushing
 EGL .F         5237.0000:   Ground level
 EDF .F            0.0000:   Drilling floor
 TD  .F         4352.0000:   Total depth
 DATE.        06-MAR-1980:   Date logged
 CLNT.            A2DTECH:   Client Code
 SL  . 1075' FWL & 2450' FSL:   Surface Location
 PD  .                 GL:   Permanent Datum
 EPD .F              5237:   Elevation Permanent Datum
 LMF .                 KB:   Log Measured From
 DMF .                 KB:   Drilling Measured From
 DAPD.F                10:   Feet Above Permanent Datum
 DD  .F              4350:   Depth driller
 DL  .F              4352:   Depth logger
 BLI .F              4350:   Bottom log interval
 TLI .F               630:   Top log interval
 CS1 .IN            8.625:   Casing size
 CBD1.      8.625" @ 600':   Casing driller 1
 CBL1.F               632:   Casing logger 1
 BS1 .IN            7.875:   Bit size
 BSD1.F              4350:   Depth drilled with bit1
 DFT .           CHEM/GEL:   Type fluid in hole
 DFD .                8.9:   Density
 DFV .                 47:   Viscosity
 DFPH.               10.3:   pH
 DFL .                 10:   Fluid loss
 MSS .           FLOWLINE:   Source of sample
 RMS .OHMM            .89:   Rm
 MST .F                90:   Rm Meas. temp.
 RMF .OHMM            .71:   Rmf
 MFST.F                90:   Rmf Meas. temp.
 RMC .OHMM           1.06:   Rmc
 MCST.F                90:   Rmc Meas. temp.
 MFSS.               MEAS:   Source Rmf.
 MCSS.               MEAS:   Source Rmc.
 RMB .OHMM            .60:   Rm. at BHT
 BHT .F               112:   BHT.
 TCS .HRS               1:   Time Circ. stopped
 MRT .F               132:   Maximum recorded temp.
 LUN .               1892:   Logging unit number
 LUL .             CASPER:   Logging unit location
 ENGI.               REIN:   Recorded By
 WITN.           DINSMORE:   Witnessed by
 ORIG.           5" PRINT:   Origin of data
 UWI .     49025108070000:   Unique Well ID
 DICO. A2D TECHNOLOGIES, INC.:   Digitizing Company
~OTHER INFORMATION
~A   DEPT     CALD        GRD       RHOB       CORR       NPHI         SPR       ILD        ILM         SGRD 
# ...
 1824.5000    13.2020    83.1400     2.0240     0.0630     0.1910   -24.1120     7.1130     7.9480     8.0950
 1825.0000    13.2020    84.0830     2.0150     0.0560     0.1930   -24.1070     7.0980     7.9480     8.0960
 1825.5000    13.2020    85.0130     2.0000     0.0460     0.1950   -24.1060     7.0690     7.9470     8.0940
 1826.0000    13.2020    86.9010     1.9600     0.0360     0.1960   -24.1080     7.0410     7.9470     8.0950
 1826.5000    13.2020    88.7630     1.9210     0.0280     0.1940   -24.1110     7.0120     7.8740     8.0990
 1827.0000    13.2020    87.4670     1.8950     0.0250     0.1950   -24.0900     6.9840     7.7860     8.0470
 1827.5000    13.2020    85.8290     1.8660     0.0240     0.1960   -24.3130     6.9550     7.6970     7.9590
 1828.0000    13.2020    84.5960     1.8490     0.0250     0.1940   -24.7110     6.9270     7.6070     7.8730
 1828.5000    13.2020    84.3460     1.8290     0.0250     0.1920   -25.1100     6.8990     7.5180     7.7890
 1829.0000    13.2030    84.7900     1.8620     0.0260     0.1910   -25.2660     6.8700     7.3820     7.7040
 1829.5000    13.2020    84.1900     1.9100     0.0260     0.1890   -25.1220     6.8420     7.4230     7.6590
 1830.0000    13.2020    82.9760     1.9700     0.0270     0.1880   -25.0070     6.8130     7.5100     7.7660
 1830.5000    13.2040    81.8690     2.0240     0.0280     0.1880   -24.8890     6.7850     7.5980     7.8660
 1831.0000    13.1850    80.8010     2.0200     0.0280     0.1910   -24.7670     6.7570     7.6920     7.9660
 1831.5000    13.1400    81.4030     2.0030     0.0340     0.1940   -24.6500     6.7320     7.8020     8.0660
 1832.0000    13.0980    82.7540     2.0070     0.0400     0.1960   -24.5290     6.7580     7.9110     8.3010
 1832.5000    13.0550    84.1220     1.9550     0.0420     0.1990   -24.4100     6.7800     8.0960     8.5560
 1833.0000    13.0120    84.2180     1.9420     0.0440     0.1990   -24.2910     6.8040     8.0870     8.4980
 1833.5000    12.9700    84.0880     1.9170     0.0140     0.1950   -24.1650     6.8270     8.0600     8.4460
 1834.0000    12.9270    83.4300     1.9320    -0.0050     0.1920   -24.1020     6.8510     8.0340     8.3940
 1834.5000    12.8850    83.1830     1.9800    -0.0150     0.1890   -24.1080     6.8750     8.0070     8.3420
 1835.0000    12.8470    83.6430     2.0760    -0.0090     0.1860   -24.1060     6.8980     7.9800     8.2900
 1835.5000    12.8460    83.9150     2.1170    -0.0060     0.1870   -24.1080     6.9220     7.9540     8.2460
 1836.0000    12.8450    84.1980     2.1330    -0.0010     0.1870   -24.1040     6.9450     7.7280     8.2710
 1836.5000    12.8450    84.4760     2.1440     0.0040     0.1870   -24.1090     6.9690     7.4430     8.2930
 1837.0000    12.8450    84.7040     2.1390     0.0080     0.1870   -24.1240     6.9930     7.6670     8.3140
 1837.5000    12.8450    85.1420     2.1280     0.0080     0.1910   -24.3640     7.0160     8.0300     8.3360
 1838.0000    12.8450    85.6790     2.1180     0.0090     0.1940   -24.5830     7.0400     8.2670     8.3570
 1838.5000    12.8450    86.3910     2.1000     0.0090     0.1970   -24.8250     7.0630     8.3190     8.3790
 1839.0000    12.8450    87.6780     2.0840     0.0100     0.1950   -25.0430     7.0870     8.3700     8.4000
 1839.5000    12.8450    88.3110     2.0720     0.0100     0.1900   -25.2770     7.1140     8.4210     8.5510
 1840.0000    12.8450    87.7050     2.0640     0.0110     0.1830   -25.2070     7.1580     8.4730     8.6980
 1840.5000    12.8450    87.2570     2.0550     0.0110     0.1840   -25.1170     7.2100     8.5240     8.8460
 1841.0000    12.8460    86.7570     2.0460     0.0120     0.1880   -25.0150     7.2620     8.5760     9.0440
 1841.5000    12.8420    87.1680     2.0380     0.0150     0.1910   -24.9210     7.3150     8.6270     9.0300
 1842.0000    12.8300    88.0680     2.0380     0.0210     0.1950   -24.8240     7.3810     8.6790     8.9780
 1842.5000    12.8190    88.8720     2.0400     0.0330     0.1980   -24.7270     7.3300     8.7160     8.9260
 1843.0000    12.8080    89.4200     2.0440     0.0550     0.1990   -24.6310     7.2480     8.4900     8.8780
 1843.5000    12.7970    87.8330     2.0450     0.0480     0.1980   -24.5350     7.1680     8.2350     8.5590
 1844.0000    12.7860    86.6870     2.0400     0.0430     0.1980   -24.4380     7.0890     7.9790     8.2660
 1844.5000    12.7750    87.3940     2.0350     0.0300     0.2000   -24.3420     7.0090     7.8020     7.9470
 1845.0000    12.7680    88.4700     2.0370     0.0190     0.2050   -24.2460     6.9290     7.8020     7.9470
 1845.5000    12.7870    89.5580     2.0450     0.0110     0.2090   -24.1470     6.8490     7.7240     7.9470
 1846.0000    12.8040    90.5940     2.0510     0.0120     0.2130   -24.1030     6.7690     7.6540     7.9470
 1846.5000    12.8230    91.7140     2.0570     0.0110     0.2150   -24.1080     6.6900     7.5840     7.9470
 1847.0000    12.8410    92.5570     2.0660     0.0110     0.2160   -24.1100     6.6100     7.5140     7.9470
 1847.5000    12.8670    93.0750     2.0780     0.0100     0.2170   -24.0980     6.5300     7.4440     7.9470
 1848.0000    12.8930    91.8660     2.1300     0.0100     0.2180   -24.2050     6.4500     7.3740     7.8450
 1848.5000    12.9200    90.6400     2.1630     0.0090     0.2150   -24.4040     6.3680     7.3040     7.6550
 1849.0000    12.9510    89.6720     2.1660     0.0090     0.2110   -24.5900     6.3580     7.2470     7.6630
 1849.5000    12.9470    90.7610     2.1690     0.0090     0.2070   -24.7700     6.3460     7.3200     7.6590
 1850.0000    12.8940    91.5820     2.1720     0.0080     0.2080   -24.9660     6.3350     7.3820     7.7050
 1850.5000    12.8450    92.4760     2.1680     0.0090     0.2100   -25.1460     6.3240     7.4440     7.7840
 1851.0000    12.8000    91.6300     2.1620     0.0240     0.2130   -25.2700     6.3130     7.5150     7.8640
 1851.5000    12.7700    90.7810     2.1510     0.0340     0.2130   -24.9670     6.3020     7.5060     7.9490
 1852.0000    12.7400    89.8890     2.1450     0.0390     0.2120   -24.7120     6.2910     7.4890     7.9460
 1852.5000    12.7100    88.8520     2.1470     0.0440     0.2110   -24.4370     6.2790     7.4720     7.9470
 1853.0000    12.6820    89.0360     2.1480     0.0490     0.2090   -24.1700     6.2680     7.4550     7.9470
 1853.5000    12.6620    90.1570     2.1450     0.0540     0.2080   -24.1070     6.2570     7.4380     7.9470
 1854.0000    12.6420    91.0900     2.1410     0.0590     0.2070   -24.1020     6.2490     7.4210     7.9470
 1854.5000    12.6220    91.8610     2.1370     0.0640     0.2080   -24.1110     6.2420     7.4040     7.9470
 1855.0000    12.6080    92.0020     2.1190     0.0670     0.2090   -24.1320     6.2360     7.3870     7.9470
 1855.5000    12.6200    92.1500     2.1000     0.0700     0.2090   -24.4580     6.2300     7.3810     7.9470
 1856.0000    12.6340    93.2760     2.0810     0.0730     0.2100   -24.7440     6.2230     7.3820     7.9470
 1856.5000    12.6490    91.4120     2.0620     0.0740     0.2180   -25.0480     6.2170     7.3780     7.9470
 1857.0000    12.6640    91.9550     2.0430     0.0780     0.2160   -25.2890     6.2110     7.3660     7.9470
 1857.5000    12.6790    92.3990     2.0250     0.0690     0.2140   -25.2940     6.2050     7.3540     7.9470
 1858.0000    12.6930    92.1180     2.0200     0.0560     0.2150   -25.3000     6.1980     7.3420     7.9470
 1858.5000    12.7080    91.2710     2.0230     0.0430     0.2160   -25.2970     6.1920     7.3300     7.9480
 1859.0000    12.7220    91.4070     2.0290     0.0290     0.2170   -25.2980     6.1860     7.3190     7.9470
 1859.5000    12.7390    91.4290     2.0460     0.0150     0.2180   -25.2970     6.1790     7.3070     7.9470
 1860.0000    12.7520    92.5420     2.0660     0.0010     0.2190   -25.2990     6.1730     7.2950     7.9470
 1860.5000    12.7600    93.3740     2.0850    -0.0130     0.2180   -25.2940     6.1670     7.2830     7.9470
