~VERSION INFORMATION
 VERS.                2.0:   CWLS LOG ASCII STANDARD - VERSION 2.0
 WRAP.                 NO:   ONE LINE PER DEPTH STEP
~WELL INFORMATION
#MNEM.UNIT      DATA TYPE    INFORMATION
#----------   ------------   ------------------------------
 STRT.F           10.0000:   START DEPTH
 STOP.F         5812.0000:   STOP DEPTH
 STEP.F            0.5000:   STEP LENGTH
 NULL.          -999.2500:   NO VALUE
 COMP. LAWRENCE - ALLSISON:   COMPANY
 WELL. LAWRENCE "X" #11-11:   WELL
 FLD .              NPR 3:   FIELD
 LOC .      S11 T38N R78W:   LOCATION
 CNTY.            NATRONA:   COUNTY
 STAT.            WYOMING:   STATE
 CTRY. UNITED STATES OF AMERICA:   COUNTRY
 SRVC.      DRESSER ATLAS:   SERVICE COMPANY
 DATE.        12-NOV-1982:   LOGDATE
 API .     49025109160000:   API NUMBER
~CURVE INFORMATION
#MNEM.UNIT       API CODE    CURVE DESCRIPTION
#----------   ------------   ------------------------------
 DEPT.F                  :   
 TEND.LBS    45 635 01 00:   TENSION FROM DENSITY LOG
 CALD.IN     45 280 60 00:   CALIPER FROM DENSITY LOG
 CORR.G/C3   45 356 01 00:   DENSITY CORRECTION
 RHOB.G/C3   45 350 01 00:   BULK DENSITY
 CN  .DEC    42 890 03 00:   COMPENSATED NEUTRON POROSITY SANDSTONE
 AC  .US/F   60 520 00 00:   ACOUSTIC
 TENS.LBS    60 635 01 00:   TENSION FROM SONIC
 GRR .GAPI   11 310 01 00:   GAMMA RAY FROM RESISTIVITY
 RD  .OHMM   11 220 10 00:   RESISTIVITY DEEP
 RMLL.OHMM   11 270 04 00:   RESISTIVITY MICROLATEROLOG
 RS  .OHMM   11 220 09 00:   RESISTIVITY SHALLOW
 SPR .MV     11 010 01 00:   SPONTANEOUS POTENTIAL FROM RESISTIVITY
 TENR.LBS    11 635 01 00:   TENSION FROM RESISTIVITY
~PARAMETER INFORMATION
#MNEM.UNIT          VALUE    DESCRIPTION
#----------   ------------   ------------------------------
 EKB .F         5160.0000:   Kelly bushing
 EGL .F         5150.0000:   Ground level
 EDF .F            0.0000:   Drilling floor
 TD  .F         5800.0000:   Total depth
 CLNT.            A2DTECH:   Client Code
 SL  . 660' FNL & 660' FWL:   Surface Location
 PD  .                 GL:   Permanent Datum
 EPD .F              5150:   Elevation Permanent Datum
 LMF .                 KB:   Log Measured From
 DMF .                 KB:   Drilling Measured From
 DAPD.F                10:   Feet Above Permanent Datum
 DATE.        12-NOV-1982:   Date Logged [DD-MMM-YYYY]
 DD  .F              5800:   Depth driller
 DL  .F              5795:   Depth logger
 BLI .F              5702:   Bottom log interval
 TLI .F                 0:   Top log interval
 CS1 .IN            9.625:   Casing size
 CBD1.      9.625" @ 664':   Casing driller 1
 CBL1.F               660:   Casing logger 1
 BS1 .IN             8.75:   Bit size
 BSD1.F              5800:   Depth drilled with bit1
 DFT .                KCL:   Type fluid in hole
 DFD .                8.6:   Density
 DFV .                 45:   Viscosity
 DFPH.                8.5:   pH
 DFL .                7.8:   Fluid loss
 MSS .           FLOWLINE:   Source of sample
 RMS .OHMM           0.32:   Rm
 MST .F                92:   Rm Meas. temp.
 RMF .OHMM           0.26:   Rmf
 MFST.F                90:   Rmf Meas. temp.
 MFSS.               MEAS:   Source Rmf.
 RMB .OHMM           0.19:   Rm. at BHT
 BHT .F               160:   BHT.
 TCS .HRS               3:   Time Circ. stopped
 MRT .F               160:   Maximum recorded temp.
 LUN .               6270:   Logging unit number
 LUL .              WLSTN:   Logging unit location
 ENGI.            QUICKEL:   Recorded By
 WITN.             STRONG:   Witnessed by
 ORIG.        2" 5" PRINT:   Origin of data
 UWI .     49025109160000:   Unique Well ID
 DICO. A2D TECHNIOLOGIES,INC.:   Digitizing Company
 RMC .OHMM           0.40:   Rmc
 MCST.F                92:   Rmc Meas. temp.
 MCSS.               CALC:   Source Rmc.
~OTHER INFORMATION
~A  DEPTH     TEND       CALD       CORR       RHOB         CN         AC       TENS        GRR         RD       RMLL         RS        SPR       TENR
# ...
 4742.0000   -30.2539    10.2287    -0.0290     2.6068     0.0992    61.0207   -55.8726    78.7042    30.0471    29.3321    30.6932   -35.0969   -60.1025
 4742.5000   -30.0532    10.2283    -0.0374     2.6166     0.1022    60.7249   -59.3327    76.8964    30.6494    30.1342    30.8841   -35.5575   -60.4321
 4743.0000   -29.8526    10.2279    -0.0345     2.6278     0.1040    60.5785   -62.7925    76.5878    30.8395    30.3213    31.0758   -36.0181   -56.9963
 4743.5000   -29.6522    10.2126    -0.0180     2.6383     0.1047    60.9630   -58.6717    77.2230    29.3584    26.9264    28.3702   -36.4947   -57.4083
 4744.0000   -29.4516    10.2123    -0.0016     2.6473     0.1106    61.9493   -54.6243    79.8665    26.9585    24.4185    25.9050   -37.0921   -53.9158
 4744.5000   -29.2509    10.2118     0.0136     2.6480     0.1251    62.8602   -54.3307    84.6553    24.0677    22.7666    23.1669   -37.4020   -54.3022
 4745.0000   -29.0479    10.1965     0.0284     2.6442     0.1429    64.6760   -50.2833    88.8445    21.1510    20.3620    20.5751   -37.8626   -54.5935
 4745.5000   -25.0937    10.1962     0.0343     2.6390     0.1648    66.4919   -49.9894    94.5329    18.2748    17.7134    18.1469   -38.3232   -58.7265
 4746.0000   -17.3549    10.2108     0.0282     2.6352     0.1844    69.0619   -49.6957   103.5197    15.0425    15.4094    15.7848   -38.4826   -59.0558
 4746.5000    -9.6580    10.2104     0.0161     2.6344     0.1967    74.2006   -53.2208   110.7073    13.2697    13.4050    13.7302   -38.4913   -59.3854
 4747.0000    -5.7095    10.2100     0.0069     2.6396     0.2347    74.1695   -56.6160   120.5936    12.3727    11.9053    12.6244   -38.6507   -59.7151
 4747.5000     1.9874    10.2096     0.0008     2.6461     0.2401    72.9272   -56.2489   125.4064    11.3776    11.3248    12.0839   -38.8108   -60.0444
 4748.0000     2.1880    10.2092     0.0007     2.6554     0.2305    69.9920   -56.0059   125.9734    10.9755    11.0161    11.5188   -38.9717   -56.6090
 4748.5000    -1.3681    10.2089     0.0112     2.6591     0.2062    66.3025   -55.7058   122.6642    12.1908    12.9975    13.3125   -39.1310   -60.7860
 4749.0000   -12.4062    10.1936     0.0216     2.6568     0.1658    63.6689   -55.3677   116.6584    16.5957    15.9893    16.8402   -39.1386   -64.8803
 4749.5000   -27.1955    10.1932     0.0185     2.6500     0.1311    61.8649   -58.8278   109.1534    21.2993    21.9764    21.9019   -39.1486   -65.2100
 4750.0000   -38.2393    10.1928     0.0004     2.6395     0.1167    61.0412   -58.1599    99.8493    25.3065    25.2250    25.4932   -39.3080   -61.6922
 4750.5000   -45.4849    10.1774    -0.0133     2.6334     0.1155    60.7455   -55.4144    89.3459    26.7332    26.7659    26.9277   -39.3167   -58.2565
 4751.0000   -41.5361    10.1771    -0.0179     2.6326     0.1158    60.7481   -53.9039    80.6597    27.5705    27.3870    27.7361   -39.4761   -58.0462
 4751.5000   -41.3355    10.1767    -0.0074     2.6379     0.1191    60.8289   -53.3775    78.2609    28.5462    28.1107    28.3582   -39.4849   -57.0513
 4752.0000   -44.9332    10.1764     0.0151     2.6439     0.1248    61.1350   -56.8020    80.6597    29.1768    28.0879    28.9803   -39.6466   -55.9272
 4752.5000   -44.6826    10.1760     0.0360     2.6484     0.1306    61.8936   -60.1168    82.1589    28.5480    27.8713    28.7441   -39.7122   -63.8595
 4753.0000   -51.9784    10.1756     0.0299     2.6513     0.1348    62.8030   -60.7755    83.9580    27.5541    26.9003    27.3560   -39.7779   -64.2621
 4753.5000   -51.7778    10.1752     0.0118     2.6528     0.1426    64.0141   -62.9925    89.0555    25.5124    24.7336    25.0401   -39.8436   -60.7990
 4754.0000   -55.3253    10.1749     0.0010     2.6543     0.1538    68.3926   -62.4624   101.6492    20.0050    18.7303    19.4330   -39.9093   -65.0668
 4754.5000   -51.3681    10.1745    -0.0035     2.6588     0.1776    70.5840   -65.7659   113.0977    14.5358    14.9927    15.2303   -39.9750   -73.0043
 4755.0000   -47.3778    10.1741     0.0085     2.6663     0.2311    70.9644   -61.5617   120.2844    12.6286    12.6681    12.6175   -40.0407   -73.4187
 4755.5000   -47.1773    10.1738     0.0144     2.6708     0.2275    70.7346   -61.1112   115.4423    12.4615    11.9912    12.1788   -40.1063   -73.9047
 4756.0000   -50.7751    10.1733     0.0249     2.6722     0.2106    71.2006   -60.5774   111.8441    13.6217    13.5706    13.4048   -40.1720   -66.7772
 4756.5000   -50.5244    10.1730     0.0504     2.6722     0.1950    71.0513   -56.3842   116.3418    13.8992    14.5356    13.2076   -40.2180   -67.1797
 4757.0000   -50.3238    10.1726     0.0563     2.6677     0.1935    70.6637   -52.1914   121.4393    12.6021    13.6429    12.6573   -40.0762   -67.5819
 4757.5000   -42.6269    10.1722     0.0472     2.6616     0.1941    69.4051   -48.0481   122.6387    12.5076    12.6313    12.6454   -40.0908   -71.7495
 4758.0000   -38.6784    10.1719     0.0170     2.6541     0.1697    66.9963   -43.8058   118.7406    13.6720    14.1010    13.6903   -39.9518   -72.1521
 4758.5000   -38.4745    10.1715     0.0064     2.6496     0.1450    64.3612   -39.6131   109.1454    16.5840    16.6393    17.8489   -39.9636   -72.6131
 4759.0000   -42.0254    10.1711    -0.0013     2.6434     0.1023    61.3490   -39.1736    99.3447    20.8251    22.7103    23.8620   -39.6741   -72.9669
 4759.5000   -41.7746    10.1858    -0.0119     2.6367     0.0806    59.3927   -43.3952    82.1589    26.3689    28.7494    29.3533   -39.3845   -69.5943
 4760.0000   -45.3723    10.1854    -0.0271     2.6314     0.0776    58.7938   -45.7958    73.1634    32.0933    31.9014    33.9235   -39.0979   -70.0974
 4760.5000   -48.9200    10.1850    -0.0407     2.6269     0.0803    58.5720   -49.4185    66.8885    36.9036    33.6230    38.6651   -38.8055   -66.6339
 4761.0000   -52.4675    10.1996    -0.0287     2.6254     0.0813    58.1994   -52.4325    65.0545    38.9742    34.7803    40.5502   -38.3683   -63.2714
 4761.5000   -52.2169    10.2141    -0.0168     2.6283     0.0819    57.2988   -55.7057    65.6524    38.9426    35.0009    40.7951   -38.2289   -60.0091
 4762.0000   -52.0163    10.2137    -0.0108     2.6330     0.0819    55.3425   -59.0615    66.5358    38.3759    35.2158    39.9160   -37.6387   -60.4116
 4762.5000   -51.8158    10.2133     0.0071     2.6441     0.0816    52.0287   -59.6495    66.2137    37.8175    33.9820    38.4960   -37.3367   -57.0407
 4763.0000   -51.6116    10.2130     0.0222     2.6553     0.0819    50.5248   -61.9373    64.9950    36.7545    32.1232    36.6505   -37.0596   -57.4549
 4763.5000   -51.3646    10.2126     0.0280     2.6643     0.0816    51.3163   -61.3885    64.3813    35.4750    31.2197    35.8619   -36.7701   -57.8689
 4764.0000   -51.1640    10.2123     0.0279     2.6651     0.0819    56.0401   -60.9494    67.3624    34.2399    30.3415    35.0903   -36.4806   -58.3570
 4764.5000   -54.7115    10.2119     0.0278     2.6515     0.0822    60.5683   -60.5100    67.6456    33.7410    29.4875    34.5742   -36.4952   -54.8935
 4765.0000   -62.0073    10.2114     0.0247     2.6355     0.0837    60.3465   -62.1214    67.9281    33.7075    29.0527    34.3028   -36.5069   -54.4069
 4765.5000   -61.8067    10.2111     0.0217     2.6251     0.0857    60.6537   -63.3635    67.6103    33.2170    28.2355    33.3327   -36.2174   -51.9669
 4766.0000   -65.4044    10.2107     0.0065     2.6161     0.0881    61.5631   -62.8369    69.0899    31.8393    26.3237    32.1663   -36.2291   -52.4363
 4766.5000   -61.4056    10.2104    -0.0152     2.6108     0.0941    63.2266   -62.4624    70.2737    30.5188    24.0363    30.6130   -36.0902   -50.1409
 4767.0000   -61.2050    10.2100    -0.0238     2.6070     0.1017    63.0803   -62.0119    70.8612    29.2530    22.2540    28.3074   -35.9542   -49.4731
 4767.5000   -61.0007    10.2096    -0.0193     2.6040     0.1104    62.6322   -57.8077    70.8393    27.6540    21.4787    26.5914   -35.9159   -50.2045
