~VERSION INFORMATION
 VERS.                2.0:   CWLS LOG ASCII STANDARD - VERSION 2.0
 WRAP.                 NO:   ONE LINE PER DEPTH STEP
~WELL INFORMATION
#MNEM.UNIT      DATA TYPE    INFORMATION
#----------   ------------   ------------------------------
 STRT.F          198.0000:   START DEPTH
 STOP.F         3140.0000:   STOP DEPTH
 STEP.F            0.5000:   STEP LENGTH
 NULL.          -999.2500:   NO VALUE
 COMP.    FENIX & SCISSON:   COMPANY
 WELL. FENIX NPR 3 "AX" #43-34:   WELL
 FLD .                NPR:   FIELD
 LOC .      S34 T39N R78W:   LOCATION
 CNTY.            NATRONA:   COUNTY
 STAT.            WYOMING:   STATE
 CTRY. UNITED STATES OF AMERICA:   COUNTRY
 SRVC.              WELEX:   SERVICE COMPANY
 DATE.        02-JUL-1977:   LOGDATE
 API .     49025103890000:   API NUMBER
~CURVE INFORMATION
#MNEM.UNIT       API CODE    CURVE DESCRIPTION
#----------   ------------   ------------------------------
 DEPT.F                  :   
 CALD.IN     45 280 60 00:   CALIPER FROM DENSITY LOG
 GRD .GAPI   45 310 01 00:   GAMMA RAY FROM DENSITY LOG
 RHOB.G/C3   45 350 01 00:   BULK DENSITY
 CORR.G/C3   45 356 01 00:   DENSITY CORRECTION
 SPR .MV     07 010 01 00:   SPONTANEOUS POTENTIAL
 SFLU.OHMM   07 220 01 00:   SPHERICALLY FOCUSED LOG UNAVERAGED RESISTIVITY
 ILD .OHMM   07 120 46 00:   DEEP INDUCTION RESISTIVITY
 ILM .OHMM   07 120 44 00:   INDUCTION LOG MEDIUM RESISTIVITY
~PARAMETER INFORMATION
#MNEM.UNIT          VALUE    DESCRIPTION
#----------   ------------   ------------------------------
 EKB .F         5118.0000:   Kelly bushing
 EGL .F         5108.0000:   Ground level
 TD  .F         3145.0000:   Total depth
 DATE.        02-JUL-1977:   Date logged
 CLNT.            A2DTECH:   Client Code
 SL  . 1650' FNL & 2310' FWL:   Surface Location
 PD  .                 GL:   Permanent Datum
 EPD .F              5108:   Elevation Permanent Datum
 LMF .                 KB:   Log Measured From
 DMF .                 KB:   Drilling Measured From
 DAPD.F                10:   Feet Above Permanent Datum
 DD  .F              3145:   Depth driller
 DL  .F              3143:   Depth logger
 BLI .F              3141:   Bottom log interval
 TLI .F               200:   Top log interval
 CS1 .IN            8.625:   Casing size
 CBD1.      8.625" @ 203':   Casing driller 1
 CBL1.F               224:   Casing logger 1
 BS1 .IN            7.875:   Bit size
 BSD1.F              3145:   Depth drilled with bit1
 DFT .            KCL/MUD:   Type fluid in hole
 DFD .                  9:   Density
 DFV .                 34:   Viscosity
 DFPH.                7.5:   pH
 DFL .                9.2:   Fluid loss
 MSS .           FLOWLINE:   Source of sample
 RMS .OHMM            .18:   Rm
 MST .F                75:   Rm Meas. temp.
 RMF .OHMM            .16:   Rmf
 MFST.F                75:   Rmf Meas. temp.
 RMC .OHMM            .30:   Rmc
 MCST.F                75:   Rmc Meas. temp.
 MFSS.               FANN:   Source Rmf.
 MCSS.                KIT:   Source Rmc.
 RMB .OHMM            .11:   Rm. at BHT
 BHT .F               118:   BHT.
 TCS .HRS            3.75:   Time Circ. stopped
 MRT .F               118:   Maximum recorded temp.
 LUN .               8766:   Logging unit number
 LUL .             CASPER:   Logging unit location
 ENGI.          T. JOYNER:   Recorded By
 WITN.     W. PETTNG/GILL:   Witnessed by
 ORIG.           5" PRINT:   Origin of data
 UWI .     49025103890000:   Unique Well ID
 DICO. A2D TECHNOLOGIES, INC.:   Digitizing Company
~OTHER INFORMATION
~A   DEPT     CALD         GRD        RHOB     CORR        SPR       SFLU        ILD        ILM   
# ...
  603.0000     9.0831    90.2903     2.3606     0.0420   -29.1889    11.0107    10.6132    10.8106
  603.5000     9.0834    91.0906     2.3646     0.0420   -29.5889    11.0116    10.6141    10.8114
  604.0000     9.0837    91.0956     2.3746     0.0380   -30.3873    11.6373    10.4217    10.8124
  604.5000     9.0839    92.2935     2.3796     0.0380   -30.3905    12.0740    10.4225    10.8133
  605.0000     9.1041    92.2985     2.3796     0.0381   -30.7921    11.8556    10.2344    10.8142
  605.5000     9.1243    91.5084     2.3876     0.0381   -30.7952    11.8561    10.0489    10.6185
  606.0000     9.1444    92.7062     2.3946     0.0381   -31.5937    11.6420    10.0502    10.4265
  606.5000     9.1447    92.3137     2.4045     0.0461   -31.5968    11.6430    10.0510    10.4269
  607.0000     9.1649    92.7163     2.4175     0.0541   -31.6016    11.2246    10.0523    10.2383
  607.5000     9.1253    93.1189     2.4255     0.0621   -32.0016    11.2251    10.0531    10.2392
  608.0000     9.1265    91.1361     2.4305     0.0701   -32.4032    11.2263    10.0540    10.2400
  608.5000     9.1276    93.9241     2.4345     0.0701   -32.8032    11.2275    10.0553    10.2413
  609.0000     9.1288    94.7243     2.4395     0.0741   -32.8079    11.2287    10.0557    10.2430
  609.5000     9.1299    96.3215     2.4374     0.0701   -33.2079    11.2299    10.0574    10.2439
  610.0000     9.1311    96.3235     2.4405     0.0701   -33.6095    11.2310     9.8755    10.2448
  610.5000     9.1322    96.3285     2.4415     0.0702   -33.6127    11.2322     9.8763    10.2456
  611.0000     9.1334    96.3335     2.4435     0.0662   -33.6175    11.2334     9.8772    10.4374
  611.5000     9.1346    96.7361     2.4405     0.0702   -34.0175    11.2346     9.6981    10.4383
  612.0000     9.1357    98.3322     2.4375     0.0622   -34.4190    11.2358     9.6998    10.4391
  612.5000     9.1369    98.7348     2.4355     0.0623   -34.8190    11.2370     9.7006    10.4400
  613.0000     9.1380   100.3289     2.4345     0.0583   -34.4270    11.2382     9.5248    10.4418
  613.5000     9.1392   101.1299     2.4326     0.0583   -34.4302    11.2393     9.5260    10.4426
  614.0000     9.1403   102.7225     2.4335     0.0583   -35.2286    11.2405     9.5272    10.2538
  614.5000     9.1415    99.5517     2.4366     0.0623   -35.2317    11.2417     9.5280    10.2547
  615.0000     9.1426    99.1572     2.4376     0.0624   -35.6333    11.2429     9.5289    10.0688
  615.5000     9.1438    98.7637     2.4336     0.0624   -35.6365    11.2446     9.5297    10.0701
  616.0000     9.1449    97.9751     2.4266     0.0544   -36.0381    11.2456     9.7080    10.0709
  616.5000     9.1461    97.9761     2.4266     0.0505   -36.4381    11.2466     9.7088    10.0718
  617.0000     9.1472    97.9811     2.4246     0.0465   -36.8397    11.4559     9.7101    10.0731
  617.5000     9.1484    97.9851     2.4267     0.0465   -36.8429    11.4573     9.7109    10.0739
  618.0000     9.1495    97.9926     2.4257     0.0426   -37.2444    11.4583     9.7121    10.0756
  618.5000     9.1507    99.5895     2.4217     0.0426   -37.2476    11.0458     9.5362    10.0765
  619.0000     9.1117   100.7860     2.4187     0.0386   -37.6492    11.0472     9.5374    10.0777
  619.5000     9.0722   102.7793     2.4157     0.0386   -37.2556    10.6500     9.3646    10.0786
  620.0000     9.0724   103.9767     2.4227     0.0387   -37.6571    10.4570     9.1949     9.8960
  620.5000     9.1124   105.9654     2.4267     0.0387   -37.6603    10.2680     9.0287     9.7167
  621.0000     9.1723   106.7672     2.4327     0.0427   -38.0619    10.2684     8.8655     9.3678
  621.5000     9.1924   105.9733     2.4367     0.0427   -38.8587    10.6545     8.8663     9.3690
  622.0000     9.1926   105.9831     2.4347     0.0427   -38.8635    10.8524     8.8670     9.3698
  622.5000     9.1930   102.0141     2.4357     0.0427   -38.8667    11.4691     8.8678     9.3710
  623.0000     9.1932   102.8159     2.4407     0.0467   -38.8714    10.8551     8.8694     9.3718
  623.5000     9.1935   102.8188     2.4427     0.0468   -38.4778    10.8565     8.8701     9.5459
  624.0000     9.1541   104.4126     2.4447     0.0508   -39.2762    10.8574     8.8709     9.5475
  624.5000     9.1542   106.4057     2.4527     0.0548   -39.2794    10.8583     9.0369     9.9056
  625.0000     9.1348   106.8090     2.4547     0.0548   -39.2841    10.8592     9.2048    10.0900
  625.5000     9.1151   106.8129     2.4587     0.0548   -39.2873    10.8610     9.3770    10.0917
  626.0000     9.1153   107.2123     2.4547     0.0588   -39.6889    11.0632     9.5516    10.0930
  626.5000     9.1156   107.6166     2.4507     0.0588   -40.0889    11.0645     9.5524    10.0939
  627.0000     9.1159   108.4163     2.4527     0.0589   -40.4905    11.0650     9.5536    10.0947
  627.5000     9.1160   109.6135     2.4527     0.0549   -40.4937    11.0669     9.5548    10.0956
  628.0000     9.1164   109.6203     2.4528     0.0549   -41.2921    11.0678     9.5557     9.9127
  628.5000     9.1167   109.6242     2.4587     0.0583   -41.2952    11.0692     9.5565     9.9140
  629.0000     9.0970   110.0265     2.4627     0.0589   -40.9032    11.0701     9.0454     9.9148
  629.5000     9.0973   110.8261     2.4627     0.0629   -40.9063    10.8700     8.8820     9.7352
  630.0000     9.0778   111.6258     2.4608     0.0550   -41.3079    10.4789     9.0477     9.5593
  630.5000     9.0582   111.2332     2.4548     0.0630   -41.7079     9.9186     8.8839     9.3870
  631.0000     9.0385   112.0329     2.4508     0.0590   -41.7127    10.4811     8.7230     9.3878
  631.5000     9.0189   113.2299     2.4488     0.0590   -41.7159    10.2917     8.7238     9.2182
  632.0000     9.0192   113.2347     2.4488     0.0590   -42.5143    10.1053     8.5658     9.0512
  632.5000     8.9996   112.0474     2.4509     0.0631   -42.9143    10.1062     8.5673     8.8877
  633.0000     8.9999   113.6418     2.4529     0.0631   -42.9175    10.1075     8.4332     8.8885
  633.5000     9.0000   113.2492     2.4529     0.0631   -43.3175    10.1079     8.4125     8.7279
  634.0000     9.0005   114.0488     2.4569     0.0631   -44.1175    10.1092     8.1106     8.7287
  634.5000     9.0007   114.8474     2.4509     0.0671   -44.1206     9.2241     7.8193     8.4151
  635.0000     9.0009   117.2363     2.4529     0.0671   -44.1254     9.0571     7.6774     7.8200
  635.5000     9.0011   118.0358     2.4469     0.0672   -44.1286     8.7317     7.4019     6.8779
  636.0000     9.0015   119.2327     2.4489     0.0712   -44.5302     8.8946     6.8785     7.1360
  636.5000     9.0017   120.0321     2.4489     0.0712   -44.9302     8.8954     6.1619     6.6314
  637.0000     9.0219   119.2422     2.4489     0.0712   -44.9349     8.8961     5.7262     6.3930
  637.5000     9.0222   119.6443     2.4470     0.0752   -44.9381     8.7351     5.0365     5.7270
  638.0000     9.0423   119.2518     2.4450     0.0752   -44.9429     8.2681     4.6804     5.3221
  638.5000     9.0426   120.8459     2.4370     0.0832   -44.9460     7.6838     4.1929     4.9460
  639.0000     9.0428   119.6587     2.4251     0.0952   -44.5540     7.1405     4.0421     4.3501
  639.5000     9.0431   118.8688     2.4072     0.0952   -44.5571     6.0540     3.9690     3.8970
  640.0000     9.0435   118.4763     2.3972     0.0952   -44.1651     5.2278     3.5557     3.8263
  640.5000     9.0437   118.4810     2.3982     0.0992   -44.1683     4.5145     3.7575     3.7575
  641.0000     9.0439   117.2939     2.3972     0.0953   -43.7762     6.2827     3.9704     4.9489
  641.5000     9.0442   113.3266     2.3972     0.0794   -43.3825     8.9050     4.6844     6.0568
  642.0000     9.0445   110.9467     2.4002     0.0595   -42.9905     9.0711     5.0417     6.4003
  642.5000     9.0447   109.3596     2.4162     0.0555   -42.4016     9.4651     5.7337     6.8887
  643.0000     9.0450   110.5601     2.4471     0.0436   -42.0079     9.7637     6.1710     7.0166
