~VERSION INFORMATION
 VERS.                2.0:   CWLS LOG ASCII STANDARD - VERSION 2.0
 WRAP.                 NO:   ONE LINE PER DEPTH STEP
~WELL INFORMATION
#MNEM.UNIT      DATA TYPE    INFORMATION
#----------   ------------   ------------------------------
 STRT.F          170.5000:   START DEPTH
 STOP.F         3160.0000:   STOP DEPTH
 STEP.F            0.5000:   STEP LENGTH
 NULL.          -999.2500:   NO VALUE
 COMP.  FENIX AND SCISSON:   COMPANY
 WELL.    FENIX "A" #85-3:   WELL
 FLD .       TEA POT DOME:   FIELD
 LOC .       S3 T38N R78W:   LOCATION
 CNTY.            NATRONA:   COUNTY
 STAT.            WYOMING:   STATE
 CTRY. UNITED STATES OF AMERICA:   COUNTRY
 SRVC.           BIRDWELL:   SERVICE COMPANY
 DATE.        20-DEC-1977:   LOGDATE
 API .     49025104450000:   API NUMBER
~CURVE INFORMATION
#MNEM.UNIT       API CODE    CURVE DESCRIPTION
#----------   ------------   ------------------------------
 DEPT.F                  :   
 CALD.IN     45 280 60 00:   CALIPER FROM DENSITY LOG
 GRD .GAPI   45 310 01 00:   GAMMA RAY FROM DENSITY LOG
 RHOB.G/C3   45 350 01 00:   BULK DENSITY
 CORR.G/C3   45 356 01 00:   DENSITY CORRECTION
 SPR .MV     05 010 01 00:   SPONTANEOUS POTENTIAL
 SN  .OHMM   05 040 00 00:   SHORT NORMAL
 ILD .OHMM   05 120 46 00:   DEEP INDUCTION RESISTIVITY
~PARAMETER INFORMATION
#MNEM.UNIT          VALUE    DESCRIPTION
#----------   ------------   ------------------------------
 EKB .F         5165.0000:   Kelly bushing
 EGL .F         5155.0000:   Ground level
 TD  .F         3151.0000:   Total depth
 DATE.        20-DEC-1977:   Date logged
 CLNT.            A2DTECH:   Client Code
 SL  . 2000' FSL & 100'FEL:   Surface Location
 PD  .                 GL:   Permanent Datum
 EPD .F              5155:   Elevation Permanent Datum
 LMF .                 KB:   Log Measured From
 DMF .                 KB:   Drilling Measured From
 DAPD.F                10:   Feet Above Permanent Datum
 DD  .F              3150:   Depth driller
 DL  .F              3151:   Depth logger
 BLI .F              3146:   Bottom log interval
 TLI .F               200:   Top log interval
 CS1 .IN            8.625:   Casing size
 CBD1.      8.625" @ 223':   Casing driller 1
 BS1 .IN            7.875:   Bit size
 BSD1.F              3150:   Depth drilled with bit1
 DFT .                KCL:   Type fluid in hole
 DFD .                8.9:   Density
 DFV .                 40:   Viscosity
 DFPH.                 11:   pH
 DFL .                7.2:   Fluid loss
 MSS .           FLOWLINE:   Source of sample
 RMS .OHMM            0.4:   Rm
 MST .F                62:   Rm Meas. temp.
 RMF .OHMM           0.48:   Rmf
 MFST.F                63:   Rmf Meas. temp.
 RMC .OHMM           0.52:   Rmc
 MCST.F                63:   Rmc Meas. temp.
 MFSS.               MEAS:   Source Rmf.
 MCSS.               MEAS:   Source Rmc.
 TCS .HRS             3.5:   Time Circ. stopped
 MRT .F               118:   Maximum recorded temp.
 LUN .               2958:   Logging unit number
 LUL .             CASPER:   Logging unit location
 ENGI.             MILLER:   Recorded By
 WITN.         HERRINGTON:   Witnessed by
 ORIG.           5" PRINT:   Origin of data
 UWI .     49025104450000:   Unique Well ID
 DICO. A2D TECHNOLOGIES, INC.:   Digitizing Company
~OTHER INFORMATION
~A   DEPT     CALD        GRD       RHOB        CORR       SPR         SN        ILD   
# ...
  216.0000     7.9443    72.7456     2.0631    -0.4217  -999.2500  -999.2500  -999.2500
  216.5000     7.9433    75.4305     2.0641    -0.4268  -999.2500  -999.2500  -999.2500
  217.0000     7.9423    77.7990     2.0710    -0.4278  -999.2500  -999.2500  -999.2500
  217.5000     7.9413    77.5912     2.0829    -0.4309  -999.2500  -999.2500  -999.2500
  218.0000     7.9204    79.0672     2.0879    -0.4469  -999.2500  -999.2500  -999.2500
  218.5000     7.9591    76.0768     2.0718    -0.4540  -999.2500  -999.2500  -999.2500
  219.0000     7.9779    78.9498     2.0578    -0.4730  -999.2500  -999.2500  -999.2500
  219.5000     7.9970    79.3367     2.0548    -0.4871  -999.2500  -999.2500  -999.2500
  220.0000     8.0357    79.3271     2.0587    -0.4931  -999.2500  -999.2500  -999.2500
  220.5000     7.9949    80.3087     2.0916    -0.4082  -999.2500  -999.2500  -999.2500
  221.0000     7.9939    82.2834     2.1574    -0.3932  -999.2500  -999.2500  -999.2500
  221.5000     7.9929    83.4633     2.1244    -0.3873  -999.2500  -999.2500  -999.2500
  222.0000     8.0118    81.9720     2.1643    -0.3423  -999.2500  -999.2500  -999.2500
  222.5000     8.1492    84.8322     2.1543    -0.3384  -999.2500  -999.2500  -999.2500
  223.0000     8.5064    87.7985     2.1444    -0.3304  -999.2500  -999.2500  -999.2500
  223.5000     9.1409    92.9439     2.1382    -0.3235  -999.2500  -999.2500  -999.2500
  224.0000     9.5374    98.4880     2.1391    -0.3155  -999.2500  -999.2500  -999.2500
  224.5000    10.0533   105.7649     2.1431    -0.3016  -999.2500  -999.2500  -999.2500
  225.0000    10.3107   104.8150     2.1600    -0.2485  -999.2500  -999.2500  -999.2500
  225.5000    10.4887   101.8319     2.2008    -0.1954  -999.2500  -999.2500  -999.2500
  226.0000    10.6467   100.8316     2.2247    -0.1637  -999.2500  -999.2500  -999.2500
  226.5000    10.9240    97.8482     2.2875    -0.0397  -999.2500  -999.2500  -999.2500
  227.0000    11.1019    96.8477     2.3305     0.1501  -999.2500    11.4320  -999.2500
  227.5000    11.2399    99.4167     2.4610     0.2603  -999.2500    11.4334    13.8784
  228.0000    11.8152   101.5892     2.5590     0.2592  -999.2500    11.4357    11.8661
  228.5000    11.8150   104.1067     2.4164     0.2091  -999.2500    11.3869    11.8686
  229.0000    10.7004    96.6133     2.3093     0.2111  -999.2500    11.3383    11.6530
  229.5000    11.0177    94.6209     2.3093     0.2198  -999.2500    11.2900    11.4433
  230.0000    11.0369    95.0067     2.3444     0.2285  -999.2500    11.2418    11.6623
  230.5000    11.1154    94.6028     2.3910     0.2339  -999.2500    11.1938    11.5575
  231.0000    11.1344    94.5937     2.3870     0.2279  -999.2500    11.1460    11.5594
  231.5000    11.1534    95.3780     2.3579     0.2188  -999.2500    11.0985    11.5613
  232.0000    11.1922    94.5755     2.3209     0.2048  -999.2500    11.0402    11.5646
  232.5000    11.2111    94.1696     2.3159     0.1647  -999.2500    11.0415    11.5669
  233.0000    11.2102    94.3589     2.1768     0.0617  -999.2500    11.0429    11.5683
  233.5000    11.3087    94.3516     1.9983    -0.1095  -999.2500    10.9583    11.5716
  234.0000    11.3078    93.3487     1.9993    -0.1095  -999.2500    10.8743    11.5740
  234.5000    11.2870    92.5460     2.4834     0.0155  -999.2500    10.7910    11.6832
  235.0000    11.3059    92.9337     2.4854     0.0164  -999.2500    10.7083    11.6860
  235.5000    11.4239    93.9184     2.4833     0.0164  -999.2500    10.6263    11.6884
  236.0000    11.4438    94.3061     2.4833     0.0213  -999.2500    10.5449    11.5834
  236.5000    11.4851    92.5094     2.4872     0.0223   -69.0112    10.4641    11.4793
  237.0000    11.5265    90.9092     2.4891     0.0222   -69.0102    10.3839    11.1681
  237.5000    11.5795    87.1336     2.4871     0.0212   -69.3506    10.2774    10.5687
  238.0000    11.5989    85.3384     2.4850     0.0211   -69.7909    10.0903     9.9095
  238.5000    11.6178    84.5352     2.4820     0.0181   -70.3816     9.9993     9.2914
  239.0000    11.6368    83.7321     2.4730     0.0160   -71.1708    10.0013     8.7927
  239.5000    11.6359    82.5319     2.4729     0.0210   -71.9600     9.9302     8.3207
  240.0000    11.6748    81.5283     2.4828     0.0229   -72.5507     9.8597     8.0207
  240.5000    11.6341    85.0930     2.4868     0.0259   -73.1414     9.7897     7.7316
  241.0000    11.6531    88.2609     2.4877     0.0258   -73.9306     9.7202     7.5917
  241.5000    11.6919    90.0379     2.4887     0.0258   -74.5212     9.6511     7.5235
  242.0000    11.6713    91.2195     2.4886     0.0257   -74.6964     9.5826     7.4558
  242.5000    11.6903    92.0042     2.4886     0.0227   -75.4855     9.5145     7.4464
  243.0000    11.6894    94.7758     2.4865     0.0206   -76.8701     9.4470     7.6489
  243.5000    11.6487    96.3546     2.4855     0.0186   -78.2556     9.3799     7.8569
  244.0000    11.6672    96.1471     2.4804     0.0205   -79.4417     9.3091     8.0705
  244.5000    11.6668    95.3440     2.4794     0.0234   -79.8337     9.2243     8.2605
  245.0000    11.6659    94.9379     2.4803     0.0244   -80.2443     9.2310     8.2618
  245.5000    11.6644    92.5465     2.4773     0.0213   -80.4378     9.2317     8.4178
  246.0000    11.6442    92.4623     2.4762     0.0203   -80.4329     9.2336     8.3418
  246.5000    11.6433    92.6520     2.4722     0.0203   -80.4280     9.0665     8.4212
  247.0000    11.6422    95.0301     2.4711     0.0192   -80.8200     9.1524     8.4229
  247.5000    11.6415    96.8114     2.4711     0.0181   -81.2120     9.1543     8.4242
  248.0000    11.6207    96.2055     2.4660     0.0221   -81.6041     9.0720     8.4263
  248.5000    11.5999    94.0800     2.4690     0.0250   -81.5991     9.0738     8.3505
  249.0000    11.6188    91.2910     2.4689     0.0280   -81.7927     9.1598     8.2755
  249.5000    11.5980    90.4856     2.4768     0.0299   -81.7877     9.2466     8.2768
  250.0000    11.5971    88.8897     2.4798     0.0319   -81.1874     9.2481     8.2788
  250.5000    11.5962    89.8733     2.4817     0.0288   -81.9763     9.1650     8.2801
  251.0000    11.5957    95.0273     2.4727     0.0308   -81.7729     9.1668     8.2814
  251.5000    11.5953    96.6087     2.4756     0.0337   -81.7680     9.1687     8.3603
  252.0000    11.5639    98.5856     2.4836     0.0357   -81.7630     9.0863     8.3619
  252.5000    11.5324   100.5037     2.4915     0.0376   -81.7591     9.0881     8.2868
  253.0000    11.5123    99.4997     2.4935     0.0386   -81.5557     9.0899     8.2884
  253.5000    11.5316    96.3739     2.4954     0.0365   -81.5508     9.0914     8.2898
  254.0000    11.5309    92.5106     2.4933     0.0365   -81.1490     9.0929     8.2156
  254.5000    11.5368    92.5069     2.4863     0.0314   -80.9456     9.0954     8.1417
  255.0000    11.5427    92.4977     2.4803     0.0304   -80.3444     9.0137     7.9954
  255.5000    11.5486    92.4885     2.4812     0.0323   -80.3404     8.9327     7.9225
  256.0000    11.5545    93.4745     2.4921     0.0353   -80.1371     8.8524     7.6369
  256.5000    11.5605    95.4559     2.4971     0.0342   -79.7353     8.7728     7.3615
  257.0000    11.5448   102.4119     2.5050     0.0422   -79.7304     8.6939     7.0960
  257.5000    11.5240   102.4066     2.5060     0.0441   -79.3286     8.5366     7.0322
  258.0000    11.5629    99.4729     2.5179     0.0461   -78.9268     8.5383     6.9690
  258.5000    11.5621    96.0846     2.5089     0.0390   -78.5251     8.3838     6.9704
  259.0000    11.5610    95.2808     2.5038     0.0400   -78.1234     8.3084     6.9718
  259.5000    11.5603    95.0730     2.5038     0.0369   -77.9210     8.3094     7.0376
  260.0000    11.5598    95.2645     2.4997     0.0359   -77.3209     8.3889     7.0390
  260.5000    11.5784    95.2554     2.4787     0.0318   -76.9192     8.3902     7.1060
  261.0000    11.5775    96.0411     2.4786     0.0288   -76.5175     8.4697     7.1733
