~VERSION INFORMATION
 VERS.                2.0:   CWLS LOG ASCII STANDARD - VERSION 2.0
 WRAP.                 NO:   ONE LINE PER DEPTH STEP
~WELL INFORMATION
#MNEM.UNIT      DATA TYPE    INFORMATION
#----------   ------------   ------------------------------
 STRT.F           31.5000:   START DEPTH
 STOP.F         3370.0000:   STOP DEPTH
 STEP.F            0.5000:   STEP LENGTH
 NULL.          -999.2500:   NO VALUE
 COMP. LAWRENCE ALLISON & ASSOC - WEST:   COMPANY
 WELL. LAWRENCE "AX" #46-34:   WELL
 FLD .             NPR #3:   FIELD
 LOC .      S34 T39N R78W:   LOCATION
 CNTY.            NATRONA:   COUNTY
 STAT.            WYOMING:   STATE
 CTRY. UNITED STATES OF AMERICA:   COUNTRY
 SRVC.       SCHLUMBERGER:   SERVICE COMPANY
 DATE.        30-APR-1986:   LOGDATE
 API .     49025111380000:   API NUMBER
~CURVE INFORMATION
#MNEM.UNIT       API CODE    CURVE DESCRIPTION
#----------   ------------   ------------------------------
 DEPT.F                  :   
 TENR.LBS    07 635 01 00:   TENSION FROM RESISTIVITY
 GRR .GAPI   07 310 01 00:   GAMMA RAY FROM RESISTIVITY
 CALR.IN     07 280 01 00:   CALIPER FROM RESISTIVITY
 SPR .MV     07 010 01 00:   SPONTANEOUS POTENTIAL
 TEND.LBS    45 635 01 00:   TENSION FROM DENSITY LOG
 DEN .G/C3   45 350 01 00:   BULK DENSITY
 CORR.G/C3   45 356 01 00:   DENSITY CORRECTION
 CNC .DEC    42 890 03 00:   NEUTRON PORISITY SANDSTONE
 RFOC.OHMM   07 220 04 00:   RESISTIVITY FOCUSED LOG
 RILD.OHMM   07 120 46 00:   RESISTIVITY INDUCTION LOG DEEP
 RILM.OHMM   07 120 44 00:   RESISTIVITY INDUCTION LOG MEDIUM
~PARAMETER INFORMATION
#MNEM.UNIT          VALUE    DESCRIPTION
#----------   ------------   ------------------------------
 EKB .F         5094.0000:   Kelly bushing
 EGL .F         5082.0000:   Ground level
 EDF .F            0.0000:   Drilling floor
 TD  .F         3370.0000:   Total depth
 DATE.        30-APR-1986:   Date logged
 CLNT.            A2DTECH:   Client Code
 SL  . 2462' FWL & 1545' FSL:   Surface Location
 PD  .                 GL:   Permanent Datum
 EPD .F              5082:   Elevation Permanent Datum
 LMF .                 KB:   Log Measured From
 DMF .                 KB:   Drilling Measured From
 DAPD.F                12:   Feet Above Permanent Datum
 DD  .F              3370:   Depth driller
 DL  .F              3369:   Depth logger
 BLI .F              3367:   Bottom log interval
 CS1 .IN            8.625:   Casing size
 CBD1.      8.625" @ 642':   Casing driller 1
 CBL1.F               642:   Casing logger 1
 BS1 .IN            7.875:   Bit size
 BSD1.F              3370:   Depth drilled with bit1
 DFT .        POLYMER/KCL:   Type fluid in hole
 DFD .                8.9:   Density
 DFV .                 36:   Viscosity
 DFPH.                8.5:   pH
 DFL .               10.2:   Fluid loss
 MSS .           FLOWLINE:   Source of sample
 RMS .OHMM           .319:   Rm
 MST .F                79:   Rm Meas. temp.
 RMF .OHMM            .24:   Rmf
 MFST.F                79:   Rmf Meas. temp.
 RMC .OHMM            .40:   Rmc
 MCST.F                79:   Rmc Meas. temp.
 MFSS.               CALC:   Source Rmf.
 MCSS.               CALC:   Source Rmc.
 RMB .OHMM            .21:   Rm. at BHT
 BHT .F               117:   BHT.
 TCS .HRS               4:   Time Circ. stopped
 MRT .F               117:   Maximum recorded temp.
 LUN .            HL-6264:   Logging unit number
 LUL .           GILLETTE:   Logging unit location
 ENGI.     P. M. FAHLSING:   Recorded By
 WITN.             STRONG:   Witnessed by
 ORIG.        2" 5" PRINT:   Origin of data
 UWI .     49025111380000:   Unique Well ID
 DICO. A2D TECHNOLOGIES, INC.:   Digitizing Company
 TLI .                  0:   Top log interval
~OTHER INFORMATION
~A   DEPT     TENR        GRR       CALR        SPR       TEND        DEN       CORR        CNC       RFOC       RILD       RILM   
# ...
  824.5000   -34.3530    98.4360    11.3490   -87.4800  -999.2500  -999.2500  -999.2500  -999.2500     8.2730     8.5020     7.0020
  825.0000   -34.3530    97.8650    11.3500   -87.5230  -999.2500  -999.2500  -999.2500  -999.2500     8.1030     8.4810     6.9610
  825.5000   -24.3230    97.0020    11.3600   -87.8720  -999.2500  -999.2500  -999.2500  -999.2500     7.9330     8.4090     6.9020
  826.0000   -34.3530    94.6500    11.3830   -88.3160  -999.2500  -999.2500  -999.2500  -999.2500     7.7510     8.3470     6.8730
  826.5000   -47.3190    92.5890    11.4070   -88.6650  -999.2500  -999.2500  -999.2500  -999.2500     7.7920     8.3470     6.8730
  827.0000   -64.4430    91.5360    11.4290   -89.1040  -999.2500  -999.2500  -999.2500  -999.2500     7.8470     8.3260     6.8470
  827.5000   -64.4430    91.1800    11.4540   -89.4620  -999.2500  -999.2500  -999.2500  -999.2500     7.9010     8.2980     6.8240
  828.0000   -44.3830    91.7530    11.4690   -89.8890  -999.2500  -999.2500  -999.2500  -999.2500     7.9560     8.2700     6.8100
  828.5000   -24.3230    92.9570    11.4580   -90.2890  -999.2500  -999.2500  -999.2500  -999.2500     8.0110     8.2700     6.8100
  829.0000   -34.3530    95.3410    11.4460   -90.3090  -999.2500  -999.2500  -999.2500  -999.2500     8.0660     8.2700     6.8730
  829.5000   -44.3830    97.7440    11.4350   -90.2630  -999.2500  -999.2500  -999.2500  -999.2500     8.1180     8.2160     6.8170
  830.0000   -44.3830    97.9700    11.4300   -90.2020  -999.2500  -999.2500  -999.2500  -999.2500     8.0480     8.1630     6.7630
  830.5000   -34.3530    98.0650    11.4520   -90.0940  -999.2500  -999.2500  -999.2500  -999.2500     7.9650     8.1100     6.7080
  831.0000   -54.4130    98.3820    11.4890   -90.0560  -999.2500  -999.2500  -999.2500  -999.2500     7.8820     8.0570     6.6530
  831.5000   -54.4130    98.4550    11.5160   -89.9130  -999.2500  -999.2500  -999.2500  -999.2500     7.7990     8.0050     6.5980
  832.0000   -44.3830    98.6980    11.5310   -89.9200  -999.2500  -999.2500  -999.2500  -999.2500     7.7160     7.9520     6.5440
  832.5000   -34.3530    99.9410    11.5450   -89.7250  -999.2500  -999.2500  -999.2500  -999.2500     7.6320     7.8990     6.4890
  833.0000   -24.3230   103.1800    11.5600   -89.7750  -999.2500  -999.2500  -999.2500  -999.2500     7.5490     7.8470     6.4430
  833.5000   -34.3530   102.7740    11.5700   -89.6170  -999.2500  -999.2500  -999.2500  -999.2500     7.4660     7.7510     6.3250
  834.0000   -44.3830    99.1640    11.5700   -88.3850  -999.2500  -999.2500  -999.2500  -999.2500     7.3830     7.6460     6.2530
  834.5000   -31.7950    94.9040    11.5700   -87.7170  -999.2500  -999.2500  -999.2500  -999.2500     7.2660     7.5560     6.1790
  835.0000   -19.0570    90.8830    11.5730   -87.3260  -999.2500  -999.2500  -999.2500  -999.2500     7.2470     7.4660     6.1050
  835.5000   -14.2930    93.0670    11.5770   -86.6420  -999.2500  -999.2500  -999.2500  -999.2500     7.2010     7.3770     6.0310
  836.0000   -26.9930    97.0960    11.5810   -86.5420  -999.2500  -999.2500  -999.2500  -999.2500     7.1550     7.2870     5.9570
  836.5000   -30.1780    98.4510    11.5840   -87.1850  -999.2500  -999.2500  -999.2500  -999.2500     7.1090     7.1970     5.8740
  837.0000   -33.3630    97.4510    11.5880   -87.9330  -999.2500  -999.2500  -999.2500  -999.2500     7.0670     7.0670     5.8190
  837.5000   -49.3980    96.1770    11.5890   -88.6370  -999.2500  -999.2500  -999.2500  -999.2500     6.9700     7.0670     5.7660
  838.0000   -64.4430    97.1140    11.5860   -89.2890  -999.2500  -999.2500  -999.2500  -999.2500     6.8730     7.0020     5.7660
  838.5000   -74.4730    98.2760    11.5840   -89.3840  -999.2500  -999.2500  -999.2500  -999.2500     6.8890     7.0220     5.8010
  839.0000   -84.5040    98.2790    11.5810   -89.4120  -999.2500  -999.2500  -999.2500  -999.2500     6.9360     7.0600     5.8330
  839.5000   -84.5040    96.0860    11.5780   -89.5160  -999.2500  -999.2500  -999.2500  -999.2500     6.9820     7.0990     5.8650
  840.0000   -54.4130    95.8400    11.5760   -89.5380  -999.2500  -999.2500  -999.2500  -999.2500     7.0290     7.1370     5.8960
  840.5000   -44.3830    99.4240    11.5730   -89.6420  -999.2500  -999.2500  -999.2500  -999.2500     7.1320     7.1760     5.9280
  841.0000   -44.3830   101.5190    11.5710   -89.6810  -999.2500  -999.2500  -999.2500  -999.2500     7.1410     7.1990     5.9120
  841.5000   -44.3830    99.9050    11.5680   -89.7170  -999.2500  -999.2500  -999.2500  -999.2500     7.1530     7.1600     5.8730
  842.0000   -34.3530    99.6060    11.5650   -89.6840  -999.2500  -999.2500  -999.2500  -999.2500     7.1640     7.1120     5.8340
  842.5000   -47.0790   101.1710    11.5630   -89.3770  -999.2500  -999.2500  -999.2500  -999.2500     7.1750     7.0650     5.7950
  843.0000   -50.2630   100.7950    11.5600   -89.0770  -999.2500  -999.2500  -999.2500  -999.2500     7.1860     7.0170     5.7660
  843.5000   -53.4480    99.5270    11.5570   -88.8160  -999.2500  -999.2500  -999.2500  -999.2500     7.1990     6.9000     5.5910
  844.0000   -84.5040    99.1930    11.5550   -88.5280  -999.2500  -999.2500  -999.2500  -999.2500     7.0110     6.6880     5.4280
  844.5000  -114.5940   102.5190    11.5520   -88.2540  -999.2500  -999.2500  -999.2500  -999.2500     6.8020     6.4770     5.2660
  845.0000  -104.5640   105.2720    11.5500   -87.9780  -999.2500  -999.2500  -999.2500  -999.2500     6.5920     6.2660     5.1030
  845.5000   -74.4730   103.5370    11.5520   -87.6960  -999.2500  -999.2500  -999.2500  -999.2500     6.3830     6.0550     4.9400
  846.0000   -54.4130   100.6400    11.5550   -87.4230  -999.2500  -999.2500  -999.2500  -999.2500     6.2090     5.8440     4.8370
  846.5000   -47.8270    98.3480    11.5570   -87.4840  -999.2500  -999.2500  -999.2500  -999.2500     6.1130     5.6330     4.7910
  847.0000   -39.3350    99.6540    11.5600   -87.8100  -999.2500  -999.2500  -999.2500  -999.2500     6.0310     5.4720     4.7510
  847.5000   -34.3530   104.6160    11.5630   -88.1440  -999.2500  -999.2500  -999.2500  -999.2500     5.9830     5.3870     4.7110
  848.0000   -54.4130   107.3340    11.5660   -88.4590  -999.2500  -999.2500  -999.2500  -999.2500     5.9830     5.3030     4.6720
  848.5000   -44.3830   105.7550    11.5690   -88.8030  -999.2500  -999.2500  -999.2500  -999.2500     5.9830     5.2190     4.6320
  849.0000   -44.3830   104.1140    11.5700   -89.0890  -999.2500  -999.2500  -999.2500  -999.2500     5.9830     5.1340     4.5450
  849.5000   -14.2930   104.9240    11.5700   -89.1420  -999.2500  -999.2500  -999.2500  -999.2500     5.9830     5.0500     4.4340
  850.0000    -6.4120   105.2810    11.5700   -89.1500  -999.2500  -999.2500  -999.2500  -999.2500     5.9830     4.9650     4.3230
  850.5000   -14.2930   105.8330    11.5700   -89.1960  -999.2500  -999.2500  -999.2500  -999.2500     5.8510     4.8810     4.2110
  851.0000   -44.3830   109.0950    11.5700   -89.2140  -999.2500  -999.2500  -999.2500  -999.2500     5.6430     4.7970     4.1000
  851.5000   -74.4730   110.0260    11.5700   -89.2480  -999.2500  -999.2500  -999.2500  -999.2500     5.4350     4.7120     3.9830
  852.0000   -87.2450   107.7880    11.5700   -89.2790  -999.2500  -999.2500  -999.2500  -999.2500     5.2260     4.6280     4.0530
  852.5000   -79.2880   104.7520    11.5700   -89.2940  -999.2500  -999.2500  -999.2500  -999.2500     4.9730     4.5430     4.1260
  853.0000   -34.3530   103.3860    11.5700   -89.5060  -999.2500  -999.2500  -999.2500  -999.2500     4.9730     4.4920     4.1990
  853.5000   -34.3530   103.9510    11.5700   -89.4940  -999.2500  -999.2500  -999.2500  -999.2500     5.1970     4.5440     4.2730
  854.0000   -44.3830   106.2840    11.5700   -88.9450  -999.2500  -999.2500  -999.2500  -999.2500     5.3850     4.6730     4.3460
  854.5000   -53.4510   106.1420    11.5700   -88.4820  -999.2500  -999.2500  -999.2500  -999.2500     5.5730     4.8030     4.4190
