~VERSION INFORMATION
 VERS.                2.0:   CWLS LOG ASCII STANDARD - VERSION 2.0
 WRAP.                 NO:   ONE LINE PER DEPTH STEP
~WELL INFORMATION
#MNEM.UNIT      DATA TYPE    INFORMATION
#----------   ------------   ------------------------------
 STRT.F          200.0000:   START DEPTH
 STOP.F         3196.5000:   STOP DEPTH
 STEP.F            0.5000:   STEP LENGTH
 NULL.          -999.2500:   NO VALUE
 COMP.    FENIX & SCISSON:   COMPANY
 WELL. FENIX & SCISSON #82-15:   WELL
 FLD .                NPR:   FIELD
 LOC .      S15 T38N R78W:   LOCATION
 CNTY.            NATRONA:   COUNTY
 STAT.            WYOMING:   STATE
 CTRY. UNITED STATES OF AMERICA:   COUNTRY
 SRVC.              WELEX:   SERVICE COMPANY
 DATE.        14-AUG-1977:   LOGDATE
 API .     49025104100000:   API NUMBER
~CURVE INFORMATION
#MNEM.UNIT       API CODE    CURVE DESCRIPTION
#----------   ------------   ------------------------------
 DEPT.F                  :   
 CALD.IN     45 280 60 00:   CALIPER FROM DENSITY LOG
 GRD .GAPI   45 310 01 00:   GAMMA RAY FROM DENSITY LOG
 RHOB.G/C3   45 350 01 00:   BULK DENSITY
 CORR.G/C3   45 356 01 00:   DENSITY CORRECTION
 SPR .MV     07 010 01 00:   SPONTANEOUS POTENTIAL
 ILD .OHMM   07 120 46 00:   DEEP INDUCTION RESISTIVITY
 ILM .OHMM   07 120 44 00:   INDUCTION LOG MEDIUM RESISTIVITY
 GURD.OHMM   07 220 05 00:   GUARD LOG RESISTIVITY
~PARAMETER INFORMATION
#MNEM.UNIT          VALUE    DESCRIPTION
#----------   ------------   ------------------------------
 EKB .F         5259.0000:   Kelly bushing
 EGL .F         5249.0000:   Ground level
 EDF .F            0.0000:   Drilling floor
 EPD .F            0.0000:   Permanent datum
 TD  .F         3197.0000:   Total depth
 CLNT.            A2DTECH:   Client Code
 SL  . 990' FNL & 330' FEL:   Surface Location
 PD  .                 GL:   Permanent Datum
 DAPD.F                10:   Feet Above Permanent Datum
 DATE.        14-AUG-1977:   Date Logged [DD-MMM-YYYY]
 DD  .F              3197:   Depth driller
 DL  .F              3200:   Depth logger
 BLI .F              3198:   Bottom log interval
 TLI .F               200:   Top log interval
 CS1 .IN            8.625:   Casing size
 CBD1.      8.625" @ 236':   Casing driller 1
 CBL1.F               220:   Casing logger 1
 BS1 .IN            7.875:   Bit size
 BSD1.F              3197:   Depth drilled with bit1
 DFT .            KCL MUD:   Type fluid in hole
 DFD .                9.1:   Density
 DFV .                 42:   Viscosity
 DFPH.               10.5:   pH
 DFL .                7.2:   Fluid loss
 MSS .           FLOWLINE:   Source of sample
 RMS .OHMM          0.240:   Rm
 MST .F                92:   Rm Meas. temp.
 RMF .OHMM          0.160:   Rmf
 MFST.F                92:   Rmf Meas. temp.
 MFSS.               MEAS:   Source Rmf.
 RMC .OHMM          0.238:   Rmc
 MCST.F                92:   Rmc Meas. temp.
 MCSS.               MEAS:   Source Rmc.
 RMB .OHMM          0.194:   Rm. at BHT
 BHT .F               114:   BHT.
 TCS .HRS               3:   Time Circ. stopped
 MRT .F               114:   Maximum recorded temp.
 LUN .               9685:   Logging unit number
 LUL .             CASPER:   Logging unit location
 ENGI.            C. DOAK:   Recorded By
 WITN.      W. PETTINGILL:   Witnessed by
 ORIG.           5" PRINT:   Origin of data
 UWI .     49025104100000:   Unique Well ID
 DICO. A2D TECHNOLOGIES, INC.:   Digitizing Company
~OTHER INFORMATION
~A   DEPT       CALD       GRD        RHOB      CORR       SPR        ILD        ILM       GURD   
# ...
 2549.0000     9.5195   128.5855     2.5107     0.0056   -70.7346     6.6869     6.7802     8.5216
 2549.5000     9.5209   129.2063     2.5142     0.0119   -71.0175     6.7371     6.6465     7.9568
 2550.0000     9.5224   128.5302     2.5168     0.0120   -71.0015     6.6494     6.6971     7.9621
 2550.5000     9.5357   127.2568     2.5087     0.0099   -71.1350     6.6560     6.5171     8.5541
 2551.0000     9.5491   125.7040     2.5050     0.0078   -71.2684     6.6614     6.5220     9.1588
 2551.5000     9.5705   126.0384     2.5088     0.0080   -71.4019     6.4846     6.5259     9.0388
 2552.0000     9.5864   126.6687     2.5143     0.0112   -71.3819     6.4900     6.4401     8.4984
 2552.5000     9.6023   126.4080     2.5195     0.0188   -71.0669     6.4503     6.3553     6.9568
 2553.0000     9.6034   126.1402     2.5211     0.0250   -70.9014     6.4109     6.3593     7.4607
 2553.5000     9.6044   126.1722     2.5204     0.0296   -70.5864     6.3718     6.3640     8.1689
 2554.0000     9.6054   127.1039     2.5167     0.0297   -70.5704     6.3330     6.3229     8.9445
 2554.5000     9.5915   128.6352     2.5115     0.0269   -70.5544     6.2090     6.2831     8.6809
 2555.0000     9.6077   129.8667     2.5056     0.0225   -70.8373     6.1284     6.1585     8.1303
 2555.5000     9.6236   129.9239     2.4997     0.0197   -70.9962     6.0911     6.0356     7.6973
 2556.0000     9.6545   127.8319     2.5035     0.0205   -71.1043     6.0961     6.0392     7.0393
 2556.5000     9.6704   131.2056     2.5051     0.0252   -71.0842     6.0171     6.0429     7.0930
 2557.0000     9.6416   130.9025     2.5014     0.0261   -71.3672     5.9391     6.0005     7.0978
 2557.5000     9.5829   129.7352     2.4933     0.0218   -71.5006     5.9029     5.9669     7.1025
 2558.0000     9.5242   130.0671     2.4888     0.0159   -71.9331     5.9499     5.9714     7.3083
 2558.5000     9.4954   131.5985     2.4972     0.0071   -71.9170     5.9547     5.9751     7.5777
 2559.0000     9.4964   130.7310     2.5055     0.0012   -71.9010     5.9595     6.0620     7.9521
 2559.5000     9.5126   129.8635     2.5063    -0.0076   -71.5860     6.0475     6.1503     8.4107
 2560.0000     9.5285   129.2953     2.5049    -0.0135   -71.5695     6.2225     6.2398     9.2732
 2560.5000     9.5445   129.9557     2.5065    -0.0134   -71.5500     6.2287     6.2870     9.0259
 2561.0000     9.5455   131.8554     2.5119    -0.0027   -71.5340     6.2337     6.2474     8.0847
 2561.5000     9.5614   131.1992     2.5148     0.0035   -71.8210     6.2387     6.2521     7.7608
 2562.0000     9.5923   131.2313     2.5156     0.0051   -71.9504     6.1994     6.1689     7.8744
 2562.5000     9.5933   131.8631     2.5127    -0.0022   -72.2373     6.2057     6.1736     7.9439
 2563.0000     9.5943   132.4868     2.5113    -0.0036   -72.2173     6.2107     6.2202     8.1078
 2563.5000     9.5956   131.9192     2.5136    -0.0050   -72.2013     6.2589     6.3546     8.0572
 2564.0000     9.6115   131.6582     2.5160    -0.0033   -72.1853     6.2640     6.3585     7.8955
 2564.5000     9.5976   131.6915     2.5175    -0.0016   -72.0194     6.3126     6.3184     7.6863
 2565.0000     9.5986   132.6436     2.5192    -0.0015   -72.1533     6.2740     6.3224     7.1768
 2565.5000     9.5996   133.2630     2.5177     0.0002   -71.9838     6.2370     6.2824     7.1816
 2566.0000     9.6006   132.9952     2.5110     0.0033   -71.9678     6.1990     6.2871     7.4424
 2566.5000     9.5867   131.8198     2.5066     0.0050   -71.8023     6.2040     6.2475     7.6550
 2567.0000     9.5728   131.5521     2.5037     0.0021   -71.6368     6.0394     6.1653     7.7121
 2567.5000     9.5590   133.0914     2.5030    -0.0022   -71.4713     5.8791     6.0842     7.6111
 2568.0000     9.5602   134.3228     2.5061    -0.0051   -71.3058     5.7629     5.9626     7.4082
 2568.5000     9.5612   133.4543     2.5106    -0.0065   -71.2898     5.6060     5.9251     7.2619
 2569.0000     9.5470   134.6869     2.5107    -0.0063   -71.2735     5.4245     5.8878     7.1174
 2569.5000     9.5482   134.0682     2.5092    -0.0041   -71.2571     5.3531     5.8507     6.9276
 2570.0000     9.5493   134.1593     2.5086    -0.0015   -71.3912     5.3585     5.9780     6.7897
 2570.5000     9.5503   134.4912     2.5117     0.0009   -70.9865     5.3629     6.0651     6.7474
 2571.0000     9.5663   136.9221     2.5163     0.0033   -71.1217     5.3672     6.0268     6.8472
 2571.5000     9.5673   135.4550     2.5238     0.0065   -71.2567     5.3715     5.9056     7.0443
 2572.0000     9.5835   132.7884     2.5336     0.0098   -71.3917     5.3759     5.7486     7.1970
 2572.5000     9.6143   131.6210     2.5434     0.0113   -71.6761     5.3828     5.5937     7.2519
 2573.0000     9.6452   131.6531     2.5398     0.0129   -71.8075     5.4231     5.5213     7.1569
 2573.5000     9.6910   133.7841     2.5399     0.0131   -71.9461     5.3889     5.4865     7.0632
 2574.0000     9.6768   134.7166     2.5429     0.0127   -72.2272     5.3943     5.5672     6.9708
 2574.5000     9.6482   132.6569     2.5415     0.0104   -72.2124     5.3987     5.6875     7.0251
 2575.0000     9.6343   131.1897     2.5363     0.0075   -72.4969     5.4030     5.9324     7.0298
 2575.5000     9.6353   131.2218     2.5327     0.0055   -72.7777     5.4074     6.2309     7.0345
 2576.0000     9.6214   132.4533     2.5342     0.0025   -72.7632     5.3373     6.3655     7.0392
 2576.5000     9.6075   133.6848     2.5365     0.0019   -72.7487     5.3048     6.2817     6.9942
 2577.0000     9.5936   133.1172     2.5336     0.0036   -72.7342     5.2724     6.1491     6.9036
 2577.5000     9.5949   132.2489     2.5315     0.0058   -72.4207     5.2403     5.6697     6.7197
 2578.0000     9.5959   132.2818     2.5315     0.0072   -72.2568     5.2455     5.4046     6.7242
 2578.5000     9.6268   132.9525     2.5340     0.0105   -72.0927     5.2863     5.4079     6.6373
 2579.0000     9.6278   133.5533     2.5392     0.0117   -71.9283     5.3643     5.4866     6.6417
 2579.5000     9.6288   132.6778     2.5415     0.0089   -71.7612     5.4813     5.5665     6.6462
 2580.0000     9.6301   131.5105     2.5423     0.0075   -71.5972     5.5239     5.6476     6.6506
 2580.5000     9.6309   131.5506     2.5394     0.0043   -71.5827     5.6444     5.7298     6.7014
 2581.0000     9.6169   130.6831     2.5350     0.0033   -71.5682     5.7321     5.8545     6.7994
 2581.5000     9.6032   128.0165     2.5298     0.0019   -71.5537     5.8135     5.9810     7.0437
 2582.0000     9.5893   124.1506     2.5254     0.0021   -71.6891     5.9403     6.0681     7.4724
 2582.5000     9.5754   122.0837     2.5293     0.0008   -71.8260     6.0280     6.2423     8.1585
 2583.0000     9.5764   124.2159     2.5330     0.0009   -71.9792     6.1170     6.3332     8.5695
 2583.5000     9.5625   123.0554     2.5294     0.0011   -72.2431     6.2073     6.4254     8.8161
 2584.0000     9.5636   121.2884     2.5265     0.0027   -72.3781     6.2990     6.5642     8.9451
 2584.5000     9.5496   121.0126     2.5258     0.0044   -72.2105     6.3920     6.6632     8.8878
 2585.0000     9.5509   121.0527     2.5288     0.0045   -72.1960     6.4865     6.8047     8.5333
 2585.5000     9.5367   120.7769     2.5349     0.0047   -72.1815     6.5835     6.9038     8.1349
 2586.0000     9.5231   120.2159     2.5410     0.0048   -72.1670     6.6807     7.0530     8.2040
 2586.5000     9.5241   121.1489     2.5448     0.0020   -72.1525     6.8264     7.1063     8.8532
 2587.0000     9.5251   122.0972     2.5464    -0.0009   -72.1375     6.8794     7.1600    10.4610
 2587.5000     9.5261   123.7631     2.5416    -0.0007   -72.2720     6.9810     7.1643    13.6184
 2588.0000     9.5272   127.2502     2.5315    -0.0002   -72.2548     6.9866     7.1687    17.4859
 2588.5000     9.5433   129.6810     2.5286     0.0030   -72.2403     6.9923     7.1730    12.1193
 2589.0000     9.5593   130.9125     2.5354     0.0057   -72.2258     6.9016     7.0786     9.1330
