~VERSION INFORMATION
 VERS.                2.0:   CWLS LOG ASCII STANDARD - VERSION 2.0
 WRAP.                 NO:   ONE LINE PER DEPTH STEP
~WELL INFORMATION
#MNEM.UNIT      DATA TYPE    INFORMATION
#----------   ------------   ------------------------------
 STRT.F          500.0000:   START DEPTH
 STOP.F         4646.0000:   STOP DEPTH
 STEP.F            0.5000:   STEP LENGTH
 NULL.          -999.2500:   NO VALUE
 COMP.    FENIX & SCISSON:   COMPANY
 WELL. LAWRENCE NPR 3 "X" #34-10:   WELL
 FLD .                NPR:   FIELD
 LOC .      S10 T38N R78W:   LOCATION
 CNTY.            NATRONA:   COUNTY
 STAT.            WYOMING:   STATE
 CTRY. UNITED STATES OF AMERICA:   COUNTRY
 SRVC.              WELEX:   SERVICE COMPANY
 DATE.        12-OCT-1979:   LOGDATE
 API .     49025109290000:   API NUMBER
~CURVE INFORMATION
#MNEM.UNIT       API CODE    CURVE DESCRIPTION
#----------   ------------   ------------------------------
 DEPT.F                  :   
 SPR .MV     07 010 01 00:   SPONTANEOUS POTENTIAL
 SGRD.OHMM   07 220 05 00:   SHALLOW GUARD LOG RESISTIVITY
 ILD .OHMM   07 120 46 00:   DEEP INDUCTION RESISTIVITY
 ILM .OHMM   07 120 44 00:   INDUCTION LOG MEDIUM RESISTIVITY
 TEND.LBS    45 635 01 00:   TENSION FROM DENSITY LOG
 CORR.G/C3   45 356 01 00:   DENSITY CORRECTION
 RHOB.G/C3   45 350 01 00:   BULK DENSITY
 NPHI.DEC    42 890 03 00:   NEUTRON POROSITY SANDSTONE
 GRD .GAPI   45 310 01 00:   GAMMA RAY FROM DENSITY LOG
 CALD.IN     45 280 60 00:   CALIPER FROM DENSITY LOG
~PARAMETER INFORMATION
#MNEM.UNIT          VALUE    DESCRIPTION
#----------   ------------   ------------------------------
 EKB .F         5234.0000:   Kelly bushing
 EGL .F         5224.0000:   Ground level
 EDF .F            0.0000:   Drilling floor
 TD  .F         4650.0000:   Total depth
 DATE.        12-OCT-1979:   Date logged
 CLNT.            A2DTECH:   Client Code
 SL  . 2055' FNL & 1509' FWL:   Surface Location
 PD  .                 GL:   Permanent Datum
 DD  .F              4650:   Depth driller
 DL  .F              4646:   Depth logger
 BLI .F              4644:   Bottom log interval
 CS1 .IN              500:   Casing size
 CBD1.      8.625" @ 500':   Casing driller 1
 CBL1.F               502:   Casing logger 1
 BS1 .IN            7.875:   Bit size
 DFT .           CHEM/GEL:   Type fluid in hole
 DFD .                8.8:   Density
 DFV .                 62:   Viscosity
 DFPH.               11.2:   pH
 DFL .                4.5:   Fluid loss
 MSS .            MUD/PIT:   Source of sample
 RMS .OHMM           1.18:   Rm
 MST .F                60:   Rm Meas. temp.
 RMF .OHMM            .94:   Rmf
 MFST.F                60:   Rmf Meas. temp.
 RMC .OHMM           1.41:   Rmc
 MCST.F                60:   Rmc Meas. temp.
 MFSS.               MEAS:   Source Rmf.
 RMB .OHMM            .81:   Rm. at BHT
 BHT .F                87:   BHT.
 TCS .HRS               2:   Time Circ. stopped
 MRT .F                87:   Maximum recorded temp.
 LUN .               1892:   Logging unit number
 LUL .             CASPER:   Logging unit location
 ENGI.               REIN:   Recorded By
 WITN.           DINSMORE:   Witnessed by
 ORIG.           5" PRINT:   Origin of data
 UWI .     49025109290000:   Unique Well ID
 DICO. A2D TECHNOLOGIES, INC.:   Digitizing Company
 DAPD.                 10:   Feet Above Permanent Datum
 BSD1.F              4650:   Depth drilled with bit1
 MCSS.               MEAS:   Source Rmc.
 EPD .F              5224:   Elevation Permanent Datum
 LMF .                 KB:   Log Measured From
 DMF .                 KB:   Drilling Measured From
 TLI .F               500:   Top log interval
~OTHER INFORMATION
~A   DEPT      SPR         SGRD      ILD         ILM      TEND         CORR       RHOB       NPHI       GRD        CALD 
# ...
 1873.5000   -39.2410     7.1880     6.1830     6.8490  1845.9730     0.2970     2.2120     0.2480   102.1400     9.1280
 1874.0000   -39.3970     7.2040     6.2020     6.8440  1846.8700     0.3100     2.1580     0.2810    96.4660     9.1210
 1874.5000   -39.5550     7.2270     6.1770     6.8400  1847.7660     0.3210     2.1120     0.3000    90.7820     9.1150
 1875.0000   -39.6080     7.2540     6.1510     6.8350  1848.6630     0.3200     2.0920     0.3000    88.5750     9.1090
 1875.5000   -39.5900     7.1440     6.1240     6.8300  1849.5590     0.2930     2.0940     0.3000    97.5670     9.1080
 1876.0000   -39.5700     6.9920     6.0970     6.8260  1850.4561     0.2560     2.1030     0.3000   105.2560     9.1270
 1876.5000   -39.5490     7.0570     6.0710     6.8210  1851.3521     0.2190     2.1210     0.2990   111.8680     9.1460
 1877.0000   -39.5300     7.1320     6.0330     6.8160  1850.5820     0.1820     2.1390     0.2990   109.6130     9.1640
 1877.5000   -39.5100     7.2060     6.0890     6.8120  1847.7100     0.1450     2.1930     0.2820   112.1390     9.1870
 1878.0000   -39.4900     7.2800     6.0880     6.8050  1844.8380     0.1200     2.3390     0.2320   117.1570     9.3140
 1878.5000   -39.4700     7.3210     6.0880     6.8050  1841.9659     0.1440     2.4790     0.1400   114.3070     9.4520
 1879.0000   -39.4500     7.1850     6.0890     6.7420  1839.0940     0.1640     2.4920     0.0920   115.1380     9.4090
 1879.5000   -39.4310     7.1220     6.0890     6.8010  1836.2220     0.1760     2.4800     0.0980   118.8770     9.3060
 1880.0000   -39.2830     7.2540     6.0890     6.7810  1833.3510     0.1730     2.4590     0.1080   119.8670     9.2020
 1880.5000   -39.0370     7.1260     6.0890     6.7600  1830.4790     0.1720     2.4380     0.1180   116.4960     9.0970
 1881.0000   -38.7910     6.9960     6.0890     6.7390  1827.6071     0.1740     2.4170     0.1310   113.2040     8.9950
 1881.5000   -38.5430     6.9270     6.0890     6.7180  1824.7350     0.1770     2.3960     0.1440   110.9870     8.9240
 1882.0000   -38.4450     6.9980     6.0350     6.6970  1821.8630     0.1770     2.3750     0.1570   116.1040     8.9300
 1882.5000   -38.5060     7.0460     5.9850     6.6760  1818.9910     0.1770     2.3620     0.1660   117.9650     8.9340
 1883.0000   -38.5690     7.0560     5.9360     6.6550  1816.1200     0.1770     2.3540     0.1710   114.9070     8.9390
 1883.5000   -38.6320     7.0000     5.8870     6.6350  1813.2480     0.1770     2.3480     0.1740   111.8790     8.9430
 1884.0000   -38.6940     6.9440     5.8370     6.6150  1810.3760     0.1700     2.3580     0.1700   108.9490     8.9480
 1884.5000   -38.7580     6.7870     5.7880     6.4500  1807.5040     0.1600     2.3730     0.1590   111.5780     8.9520
 1885.0000   -38.8190     6.6030     5.7380     6.2960  1804.6320     0.1410     2.3920     0.1470   114.5750     8.9570
 1885.5000   -38.7950     6.5200     5.6680     6.1270  1801.7600     0.1190     2.4160     0.1250   117.4830     8.9610
 1886.0000   -38.7660     6.4370     5.4580     5.9330  1798.8890     0.1120     2.4720     0.1040   118.4870     8.9610
 1886.5000   -38.7370     6.2420     5.2480     5.7390  1796.0170     0.1170     2.4670     0.1060   114.6860     8.9490
 1887.0000   -38.7080     5.7360     5.0380     5.5240  1793.1450     0.1160     2.4650     0.1070   110.9730     8.9370
 1887.5000   -38.6800     5.3170     4.8280     5.2580  1790.2729     0.1130     2.4590     0.1080   109.1560     8.9250
 1888.0000   -38.6510     5.0680     4.6180     4.9920  1787.4010     0.1160     2.4510     0.1110   109.9790     8.9130
 1888.5000   -38.6280     4.9710     4.4980     4.8350  1784.5291     0.1240     2.4550     0.1130   110.7800     8.9020
 1889.0000   -38.4740     6.0390     4.4000     5.3020  1781.6580     0.1330     2.4660     0.1130   109.4860     8.8900
 1889.5000   -38.2960     6.3760     4.3290     5.2460  1778.7860     0.1420     2.4530     0.1170   108.0910     8.8780
 1890.0000   -38.1170     6.0790     4.3290     5.1820  1775.9139     0.1360     2.4310     0.1300   106.7900     8.8660
 1890.5000   -37.9380     5.7440     4.3430     5.1170  1773.0420     0.1240     2.4080     0.1420   107.8320     8.8540
 1891.0000   -37.7600     5.4100     4.3690     5.0530  1774.8270     0.1110     2.3860     0.1530   109.1590     8.8430
 1891.5000   -37.6330     5.1100     4.4610     5.0170  1780.3070     0.0980     2.3720     0.1600   112.0110     8.8310
 1892.0000   -37.6890     6.2680     4.5590     5.3190  1785.7860     0.0870     2.4030     0.1490   117.6390     8.8190
 1892.5000   -37.7410     6.9270     4.6600     5.7610  1791.7920     0.0950     2.4310     0.1360   121.9930     8.8070
 1893.0000   -37.7930     6.6010     4.7610     5.6460  1793.0210     0.1030     2.4270     0.1300   118.8940     8.7960
 1893.5000   -37.8450     6.3110     4.8620     5.5520  1794.3800     0.1110     2.4210     0.1350   115.1160     8.7840
 1894.0000   -37.8960     6.0890     4.9630     5.5900  1795.7400     0.1080     2.4140     0.1390   114.2290     8.7720
 1894.5000   -37.9480     6.2260     5.0170     5.6170  1797.0990     0.1010     2.4070     0.1430   120.8320     8.7600
 1895.0000   -38.0000     6.3570     5.0170     5.6440  1798.4590     0.0940     2.4070     0.1350   125.1790     8.7480
 1895.5000   -38.0520     6.4940     5.0170     5.6710  1799.8180     0.0940     2.4380     0.1220   122.8990     8.7370
 1896.0000   -38.1040     6.4570     5.0170     5.6980  1801.1780     0.1000     2.4570     0.1140   120.2400     8.7250
 1896.5000   -38.1550     6.4350     5.0170     5.7250  1802.5370     0.1000     2.4540     0.1170   122.6700     8.7330
 1897.0000   -38.2070     6.4350     5.0170     5.7520  1803.8970     0.0960     2.4470     0.1210   123.1360     8.7450
 1897.5000   -38.2590     6.4350     4.9920     5.7610  1805.2570     0.0940     2.4400     0.1260   123.1010     8.7570
 1898.0000   -38.3110     6.2670     4.9710     5.7080  1806.6160     0.0920     2.4320     0.1300   126.6070     8.7680
 1898.5000   -38.3630     6.0340     4.9310     5.6350  1807.9760     0.0780     2.4250     0.1340   126.8090     8.7800
 1899.0000   -38.4160     5.7610     4.8800     5.5590  1809.3350     0.0820     2.4180     0.1380   129.3420     8.7910
 1899.5000   -38.4230     5.7790     4.8210     5.5010  1810.6949     0.0810     2.4110     0.1420   132.0890     8.8030
 1900.0000   -38.3740     5.8000     4.7400     5.3520  1812.0540     0.0730     2.4070     0.1410   128.8600     8.8150
 1900.5000   -38.1650     5.8140     4.6360     5.2380  1813.4139     0.0700     2.4030     0.1380   124.8030     8.8240
 1901.0000   -37.9650     5.5610     4.5310     5.1230  1814.7729     0.0740     2.4030     0.1350   120.7280     8.7940
 1901.5000   -37.7640     5.3700     4.4260     5.0090  1816.1331     0.0860     2.4140     0.1300   116.6750     8.7620
 1902.0000   -37.5660     5.1790     4.3600     4.8900  1817.4919     0.1000     2.4250     0.1230   114.0340     8.7290
 1902.5000   -37.4020     4.9880     4.3410     4.7470  1818.8521     0.1150     2.4370     0.1160   116.0400     8.7260
 1903.0000   -37.3350     4.7910     4.3220     4.8470  1820.2120     0.1320     2.4480     0.1140   114.5580     8.7290
 1903.5000   -37.2650     5.7800     4.3030     4.9560  1821.5710     0.1490     2.4580     0.1200   115.1350     8.7330
 1904.0000   -37.2250     6.2590     4.2890     5.0650  1822.9310     0.1670     2.4520     0.1320   119.9990     8.7360
 1904.5000   -37.2260     6.0190     4.3040     5.2050  1824.2900     0.1780     2.4370     0.1430   124.7380     8.7390
 1905.0000   -37.2960     5.7390     4.3190     5.1910  1825.6500     0.1810     2.4210     0.1600   127.6770     8.7420
 1905.5000   -37.5210     5.4010     4.3340     5.1700  1827.0090     0.1820     2.4040     0.1540   124.6150     8.7440
 1906.0000   -37.7450     5.7610     4.3480     5.1490  1828.3690     0.1820     2.3870     0.1350   119.7720     8.7470
 1906.5000   -37.9680     5.9220     4.3630     5.1290  1829.7280     0.1490     2.3720     0.1250   114.9650     8.7500
