~VERSION INFORMATION
 VERS.                2.0:   CWLS LOG ASCII STANDARD - VERSION 2.0
 WRAP.                 NO:   ONE LINE PER DEPTH STEP
~WELL INFORMATION
#MNEM.UNIT      DATA TYPE    INFORMATION
#----------   ------------   ------------------------------
 STRT.F          250.5000:   START DEPTH
 STOP.F         2849.5000:   STOP DEPTH
 STEP.F            0.5000:   STEP LENGTH
 NULL.          -999.2500:   NO VALUE
 COMP. FENIX & SCISSON U.S. NAVY:   COMPANY
 WELL.   FENIX "A" #25-21:   WELL
 FLD .           N P R #3:   FIELD
 LOC .      S21 T39N R78W:   LOCATION
 CNTY.            NATRONA:   COUNTY
 STAT.            WYOMING:   STATE
 CTRY. UNITED STATES OF AMERICA:   COUNTRY
 SRVC.       SCHLUMBERGER:   SERVICE COMPANY
 DATE.        14-MAR-1977:   LOGDATE
 API .     49025103140000:   API NUMBER
~CURVE INFORMATION
#MNEM.UNIT       API CODE    CURVE DESCRIPTION
#----------   ------------   ------------------------------
 DEPT.F                  :   
 CALD.IN     45 280 60 00:   CALIPER FROM DENSITY LOG
 GRD .GAPI   45 310 01 00:   GAMMA RAY FROM DENSITY LOG
 RHOB.G/C3   45 350 01 00:   BULK DENSITY
 CORR.G/C3   45 356 01 00:   DENSITY CORRECTION
 SPR .MV     07 010 01 00:   SPONTANEOUS POTENTIAL
 LL8 .OHMM   07 220 08 00:   LATEROLOG-8 RES.
 ILM .OHMM   07 120 44 00:   INDUCTION LOG MEDIUM RESISTIVITY
 ILD .OHMM   07 120 46 00:   DEEP INDUCTION RESISTIVITY
~PARAMETER INFORMATION
#MNEM.UNIT          VALUE    DESCRIPTION
#----------   ------------   ------------------------------
 EKB .F         4963.0000:   Kelly bushing
 EGL .F         4953.0000:   Ground level
 EDF .F            0.0000:   Drilling floor
 TD  .F         2848.0000:   Total depth
 DATE.        14-MAR-1977:   Date logged
 CLNT.            A2DTECH:   Client Code
 SL  . 990' FWL & 2310' FSL:   Surface Location
 PD  .                 GL:   Permanent Datum
 DD  .F              2847:   Depth driller
 DL  .F              2848:   Depth logger
 BLI .F              2842:   Bottom log interval
 CS1 .IN            8.625:   Casing size
 CBD1.      8.625" @ 259':   Casing driller 1
 CBL1.F               261:   Casing logger 1
 BS1 .IN            7.875:   Bit size
 DFT .                KCL:   Type fluid in hole
 DFD .                9.2:   Density
 DFV .                 37:   Viscosity
 DFPH.                8.5:   pH
 DFL .                8.6:   Fluid loss
 MSS .           FLOWLINE:   Source of sample
 RMS .OHMM          0.226:   Rm
 MST .F                72:   Rm Meas. temp.
 RMF .OHMM          0.190:   Rmf
 MFST.F                72:   Rmf Meas. temp.
 MFSS.               MEAS:   Source Rmf.
 RMB .OHMM           .139:   Rm. at BHT
 BHT .F               117:   BHT.
 TCS .HRS            1800:   Time Circ. stopped
 MRT .F               117:   Maximum recorded temp.
 LUN .               5642:   Logging unit number
 LUL .               CSPR:   Logging unit location
 ENGI.         JIM MARTIN:   Recorded By
 WITN.               JAPP:   Witnessed by
 ORIG.           5" PRINT:   Origin of data
 UWI .     49025103140000:   Unique Well ID
 DICO. A2D TECHNOLOGIES, INC.:   Digitizing Company
 DAPD.                 10:   Feet Above Permanent Datum
 BSD1.               2847:   Depth drilled with bit1
 EPD .               4953:   Elevation Permanent Datum
 LMF .                 KB:   Log Measured From
 DMF .                 KB:   Drilling Measured From
 TLI .                261:   Top log interval
 TLAB.               2400:   Time logger at bottom
~OTHER INFORMATION
~A   DEPT     CALD         GRD      RHOB       CORR        SPR        LL8        ILM        ILD   
# ...
  939.0000     9.5200    82.4360     2.4840     0.0100   -58.7590    10.2170    10.6000    11.7730
  939.5000     9.5210    86.5150     2.4900     0.0050   -58.7130    10.3670    10.7970    11.9060
  940.0000     9.5220    86.3130     2.4960     0.0090   -58.7130    10.5300    10.9890    12.0390
  940.5000     9.5230    86.3410     2.4990     0.0090   -58.7130    10.6930    11.1820    12.1720
  941.0000     9.5240    88.0320     2.4950     0.0050   -58.7140    10.8570    11.3740    12.3060
  941.5000     9.5250    89.3390     2.4920     0.0020   -58.7620    11.0200    11.5660    12.4390
  942.0000     9.5250    83.2320     2.4880     0.0000   -58.9610    11.1830    11.7580    12.5720
  942.5000     9.5260    82.7540     2.4860    -0.0010   -59.0920    11.3050    11.9500    12.7050
  943.0000     9.5270    83.1390     2.4870    -0.0030   -58.9950    11.3050    12.1690    12.8590
  943.5000     9.5280    80.8420     2.4900    -0.0050   -58.9210    11.2640    12.1690    12.6970
  944.0000     9.5290    77.6690     2.5360     0.0180   -59.1840    11.2020    11.9080    12.4420
  944.5000     9.5300    79.1000     2.5230     0.0350   -59.4560    10.9510    11.6560    12.1860
  945.0000     9.5310    81.2280     2.5040     0.0110   -59.4920    10.7060    11.4030    11.9310
  945.5000     9.5310    85.9490     2.5170     0.0130   -59.4770    10.4610    11.1510    11.6760
  946.0000     9.5320    90.8670     2.5410     0.0350   -59.4610    10.2160    10.8980    11.5150
  946.5000     9.5330    93.4420     2.5270     0.0350   -59.4460     9.9700    10.6450    11.3500
  947.0000     9.5340    92.8190     2.5120     0.0200   -59.4300     9.7250    10.3930    11.1370
  947.5000     9.5350    90.5320     2.5020     0.0070   -59.4140     9.4800    10.1400    10.9240
  948.0000     9.5380    89.9670     2.5100     0.0030   -59.3990     9.2950     9.8880    10.7110
  948.5000     9.5520    89.5130     2.5180     0.0110   -59.3830     9.2330     9.6680    10.4980
  949.0000     9.5450    90.9110     2.5170     0.0160   -59.3680     9.2640     9.6680    10.2170
  949.5000     9.5380    95.1850     2.5230     0.0310   -59.3520     9.3210     9.7450    10.2170
  950.0000     9.5310   100.7170     2.5360     0.0400   -59.3370     9.3790     9.8130    10.2170
  950.5000     9.5240    98.7230     2.5260     0.0180   -59.3210     9.4360     9.8810    10.2170
  951.0000     9.5170    97.5010     2.5070     0.0160   -59.3080     9.4930     9.9490    10.2170
  951.5000     9.5100    98.8180     2.5050     0.0080   -59.3080     9.5510    10.0180    10.2170
  952.0000     9.5030    98.2150     2.5280     0.0140   -59.4300     9.6250    10.0860    10.2170
  952.5000     9.4940    94.8030     2.5550     0.0240   -59.6760     9.7150    10.1540    10.2710
  953.0000     9.5330    91.5020     2.5460     0.0310   -59.9220     9.8050    10.2220    10.3790
  953.5000     9.5530    91.4440     2.5340     0.0220   -60.1690     9.8950    10.2910    10.4870
  954.0000     9.5550    93.1870     2.5230     0.0120   -60.4290    10.0310    10.3590    10.5950
  954.5000     9.5550    90.5070     2.5350     0.0260   -60.3050     9.9120    10.4070    10.7030
  955.0000     9.5540    86.0940     2.5250     0.0360   -60.0370     9.6750    10.1350    10.8120
  955.5000     9.5540    81.8670     2.5130     0.0160   -59.7640     9.3190    10.0310    10.9200
  956.0000     9.5540    81.8800     2.5120     0.0020   -59.4910     9.5420    10.2570    11.0280
  956.5000     9.5540    85.1030     2.5280     0.0150   -59.2170     9.9890    10.4310    11.1360
  957.0000     9.5540    88.2670     2.5210     0.0150   -58.9470    10.1560    10.6050    11.2440
  957.5000     9.5540    90.1470     2.5330     0.0150   -58.9860    10.2170    10.7970    11.3520
  958.0000     9.5540    89.0370     2.5180     0.0240   -59.0710    10.1920    10.7530    11.4600
  958.5000     9.5540    91.3340     2.5330     0.0160   -59.1580    10.1420    10.6900    11.5680
  959.0000     9.5560    93.4250     2.5290     0.0310   -59.2430    10.0920    10.6270    11.6770
  959.5000     9.5640    91.3070     2.5230     0.0090   -59.2920    10.0420    10.5640    11.7850
  960.0000     9.5730    88.8110     2.5190     0.0010   -59.2190     9.9920    10.5010    11.8930
  960.5000     9.5810    86.9670     2.5150     0.0150   -59.1500     9.9430    10.4070    11.9470
  961.0000     9.5880    85.4160     2.5110     0.0110   -59.3360     9.8930    10.4510    11.7540
  961.5000     9.5780    86.4690     2.5030     0.0140   -59.8300     9.8480    10.5380    11.6050
  962.0000     9.5670    87.8040     2.5010     0.0070   -60.0410    10.0170    10.6000    11.4560
  962.5000     9.5590    88.6860     2.4910    -0.0040   -60.2070    10.1710    10.6980    11.3080
  963.0000     9.5510    86.9370     2.4980     0.0030   -60.3710    10.2170    10.5570    11.1590
  963.5000     9.5420    89.3750     2.5050     0.0100   -60.5370     9.9870    10.4150    11.0100
  964.0000     9.5330    92.0290     2.5090     0.0160   -60.6850     9.8100    10.2730    10.8620
  964.5000     9.5250    93.6050     2.5050     0.0100   -60.5470     9.6330    10.1300    10.7130
  965.0000     9.5160    90.8060     2.5110     0.0140   -60.4050     9.5800    10.0310    10.5640
  965.5000     9.5070    91.3330     2.5180     0.0180   -60.2630     9.5740    10.0270    10.4150
  966.0000     9.4990    93.5840     2.5210     0.0100   -60.1230     9.5560    10.0170    10.3110
  966.5000     9.4900    94.9830     2.5170     0.0000   -59.9840     9.5380    10.0060    10.3110
  967.0000     9.4820    94.0500     2.5120     0.0000   -59.9770     9.5200     9.9950    10.3110
  967.5000     9.4730    95.9410     2.5100     0.0020   -60.1530     9.5010     9.9850    10.3110
  968.0000     9.4640    97.8710     2.5110     0.0130   -60.3290     9.4830     9.9740    10.3110
  968.5000     9.4560    99.7760     2.5250     0.0250   -60.4720     9.4650     9.9630    10.3110
  969.0000     9.4470   103.5780     2.5330     0.0330   -59.9200     9.4470     9.9530    10.3110
  969.5000     9.4380   103.5420     2.5240     0.0220   -59.5050     9.4290     9.9390    10.3120
  970.0000     9.4390   102.3410     2.5120     0.0280   -59.4080     9.4050     9.9360    10.3100
  970.5000     9.4440    95.7810     2.5060     0.0230   -59.6460     9.5530    10.0680    10.3910
  971.0000     9.4490    89.2380     2.5190     0.0210   -59.8810     9.7640    10.1860    10.5030
  971.5000     9.4540    83.1530     2.5270     0.0300   -60.1170     9.9750    10.3030    10.6150
  972.0000     9.4590    81.6370     2.5200     0.0150   -60.3510    10.1350    10.4210    10.7280
  972.5000     9.4640    82.4600     2.5110     0.0020   -60.4440    10.1740    10.5030    10.8400
  973.0000     9.4690    85.2290     2.5160     0.0150   -60.3220    10.2170    10.6000    10.8970
  973.5000     9.4740    87.8070     2.5160     0.0240   -60.2020     9.8070    10.2310    10.8970
  974.0000     9.4790    95.2180     2.5000     0.0090   -60.0800     9.4920     9.7580    10.8970
  974.5000     9.4840   101.3220     2.5050     0.0140   -59.9590     9.5640     9.8630    10.8970
  975.0000     9.4890   100.5530     2.5070     0.0190   -59.8370     9.6190     9.9590    10.8970
  975.5000     9.4950   101.6070     2.4990     0.0130   -59.7150     9.6750    10.0540    10.8970
  976.0000     9.5000   101.3610     2.4980     0.0110   -59.5940     9.7300    10.1500    10.9970
  976.5000     9.5050   100.3160     2.5000     0.0150   -59.4720     9.8480    10.2460    11.0340
  977.0000     9.5100    98.5160     2.4940     0.0130   -59.3510     9.9770    10.3420    11.1070
  977.5000     9.5150    94.6620     2.4940     0.0120   -59.2290    10.0550    10.4370    11.1800
  978.0000     9.5190    88.7500     2.5020     0.0150   -59.1080    10.1320    10.5330    11.2020
  978.5000     9.5240    91.0540     2.4990     0.0080   -58.9870    10.2170    10.6000    11.2020
  979.0000     9.5290    93.2010     2.4920    -0.0060   -58.9680    10.1710    10.5670    11.3780
