~VERSION INFORMATION
 VERS.                2.0:   CWLS LOG ASCII STANDARD - VERSION 2.0
 WRAP.                 NO:   ONE LINE PER DEPTH STEP
~WELL INFORMATION
#MNEM.UNIT      DATA TYPE    INFORMATION
#----------   ------------   ------------------------------
 STRT.F          196.5000:   START DEPTH
 STOP.F         2376.0000:   STOP DEPTH
 STEP.F            0.5000:   STEP LENGTH
 NULL.          -999.2500:   NO VALUE
 COMP.    FENIX & SCISSON:   COMPANY
 WELL. FENIX & SCISSON NPR-3 #55-10:   WELL
 FLD .  TEAPOT DOME NPR-3:   FIELD
 LOC .      S10 T38N R78W:   LOCATION
 CNTY.            NATRONA:   COUNTY
 STAT.            WYOMING:   STATE
 CTRY. UNITED STATES OF AMERICA:   COUNTRY
 SRVC.           BIRDWELL:   SERVICE COMPANY
 DATE.        09-MAY-1979:   LOGDATE
 API .     49025107780000:   API NUMBER
~CURVE INFORMATION
#MNEM.UNIT       API CODE    CURVE DESCRIPTION
#----------   ------------   ------------------------------
 DEPT.F                  :   
 CALD.IN     45 280 60 00:   CALIPER FROM DENSITY LOG
 GRD .GAPI   45 310 01 00:   GAMMA RAY FROM DENSITY LOG
 RHOB.G/C3   45 350 01 00:   BULK DENSITY
 CORR.G/C3   45 356 01 00:   DENSITY CORRECTION
~PARAMETER INFORMATION
#MNEM.UNIT          VALUE    DESCRIPTION
#----------   ------------   ------------------------------
 EKB .F         5203.0000:   Kelly bushing
 EGL .F         5193.0000:   Ground level
 EDF .F            0.0000:   Drilling floor
 TD  .F         2376.0000:   Total depth
 CLNT.            A2DTECH:   Client Code
 SL  . 2283' FSL & 2107' FEL:   Surface Location
 PD  .                 GL:   Permanent Datum
 EPD .F              5193:   Elevation Permanent Datum
 LMF .                 KB:   Log Measured From
 DMF .                 KB:   Drilling Measured From
 DAPD.F                10:   Feet Above Permanent Datum
 DATE.        09-MAY-1979:   Date Logged [DD-MMM-YYYY]
 DD  .F              2360:   Depth driller
 DL  .F              2376:   Depth logger
 BLI .F              2376:   Bottom log interval
 TLI .F               196:   Top log interval
 CS1 .IN            9.625:   Casing size
 CBD1.             9.625":   Casing driller 1
 CBL1.F               545:   Casing logger 1
 BS1 .IN             8.75:   Bit size
 BSD1.F              2360:   Depth drilled with bit1
 DFT .                AIR:   Type fluid in hole
 TCS .HRS               3:   Time Circ. stopped
 LUN .               2959:   Logging unit number
 LUL .             CASPER:   Logging unit location
 ENGI.         B. ROLLINS:   Recorded By
 WITN.             RHODES:   Witnessed by
 ORIG.           5" PRINT:   Origin of data
 UWI .     49025107780000:   Unique Well ID
 DICO. A2D TECHNIOLOGIES,INC.:   Digitizing Company
~OTHER INFORMATION
~A  DEPTH     CALD        GRD       RHOB       CORR
# ...
  780.5000     9.4168   119.0135     2.4675     0.0115
  781.0000     9.4172   114.9486     2.4638     0.0055
  781.5000     9.4177   111.1834     2.4521    -0.0027
  782.0000     9.4332   110.4386     2.4434    -0.0117
  782.5000     9.4488   112.4069     2.4477    -0.0162
  783.0000     9.4492   116.6376     2.4570    -0.0056
  783.5000     9.4496   118.6058     2.4864     0.0020
  784.0000     9.4501   120.4233     2.5008     0.0051
  784.5000     9.4656   121.6374     2.4849     0.0097
  785.0000     9.4510   121.6449     2.4902     0.0233
  785.5000     9.4514   121.3488     2.5060     0.0461
  786.0000     9.4217   121.2054     2.5158     0.0678
  786.5000     9.4222   124.0805     2.5249     0.1014
  787.0000     9.4244   125.8961     2.5331     0.1381
  787.5000     9.4382   125.6019     2.5408     0.1533
  788.0000     9.4387   130.2870     2.5106     0.1428
  788.5000     9.4542   132.5569     2.4894     0.1097
  789.0000     9.4547   130.3019     2.4706     0.0781
  789.5000     9.4551   125.7845     2.4570     0.0465
  790.0000     9.4556   120.8146     2.4502     0.0164
  790.5000     9.4560   118.5550     2.4494    -0.0062
  791.0000     9.4565   119.1715     2.4502    -0.0061
  791.5000     9.4569   118.2338     2.4592     0.0030
  792.0000     9.4423   115.7163     2.4713     0.0136
  792.5000     9.4427   116.0433     2.4796     0.0303
  793.0000     9.4280   117.5062     2.4789     0.0394
  793.5000     9.4285   120.6151     2.4774     0.0364
  794.0000     9.4138   121.7812     2.4774     0.0380
  794.5000     9.4143   123.5987     2.4891     0.0457
  795.0000     9.4148   125.4161     2.5111     0.0566
  795.5000     9.4152   126.0269     2.5423     0.0819
  796.0000     9.4157   125.7327     2.6579     0.1588
  796.5000     9.4161   123.9302     2.7735     0.3428
  797.0000     9.4166   124.2393     2.8799     0.4951
  797.5000     9.4019   127.5651     2.9684     0.5000
  798.0000     9.4024   130.7400     4.0019     0.4997
  798.5000     9.4030   130.8964     4.0026     0.4229
  799.0000     9.3731   129.6991     3.7167     0.2828
  799.5000     9.3585   129.4030     3.4073     0.2150
  800.0000     9.3590   130.3174     2.9687     0.1548
  800.5000     9.3595   131.0790     2.4940     0.0908
  801.0000     9.3599   131.2373     2.4658     0.0498
  801.5000     9.3604   130.4906     2.4351     0.0150
  802.0000     9.3608   127.0410     2.4457    -0.0214
  802.5000     9.3613   124.1857     2.4637    -0.0289
  803.0000     9.3617   124.6486     2.4835    -0.0243
  803.5000     9.3773   127.4051     2.5034    -0.0138
  804.0000     9.3928   129.3775     2.5257     0.0059
  804.5000     9.4083   129.5064     2.4947     0.0135
  805.0000     9.4239   126.6536     2.4756     0.0043
  805.5000     9.4243   124.8515     2.4779     0.0000
  806.0000     9.4398   125.4678     2.4875     0.0031
  806.5000     9.4554   128.0423     2.4970     0.0122
  807.0000     9.4407   128.6561     2.5066     0.0197
  807.5000     9.4412   128.6665     2.5162     0.0333
  808.0000     9.4404   127.9228     2.5257     0.0590
  808.5000     9.4119   129.8940     2.5340     0.0741
  809.0000     9.3947   130.5077     2.5362     0.0938
  809.5000     9.3675   130.9706     2.5335     0.1104
  810.0000     9.3529   129.6235     2.5316     0.1210
  810.5000     9.3233   127.0698     2.5296     0.1241
  811.0000     9.3086   124.8178     2.5276     0.1226
  811.5000     9.2940   122.7166     2.5304     0.1259
  812.0000     9.2945   121.2187     2.5312     0.1423
  812.5000     9.2949   120.1672     2.5434     0.1634
  813.0000     9.2954   119.7313     2.5556     0.1831
  813.5000     9.3109   122.2239     2.5692     0.2042
  814.0000     9.2963   125.0337     2.5838     0.2329
  814.5000     9.2515   125.4940     2.5802     0.2435
  815.0000     9.2519   122.7921     2.5557     0.2134
  815.5000     9.2524   118.4285     2.5104     0.1652
  816.0000     9.2528   115.7214     2.4733     0.0929
  816.5000     9.2533   119.3543     2.4613     0.0281
  817.0000     9.2463   123.1354     2.4780     0.0283
  817.5000     9.2622   122.2417     2.4811     0.0375
  818.0000     9.2780   121.6488     2.4804     0.0403
  818.5000     9.3088   121.3576     2.4774     0.0343
  819.0000     9.3396   120.7621     2.4775     0.0314
  819.5000     9.3705   121.9818     2.4790     0.0405
  820.0000     9.3862   125.0088     2.4897     0.0616
  820.5000     9.3869   128.1866     2.5095     0.0767
  821.0000     9.4026   130.7611     2.5201     0.0707
  821.5000     9.4033   131.6765     2.4997     0.0557
  822.0000     9.4040   131.0836     2.4778     0.0407
  822.5000     9.4046   129.4349     2.4673     0.0226
  823.0000     9.3901   126.4287     2.4916     0.0379
  823.5000     9.3758   121.0093     2.5196     0.0759
  824.0000     9.3463   121.1705     2.5455     0.1007
  824.5000     9.3319   123.9257     2.5554     0.1223
  825.0000     9.3175   125.8798     2.5562     0.1284
  825.5000     9.3182   126.3300     2.5532     0.1330
  826.0000     9.3205   122.7231     2.5525     0.1405
  826.5000     9.3346   119.5661     2.5458     0.1300
  827.0000     9.3354   116.8615     2.5178     0.1090
  827.5000     9.3210   119.8885     2.4997     0.0849
  828.0000     9.3066   122.7647     2.4952     0.0699
  828.5000     9.2769   123.3759     2.4983     0.0579
  829.0000     9.2778   118.7132     2.5029     0.0549
  829.5000     9.2632   117.6652     2.4900     0.0518
  830.0000     9.2640   121.1473     2.4628     0.0376
  830.5000     9.2647   123.7218     2.4500     0.0113
  831.0000     9.2654   125.2405     2.4432    -0.0037
  831.5000     9.2660   125.3991     2.4460    -0.0067
  832.0000     9.2667   123.7530     2.4645    -0.0036
  832.5000     9.2674   120.5960     2.4790     0.0039
  833.0000     9.2831   116.6849     2.4882     0.0115
  833.5000     9.2838   114.1312     2.4996     0.0161
  834.0000     9.2845   121.3413     2.5027     0.0146
  834.5000     9.2853   125.0894     2.5012     0.0089
  835.0000     9.3160   129.3989     2.5005     0.0042
  835.5000     9.3317   134.6882     2.5036     0.0002
  836.0000     9.3324   135.9027     2.4916    -0.0018
  836.5000     9.3483   133.9549     2.4757    -0.0017
  837.0000     9.3641   130.3454     2.4849     0.0044
  837.5000     9.3647   125.5293     2.5023     0.0255
  838.0000     9.3654   124.7856     2.5138     0.0512
  838.5000     9.3812   124.4917     2.5221     0.0844
  839.0000     9.3818   124.2031     2.5214     0.0980
  839.5000     9.3825   124.0627     2.5115     0.0905
  840.0000     9.3679   123.4698     2.5009     0.0740
  840.5000     9.3688   122.8769     2.5118     0.0785
  841.0000     9.3542   122.5856     2.5315     0.1072
  841.5000     9.3550   122.5960     2.5581     0.1374
  842.0000     9.3406   123.0589     2.5779     0.1694
  842.5000     9.3413   123.0694     2.5863     0.1816
  843.0000     9.3419   122.3067     2.5931     0.1903
  843.5000     9.3275   118.0855     2.5902     0.1919
  844.0000     9.3131   115.7100     2.5622     0.1738
  844.5000     9.2987   118.1363     2.5357     0.1513
  845.0000     9.2672   120.2583     2.5191     0.1151
  845.5000     9.1917   122.2295     2.5101     0.0730
  846.0000     9.1048   123.8990     2.5048     0.0414
  846.5000     9.0902   125.5686     2.5033     0.0248
  847.0000     9.1061   126.7856     2.5035     0.0246
  847.5000     9.1370   125.2877     2.5005     0.0385
  848.0000     9.1829   121.5274     2.5083     0.0400
  848.5000     9.1987   120.7837     2.5172     0.0214
  849.0000     9.2144   120.4924     2.4870     0.0019
  849.5000     9.2302   120.2012     2.4780    -0.0036
  850.0000     9.2308   119.1558     2.4720     0.0025
  850.5000     9.2315   120.8253     2.4713     0.0056
  851.0000     9.2322   122.6457     2.4782     0.0041
  851.5000     9.2479   124.4661     2.4903    -0.0004
  852.0000     9.2486   126.2946     2.5025     0.0148
  852.5000     9.2493   127.0676     2.5101     0.0193
  853.0000     9.2499   127.2122     2.4860     0.0058
