~VERSION INFORMATION
 VERS.                2.0:   CWLS LOG ASCII STANDARD - VERSION 2.0
 WRAP.                 NO:   ONE LINE PER DEPTH STEP
~WELL INFORMATION
#MNEM.UNIT      DATA TYPE    INFORMATION
#----------   ------------   ------------------------------
 STRT.F            1.0000:   START DEPTH
 STOP.F         2854.0000:   STOP DEPTH
 STEP.F            0.5000:   STEP LENGTH
 NULL.          -999.2500:   NO VALUE
 COMP.          INTEX OIL:   COMPANY
 WELL. INTEX N.P.R. "AX" #42-29:   WELL
 FLD .             TEAPOT:   FIELD
 LOC .      S29 T39N R78W:   LOCATION
 CNTY.            NATRONA:   COUNTY
 STAT.            WYOMING:   STATE
 CTRY. UNITED STATES OF AMERICA:   COUNTRY
 SRVC.       SCHLUMBERGER:   SERVICE COMPANY
 DATE.        30-MAY-1986:   LOGDATE
 API .     49025095240000:   API NUMBER
~CURVE INFORMATION
#MNEM.UNIT       API CODE    CURVE DESCRIPTION
#----------   ------------   ------------------------------
 DEPT.F                  :   
 SPR .MV     05 010 01 00:   SPONTANEOUS POTENTIAL FROM RES.
 ASN .OHMM   05 041 16 00:   AMPLIFIED SHORT NORMAL 16"
 ILD .OHMM   05 120 46 00:   INDUCTION LOG DEEP
 GRD .GAPI   45 310 01 00:   GAMMA RAY FROM DENSITY LOG
 CALD.IN     45 280 60 00:   CALIPER FROM DENSITY LOG
 CORR.G/C3   45 356 01 00:   DENSITY CORRECTION
 RHOB.G/C3   45 350 01 00:   BULK DENSITY
 CALI.IN     30 280 01 00:   CALIPER FROM GAMMA RAY LOG
 GR  .GAPI   30 310 01 00:   GAMMA RAY
~PARAMETER INFORMATION
#MNEM.UNIT          VALUE    DESCRIPTION
#----------   ------------   ------------------------------
 EKB .F         5020.3000:   Kelly bushing
 EGL .F         5010.0000:   Ground level
 EDF .F            0.0000:   Drilling floor
 TD  .F         2860.0000:   Total depth
 CLNT.            A2DTECH:   Client Code
 DATE.        30-MAY-1986:   Date Logged [DD-MMM-YYYY]
 DD  .F              2860:   Depth driller
 DL  .F              2855:   Depth logger
 BLI .F              2854:   Bottom log interval
 TLI .F               164:   Top log interval
 CS1 .              8.625:   Casing size
 CBD1.      8.625" @ 167':   Casing driller 1
 CBL1.IN              164:   Casing logger 1
 BS1 .IN            7.875:   Bit size
 BSD1.F              2860:   Depth drilled with bit1
 DFT .  LIGND-SULFATE LCM:   Type fluid in hole
 DFD .                8.9:   Density
 DFV .                 33:   Viscosity
 DFPH.               11.0:   pH
 DFL .                9.2:   Fluid loss
 MSS .           FLOWLINE:   Source of sample
 RMS .OHMM           1.47:   Rm
 MST .F                55:   Rm Meas. temp.
 RMF .OHMM           1.13:   Rmf
 MFST.F                75:   Rmf Meas. temp.
 RMB .OHMM           0.78:   Rm. at BHT
 BHT .F               108:   BHT.
 TCS .HRS               3:   Time Circ. stopped
 MRT .F               108:   Maximum recorded temp.
 LUN .               3527:   Logging unit number
 LUL .               CSPR:   Logging unit location
 ENGI.            MANGOLO:   Recorded By
 WITN.             TUTTLE:   Witnessed by
 ORIG.      1" 2.5" PRINT:   Origin of data
 UWI .     49025095240000:   Unique Well ID
 DICO. A2D TECHNOLOGIES, INC.:   Digitizing Company
 PD  .                 GL:   Permanent Datum
 EPD .               5010:   Elevation Permanent Datum
 LMF .                 KB:   Log Measured From
 DMF .                 KB:   Drilling Measured From
 DAPD.              10.32:   Feet Above Permanent Datum
 MFSS.         MEAS PRESS:   Source Rmf.
~OTHER INFORMATION
~A    DEPT     SPR        ASN        ILD        GRD       CALD       CORR       RHOB        CALI        GR   
# ...
 1899.0000   -44.2045    15.4974    10.1148   117.7091     8.6076     0.0077     2.4272  -999.2500  -999.2500
 1899.5000   -44.5109    15.6516     9.9668   118.1615     8.6075     0.0015     2.4262  -999.2500  -999.2500
 1900.0000   -44.2076    15.6539     9.6677   118.6139     8.6073     0.0071     2.4302  -999.2500  -999.2500
 1900.5000   -43.9039    15.8081     9.5181   119.0662     8.6379     0.0117     2.4389  -999.2500  -999.2500
 1901.0000   -43.6008    15.8104     9.3686   119.0571     8.6377     0.0164     2.4523  -999.2500  -999.2500
 1901.5000   -42.9926    15.6604     9.2190   119.5107     8.6376     0.0214     2.4722  -999.2500  -999.2500
 1902.0000   -43.2990    15.2070     9.0755   114.8490     8.6374     0.0244     2.4855  -999.2500  -999.2500
 1902.5000   -43.9103    14.7533     9.0786   109.7885     8.6372     0.0215     2.4728  -999.2500  -999.2500
 1903.0000   -44.1793    14.2997     9.0816   107.9862     8.6371     0.0032     2.4516  -999.2500  -999.2500
 1903.5000   -44.4802    13.9980     9.0951   109.3685     8.6369    -0.0029     2.4375  -999.2500  -999.2500
 1904.0000   -44.7805    14.0002     9.2387   106.0613     8.6061     0.0139     2.4628  -999.2500  -999.2500
 1904.5000   -45.0808    14.1545     9.2553   103.3223     8.6060     0.0143     2.4746  -999.2500  -999.2500
 1905.0000   -44.7710    14.4607     9.3958   102.4385     8.6058     0.0094     2.4819  -999.2500  -999.2500
 1905.5000   -44.7664    14.6149     9.5497   105.2559     8.6057     0.0064     2.4652  -999.2500  -999.2500
 1906.0000   -44.4570    14.9211     9.6244   108.1668     8.6055     0.0049     2.4642  -999.2500  -999.2500
 1906.5000   -44.4525    15.6016     9.6971   116.4881     8.6054     0.0033     2.4673  -999.2500  -999.2500
 1907.0000   -44.1431    15.6748     9.6994   120.9554     8.6052     0.0018     2.4641  -999.2500  -999.2500
 1907.5000   -44.1385    15.6763     9.7898   122.7347     8.5744     0.0064     2.4581  -999.2500  -999.2500
 1908.0000   -44.1340    15.4387     9.8554   122.2708     8.5742     0.0156     2.4582  -999.2500  -999.2500
 1908.5000   -43.8246    15.2859     9.8577   122.2685     8.5741     0.0217     2.4598  -999.2500  -999.2500
 1909.0000   -43.8200    15.2249     9.8599   122.2662     8.5739     0.0263     2.4596  -999.2500  -999.2500
 1909.5000   -44.1204    15.2267     9.7107   122.1324     8.5431     0.0203     2.4564  -999.2500  -999.2500
 1910.0000   -44.1159    15.3802     9.5623   118.3849     8.5430     0.0142     2.4487  -999.2500  -999.2500
 1910.5000   -44.4162    15.2297     9.4132   115.2390     8.5428     0.0218     2.4444  -999.2500  -999.2500
 1911.0000   -44.1067    15.2313     9.2647   113.4368     8.5427     0.0279     2.4615  -999.2500  -999.2500
 1911.5000   -44.1021    15.2328     9.2669   112.4561     8.5425     0.0219     2.4608  -999.2500  -999.2500
 1912.0000   -44.0975    15.2343     9.1181   110.6032     8.5424     0.0158     2.4534  -999.2500  -999.2500
 1912.5000   -44.0930    15.0838     9.1204   109.3271     8.5422     0.0097     2.4459  -999.2500  -999.2500
 1913.0000   -44.0884    15.0853     9.1226   111.2308     8.5420     0.0097     2.4493  -999.2500  -999.2500
 1913.5000   -44.0838    14.7829     8.9738   111.1685     8.5418     0.0159     2.4551  -999.2500  -999.2500
 1914.0000   -44.7297    14.3285     8.6739   111.7570     8.5258     0.0113     2.4381  -999.2500  -999.2500
 1914.5000   -44.9897    14.0260     8.5249   115.1905     8.5270     0.0083     2.4353  -999.2500  -999.2500
 1915.0000   -44.9340    13.7236     8.5274   119.2844     8.5414     0.0098     2.4352  -999.2500  -999.2500
 1915.5000   -44.0096    13.7251     8.6807   122.8409     8.5412     0.0160     2.4323  -999.2500  -999.2500
 1916.0000   -43.4512    13.7266     8.6829   124.5417     8.5411     0.0114     2.4390  -999.2500  -999.2500
 1916.5000   -43.5127    13.5761     8.8362   122.4647     8.5409     0.0175     2.4564  -999.2500  -999.2500
 1917.0000   -43.7475    13.5776     8.9895   119.1464     8.5408     0.0282     2.4969  -999.2500  -999.2500
 1917.5000   -43.7424    13.8831     8.9918   114.9803     8.5406     0.0160     2.4724  -999.2500  -999.2500
 1918.0000   -43.7378    14.1885     9.1451   110.5199     8.5405     0.0023     2.4405  -999.2500  -999.2500
 1918.5000   -43.7332    14.6460     9.4495   110.2225     8.5403    -0.0083     2.4254  -999.2500  -999.2500
 1919.0000   -43.7286    15.2554     9.6028   111.6048     8.5402    -0.0144     2.4134  -999.2500  -999.2500
 1919.5000   -43.7241    15.5609     9.7561   111.9619     8.5400    -0.0159     2.4064  -999.2500  -999.2500
 1920.0000   -43.7195    15.4104     9.7583   117.1390     8.5398    -0.0098     2.4150  -999.2500  -999.2500
 1920.5000   -43.7149    15.2599     9.6070   121.1124     8.5397    -0.0006     2.4326  -999.2500  -999.2500
 1921.0000   -43.8221    15.1094     9.3096   123.4246     8.5395     0.0101     2.4536  -999.2500  -999.2500
 1921.5000   -44.0115    14.9590     9.1608   125.5384     8.5394     0.0223     2.4716  -999.2500  -999.2500
 1922.0000   -44.4329    14.6565     9.1632   124.2094     8.5392     0.0255     2.4855  -999.2500  -999.2500
 1922.5000   -44.6113    14.3528     9.1654   120.7612     8.5391     0.0178     2.4667  -999.2500  -999.2500
 1923.0000   -44.3018    14.2036     9.1677   116.8061     8.5389     0.0224     2.4481  -999.2500  -999.2500
 1923.5000   -43.9924    14.2110     9.1876   114.1362     8.5695     0.0331     2.4514  -999.2500  -999.2500
 1924.0000   -43.6829    14.3668     9.3232   112.2832     8.5693     0.0407     2.4830  -999.2500  -999.2500
 1924.5000   -43.6784    14.5329     9.3029   111.5792     8.5691     0.0469     2.5068  -999.2500  -999.2500
 1925.0000   -43.6738    14.9695     9.1765   112.6155     8.5690     0.0560     2.5208  -999.2500  -999.2500
 1925.5000   -43.6692    14.6522     9.1790   113.4211     8.5688     0.0255     2.5039  -999.2500  -999.2500
 1926.0000   -43.6646    14.3476     9.0000   109.7079     8.5687     0.0134     2.4573  -999.2500  -999.2500
 1926.5000   -44.3003    14.0429     8.7301   107.4165     8.5992     0.0135     2.4505  -999.2500  -999.2500
 1927.0000   -45.0478    13.8900     8.5813   109.6341     8.5991     0.0180     2.4638  -999.2500  -999.2500
 1927.5000   -44.9975    13.6093     8.5461   111.6923     8.5989     0.0165     2.4724  -999.2500  -999.2500
 1928.0000   -44.8649    13.4326     8.3948   113.0769     8.5988     0.0119     2.4749  -999.2500  -999.2500
 1928.5000   -44.5555    13.3084     8.2434   114.0000     8.5986     0.0089     2.4649  -999.2500  -999.2500
 1929.0000   -44.5510    13.2792     8.1371   113.7324     8.5984     0.0169     2.4566  -999.2500  -999.2500
 1929.5000   -44.2416    13.1264     7.9883   113.1298     8.5983     0.0242     2.4837  -999.2500  -999.2500
 1930.0000   -43.9322    12.8217     7.9910   110.9999     8.5981     0.0227     2.4919  -999.2500  -999.2500
 1930.5000   -43.9276    12.7065     7.8418   108.6416     8.5980     0.0353     2.4968  -999.2500  -999.2500
 1931.0000   -43.6182    12.5560     7.7891   109.0660     8.5978     0.0456     2.5041  -999.2500  -999.2500
 1931.5000   -43.9192    12.4056     7.6952   110.1627     8.5977     0.0372     2.5102  -999.2500  -999.2500
 1932.0000   -43.9140    12.3627     7.6979   108.4799     8.5975     0.0222     2.5076  -999.2500  -999.2500
 1932.5000   -43.9095    12.2566     7.7631   107.2384     8.5974     0.0117     2.4772  -999.2500  -999.2500
 1933.0000   -44.2103    12.2584     7.8535   106.3109     8.6279     0.0046     2.4614  -999.2500  -999.2500
 1933.5000   -44.2053    12.2599     7.8557   105.9996     8.6277     0.0102     2.4636  -999.2500  -999.2500
 1934.0000   -43.8959    12.2614     7.8580   109.0802     8.6276     0.0183     2.4779  -999.2500  -999.2500
 1934.5000   -43.5865    12.4149     7.8603   110.1489     8.6274     0.0120     2.4681  -999.2500  -999.2500
 1935.0000   -43.5819    12.4747     8.0136   109.5231     8.6273     0.0144     2.4706  -999.2500  -999.2500
