~VERSION INFORMATION
 VERS.                2.0:   CWLS LOG ASCII STANDARD - VERSION 2.0
 WRAP.                 NO:   ONE LINE PER DEPTH STEP
~WELL INFORMATION
#MNEM.UNIT      DATA TYPE    INFORMATION
#----------   ------------   ------------------------------
 STRT.F         2496.0000:   START DEPTH
 STOP.F         4120.0000:   STOP DEPTH
 STEP.F            0.5000:   STEP LENGTH
 NULL.          -999.2500:   NO VALUE
 COMP. LAWRENCE ALLISON AND ASSOCIATES:   COMPANY
 WELL. LAWRENCE "X" #85-10:   WELL
 FLD .              N P R:   FIELD
 LOC .      S10 T38N R78W:   LOCATION
 CNTY.            NATRONA:   COUNTY
 STAT.            WYOMING:   STATE
 CTRY. UNITED STATES OF AMERICA:   COUNTRY
 SRVC.      DRESSER ATLAS:   SERVICE COMPANY
 DATE.        20-JAN-1984:   LOGDATE
 API .     49025109580000:   API NUMBER
~CURVE INFORMATION
#MNEM.UNIT       API CODE    CURVE DESCRIPTION
#----------   ------------   ------------------------------
 DEPT.F                  :   
 SPR .MV     07 010 01 00:   SPONTANEOUS POTENTIAL
 TENR.LBS    07 635 01 00:   TENSION FROM RESISTIVITY
 ILD .OHMM   07 120 46 00:   DEEP INDUCTION RESISTIVITY
 ILM .OHMM   07 120 44 00:   INDUCTION LOG MEDIUM RESISTIVITY
 RFOC.OHMM   07 220 04 00:   RESISTIVITY FOCUSED LOG RES.
 GRD .GAPI   45 310 01 00:   GAMMA RAY FROM DENSITY LOG
 CALD.IN     45 280 60 00:   CALIPER FROM DENSITY LOG
 TEND.LBS    45 635 01 00:   TENSION FROM DENSITY LOG
 RHOB.G/C3   45 350 01 00:   BULK DENSITY
 CORR.G/C3   45 356 01 00:   DENSITY CORRECTION
 CN  .DEC    42 890 03 00:   NEUTRON POROSITY SANDSTONE
~PARAMETER INFORMATION
#MNEM.UNIT          VALUE    DESCRIPTION
#----------   ------------   ------------------------------
 EKB .F         5231.0000:   Kelly bushing
 EGL .F         5221.0000:   Ground level
 EDF .F            0.0000:   Drilling floor
 TD  .F         4115.0000:   Total depth
 DATE.        20-JAN-1984:   Date logged
 CLNT.            A2DTECH:   Client Code
 SL  . 2159' FSL & 292' FEL:   Surface Location
 PD  .                 GL:   Permanent Datum
 EPD .F              5221:   Elevation Permanent Datum
 LMF .                 KB:   Log Measured From
 DMF .                 KB:   Drilling Measured From
 DD  .F              4115:   Depth driller
 DL  .F              4111:   Depth logger
 BLI .F              4109:   Bottom log interval
 TLI .F              2496:   Top log interval
 CS1 .IN            8.625:   Casing size
 CBD1.       8.625 @ 537':   Casing driller 1
 BS1 .IN            7.875:   Bit size
 DFT .            GEL KCL:   Type fluid in hole
 DFD .                8.8:   Density
 DFV .                 40:   Viscosity
 DFPH.                  9:   pH
 DFL .                9.8:   Fluid loss
 MSS .           FLOWLINE:   Source of sample
 RMS .OHMM           0.61:   Rm
 MST .F                77:   Rm Meas. temp.
 RMF .OHMM           0.51:   Rmf
 MFST.F                69:   Rmf Meas. temp.
 RMC .OHMM           0.76:   Rmc
 MCST.F                77:   Rmc Meas. temp.
 MFSS.               MEAS:   Source Rmf.
 RMB .OHMM           0.38:   Rm. at BHT
 BHT .F               122:   BHT.
 TCS .HRS               4:   Time Circ. stopped
 MRT .F               122:   Maximum recorded temp.
 LUN .               6307:   Logging unit number
 LUL .               GLTE:   Logging unit location
 ENGI.            DEYOUNG:   Recorded By
 WITN.           R. SCOTT:   Witnessed by
 ORIG.           5" PRINT:   Origin of data
 UWI .     49025109580000:   Unique Well ID
 DICO. A2D TECHNOLOGIES, INC.:   Digitizing Company
 DAPD.                 10:   Feet Above Permanent Datum
 MCSS.               CALC:   Source Rmc.
~OTHER INFORMATION
~A  DEPT       SPR       TENR        ILD        ILM       RFOC        GRD       CALD       TEND       RHOB       CORR         CN   
# ...
 2709.5000   -39.5930   -25.8400    15.2430    12.7300    11.9220    81.5540     8.5600   -28.9600     2.4630     0.1150     0.2070
 2710.0000   -39.4840   -25.7760    15.2310    12.7660    11.9770    80.0740     8.5610   -28.8550     2.4520     0.1050     0.2000
 2710.5000   -39.3740   -25.7110    15.2200    12.8020    12.0510    78.5610     8.5620   -28.7490     2.4440     0.0930     0.1970
 2711.0000   -39.2650   -25.6470    15.2080    12.8380    12.1450    78.7020     8.5630   -28.6430     2.4350     0.0780     0.2020
 2711.5000   -39.1890   -25.5820    15.1960    12.8740    12.1050    80.1940     8.5650   -28.5370     2.4290     0.0630     0.2060
 2712.0000   -39.6540   -25.5180    15.1850    12.9110    12.0520    81.2630     8.5660   -28.4320     2.4370     0.0750     0.2030
 2712.5000   -40.1380   -25.4530    15.1730    12.9550    11.9990    81.4880     8.5670   -28.3260     2.4470     0.0860     0.1980
 2713.0000   -40.6210   -25.3890    15.1630    12.9470    11.9220    81.6990     8.5680   -28.2200     2.4550     0.0830     0.1950
 2713.5000   -41.1030   -25.3240    15.1110    12.9350    12.2030    82.6570     8.5690   -28.1140     2.4520     0.0690     0.1970
 2714.0000   -41.5850   -25.2600    15.0480    12.9230    12.7110    85.0460     8.5700   -28.0090     2.4490     0.0710     0.1980
 2714.5000   -42.0670   -25.1960    14.9850    12.9110    13.4440    87.7880     8.5720   -27.9030     2.4510     0.0720     0.1950
 2715.0000   -42.5490   -25.1310    14.8900    12.8990    13.1970    88.6070     8.5730   -27.7970     2.4560     0.0670     0.1900
 2715.5000   -43.0280   -25.0670    14.9630    12.8870    12.8570    86.1370     8.5740   -27.6910     2.4610     0.0610     0.1930
 2716.0000   -43.5040   -25.0020    15.1900    12.8750    12.5020    81.0870     8.5750   -27.5850     2.4570     0.0540     0.1960
 2716.5000   -43.5800   -24.9380    15.4160    12.8630    12.1470    75.8750     8.5760   -27.4800     2.4530     0.0480     0.1960
 2717.0000   -43.0990   -24.8730    15.6420    12.8510    11.9220    74.4130     8.5770   -27.3740     2.4500     0.0690     0.1950
 2717.5000   -42.6230   -24.8090    15.8760    12.8390    12.1560    75.8680     8.5790   -27.2680     2.4500     0.0900     0.1950
 2718.0000   -42.1440   -24.7440    15.8300    12.8370    12.3560    77.2660     8.5800   -27.1620     2.4510     0.0790     0.1960
 2718.5000   -41.6650   -24.6800    15.7830    12.8370    12.6020    77.1080     8.5810   -27.0570     2.4540     0.0800     0.1970
 2719.0000   -41.1860   -24.6150    15.7360    12.8370    12.4790    75.9720     8.5820   -26.9510     2.4580     0.0910     0.1980
 2719.5000   -40.7060   -24.5510    15.6890    12.8360    12.3210    75.7700     8.5830   -26.8450     2.4610     0.1010     0.1990
 2720.0000   -40.2240   -24.4860    15.6420    12.8090    12.1630    76.7830     8.5850   -26.7390     2.4640     0.0920     0.1990
 2720.5000   -39.8060   -24.4220    15.5950    12.7360    12.0050    78.7860     8.5860   -26.6340     2.4680     0.0820     0.1990
 2721.0000   -40.2440   -24.3570    15.3960    12.6610    11.8130    82.0590     8.5870   -26.5280     2.4740     0.0720     0.1970
 2721.5000   -40.6910   -24.2930    15.1550    12.6020    12.0320    85.3090     8.5880   -26.4220     2.4800     0.0670     0.1960
 2722.0000   -41.1330   -24.2280    14.9140    12.7580    12.3120    88.5850     8.5890   -26.3160     2.4890     0.0700     0.1950
 2722.5000   -41.5740   -24.1640    14.6730    12.8900    12.5910    89.8860     8.5900   -26.2110     2.4980     0.0780     0.1960
 2723.0000   -42.0160   -24.0990    14.4320    13.0220    12.8710    89.5740     8.5920   -26.1050     2.5080     0.0880     0.1990
 2723.5000   -42.4580   -24.0350    14.1920    13.1530    13.2910    87.7660     8.5930   -25.9990     2.5150     0.0980     0.1990
 2724.0000   -42.9020   -23.9700    13.9500    13.2850    13.2040    86.1100     8.5940   -25.8930     2.5050     0.1090     0.1930
 2724.5000   -43.3340   -23.9060    14.0360    13.4440    12.9090    88.3330     8.5950   -25.7870     2.4910     0.1170     0.1870
 2725.0000   -43.0090   -23.8410    14.1230    13.3320    12.6150    90.7690     8.5960   -25.7310     2.4850     0.1090     0.1830
 2725.5000   -42.5880   -23.7770    14.2100    13.1920    12.1450    91.1370     8.5970   -25.8700     2.4890     0.1010     0.1850
 2726.0000   -42.1650   -23.7120    14.2970    13.0530    12.2030    86.1980     8.5990   -26.0090     2.4840     0.0970     0.1880
 2726.5000   -41.7440   -23.6480    14.3840    12.9130    12.3480    80.6180     8.6000   -26.1490     2.4730     0.0900     0.1880
 2727.0000   -41.3230   -23.5830    14.4710    12.7240    12.4930    76.7900     8.6010   -26.2880     2.4580     0.0680     0.1890
 2727.5000   -40.8910   -23.5190    14.5580    12.7510    12.6390    78.3820     8.6020   -26.4280     2.4430     0.0540     0.1910
 2728.0000   -41.0600   -23.4540    14.6280    12.8040    12.7840    81.7260     8.6030   -26.5670     2.4400     0.0440     0.1940
 2728.5000   -41.5730   -23.3900    14.6730    12.8580    12.9560    83.6920     8.6040   -26.7070     2.4420     0.0330     0.1910
 2729.0000   -42.0910   -23.3250    14.7450    12.9110    12.8620    83.1640     8.6060   -26.8460     2.4450     0.0370     0.1860
 2729.5000   -42.6100   -23.2610    14.6810    12.9640    12.6370    81.3910     8.6070   -26.9850     2.4500     0.0430     0.1820
 2730.0000   -43.1290   -23.1960    14.5300    13.0180    12.3710    78.2290     8.6080   -27.1250     2.4480     0.0490     0.1920
 2730.5000   -43.6460   -23.1320    14.3780    13.0710    12.5230    76.3130     8.6090   -27.2640     2.4470     0.0550     0.2000
 2731.0000   -44.0070   -23.0670    14.2270    13.1240    12.7090    76.1680     8.6100   -27.4040     2.4530     0.0560     0.2010
 2731.5000   -44.0460   -23.0030    14.0790    13.1780    12.8950    75.6890     8.6110   -27.5430     2.4600     0.0570     0.1990
 2732.0000   -44.0920   -22.9380    14.2800    13.2070    13.0760    73.9180     8.6130   -27.6830     2.4670     0.0620     0.1970
 2732.5000   -44.1340   -22.8740    14.6020    13.2500    12.9230    72.1360     8.6140   -27.8220     2.4720     0.0750     0.1950
 2733.0000   -44.1580   -22.8090    14.9230    13.2920    12.7380    71.7050     8.6150   -27.9610     2.4730     0.0970     0.1950
 2733.5000   -44.9510   -22.7450    15.2450    13.3350    12.5070    76.3150     8.6160   -28.1010     2.4740     0.0910     0.1950
 2734.0000   -45.9330   -22.6800    15.5660    13.3770    13.0050    81.0330     8.6170   -28.2400     2.4770     0.0800     0.1880
 2734.5000   -46.9220   -22.6160    15.8760    13.4440    13.8230    81.9830     8.6180   -28.3800     2.4810     0.0690     0.1820
 2735.0000   -47.9120   -22.5520    15.7650    13.3920    14.6090    75.5930     8.6200   -28.5190     2.4930     0.0740     0.1810
 2735.5000   -48.9010   -22.4870    15.6580    13.2750    16.4430    68.2940     8.6200   -28.6580     2.5050     0.0810     0.1760
 2736.0000   -49.8900   -22.4230    15.5510    13.1580    18.2070    61.4540     8.6190   -28.7980     2.5350     0.0890     0.1670
 2736.5000   -50.8790   -22.3580    15.4440    13.0410    20.9450    66.3100     8.6180   -28.9370     2.5650     0.0860     0.1590
 2737.0000   -51.8680   -22.2940    15.3370    12.9230    19.6780    72.2230     8.6170   -29.0770     2.5940     0.0820     0.1550
 2737.5000   -52.8560   -22.2290    14.8500    12.8060    16.1060    78.4120     8.6170   -29.2160     2.6170     0.0770     0.1570
 2738.0000   -53.8460   -22.1650    14.1570    12.6910    12.6020    81.5860     8.6160   -29.3560     2.6330     0.0930     0.1580
 2738.5000   -54.8390   -22.1000    13.4650    12.5810    13.3760    83.4770     8.6150   -29.4950     2.6380     0.1230     0.1520
 2739.0000   -55.7860   -22.0360    12.7720    12.4700    14.5610    81.5470     8.6140   -29.6340     2.6380     0.1270     0.1460
 2739.5000   -55.8330   -21.9710    12.2570    12.3600    15.4420    79.5670     8.6130   -29.7740     2.6370     0.1240     0.1430
