~VERSION INFORMATION
 VERS.                2.0:   CWLS LOG ASCII STANDARD - VERSION 2.0
 WRAP.                 NO:   ONE LINE PER DEPTH STEP
~WELL INFORMATION
#MNEM.UNIT      DATA TYPE    INFORMATION
#----------   ------------   ------------------------------
 STRT.F          150.0000:   START DEPTH
 STOP.F         2980.0000:   STOP DEPTH
 STEP.F            0.5000:   STEP LENGTH
 NULL.          -999.2500:   NO VALUE
 COMP. FENIX & SCISSION U.S. NAVY:   COMPANY
 WELL.   FENIX "A" #84-20:   WELL
 FLD .             NPR #3:   FIELD
 LOC .      S20 T39N R78W:   LOCATION
 CNTY.            NATRONA:   COUNTY
 STAT.            WYOMING:   STATE
 CTRY. UNITED STATES OF AMERICA:   COUNTRY
 SRVC.       SCHLUMBERGER:   SERVICE COMPANY
 DATE.        21-FEB-1977:   LOGDATE
 API .     49025103020000:   API NUMBER
~CURVE INFORMATION
#MNEM.UNIT       API CODE    CURVE DESCRIPTION
#----------   ------------   ------------------------------
 DEPT.F                  :   
 NPHI.DEC    42 890 03 00:   NEUTRON POROSITY SANDSTONE
 GRD .GAPI   45 310 01 00:   GAMMA RAY FROM DENSITY LOG
 CALD.IN     45 280 60 00:   CALIPER FROM DENSITY LOG
 RHOB.G/C3   45 350 01 00:   BULK DENSITY
 DCOR.G/C3   45 356 01 00:   DENSITY CORRECTION
 SPR .MV     07 010 01 00:   SPONTANEOUS POTENTIAL
 LLD .OHMM   11 220 10 00:   LATEROLOG DEEP
 LLS .OHMM   11 220 09 00:   LATEROLOG SHALLOW
 MSFL.OHMM   07 270 04 00:   MICRO SPHERICALLY FOCUSED RES.
~PARAMETER INFORMATION
#MNEM.UNIT          VALUE    DESCRIPTION
#----------   ------------   ------------------------------
 EKB .F         5006.0000:   Kelly bushing
 EGL .F         4996.0000:   Ground level
 EDF .F            0.0000:   Drilling floor
 TD  .F         2973.0000:   Total depth
 DATE.        21-FEB-1977:   Date logged
 CLNT.            A2DTECH:   Client Code
 SL  . 330' FEL & 2310' FNL:   Surface Location
 PD  .                 GL:   Permanent Datum
 EPD .F              4996:   Elevation Permanent Datum
 LMF .                 KB:   Log Measured From
 DMF .                 KB:   Drilling Measured From
 DAPD.F                10:   Feet Above Permanent Datum
 DD  .F              2973:   Depth driller
 DL  .F              2971:   Depth logger
 BLI .F              2970:   Bottom log interval
 TLI .F               164:   Top log interval
 CS1 .IN            8.625:   Casing size
 CBD1.      8.625" @ 167':   Casing driller 1
 CBL1.F               164:   Casing logger 1
 BS1 .IN            7.875:   Bit size
 BSD1.F              2973:   Depth drilled with bit1
 DFT .            KCL MUD:   Type fluid in hole
 DFD .                9.5:   Density
 DFV .                 35:   Viscosity
 DFPH.                6.5:   pH
 DFL .                 11:   Fluid loss
 MSS .              CIRC.:   Source of sample
 RMS .OHMM           0.27:   Rm
 MST .F                72:   Rm Meas. temp.
 RMF .OHMM           0.19:   Rmf
 MFST.F                72:   Rmf Meas. temp.
 RMC .OHMM           0.35:   Rmc
 MCST.F                72:   Rmc Meas. temp.
 MFSS.               MEAS:   Source Rmf.
 MCSS.               CALC:   Source Rmc.
 RMB .OHMM           0.18:   Rm. at BHT
 BHT .F               110:   BHT.
 TCS .HRS            0300:   Time Circ. stopped
 TLAB.HRS            1000:   Time logger at bottom
 MRT .F               110:   Maximum recorded temp.
 LUN .               7711:   Logging unit number
 LUL .               CSPR:   Logging unit location
 ENGI.             SAYLER:   Recorded By
 WITN.               JAPP:   Witnessed by
 ORIG.           5" PRINT:   Origin of data
 UWI .     49025103020000:   Unique Well ID
 DICO. A2D TECHNOLOGIES, INC.:   Digitizing Company
~OTHER INFORMATION
~A   DEPT       NPHI       GRD      CALD       RHOB       DCOR        SPR        LLD        LLS       MSFL   
# ...
  515.0000     0.3430   106.9770    10.6250     2.4960     0.0310   -28.7970    10.8390    11.3120    12.2450
  515.5000     0.3380   107.1760    10.6230     2.4880     0.0290   -29.0030    10.8290    11.3120    12.4010
  516.0000     0.3330   107.0190    10.6210     2.4870     0.0270   -29.2160    10.8190    11.3120    12.2180
  516.5000     0.3320   106.1980    10.6190     2.5040     0.0350   -29.2880    10.8090    11.3120    12.0590
  517.0000     0.3340   105.0770    10.6170     2.5120     0.0470   -29.2820    10.7990    11.3120    11.9500
  517.5000     0.3360   104.6830    10.6150     2.4980     0.0330   -29.2820    10.7890    11.3120    11.9390
  518.0000     0.3380   104.5900    10.6130     2.5120     0.0320   -29.2830    10.7790    11.3120    11.9290
  518.5000     0.3440   104.8430    10.6110     2.5250     0.0490   -29.2830    10.7680    11.3120    11.9190
  519.0000     0.3500   105.3550    10.6090     2.5100     0.0360   -29.2830    10.7580    11.3120    11.9090
  519.5000     0.3510   105.4040    10.6080     2.5010     0.0370   -29.2830    10.7480    11.3120    11.8990
  520.0000     0.3440   105.4660    10.6060     2.4940     0.0310   -29.2830    10.7380    11.3120    11.8890
  520.5000     0.3390   105.6080    10.6000     2.4830     0.0200   -29.2830    10.7280    11.3120    11.8780
  521.0000     0.3390   106.3390    10.5940     2.4880     0.0180   -29.2830    10.7180    11.3120    11.8680
  521.5000     0.3420   107.0790    10.5880     2.4840     0.0160   -29.2830    10.7090    11.3110    11.8580
  522.0000     0.3450   107.8150    10.5820     2.4810     0.0150   -29.2830    10.6940    11.3110    11.8480
  522.5000     0.3480   108.5550    10.5760     2.4910     0.0260   -29.2830    10.6750    11.2930    11.8380
  523.0000     0.3490   109.3120    10.5700     2.5040     0.0320   -29.2830    10.6580    11.2700    11.8270
  523.5000     0.3500   109.1980    10.5630     2.5050     0.0350   -29.2830    10.6400    11.2480    11.8170
  524.0000     0.3510   108.4950    10.5570     2.5040     0.0390   -29.2830    10.6220    11.2250    11.8070
  524.5000     0.3500   106.9280    10.5510     2.5010     0.0330   -29.2820    10.6040    11.2030    11.7970
  525.0000     0.3500   106.0500    10.5490     2.5080     0.0400   -29.2830    10.5870    11.1800    11.7870
  525.5000     0.3520   105.8300    10.5620     2.5120     0.0530   -29.2870    10.5690    11.1580    11.7760
  526.0000     0.3500   106.3730    10.5760     2.5060     0.0470   -29.3360    10.5510    11.1350    11.7660
  526.5000     0.3500   106.9190    10.5890     2.5000     0.0370   -29.3770    10.5330    11.1130    11.7560
  527.0000     0.3500   107.7870    10.6030     2.4990     0.0320   -29.4210    10.5160    11.0900    11.7460
  527.5000     0.3490   107.9700    10.6160     2.5040     0.0280   -29.4640    10.4980    11.0680    11.7350
  528.0000     0.3520   107.3590    10.6300     2.5070     0.0290   -29.5070    10.4800    11.0450    11.7120
  528.5000     0.3530   106.2430    10.6430     2.5120     0.0360   -29.5490    10.4620    11.0230    11.6890
  529.0000     0.3500   105.3230    10.6450     2.5070     0.0370   -29.5950    10.4450    11.0010    11.6650
  529.5000     0.3440   105.0530    10.6450     2.5020     0.0370   -29.6350    10.4270    10.9780    11.6410
  530.0000     0.3390   105.7430    10.6470     2.5110     0.0390   -29.6740    10.4090    10.9560    11.6170
  530.5000     0.3370   106.6470    10.6500     2.5220     0.0440   -29.5980    10.3910    10.9330    11.5930
  531.0000     0.3390   107.8390    10.6530     2.5300     0.0490   -29.5140    10.3740    10.9110    11.5690
  531.5000     0.3430   109.0330    10.6570     2.5320     0.0520   -29.4250    10.3550    10.8880    11.5450
  532.0000     0.3440   109.5390    10.6600     2.5310     0.0600   -29.3400    10.3390    10.8660    11.5210
  532.5000     0.3520   109.8180    10.6630     2.5270     0.0530   -29.2530    10.3210    10.8430    11.4970
  533.0000     0.3600   109.6420    10.6670     2.5180     0.0510   -29.1670    10.3270    10.8210    11.4740
  533.5000     0.3610   109.4440    10.6700     2.5100     0.0350   -29.0800    10.3370    10.7980    11.4500
  534.0000     0.3580   108.3020    10.6730     2.4910     0.0350   -28.9960    10.3480    10.7760    11.4260
  534.5000     0.3500   107.1440    10.6760     2.4820     0.0300   -28.9090    10.3580    10.7530    11.4020
  535.0000     0.3440   107.4050    10.6800     2.4860     0.0380   -28.8940    10.3690    10.7320    11.3780
  535.5000     0.3430   109.1730    10.6830     2.4930     0.0400   -28.9110    10.3790    10.7090    11.3540
  536.0000     0.3300   110.9720    10.6900     2.4990     0.0320   -28.9260    10.3890    10.7180    11.3300
  536.5000     0.3320   112.4360    10.7000     2.5060     0.0380   -28.9410    10.4000    10.7340    11.3190
  537.0000     0.3210   113.1600    10.7100     2.5160     0.0470   -28.9570    10.4100    10.7510    11.3490
  537.5000     0.3120   112.9860    10.7200     2.5200     0.0500   -28.9720    10.4200    10.7670    11.3800
  538.0000     0.3030   112.7300    10.7290     2.5150     0.0580   -28.9870    10.4310    10.7840    11.4100
  538.5000     0.3030   112.4580    10.7390     2.5090     0.0520   -29.0020    10.4410    10.8000    11.4400
  539.0000     0.3080   111.4560    10.7490     2.5020     0.0360   -29.0180    10.4510    10.8170    11.4720
  539.5000     0.3200   110.3410    10.7580     2.4870     0.0280   -29.0330    10.4610    10.8330    11.5220
  540.0000     0.3320   109.2260    10.7410     2.4950     0.0310   -29.0480    10.4720    10.8490    11.5010
  540.5000     0.3430   107.7270    10.6980     2.5090     0.0420   -29.0630    10.4820    10.8650    11.4430
  541.0000     0.3470   105.8290    10.6540     2.5240     0.0520   -29.0790    10.4920    10.8820    11.3850
  541.5000     0.3490   104.0400    10.6100     2.5230     0.0510   -29.0940    10.5100    10.8990    11.3270
  542.0000     0.3490   102.3500    10.5660     2.5150     0.0410   -29.1090    10.4740    10.8070    11.4400
  542.5000     0.3430   101.8260    10.5310     2.5060     0.0280   -29.1240    10.3670    10.6740    11.7350
  543.0000     0.3310   103.5180    10.5020     2.4970     0.0270   -29.1400    10.2590    10.5400    11.6400
  543.5000     0.3240   106.2450    10.4730     2.4900     0.0340   -29.1550    10.1510    10.4060    11.3360
  544.0000     0.3200   108.5550    10.4780     2.5040     0.0410   -29.1700    10.0440    10.3180    11.0320
  544.5000     0.3180   109.5860    10.4910     2.5040     0.0380   -29.1850     9.9460    10.3180    10.5760
  545.0000     0.3180   110.4090    10.5040     2.5100     0.0450   -29.2010    10.0160    10.3180    10.6320
  545.5000     0.3170   111.1090    10.5170     2.5270     0.0530   -29.2160    10.1190    10.3180    11.0660
  546.0000     0.3210   111.8210    10.5300     2.5410     0.0660   -29.2310    10.2210    10.3180    11.7350
  546.5000     0.3250   113.1780    10.5430     2.5500     0.0700   -29.2470    10.3180    10.3180    11.6050
  547.0000     0.3220   115.4360    10.5560     2.5460     0.0720   -29.2620    10.1970    10.3180    11.3210
  547.5000     0.3170   115.6410    10.5650     2.5660     0.0820   -29.2770    10.0830    10.3180    11.0370
  548.0000     0.3170   114.9250    10.5600     2.5560     0.0720   -29.2830     9.9680    10.2830    10.7050
  548.5000     0.3250   113.7580    10.5550     2.5350     0.0520   -29.2830     9.8540    10.2500    10.7290
  549.0000     0.3320   111.9940    10.5500     2.5280     0.0590   -29.2830     9.7560    10.2170    10.7580
  549.5000     0.3360   110.2470    10.5460     2.5410     0.0730   -29.2830     9.7160    10.1830    10.7870
  550.0000     0.3400   108.2450    10.5410     2.5490     0.0630   -29.2830     9.6760    10.1500    10.8160
  550.5000     0.3390   109.0610    10.5360     2.5060     0.0450   -29.2830     9.6360    10.1040    10.8450
  551.0000     0.3410   110.4330    10.5310     2.5050     0.0460   -29.2830     9.5960    10.0390    10.8740
