~VERSION INFORMATION
 VERS.                2.0:   CWLS LOG ASCII STANDARD - VERSION 2.0
 WRAP.                 NO:   ONE LINE PER DEPTH STEP
~WELL INFORMATION
#MNEM.UNIT      DATA TYPE    INFORMATION
#----------   ------------   ------------------------------
 STRT.F          712.0000:   START DEPTH
 STOP.F         3352.0000:   STOP DEPTH
 STEP.F            0.5000:   STEP LENGTH
 NULL.          -999.2500:   NO VALUE
 COMP.    FENIX & SCISSON:   COMPANY
 WELL. FENIX & SCISSON "AX" #24-14:   WELL
 FLD .              NPR 3:   FIELD
 LOC .      S14 T38N R78W:   LOCATION
 CNTY.            NATRONA:   COUNTY
 STAT.            WYOMING:   STATE
 CTRY. UNITED STATES OF AMERICA:   COUNTRY
 SRVC.       SCHLUMBERGER:   SERVICE COMPANY
 DATE.        19-JUN-1981:   LOGDATE
 API .     49025108750000:   API NUMBER
~CURVE INFORMATION
#MNEM.UNIT       API CODE    CURVE DESCRIPTION
#----------   ------------   ------------------------------
 DEPT.F                  :   
 TENR.LBS    07 635 01 00:   TENSION
 ILD .OHMM   07 120 46 00:   DEEP INDUCTION RESISTIVITY
 SFL .OHMM   07 220 01 00:   SHALLOW FOCUSED LOG RESISTIVITY
 ILM .OHMM   07 120 44 00:   INDUCTION LOG MEDIUM RESISTIVITY
 SPR .MV     07 010 01 00:   SPONTANEOUS POTENTIAL
 TEND.LBS    45 635 01 00:   TENSION FROM DENSITY LOG
 DRHO.G/C3   45 356 01 00:   DENSITY CORRECTION
 CALD.IN     45 280 60 00:   CALIPER FROM DENSITY LOG
 GRD .GAPI   45 310 01 00:   GAMMA RAY FROM DENSITY LOG
 RHOB.G/C3   45 350 01 00:   BULK DENSITY
~PARAMETER INFORMATION
#MNEM.UNIT          VALUE    DESCRIPTION
#----------   ------------   ------------------------------
 EKB .F         5216.0000:   Kelly bushing
 EGL .F         5206.0000:   Ground level
 EDF .F         5215.0000:   Drilling floor
 EPD .F            0.0000:   Permanent datum
 TD  .F         3360.0000:   Total depth
 DATE.        19-JUN-1981:   Date logged
 CLNT.            A2DTECH:   Client Code
 SL  . 2413' FNL & 827' FWL:   Surface Location
 PD  .                 GL:   Permanent Datum
 DAPD.F                10:   Feet Above Permanent Datum
 DD  .F              3360:   Depth driller
 DL  .F              3348:   Depth logger
 BLI .F              3342:   Bottom log interval
 TLI .F               728:   Top log interval
 CS1 .IN            8.625:   Casing size
 CBD1.      8.625" @ 728':   Casing driller 1
 CBL1.F               728:   Casing logger 1
 BS1 .IN            7.875:   Bit size
 BSD1.F              3360:   Depth drilled with bit1
 DFT .                FGM:   Type fluid in hole
 DFD .                  9:   Density
 DFV .                 45:   Viscosity
 DFPH.                9.5:   pH
 DFL .                 10:   Fluid loss
 MSS .               TANK:   Source of sample
 RMS .OHMM           5.71:   Rm
 MST .F                68:   Rm Meas. temp.
 RMF .OHMM           1.27:   Rmf
 MFST.F                68:   Rmf Meas. temp.
 MFSS.               MEAS:   Source Rmf.
 RMB .OHMM           3.29:   Rm. at BHT
 BHT .F               118:   BHT.
 TCS .HRS            0800:   Time Circ. stopped
 TLAB.HRS            1130:   Time logger at bottom
 MRT .F               118:   Maximum recorded temp.
 LUN .               8039:   Logging unit number
 LUL .               CSPR:   Logging unit location
 ENGI.           G. PFARR:   Recorded By
 WITN.           R. SCOTT:   Witnessed by
 ORIG.           5" PRINT:   Origin of data
 UWI .     49025108750000:   Unique Well ID
 DICO. A2D TECHNOLOGIES, INC.:   Digitizing Company
~OTHER INFORMATION
~A   DEPT     TENR        ILD        SFL        ILM        SPR       TEND       DRHO       CALD         GRD      RHOB   
# ...
  879.5000   755.9550     8.3230     8.5760     7.1300   -63.3120   823.4130     0.0390     9.0830   112.1930     2.5230
  880.0000   754.7900     8.3150     8.5280     7.1300   -63.2320   823.4130     0.0270     9.0830   110.7940     2.5140
  880.5000   753.6250     8.3070     8.5040     7.1300   -63.1790   823.4130     0.0150     9.0840   109.2500     2.5170
  881.0000   752.4600     8.2990     8.4800     7.1290   -63.1000   823.4130     0.0190     9.0800   108.5260     2.5260
  881.5000   751.2960     8.2910     8.4550     7.1300   -63.0250   823.4130     0.0310     9.0680   108.2150     2.5380
  882.0000   750.1310     8.2830     8.4310     7.0930   -63.0150   823.4130     0.0420     9.0710   106.9870     2.5360
  882.5000   748.9660     8.2750     8.4070     7.0390   -63.1370   823.4130     0.0530     9.0750   106.0650     2.5340
  883.0000   747.8010     8.2670     8.3770     6.9850   -63.2490   823.4130     0.0580     9.0790   107.2420     2.5320
  883.5000   746.6360     8.2590     8.3350     6.9340   -63.3650   823.4130     0.0530     9.0840   109.1640     2.5260
  884.0000   745.4710     8.2500     8.2930     6.8780   -63.4790   823.4130     0.0410     9.0740   110.4240     2.5110
  884.5000   744.3060     8.2420     8.2510     6.8500   -63.5960   823.4130     0.0290     9.0620   110.1800     2.4920
  885.0000   743.1410     8.1760     8.2080     6.8200   -63.7110   823.4130     0.0290     9.0500   108.1690     2.4890
  885.5000   741.9760     8.0910     8.1640     6.7900   -63.7600   823.4130     0.0320     9.0370   105.0230     2.5000
  886.0000   740.8110     8.0060     8.1210     6.7610   -63.7760   823.4130     0.0350     9.0250   104.1100     2.5150
  886.5000   739.6460     7.9200     8.0780     6.7320   -63.7190   823.4130     0.0260     9.0240   104.9910     2.5180
  887.0000   738.4810     7.8350     8.0340     6.7020   -64.0750   823.4130     0.0160     9.0250   107.2200     2.5150
  887.5000   737.3170     7.7500     7.9910     6.6730   -64.1490   823.4130     0.0060     9.0250   109.4370     2.5090
  888.0000   736.1520     7.6650     7.9470     6.6320   -64.1500   823.4130     0.0010     9.0260   110.2730     2.5020
  888.5000   734.9870     7.7360     7.9470     6.6610   -64.1530   823.4130     0.0020     9.0270   108.9890     2.4950
  889.0000   733.8220     7.8070     7.9490     6.7070   -64.0590   823.4130     0.0040     9.0270   107.5860     2.5000
  889.5000   732.6570     7.8770     7.9460     6.7540   -63.7070   823.4130     0.0060     9.0280   106.8840     2.5060
  890.0000   731.4920     7.9470     7.9450     6.8010   -63.3300   823.4130     0.0090     9.0280   107.4690     2.5120
  890.5000   730.3270     8.0180     8.0460     6.8470   -63.3880   823.4130     0.0110     9.0290   108.9920     2.5140
  891.0000   729.1620     8.0880     8.2070     6.8940   -63.3790   823.4130     0.0100     9.0290   110.0660     2.5070
  891.5000   727.9970     8.1580     8.3650     6.9400   -63.3310   823.4130     0.0060     9.0300   110.8260     2.5000
  892.0000   726.9160     8.2290     8.5230     6.9870   -63.6250   823.4130     0.0020     9.0300   111.0210     2.4930
  892.5000   730.9960     8.2990     8.7000     7.0420   -63.4680   823.4130     0.0010     9.0310   110.3380     2.4930
  893.0000   734.8040     8.3690     8.7600     7.1010   -63.3680   823.4130     0.0060     9.0310   109.2830     2.5080
  893.5000   738.6130     8.4580     8.8270     7.1600   -63.3000   823.4130     0.0190     9.0320   108.6860     2.5250
  894.0000   742.4210     8.5560     8.8940     7.2600   -62.9160   823.4130     0.0250     9.0320   109.4480     2.5310
  894.5000   746.2290     8.7000     8.9620     7.2560   -63.3120   823.4130     0.0200     9.0330   110.5610     2.5240
  895.0000   750.0380     8.6870     9.0210     7.2420   -63.3530   823.4130     0.0160     9.0330   112.0670     2.5110
  895.5000   753.8460     8.6610     8.8530     7.2270   -63.5450   823.4130     0.0120     9.0340   113.5720     2.5000
  896.0000   757.6550     8.6340     8.7030     7.2130   -63.8910   823.4130     0.0070     9.0340   114.5190     2.5010
  896.5000   761.4630     8.6080     8.5440     7.1980   -64.1300   823.4130     0.0130     9.0350   114.7120     2.5120
  897.0000   765.2710     8.5820     8.6510     7.1840   -64.1470   823.4130     0.0190     9.0350   115.0360     2.5230
  897.5000   766.2080     8.5560     8.7650     7.1700   -64.1440   823.4130     0.0240     9.0360   116.6400     2.5300
  898.0000   766.2080     8.2410     8.8590     7.1570   -64.2380   823.4130     0.0210     9.0370   119.0350     2.5300
  898.5000   766.2080     8.2580     8.3910     7.1430   -64.4250   823.4130     0.0190     9.0370   119.2110     2.5230
  899.0000   766.2080     8.3030     8.4730     7.1320   -64.6110   823.4130     0.0170     9.0380   118.8880     2.5150
  899.5000   766.2080     8.3480     8.5570     7.1780   -64.7760   823.4130     0.0150     9.0380   120.8990     2.5060
  900.0000   766.2080     8.3930     8.6410     7.2160   -64.8960   823.4130     0.0110     9.0390   123.8170     2.4960
  900.5000   766.2080     8.4380     8.7250     7.2550   -64.5140   823.4130     0.0070     9.0390   125.5350     2.4900
  901.0000   766.2080     8.4830     8.8090     7.2940   -64.1440   823.4130     0.0040     9.0400   123.6820     2.4870
  901.5000   766.2080     8.5290     8.8930     7.3330   -63.5040   823.4130     0.0030     9.0400   120.9210     2.4870
  902.0000   766.2080     8.5670     8.9770     7.3720   -63.3020   823.4130     0.0040     9.0410   118.7440     2.4910
  902.5000   766.2080     8.6020     9.0410     7.4110   -62.9460   823.4130     0.0090     9.0410   115.4350     2.4990
  903.0000   766.2080     8.6370     9.0830     7.4490   -62.9240   823.4130     0.0130     9.0420   113.0510     2.5120
  903.5000   766.2080     8.6710     9.1250     7.4880   -62.5540   823.4130     0.0170     9.0420   111.1820     2.5250
  904.0000   766.2080     8.7060     9.1680     7.5260   -62.6190   823.4130     0.0180     9.0430   111.9470     2.5250
  904.5000   766.2080     8.7410     9.2100     7.5650   -62.7860   823.4130     0.0150     9.0430   113.9050     2.5140
  905.0000   766.2080     8.7760     9.2520     7.6030   -62.9870   823.4130     0.0120     9.0440   114.0650     2.5060
  905.5000   766.2080     8.8100     9.2940     7.6650   -63.2010   823.4130     0.0100     9.0440   112.1570     2.5110
  906.0000   766.2080     8.8590     9.3530     7.6260   -63.4010   823.4130     0.0070     9.0440   110.6660     2.5160
  906.5000   766.2080     8.7980     9.3070     7.5230   -63.6070   823.4130     0.0040     9.0440   111.2780     2.5070
  907.0000   766.2080     8.6950     9.2310     7.4200   -63.8140   823.4130     0.0020     9.0440   112.4300     2.5010
  907.5000   766.2080     8.5930     9.1540     7.3170   -64.0180   823.4130     0.0010     9.0440   111.9030     2.5010
  908.0000   766.2080     8.4910     9.0770     7.2180   -64.2220   823.4130     0.0030     9.0440   110.6850     2.5040
  908.5000   766.2080     8.3880     8.9720     7.1240   -64.4380   823.4130     0.0050     9.0440   110.6240     2.5010
  909.0000   766.2080     8.2860     8.7910     7.0300   -64.5440   823.4130     0.0030     9.0440   111.0530     2.4960
  909.5000   766.2080     8.1830     8.6090     6.9370   -64.5330   823.4130     0.0020     9.0440   110.7540     2.4950
  910.0000   766.2080     8.0930     8.4270     6.8430   -64.5360   823.4130     0.0050     9.0440   109.2750     2.4970
  910.5000   766.2080     7.9800     8.2450     6.7490   -64.5370   823.4130     0.0100     9.0440   108.2180     2.5010
  911.0000   766.2080     7.8800     8.0640     6.6550   -64.5340   823.4130     0.0140     9.0440   110.0420     2.5080
  911.5000   766.2080     7.7790     7.8610     6.5430   -64.5380   823.4130     0.0180     9.0440   114.1490     2.5130
  912.0000   766.2080     7.6780     7.6650     6.4260   -64.5330   823.4130     0.0190     9.0440   115.4370     2.5110
  912.5000   766.2080     7.5770     7.5290     6.3080   -64.5230   823.4130     0.0170     9.0440   115.7400     2.5060
