~VERSION INFORMATION
 VERS.                2.0:   CWLS LOG ASCII STANDARD - VERSION 2.0
 WRAP.                 NO:   ONE LINE PER DEPTH STEP
~WELL INFORMATION
#MNEM.UNIT      DATA TYPE    INFORMATION
#----------   ------------   ------------------------------
 STRT.F           61.5000:   START DEPTH
 STOP.F         4220.0000:   STOP DEPTH
 STEP.F            0.5000:   STEP LENGTH
 NULL.          -999.2500:   NO VALUE
 COMP.   LAWRENCE ALLISON:   COMPANY
 WELL. ALLISON NPR 3 "LX" #28-34:   WELL
 FLD .                NPR:   FIELD
 LOC .      S34 T39N R78W:   LOCATION
 CNTY.            NATRONA:   COUNTY
 STAT.            WYOMING:   STATE
 CTRY. UNITED STATES OF AMERICA:   COUNTRY
 SRVC.       DRESER ATLAS:   SERVICE COMPANY
 DATE.        23-MAR-1983:   LOGDATE
 API .     49025109190000:   API NUMBER
~CURVE INFORMATION
#MNEM.UNIT       API CODE    CURVE DESCRIPTION
#----------   ------------   ------------------------------
 DEPT.F                  :   
 TEND.LBS    45 635 01 00:   TENSION FROM DENSITY LOG
 CORR.G/C3   45 356 01 00:   DENSITY CORRECTION
 RHOB.G/C3   45 350 01 00:   BULK DENSITY
 CN  .DEC    42 890 00 00:   Neutron Porosity
 SPR .MV     07 010 01 00:   SPONTANEOUS POTENTIAL
 GRR .GAPI   07 310 01 00:   GAMMA RAY FROM RESISTIVITY
 TENR.LBS    07 635 01 00:   TENSION FROM RESISTIVITY
 RILD.OHMM   07 120 46 00:   DEEP INDUCTION RESISTIVITY
 RILM.OHMM   07 120 44 00:   INDUCTION LOG MEDIUM RESISTIVITY
 RFOC.OHMM   07 220 01 00:   RESISTIVITY FOCUSED LOG RES.
 TENS.LBS    60 635 01 00:   TENSION FROM SONIC LOG
 DT  .US/F   60 520 00 00:   DELTA TIME
 CALS.IN     60 280 50 00:   CALIPER FROM SONIC LOG
~PARAMETER INFORMATION
#MNEM.UNIT          VALUE    DESCRIPTION
#----------   ------------   ------------------------------
 EKB .F         5184.0000:   Kelly bushing
 EGL .F         5174.0000:   Ground level
 EDF .F            0.0000:   Drilling floor
 TD  .F         4397.0000:   Total depth
 DATE.        23-MAR-1983:   Date logged
 CLNT.            A2DTECH:   Client Code
 SL  . 942' FWL & 645' FSL:   Surface Location
 PD  .                 GL:   Permanent Datum
 EPD .F              5174:   Elevation Permanent Datum
 LMF .                 KB:   Log Measured From
 DMF .                 KB:   Drilling Measured From
 DAPD.F                10:   Feet Above Permanent Datum
 DD  .F              4397:   Depth driller
 DL  .F              4203:   Depth logger
 BLI .F              4201:   Bottom log interval
 CS1 .IN            9.625:   Casing size
 CBD1.      9.625" @ 659':   Casing driller 1
 CBL1.F               658:   Casing logger 1
 BS1 .IN             8.75:   Bit size
 BSD1.F              4397:   Depth drilled with bit1
 DFT .   GEL/DRISPACK/KCL:   Type fluid in hole
 DFD .                8.6:   Density
 DFV .                 36:   Viscosity
 DFPH.                8.5:   pH
 DFL .                 18:   Fluid loss
 MSS .               TANK:   Source of sample
 RMS .OHMM           0.55:   Rm
 MST .F                74:   Rm Meas. temp.
 RMF .OHMM           0.43:   Rmf
 MFST.F                66:   Rmf Meas. temp.
 RMC .OHMM           0.69:   Rmc
 MCST.F                74:   Rmc Meas. temp.
 MFSS.               MEAS:   Source Rmf.
 MCSS.               CALC:   Source Rmc.
 RMB .OHMM           0.33:   Rm. at BHT
 BHT .F               122:   BHT.
 TCS .HRS             5.5:   Time Circ. stopped
 MRT .F               122:   Maximum recorded temp.
 LUN .               6270:   Logging unit number
 LUL .              WLSTN:   Logging unit location
 ENGI.             REEVES:   Recorded By
 WITN.             STRONG:   Witnessed by
 ORIG.           5" PRINT:   Origin of data
 UWI .     49025109190000:   Unique Well ID
 DICO. A2D TECHNOLOGIES, INC.:   Digitizing Company
~OTHER INFORMATION
~A   DEPT     TEND       CORR       RHOB         CN        SPR         GRR      TENR       RILD       RILM       RFOC       TENS         DT       CALS   
# ...
 1829.5000   -35.6440     0.0610     2.5340     0.3010   -47.0000   118.5390    70.9980     5.2950     5.2950     5.2950    56.2250    93.1070    15.4230
 1830.0000   -40.2170     0.0600     2.5300     0.2980   -47.0000   119.4720    68.1920     5.3350     5.3070     5.3320    56.2250    93.3130    15.4230
 1830.5000   -44.7900     0.0400     2.5220     0.2960   -47.0010   118.7550    65.6310     5.3930     5.3260     5.3860    46.4260    93.3130    15.4240
 1831.0000   -49.3620     0.0120     2.5150     0.3000   -47.0000   118.6190    40.2880     5.4510     5.3470     5.4400    26.1850    93.3130    15.4240
 1831.5000   -54.6090    -0.0040     2.5160     0.3020   -46.9990   120.5950    16.9800     5.5100     5.3760     5.4950     5.9440    93.3130    15.4250
 1832.0000   -54.6090     0.0140     2.5130     0.3020   -46.9330   122.3580    -6.3280     5.5970     5.3700     5.5490   -14.2970    93.1940    15.4260
 1832.5000   -54.6090     0.0030     2.4900     0.2780   -46.8610   123.1740   -29.6360     5.5050     5.4040     5.5970   -34.5380    92.5500    15.4260
 1833.0000   -54.6090     0.0190     2.4540     0.2830   -46.7800   121.8170   -54.6090     5.3270     4.9480     5.5010   -54.7790    91.4600    15.4270
 1833.5000   -54.6090     0.0320     2.3900     0.2880   -46.6940   119.2600   -60.4710     5.1500     4.5490     5.4160   -70.0230    90.3700    15.4270
 1834.0000   -54.6090     0.0200     2.2410     0.3600   -46.6580   114.2180   -66.7840     4.6710     4.1510     5.5370   -80.8660    89.2810    15.4280
 1834.5000   -54.6090     0.0090     2.0830     0.3700   -46.2670   110.2040   -73.0960     4.0850     3.7520     5.7010   -91.7100    88.1910    15.4280
 1835.0000   -54.6090     0.0070     2.0030     0.3810   -45.6810   109.4350   -79.4090     3.9290     3.3380     5.1480   -94.6760    87.4900    15.4290
 1835.5000   -64.7920     0.0130     2.0030     0.3920   -45.1340   103.8840   -84.6690     3.9120     3.3380     4.3550   -95.0710    89.0960    15.4300
 1836.0000   -74.2230    -0.0110     2.0130     0.3520   -44.5710   101.0060   -84.9930     3.8960     3.3630     3.5140   -95.4660   100.7350    15.4300
 1836.5000   -84.6690    -0.0590     2.2510     0.3170   -44.3160    98.7830   -85.2700     3.8790     3.4320     2.8270   -95.8620   110.7110    15.4310
 1837.0000   -80.9420    -0.0440     2.4470     0.3110   -44.7250   100.6160   -85.5470     3.8690     3.5000     2.8800   -96.2570   116.8070    15.4310
 1837.5000   -73.3970     0.0210     2.5100     0.3050   -45.1110   107.2840   -85.8250     3.9420     3.7430     3.3200   -96.6520   111.9880    15.4320
 1838.0000   -65.8520     0.0330     2.5200     0.2980   -45.5530   114.1070   -86.1020     4.2960     4.1040     3.8770   -97.0480    99.3120    15.4320
 1838.5000   -58.3070     0.0460     2.5230     0.2920   -45.8090   118.3930   -86.3790     4.9910     4.4650     4.4340   -97.4430    86.4860    15.4330
 1839.0000   -54.6090     0.0450     2.5130     0.2860   -45.7230   117.5950   -86.6560     5.4380     4.8250     4.9910   -97.8380    87.0820    15.4340
 1839.5000   -54.6090     0.0360     2.5010     0.2830   -45.6800   113.5200   -86.9340     5.5420     5.1540     5.3560   -98.2340    88.4990    15.4340
 1840.0000   -54.6090     0.0280     2.4920     0.2850   -45.6280   115.6460   -87.2110     5.6460     5.3760     5.6220   -98.6290    89.2970    15.4350
 1840.5000   -54.6090     0.0160     2.4720     0.3040   -45.5720   120.0790   -87.4880     5.7500     5.5980     5.8870   -99.0240    89.2970    15.4350
 1841.0000   -54.6090     0.0060     2.3730     0.3230   -45.5230   119.7990   -87.7650     5.8070     5.8070     6.1380   -99.4200    88.8070    15.4360
 1841.5000   -54.6090    -0.0080     2.2670     0.3390   -45.4620   120.0380   -88.0430     5.7010     5.3740     6.1000   -99.8150    87.7220    15.4360
 1842.0000   -56.8470     0.0060     2.1610     0.3550   -45.4120   120.3680   -88.3200     5.3840     4.9630     6.0440  -100.2100    86.6380    15.4370
 1842.5000   -61.0390     0.0450     2.0470     0.3640   -45.0380   115.6290   -88.5970     5.0170     4.5520     5.8070  -100.6060    86.0840    15.4380
 1843.0000   -65.2300     0.0690     2.0920     0.3460   -44.5220   108.2590   -88.8750     4.7400     4.1420     5.0200  -101.0010    88.2930    15.4380
 1843.5000   -69.4220     0.0650     2.1700     0.3280   -44.0340   104.2360   -89.1520     4.7210     4.0050     4.2330  -101.3960    94.2770    15.4390
 1844.0000   -73.6140     0.0780     2.2600     0.3100   -43.5310   105.2260   -89.4290     4.6940     3.9750     3.5280  -101.7920    99.7800    15.4390
 1844.5000   -73.1930     0.1110     2.3500     0.2990   -43.7610   109.3380   -89.7060     4.6530     3.9410     3.6610  -102.1870   105.7630    15.4400
 1845.0000   -71.2580     0.0960     2.4260     0.2930   -44.2780   115.4470   -89.9840     4.7210     4.3910     4.1540  -102.5820   104.4580    15.4400
 1845.5000   -69.3230     0.0580     2.4760     0.2870   -44.7840   119.6260   -90.2610     4.8540     4.8840     4.6950  -102.9780    99.9960    15.4410
 1846.0000   -67.3890     0.0480     2.5120     0.2820   -45.2790   118.6790   -90.5380     4.9860     5.7010     5.2360  -103.3730    94.7910    15.4420
 1846.5000   -65.4540     0.0540     2.5280     0.2800   -45.7930   117.0520   -90.8150     5.1180     5.6940     5.8070  -103.7680    89.2970    15.4420
 1847.0000   -63.4220     0.0550     2.5270     0.3000   -46.2110   116.5950   -91.0930     5.2500     5.6760     5.8070  -104.1640    88.4940    15.4430
 1847.5000   -61.3170     0.0560     2.5150     0.3130   -46.4980   119.6440   -91.3700     5.3820     5.6570     5.8070  -104.5830    88.7850    15.4430
 1848.0000   -59.2120     0.0580     2.5100     0.3090   -46.7450   122.1690   -91.6470     5.5140     5.6380     5.8070  -105.0480    89.4180    15.4440
 1848.5000   -57.1070     0.0700     2.5190     0.3140   -46.9970   124.9020   -91.9240     5.7010     5.6190     5.8070  -105.5120    90.3460    15.4440
 1849.0000   -55.0020     0.0670     2.5270     0.3220   -47.2570   126.8970   -92.2020     5.6160     5.6010     5.8070  -105.9760    91.1040    15.4450
 1849.5000   -52.8970     0.0540     2.5360     0.3150   -47.4910   127.5550   -92.4790     5.5290     5.5970     5.8070  -106.4400    91.2540    15.4460
 1850.0000   -50.7920     0.0530     2.5340     0.2930   -47.6790   127.1710   -92.7560     5.4820     5.5760     5.8070  -106.9050    91.3050    15.4460
 1850.5000   -48.6880     0.0530     2.5250     0.3000   -47.8790   126.9690   -93.0340     5.4610     5.5540     5.7020  -107.3690    91.3050    15.4470
 1851.0000   -46.5830     0.0460     2.5140     0.3050   -48.1030   126.1550   -93.3110     5.4400     5.5330     5.5710  -107.8330    91.3410    15.4470
 1851.5000   -44.4780     0.0120     2.5010     0.2880   -48.1350   124.9040   -93.5880     5.4190     5.5120     5.4940  -108.2970    91.5100    15.4480
 1852.0000   -42.3730    -0.0030     2.5030     0.2650   -47.9230   123.6980   -93.8650     5.3990     5.4900     5.4760  -108.7620    91.7070    15.4490
 1852.5000   -40.2680     0.0060     2.5100     0.2730   -47.7360   122.6100   -94.1430     5.3780     5.4690     5.4580  -109.2260    92.2130    15.4490
 1853.0000   -38.1630     0.0200     2.5160     0.2830   -47.5450   121.3100   -94.4200     5.3570     5.4470     5.4400  -109.6900    92.9120    15.4500
 1853.5000   -36.0580     0.0330     2.5220     0.2890   -47.3500   122.4600   -94.6890     5.3360     5.4260     5.4220  -110.1540    92.9120    15.4500
 1854.0000   -34.5690     0.0370     2.5280     0.2860   -47.1610   123.8160   -95.3520     5.3150     5.3940     5.3940  -110.6190    92.8230    15.4510
 1854.5000   -34.5690     0.0410     2.5350     0.2820   -46.9640   125.0600   -95.9970     5.2950     5.4290     5.4270  -111.0830    92.4860    15.4510
 1855.0000   -34.5690     0.0460     2.5410     0.2780   -46.7760   123.7350   -96.6420     5.3760     5.5120     5.5040  -111.5470    92.1490    15.4520
