~VERSION INFORMATION
 VERS.                2.0:   CWLS LOG ASCII STANDARD - VERSION 2.0
 WRAP.                 NO:   ONE LINE PER DEPTH STEP
~WELL INFORMATION
#MNEM.UNIT      DATA TYPE    INFORMATION
#----------   ------------   ------------------------------
 STRT.F          200.0000:   START DEPTH
 STOP.F         3000.0000:   STOP DEPTH
 STEP.F            0.5000:   STEP LENGTH
 NULL.          -999.2500:   NO VALUE
 COMP.    FENIX & SCISSON:   COMPANY
 WELL.   FENIX "A" #65-28:   WELL
 FLD .              NPR 3:   FIELD
 LOC .      S28 T39N R78W:   LOCATION
 CNTY.            NATRONA:   COUNTY
 STAT.            WYOMING:   STATE
 CTRY. UNITED STATES OF AMERICA:   COUNTRY
 SRVC.              WELEX:   SERVICE COMPANY
 DATE.        25-JUL-1977:   LOGDATE
 API .     49025104010000:   API NUMBER
~CURVE INFORMATION
#MNEM.UNIT       API CODE    CURVE DESCRIPTION
#----------   ------------   ------------------------------
 DEPT.F                  :   
 GRD .GAPI   45 310 01 00:   GAMMA RAY FROM DENSITY LOG
 CALD.IN     45 280 60 00:   CALIPER FROM DENSITY LOG
 RHOB.G/C3   45 350 01 00:   BULK DENSITY
 DCOR.G/C3   45 356 01 00:   DENSITY CORRECTION
 SPR .MV     07 010 01 00:   SPONTANEOUS POTENTIAL
 RILM.OHMM   07 120 44 00:   INDUCTION LOG MEDIUM RESISTIVITY
 RILD.OHMM   07 120 46 00:   DEEP INDUCTION RESISTIVITY
 SGRD.OHMM   07 220 05 00:   SHALLOW GUARD
~PARAMETER INFORMATION
#MNEM.UNIT          VALUE    DESCRIPTION
#----------   ------------   ------------------------------
 EKB .F         5069.0000:   Kelly bushing
 EGL .F         5059.0000:   Ground level
 EDF .F            0.0000:   Drilling floor
 TD  .F         3006.0000:   Total depth
 DATE.        25-JUL-1977:   Date logged
 CLNT.            A2DTECH:   Client Code
 SL  . 2310' FSL & 1650' FEL:   Surface Location
 PD  .                 GL:   Permanent Datum
 EPD .F              5059:   Elevation Permanent Datum
 LMF .                 KB:   Log Measured From
 DMF .                 KB:   Drilling Measured From
 DAPD.F                10:   Feet Above Permanent Datum
 DD  .F              3006:   Depth driller
 DL  .F              3006:   Depth logger
 BLI .F              3004:   Bottom log interval
 TLI .F               200:   Top log interval
 CS1 .IN            8.625:   Casing size
 CBD1.      8.625" @ 205':   Casing driller 1
 CBL1.F               220:   Casing logger 1
 BS1 .IN            7.875:   Bit size
 BSD1.F              3006:   Depth drilled with bit1
 DFT .            KCL MUD:   Type fluid in hole
 DFD .                8.9:   Density
 DFV .                 39:   Viscosity
 DFPH.                7.5:   pH
 DFL .                7.2:   Fluid loss
 MSS .           FLOWLINE:   Source of sample
 RMS .OHMM           0.29:   Rm
 MST .F                78:   Rm Meas. temp.
 RMF .OHMM           0.19:   Rmf
 MFST.F                78:   Rmf Meas. temp.
 RMC .OHMM           0.80:   Rmc
 MCST.F                78:   Rmc Meas. temp.
 MFSS.               FANN:   Source Rmf.
 MCSS.                KIT:   Source Rmc.
 RMB .OHMM           0.20:   Rm. at BHT
 BHT .F               113:   BHT.
 TCS .HRS               3:   Time Circ. stopped
 MRT .F               113:   Maximum recorded temp.
 LUN .               8766:   Logging unit number
 LUL .             CASPER:   Logging unit location
 ENGI.         G. BENTSEN:   Recorded By
 WITN.      B. HARRINGTON:   Witnessed by
 ORIG.           5" PRINT:   Origin of data
 UWI .     49025104010000:   Unique Well ID
 DICO. A2D TECHNOLOGIES, INC.:   Digitizing Company
~OTHER INFORMATION
~A   DEPT       GRD        CALD       RHOB      DCOR       SPR       RILM         RILD       SGRD 
# ...
  564.5000   108.3190     9.7990     2.5060     0.0640   -29.9350     8.8040     8.1800    12.0280
  565.0000   109.2520     9.7970     2.5050     0.0610   -29.8810     8.7340     8.1170    12.1670
  565.5000   109.6370     9.7960     2.5040     0.0570   -29.8230     8.7930     8.2520    12.3070
  566.0000   107.1420     9.7940     2.5040     0.0540   -29.7610     8.8360     8.3690    12.4810
  566.5000   108.5770     9.7930     2.5040     0.0520   -29.9130     8.8800     8.4860    12.2100
  567.0000   110.5540     9.7910     2.5050     0.0540   -30.1740     8.9230     8.6540    11.9770
  567.5000   111.5270     9.7900     2.5060     0.0550   -30.4370     8.9770     8.6010    11.8780
  568.0000   108.7710     9.7880     2.5060     0.0550   -30.7250     8.9010     8.5090    11.7580
  568.5000   111.6920     9.7860     2.5000     0.0430   -30.7290     8.8020     8.4160    11.7060
  569.0000   106.5440     9.7850     2.4910     0.0360   -30.5940     8.7030     8.3230    11.6680
  569.5000   110.6470     9.7830     2.4800     0.0300   -30.3900     8.6040     8.2300    11.6020
  570.0000   107.7390     9.7820     2.4740     0.0170   -30.7120     8.5050     8.1380    11.5350
  570.5000   109.1000     9.7800     2.4720     0.0170   -31.0210     8.4070     8.0450    11.4320
  571.0000   109.7880     9.7790     2.4710     0.0180   -31.3260     8.2670     7.9690    11.2700
  571.5000   108.2060     9.7780     2.4630     0.0190   -31.6120     8.2850     8.0130    11.1070
  572.0000   106.6670     9.7830     2.4680     0.0200   -31.7860     8.3170     8.0500    10.9450
  572.5000   107.9790     9.7870     2.4690     0.0210   -31.8960     8.3490     8.0870    10.7810
  573.0000   106.0960     9.7910     2.4730     0.0230   -31.9990     8.3810     8.1170    10.8030
  573.5000   108.8090     9.7950     2.4780     0.0260   -32.1000     8.4190     7.9900    10.8250
  574.0000   110.1690     9.7990     2.4770     0.0280   -32.2010     8.3420     7.8840    10.8480
  574.5000   108.1590     9.8030     2.4740     0.0290   -32.3020     8.2440     7.7770    10.8710
  575.0000   106.5190     9.8070     2.4720     0.0270   -32.4030     8.1460     7.6710    10.8800
  575.5000   107.0390     9.8110     2.4720     0.0300   -32.5050     8.0480     7.5640    10.6850
  576.0000   105.4080     9.8150     2.4770     0.0320   -32.6070     7.9600     7.3740    10.5230
  576.5000   103.5340     9.8190     2.4810     0.0330   -32.7030     7.9130     7.2060    10.3610
  577.0000   104.0310     9.8230     2.4850     0.0370   -32.6470     7.8660     7.2250    10.1990
  577.5000   104.4640     9.8270     2.4900     0.0430   -32.5840     7.8190     7.2410    10.0370
  578.0000   103.5730     9.8310     2.4950     0.0360   -32.5180     7.7540     7.2570     9.8750
  578.5000   106.0610     9.8350     2.4980     0.0420   -32.7040     7.7610     7.2720     9.7480
  579.0000   103.8530     9.8390     2.5000     0.0470   -32.8730     7.7720     7.2450     9.8840
  579.5000   104.5860     9.8430     2.5020     0.0460   -32.6490     7.7840     7.2130     9.9970
  580.0000   104.2660     9.8470     2.5060     0.0450   -32.5340     7.7950     7.1800    10.1090
  580.5000   104.6160     9.8510     2.5100     0.0440   -32.6070     7.8070     7.1470    10.2220
  581.0000   102.8090     9.8550     2.5140     0.0460   -32.6770     7.8180     7.1140    10.3340
  581.5000   101.3980     9.8590     2.5160     0.0470   -32.7480     7.8610     7.0750    10.4470
  582.0000   106.2490     9.8630     2.5090     0.0460   -32.8190     7.9450     7.2460    10.5590
  582.5000   105.1300     9.8670     2.5100     0.0430   -32.8900     8.0280     7.4530    10.6720
  583.0000   106.2970     9.8710     2.5040     0.0410   -32.9500     8.2030     7.6610    10.7810
  583.5000   104.1400     9.8750     2.5000     0.0390   -33.0290     8.3960     7.8680    10.7300
  584.0000   110.1360     9.8790     2.4960     0.0370   -33.1080     8.5890     8.0750    10.6680
  584.5000   107.3800     9.8830     2.4960     0.0360   -33.1870     8.7830     8.1910    10.5850
  585.0000   108.5450     9.8870     2.4980     0.0340   -33.2660     8.8990     8.0280    10.7500
  585.5000   109.4090     9.8910     2.5020     0.0350   -33.2730     8.9770     7.8970    11.0070
  586.0000   108.7000     9.8950     2.5060     0.0370   -33.1970     8.8880     7.9270    11.2650
  586.5000   109.9650     9.8980     2.5100     0.0330   -33.1220     8.8160     7.9620    11.5230
  587.0000   108.7180     9.8950     2.5140     0.0340   -33.0460     8.7340     7.9980    11.7810
  587.5000   108.0840     9.8930     2.5130     0.0360   -32.9700     8.7740     8.0340    11.9230
  588.0000   107.4540     9.8910     2.5120     0.0380   -32.8940     8.8220     8.0690    11.7330
  588.5000   106.2020     9.8890     2.5110     0.0360   -32.8180     8.8700     8.1050    11.6010
  589.0000   106.6110     9.8870     2.5070     0.0350   -32.7410     8.9180     8.1410    11.4700
  589.5000   104.7770     9.8850     2.5040     0.0350   -32.8890     8.9660     8.1760    11.3390
  590.0000   102.4800     9.8830     2.5020     0.0380   -33.2160     9.0140     8.2120    11.2080
  590.5000   100.6710     9.8800     2.5000     0.0400   -33.4880     9.0590     8.2480    11.0760
  591.0000    98.8290     9.8780     2.4980     0.0420   -33.3490     9.0100     8.2670    10.9800
  591.5000    97.0030     9.8760     2.4980     0.0410   -33.2160     8.9630     8.1790    11.0260
  592.0000    96.0320     9.8740     2.4990     0.0400   -33.1440     8.9170     8.1190    11.0620
  592.5000    94.6630     9.8720     2.5040     0.0410   -33.4830     8.8700     8.0600    11.0980
  593.0000    92.7540     9.8700     2.5080     0.0440   -33.6370     8.8230     8.0000    11.1350
  593.5000    92.5340     9.8680     2.5130     0.0420   -33.7840     8.7770     7.9400    11.1830
  594.0000    95.1770     9.8660     2.5180     0.0490   -33.9340     8.7340     7.8970    11.0980
  594.5000    94.9940     9.8630     2.5210     0.0440   -34.0820     8.7570     7.9330    10.9720
  595.0000    94.0240     9.8610     2.5160     0.0500   -33.9220     8.7790     7.9610    10.8460
  595.5000    94.2820     9.8590     2.5140     0.0420   -33.7360     8.8010     7.9890    10.7810
  596.0000    94.7170     9.8570     2.5110     0.0450   -33.5420     8.8230     8.0170    10.8390
  596.5000    95.1150     9.8550     2.5040     0.0480   -33.5400     8.8440     8.0430    10.8790
  597.0000    95.5490     9.8530     2.4960     0.0430   -33.5970     8.8660     7.9850    10.9180
  597.5000    96.6940     9.8510     2.4890     0.0380   -33.6560     8.8950     7.9320    10.9580
  598.0000    97.8020     9.8490     2.4850     0.0340   -33.7830     8.8310     7.8790    10.9970
  598.5000    98.9110     9.8460     2.4900     0.0380   -34.0750     8.7390     7.8260    11.0370
  599.0000    99.8260     9.8440     2.4960     0.0360   -33.9530     8.6470     7.7730    11.0810
  599.5000    98.6390     9.8420     2.5100     0.0440   -33.7940     8.5550     7.7200    10.9540
  600.0000    98.5370     9.8400     2.5120     0.0380   -33.6370     8.4630     7.6830    10.8130
  600.5000    99.0760     9.8380     2.5110     0.0360   -33.5060     8.3700     7.7500    10.6720
  601.0000    98.2940     9.8380     2.5060     0.0370   -33.6320     8.3430     7.8010    10.4880
  601.5000    96.9050     9.8390     2.5000     0.0310   -33.7570     8.3760     7.8530    10.5020
  602.0000    94.9130     9.8390     2.4940     0.0290   -33.8800     8.4020     7.9040    10.5210
  602.5000    92.9320     9.8400     2.4870     0.0240   -33.8940     8.4280     7.9550    10.5400
  603.0000    90.9500     9.8400     2.4790     0.0220   -33.8940     8.4530     8.0070    10.5590
  603.5000    88.9690     9.8410     2.4740     0.0200   -33.8930     8.4790     8.0430    10.5780
  604.0000    86.9860     9.8420     2.4800     0.0280   -33.8930     8.4970     7.9240    10.5970
  604.5000    84.9880     9.8420     2.4880     0.0360   -33.8930     8.3820     7.8320    10.6160
