~VERSION INFORMATION
 VERS.                2.0:   CWLS LOG ASCII STANDARD - VERSION 2.0
 WRAP.                 NO:   ONE LINE PER DEPTH STEP
~WELL INFORMATION
#MNEM.UNIT      DATA TYPE    INFORMATION
#----------   ------------   ------------------------------
 STRT.F            7.5000:   START DEPTH
 STOP.F         5700.0000:   STOP DEPTH
 STEP.F            0.5000:   STEP LENGTH
 NULL.          -999.2500:   NO VALUE
 COMP. FLUOR DANIEL (NPOSR):   COMPANY
 WELL.   FLOUR "X" #52-10:   WELL
 FLD .             NPR #3:   FIELD
 LOC .      S10 T38N R78W:   LOCATION
 CNTY.            NATRONA:   COUNTY
 STAT.            WYOMING:   STATE
 CTRY. UNITED STATES OF AMERICA:   COUNTRY
 SRVC.      WESTERN ATLAS:   SERVICE COMPANY
 DATE.        12-JAN-1996:   LOGDATE
 API .     49025227600000:   API NUMBER
~CURVE INFORMATION
#MNEM.UNIT       API CODE    CURVE DESCRIPTION
#----------   ------------   ------------------------------
 DEPT.F                  :   
 TENR.LBS    11 635 01 00:   TENSION
 GRR .GAPI   11 310 01 00:   GAMMA RAY FROM RESISTIVITY
 LLD .OHMM   11 220 10 00:   LATEROLOG DEEP
 LLS .OHMM   11 220 09 00:   LATEROLOG SHALLOW
 SPR .MV     11 010 01 00:   SPONTANEOUS POTENTIAL
 CALD.IN     45 280 60 00:   CALIPER FROM DENSITY LOG
 TEND.LBS    45 635 01 00:   TENSION FROM DENSITY LOG
 ZCOR.G/C3   45 356 01 00:   DENSITY CORRECTION
 ZDEN.G/C3   45 350 01 00:   BULK DENSITY
 CNC .DEC    42 890 03 00:   NEUTRON POROSITY SANDSTONE
~PARAMETER INFORMATION
#MNEM.UNIT          VALUE    DESCRIPTION
#----------   ------------   ------------------------------
 EKB .F         5196.0000:   Kelly bushing
 EGL .F         5186.0000:   Ground level
 EDF .F         5195.0000:   Drilling floor
 TD  .F         5699.0000:   Total depth
 DATE.        12-JAN-1996:   Date logged
 CLNT.            A2DTECH:   Client Code
 SL  . 1032' FNL & 2536' FEL:   Surface Location
 PD  .                 GL:   Permanent Datum
 EPD .F              5186:   Elevation Permanent Datum
 LMF .                 KB:   Log Measured From
 DMF .                 KB:   Drilling Measured From
 DAPD.F                11:   Feet Above Permanent Datum
 DD  .F              5699:   Depth driller
 DL  .F              5699:   Depth logger
 BLI .F              5687:   Bottom log interval
 CS1 .IN            9.625:   Casing size
 CBD1.      9.625" @ 520':   Casing driller 1
 CBL1.F               522:   Casing logger 1
 BS1 .IN             8.75:   Bit size
 BSD1.F              5699:   Depth drilled with bit1
 DFT .               CHEM:   Type fluid in hole
 DFD .                9.8:   Density
 DFV .                 50:   Viscosity
 DFPH.                9.5:   pH
 DFL .                8.4:   Fluid loss
 MSS .           FLOWLINE:   Source of sample
 RMS .OHMM          0.515:   Rm
 MST .F                66:   Rm Meas. temp.
 RMF .OHMM          0.499:   Rmf
 MFST.F                66:   Rmf Meas. temp.
 RMC .OHMM          0.761:   Rmc
 MCST.F                66:   Rmc Meas. temp.
 MFSS.               MEAS:   Source Rmf.
 MCSS.               MEAS:   Source Rmc.
 RMB .OHMM          0.233:   Rm. at BHT
 BHT .F               174:   BHT.
 TCS .HRS               6:   Time Circ. stopped
 MRT .F               174:   Maximum recorded temp.
 LUN .            HL 6530:   Logging unit number
 LUL .             CASPER:   Logging unit location
 ENGI.        VERN RAUTIO:   Recorded By
 WITN. LAFRENIERE/OPSAL/HARDY:   Witnessed by
 ORIG.     2.5", 5" PRINT:   Origin of data
 UWI .     49025227600000:   Unique Well ID
 DICO. A2D TECHNOLOGIES, INC.:   Digitizing Company
~OTHER INFORMATION
~A    DEPT    TENR         GRR       LLD        LLS        SPR       CALD       TEND       ZCOR       ZDEN        CNC   
# ...
 1213.5000   -60.4770    94.5950    10.0190     7.8650   -89.2360  -999.2500  -999.2500  -999.2500  -999.2500  -999.2500
 1214.0000   -60.7310    95.2330     9.9460     7.8340   -89.1630  -999.2500  -999.2500  -999.2500  -999.2500  -999.2500
 1214.5000   -54.9300    97.3810     9.8440     7.8090   -89.0910  -999.2500  -999.2500  -999.2500  -999.2500  -999.2500
 1215.0000   -49.1280    98.5690     9.8840     7.9720   -89.0180  -999.2500  -999.2500  -999.2500  -999.2500  -999.2500
 1215.5000   -43.7630    95.7030     9.9470     8.1080   -88.9430  -999.2500  -999.2500  -999.2500  -999.2500  -999.2500
 1216.0000   -48.0810    92.2340    10.0280     8.2550   -88.9820  -999.2500  -999.2500  -999.2500  -999.2500  -999.2500
 1216.5000   -52.0970    90.7940    10.0130     8.1500   -89.0650  -999.2500  -999.2500  -999.2500  -999.2500  -999.2500
 1217.0000   -56.1140    90.8410     9.9920     8.0360   -89.1500  -999.2500  -999.2500  -999.2500  -999.2500  -999.2500
 1217.5000   -60.1300    91.0130     9.9710     7.9220   -89.2350  -999.2500  -999.2500  -999.2500  -999.2500  -999.2500
 1218.0000   -63.8830    92.0760     9.9500     7.8810   -89.3200  -999.2500  -999.2500  -999.2500  -999.2500  -999.2500
 1218.5000   -56.9290    94.5960     9.9240     7.8810   -89.2680  -999.2500  -999.2500  -999.2500  -999.2500  -999.2500
 1219.0000   -50.4020    98.7640     9.8800     7.8810   -89.1970  -999.2500  -999.2500  -999.2500  -999.2500  -999.2500
 1219.5000   -43.7630   100.9530     9.8370     7.8810   -89.1320  -999.2500  -999.2500  -999.2500  -999.2500  -999.2500
 1220.0000   -49.1630   100.7260     9.7940     7.8810   -89.2470  -999.2500  -999.2500  -999.2500  -999.2500  -999.2500
 1220.5000   -54.6600    99.4070     9.7530     7.8810   -89.3720  -999.2500  -999.2500  -999.2500  -999.2500  -999.2500
 1221.0000   -60.1560   100.3660     9.7870     7.8810   -89.5040  -999.2500  -999.2500  -999.2500  -999.2500  -999.2500
 1221.5000   -62.6830   100.7320     9.8180     7.8810   -89.4140  -999.2500  -999.2500  -999.2500  -999.2500  -999.2500
 1222.0000   -58.9540    98.3170     9.8440     7.8810   -89.2490  -999.2500  -999.2500  -999.2500  -999.2500  -999.2500
 1222.5000   -55.2240    97.0700     9.6570     7.7690   -89.0810  -999.2500  -999.2500  -999.2500  -999.2500  -999.2500
 1223.0000   -51.4950    96.9380     9.4970     7.6860   -88.9260  -999.2500  -999.2500  -999.2500  -999.2500  -999.2500
 1223.5000   -47.7650    96.9330     9.3360     7.6040   -88.9220  -999.2500  -999.2500  -999.2500  -999.2500  -999.2500
 1224.0000   -43.7630    97.4820     9.2260     7.5790   -88.9230  -999.2500  -999.2500  -999.2500  -999.2500  -999.2500
 1224.5000   -43.7630   100.0600     9.2260     7.5620   -88.9230  -999.2500  -999.2500  -999.2500  -999.2500  -999.2500
 1225.0000   -43.7630   103.8200     9.2260     7.5450   -88.9230  -999.2500  -999.2500  -999.2500  -999.2500  -999.2500
 1225.5000   -43.7630   104.9370     9.2260     7.5250   -88.9230  -999.2500  -999.2500  -999.2500  -999.2500  -999.2500
 1226.0000   -43.7630   101.8670     9.2260     7.5520   -88.9230  -999.2500  -999.2500  -999.2500  -999.2500  -999.2500
 1226.5000   -43.7630    99.3890     9.3210     7.5860   -88.9240  -999.2500  -999.2500  -999.2500  -999.2500  -999.2500
 1227.0000   -43.7630    99.5030     9.4290     7.6660   -88.9180  -999.2500  -999.2500  -999.2500  -999.2500  -999.2500
 1227.5000   -43.7630   100.2240     9.5370     7.7640   -88.6760  -999.2500  -999.2500  -999.2500  -999.2500  -999.2500
 1228.0000   -43.7630    98.2130     9.6640     7.8630   -88.6320  -999.2500  -999.2500  -999.2500  -999.2500  -999.2500
 1228.5000   -43.7630    95.7220     9.5800     7.9550   -88.9220  -999.2500  -999.2500  -999.2500  -999.2500  -999.2500
 1229.0000   -43.7630    93.7060     9.4790     7.7770   -89.1300  -999.2500  -999.2500  -999.2500  -999.2500  -999.2500
 1229.5000   -43.7630    92.9220     9.3790     7.6350   -89.1260  -999.2500  -999.2500  -999.2500  -999.2500  -999.2500
 1230.0000   -43.7630    94.3120     9.2780     7.4440   -89.1260  -999.2500  -999.2500  -999.2500  -999.2500  -999.2500
 1230.5000   -43.7630    94.9030     9.1780     7.3860   -89.1260  -999.2500  -999.2500  -999.2500  -999.2500  -999.2500
 1231.0000   -43.7630    94.9320     9.1410     7.5250   -89.1260  -999.2500  -999.2500  -999.2500  -999.2500  -999.2500
 1231.5000   -43.7630    94.2510     9.4890     7.6810   -89.1260  -999.2500  -999.2500  -999.2500  -999.2500  -999.2500
 1232.0000   -43.7630    92.7460     9.7010     7.8300   -89.1270  -999.2500  -999.2500  -999.2500  -999.2500  -999.2500
 1232.5000   -43.7630    92.6650     9.9120     7.9670   -89.1240  -999.2500  -999.2500  -999.2500  -999.2500  -999.2500
 1233.0000   -43.7630    94.2860    10.1220     8.0290   -89.0290  -999.2500  -999.2500  -999.2500  -999.2500  -999.2500
 1233.5000   -43.7630    95.3270    10.0450     7.9800   -88.9280  -999.2500  -999.2500  -999.2500  -999.2500  -999.2500
 1234.0000   -43.7630    94.9320     9.9700     7.9400   -88.8270  -999.2500  -999.2500  -999.2500  -999.2500  -999.2500
 1234.5000   -43.7630    94.5070     9.8940     7.9000   -88.7240  -999.2500  -999.2500  -999.2500  -999.2500  -999.2500
 1235.0000   -43.7630    94.3950     9.8440     7.8810   -88.7190  -999.2500  -999.2500  -999.2500  -999.2500  -999.2500
 1235.5000   -45.3820    94.2850     9.8960     7.8810   -88.7190  -999.2500  -999.2500  -999.2500  -999.2500  -999.2500
 1236.0000   -47.0660    94.1850     9.9340     7.8810   -88.7190  -999.2500  -999.2500  -999.2500  -999.2500  -999.2500
 1236.5000   -48.7510    94.3100     9.9720     7.8810   -88.7190  -999.2500  -999.2500  -999.2500  -999.2500  -999.2500
 1237.0000   -50.4350    95.2460    10.0280     8.0050   -88.7180  -999.2500  -999.2500  -999.2500  -999.2500  -999.2500
 1237.5000   -52.1190    96.1570    10.0210     8.1040   -88.8060  -999.2500  -999.2500  -999.2500  -999.2500  -999.2500
 1238.0000   -53.8230    96.5440    10.0060     8.0290   -88.9170  -999.2500  -999.2500  -999.2500  -999.2500  -999.2500
 1238.5000   -51.6730    96.5810     9.9920     8.0290   -88.8760  -999.2500  -999.2500  -999.2500  -999.2500  -999.2500
 1239.0000   -49.4970    94.9680     9.9770     8.0290   -88.8280  -999.2500  -999.2500  -999.2500  -999.2500  -999.2500
 1239.5000   -47.3210    93.3710     9.9630     8.0290   -88.7790  -999.2500  -999.2500  -999.2500  -999.2500  -999.2500
 1240.0000   -45.1460    95.2720     9.9480     8.0290   -88.7290  -999.2500  -999.2500  -999.2500  -999.2500  -999.2500
 1240.5000   -44.6270    98.8750     9.9370     8.0290   -88.7510  -999.2500  -999.2500  -999.2500  -999.2500  -999.2500
 1241.0000   -47.0000    98.8860    10.0270     8.0280   -88.7930  -999.2500  -999.2500  -999.2500  -999.2500  -999.2500
 1241.5000   -49.3740    95.4790    10.1040     8.0530   -88.8350  -999.2500  -999.2500  -999.2500  -999.2500  -999.2500
 1242.0000   -51.7470    92.6750    10.1820     8.1090   -88.8780  -999.2500  -999.2500  -999.2500  -999.2500  -999.2500
 1242.5000   -52.9510    93.3960    10.2600     8.1650   -88.9200  -999.2500  -999.2500  -999.2500  -999.2500  -999.2500
 1243.0000   -45.9890    95.2720    10.3370     8.2420   -88.9620  -999.2500  -999.2500  -999.2500  -999.2500  -999.2500
 1243.5000   -39.0270    93.8140    10.4150     8.3280   -89.0040  -999.2500  -999.2500  -999.2500  -999.2500  -999.2500
 1244.0000   -33.7020    90.3610    10.4920     8.4100   -89.0470  -999.2500  -999.2500  -999.2500  -999.2500  -999.2500
 1244.5000   -40.9590    88.4150    10.5040     8.3730   -89.0890  -999.2500  -999.2500  -999.2500  -999.2500  -999.2500
 1245.0000   -47.9210    88.9160    10.3770     8.3380   -89.1290  -999.2500  -999.2500  -999.2500  -999.2500  -999.2500
 1245.5000   -53.1610    90.6100    10.2900     8.3040   -89.1470  -999.2500  -999.2500  -999.2500  -999.2500  -999.2500
 1246.0000   -48.8100    91.8730    10.2040     8.2690   -89.1660  -999.2500  -999.2500  -999.2500  -999.2500  -999.2500
 1246.5000   -44.4580    91.8020    10.1170     8.2050   -89.1850  -999.2500  -999.2500  -999.2500  -999.2500  -999.2500
