~VERSION INFORMATION
 VERS.                2.0:   CWLS LOG ASCII STANDARD - VERSION 2.0
 WRAP.                 NO:   ONE LINE PER DEPTH STEP
~WELL INFORMATION
#MNEM.UNIT      DATA TYPE    INFORMATION
#----------   ------------   ------------------------------
 STRT.F          208.0000:   START DEPTH
 STOP.F         2950.0000:   STOP DEPTH
 STEP.F            0.5000:   STEP LENGTH
 NULL.          -999.2500:   NO VALUE
 COMP.    FENIX & SCISSON:   COMPANY
 WELL.     FENIX A #56-28:   WELL
 FLD .                NPR:   FIELD
 LOC .      S28 T39N R78W:   LOCATION
 CNTY.            NATRONA:   COUNTY
 STAT.            WYOMING:   STATE
 CTRY. UNITED STATES OF AMERICA:   COUNTRY
 SRVC.              WELEX:   SERVICE COMPANY
 DATE.        20-AUG-1977:   LOGDATE
 API .     49025104140000:   API NUMBER
~CURVE INFORMATION
#MNEM.UNIT       API CODE    CURVE DESCRIPTION
#----------   ------------   ------------------------------
 DEPT.F                  :   
 SPR .MV     07 010 01 00:   SPONTANEOUS POTENTIAL
 RILM.OHMM   07 120 44 00:   INDUCTION LOG MEDIUM RESISTIVITY
 RILD.OHMM   07 120 46 00:   INDUCTION LOG DEEP RESISTIVITY
 SGRD.OHMM   07 220 05 00:   SHALLOW GUARD LOG RESISTIVITY
 CALD.IN     45 280 60 00:   CALIPER FROM DENSITY LOG
 DCOR.G/C3   45 356 01 00:   DENSITY CORRECTION
 GRD .GAPI   45 310 01 00:   GAMMA RAY FROM DENSITY LOG
 RHOB.G/C3   45 350 01 00:   BULK DENSITY
~PARAMETER INFORMATION
#MNEM.UNIT          VALUE    DESCRIPTION
#----------   ------------   ------------------------------
 EKB .F         5088.0000:   Kelly bushing
 EGL .F         5078.0000:   Ground level
 EDF .F            0.0000:   Drilling floor
 EPD .F         5078.0000:   Permanent datum
 TD  .F         2960.0000:   Total depth
 DATE.        20-AUG-1977:   Date logged
 CLNT.            A2DTECH:   Client Code
 SL  . 1650' FSL & 2310' FEL:   Surface Location
 PD  .                 GL:   Permanent Datum
 LMF .                 KB:   Log Measured From
 DMF .                 KB:   Drilling Measured From
 DAPD.F                10:   Feet Above Permanent Datum
 DD  .F              2960:   Depth driller
 DL  .F              2952:   Depth logger
 BLI .F              2950:   Bottom log interval
 TLI .F               210:   Top log interval
 CS1 .IN            8.625:   Casing size
 CBD1.      8.625" @ 215':   Casing driller 1
 CBL1.F               218:   Casing logger 1
 BS1 .IN            7.875:   Bit size
 BSD1.F              2960:   Depth drilled with bit1
 DFT .            KCL MUD:   Type fluid in hole
 DFD .                8.9:   Density
 DFV .                 60:   Viscosity
 DFPH.                 11:   pH
 DFL .                7.2:   Fluid loss
 MSS .           FLOWLINE:   Source of sample
 RMS .OHMM            .78:   Rm
 MST .F                81:   Rm Meas. temp.
 RMF .OHMM            .46:   Rmf
 MFST.F                81:   Rmf Meas. temp.
 RMC .OHMM           1.66:   Rmc
 MCST.F                81:   Rmc Meas. temp.
 MFSS.               CALC:   Source Rmf.
 MCSS.               CALC:   Source Rmc.
 RMB .OHMM            .56:   Rm. at BHT
 BHT .F               112:   BHT.
 TCS .HRS             2.5:   Time Circ. stopped
 MRT .F               112:   Maximum recorded temp.
 LUN .               8611:   Logging unit number
 LUL .             CASPER:   Logging unit location
 ENGI.             C DOAK:   Recorded By
 WITN.       B HARRINGTON:   Witnessed by
 ORIG.           5" PRINT:   Origin of data
 UWI .     49025104140000:   Unique Well ID
 DICO. A2D TECHNOLOGIES, INC.:   Digitizing Company
~OTHER INFORMATION
~A   DEPT      SPR       RILM       RILD       SGRD         CALD     DCOR        GRD       RHOB   
# ...
 2192.5000   -76.0320     8.1170     6.9090    12.5640     8.3130    -0.0060   132.3990     2.4550
 2193.0000   -75.9990     8.1550     6.8000    10.4790     8.3130    -0.0080   129.2110     2.4460
 2193.5000   -76.0040     8.2430     6.6110    10.7730     8.3130    -0.0100   126.0260     2.4470
 2194.0000   -76.0530     8.3300     6.4220    12.4740     8.3130    -0.0100   122.8490     2.4530
 2194.5000   -76.1020     7.8770     6.2330    14.1880     8.3130    -0.0060   120.1740     2.4590
 2195.0000   -76.1510     7.3300     6.0440    12.1080     8.3130    -0.0030   121.1620     2.4600
 2195.5000   -76.2000     6.7830     5.8560    10.2390     8.3130    -0.0040   122.4210     2.4550
 2196.0000   -76.2490     6.2360     5.6800     9.2890     8.3130    -0.0050   123.6600     2.4500
 2196.5000   -76.2980     5.7910     5.5560     8.3390     8.3130    -0.0070   124.1570     2.4420
 2197.0000   -76.3470     5.5260     5.4340     7.3900     8.3130    -0.0060   122.8840     2.4300
 2197.5000   -76.3060     5.7550     5.4860     6.0550     8.3130    -0.0030   121.3930     2.4190
 2198.0000   -76.1730     6.2340     5.5550     7.8250     8.3130    -0.0010   119.3350     2.4310
 2198.5000   -76.0390     6.6550     5.6530    12.8290     8.3130     0.0010   117.3480     2.4430
 2199.0000   -75.9050     6.9330     5.7870    11.8740     8.3130     0.0030   115.5270     2.4550
 2199.5000   -75.7870     7.2120     5.9770    11.0810     8.3130     0.0050   114.8260     2.4650
 2200.0000   -75.8140     7.4070     6.1680    11.4940     8.3130     0.0070   115.9340     2.4610
 2200.5000   -75.8430     7.4070     6.3580    10.6410     8.3130     0.0000   116.3670     2.4520
 2201.0000   -75.8710     7.4070     6.5490     9.6590     8.3130    -0.0060   114.8910     2.4380
 2201.5000   -75.8990     7.7820     6.7390     9.9210     8.3130    -0.0120   113.4690     2.4220
 2202.0000   -75.9270     8.1980     6.9470    10.4880     8.3130    -0.0110   112.0050     2.4290
 2202.5000   -75.9550     8.6130     6.9980    12.5930     8.3130    -0.0040   111.8010     2.4410
 2203.0000   -75.9800     8.7740     7.0540    14.8530     8.3130    -0.0010   111.9710     2.4370
 2203.5000   -75.9800     8.8140     7.1100    14.3260     8.3130    -0.0090   111.3110     2.4330
 2204.0000   -75.9800     8.8140     7.1660    14.0590     8.3130    -0.0140   111.0470     2.4380
 2204.5000   -75.9800     8.7140     7.2220    12.8820     8.3130    -0.0110   111.9900     2.4430
 2205.0000   -75.9800     8.5760     7.2790    11.2390     8.3130    -0.0080   112.9430     2.4390
 2205.5000   -75.9800     8.4370     7.3390    10.2040     8.3130    -0.0050   112.5040     2.4330
 2206.0000   -75.9800     8.3430     7.3860    10.6480     8.3130    -0.0040   111.5600     2.4270
 2206.5000   -75.9810     9.1360     7.4370    11.4530     8.3130    -0.0060   111.3000     2.4190
 2207.0000   -75.9900     9.6980     7.4890    13.3700     8.3130    -0.0080   113.3330     2.4110
 2207.5000   -76.0240    10.0010     7.5430    15.6600     8.3140    -0.0090   115.3010     2.4030
 2208.0000   -76.0570    10.2040     7.4850    16.7300     8.3150    -0.0110   117.1220     2.4100
 2208.5000   -76.0890     9.7480     7.4230    13.5270     8.3160    -0.0130   117.7160     2.4190
 2209.0000   -76.1220     9.9130     7.3190    11.2800     8.3160    -0.0110   119.7970     2.4280
 2209.5000   -76.1550    10.2220     7.2000    12.9820     8.3170    -0.0090   122.6040     2.4380
 2210.0000   -76.1770    10.4540     7.0810    16.1280     8.3180    -0.0070   125.4180     2.4470
 2210.5000   -76.1760     9.4860     6.9620    13.6430     8.3190    -0.0050   128.2290     2.4480
 2211.0000   -76.1760     8.7560     6.8430     8.0430     8.3200    -0.0030   131.0450     2.4480
 2211.5000   -76.1760     8.9150     6.7240     8.5810     8.3210    -0.0010   133.9680     2.4540
 2212.0000   -76.1760     9.0730     6.6050    12.8290     8.3220     0.0010   135.2410     2.4610
 2212.5000   -76.1760     9.2310     6.4390    11.8140     8.3230     0.0040   135.9460     2.4650
 2213.0000   -76.1760     9.3970     6.2560    12.5770     8.3240     0.0060   137.2400     2.4480
 2213.5000   -76.1760     9.2150     6.0740    14.6520     8.3250     0.0080   140.8320     2.4540
 2214.0000   -76.1770     9.0230     5.8910    13.8040     8.3260     0.0110   144.3740     2.4610
 2214.5000   -76.1770     8.4380     5.7080     7.7700     8.3270     0.0130   147.8990     2.4550
 2215.0000   -76.1760     7.7270     5.5570     8.8140     8.3280     0.0130   151.2360     2.4420
 2215.5000   -76.1590     7.2570     5.4250     8.1910     8.3290     0.0130   153.7520     2.4280
 2216.0000   -76.0500     7.2160     5.4750     9.2660     8.3300     0.0130   155.9890     2.4230
 2216.5000   -75.9700     6.7450     5.6170    10.1930     8.3310     0.0130   156.8300     2.4260
 2217.0000   -75.9440     7.1160     5.7640     5.8910     8.3320     0.0130   155.7230     2.4290
 2217.5000   -75.9180     8.2580     5.9120     8.5600     8.3320     0.0110   154.5730     2.4280
 2218.0000   -75.8910     9.3990     6.2830    13.2510     8.3220     0.0100   153.4500     2.4200
 2218.5000   -75.8650    10.4930     6.7220    14.5830     8.3120     0.0080   152.8190     2.4120
 2219.0000   -75.8380    11.8140     7.1850    20.2770     8.3020     0.0060   154.2530     2.4030
 2219.5000   -75.8110    11.7100     7.6560    18.7480     8.2920     0.0050   156.1310     2.3980
 2220.0000   -75.7860    11.6000     8.0620    16.0980     8.2820     0.0030   159.9240     2.3970
 2220.5000   -75.8300    11.9230     8.1910    12.1240     8.2730     0.0010   163.7010     2.4000
 2221.0000   -75.8780    12.6790     8.0320    13.8450     8.2740    -0.0010   167.4760     2.3950
 2221.5000   -75.9260    11.2770     7.8250    19.1450     8.2740    -0.0010   171.2200     2.3900
 2222.0000   -75.9730    10.1560     7.4310    20.7110     8.2740    -0.0020   174.9430     2.3850
 2222.5000   -76.0210     8.5750     7.0310    11.5500     8.2740    -0.0020   177.3640     2.3810
 2223.0000   -76.0690     9.0920     6.6110     7.7540     8.2740    -0.0030   177.0780     2.3810
 2223.5000   -76.1160     8.8120     6.1850    12.0490     8.2740    -0.0030   176.0350     2.3810
 2224.0000   -76.1640     7.9690     5.7600    14.7170     8.2740    -0.0030   174.5630     2.3830
 2224.5000   -76.2110     7.1150     5.3350    12.9280     8.2740    -0.0040   172.4540     2.3940
 2225.0000   -76.2590     6.2570     4.9100    10.6820     8.2870    -0.0040   170.3560     2.4070
 2225.5000   -76.3060     5.4000     4.4840     5.5760     8.3000    -0.0050   166.8630     2.4210
 2226.0000   -76.3540     5.0020     4.2110     7.2720     8.3130    -0.0050   161.1240     2.4340
 2226.5000   -76.3530     4.7180     4.0380     6.5350     8.3260    -0.0040   155.4270     2.4470
 2227.0000   -76.3220     4.4360     3.8660     4.2760     8.3390    -0.0030   149.7500     2.4490
 2227.5000   -76.2900     4.6740     3.8180     4.9930     8.3520    -0.0010   145.2090     2.4470
 2228.0000   -76.2580     4.8610     3.7620     7.4070     8.3550     0.0000   143.9660     2.4560
 2228.5000   -76.2270     4.7430     3.8180     7.1350     8.3570     0.0010   145.1480     2.4650
 2229.0000   -76.1950     4.6510     3.8870     6.4760     8.3590     0.0020   146.3200     2.4740
 2229.5000   -76.1430     4.7460     3.9560     6.0910     8.3610     0.0030   147.4120     2.4830
 2230.0000   -76.0600     4.9130     4.0250     5.8380     8.3640     0.0040   147.8090     2.4880
 2230.5000   -75.9790     5.0560     4.0940     6.3430     8.3660     0.0050   145.1880     2.4920
 2231.0000   -75.8970     5.1160     4.1640     7.2060     8.3680     0.0070   142.5860     2.4980
 2231.5000   -75.8130     5.1760     4.2330     7.1200     8.3700     0.0100   140.0450     2.5050
 2232.0000   -75.8540     5.2360     4.3020     6.8840     8.3720     0.0120   139.9460     2.5110
 2232.5000   -75.9620     5.2970     4.3570     7.1400     8.3750     0.0140   139.9560     2.5180
