~VERSION INFORMATION
 VERS.                2.0:   CWLS LOG ASCII STANDARD - VERSION 2.0
 WRAP.                 NO:   ONE LINE PER DEPTH STEP
~WELL INFORMATION
#MNEM.UNIT      DATA TYPE    INFORMATION
#----------   ------------   ------------------------------
 STRT.F           46.0000:   START DEPTH
 STOP.F         2736.5000:   STOP DEPTH
 STEP.F            0.5000:   STEP LENGTH
 NULL.          -999.2500:   NO VALUE
 COMP.          INTEX OIL:   COMPANY
 WELL. INTEX NPR 3 "AX" #72-20:   WELL
 FLD .             TEAPOT:   FIELD
 LOC .      S20 T39N R78W:   LOCATION
 CNTY.            NATRONA:   COUNTY
 STAT.            WYOMING:   STATE
 CTRY. UNITED STATES OF AMERICA:   COUNTRY
 SRVC.       SCHLUMBERGER:   SERVICE COMPANY
 DATE.        11-MAY-1966:   LOGDATE
 API .     49025095110000:   API NUMBER
~CURVE INFORMATION
#MNEM.UNIT       API CODE    CURVE DESCRIPTION
#----------   ------------   ------------------------------
 DEPT.F                  :   
 SPR .MV     05 010 01 00:   SPONTANEOUS POTENTIAL FROM RES.
 ILD .OHMM   05 120 46 00:   INDUCTION LOG DEEP
 ASN .OHMM   05 041 16 00:   AMPLIFIED SHORT NORMAL 16"
 CALD.IN     45 280 60 00:   CALIPER FROM DENSITY LOG
 CORR.G/C3   45 356 01 00:   DENSITY CORRECTION
 RHOB.G/C3   45 350 01 00:   BULK DENSITY
 GRD .GAPI   45 310 01 00:   GAMMA RAY FROM DENSITY LOG
~PARAMETER INFORMATION
#MNEM.UNIT          VALUE    DESCRIPTION
#----------   ------------   ------------------------------
 EKB .F         5042.3000:   Kelly bushing
 EGL .F         5032.0000:   Ground level
 EDF .F            0.0000:   Drilling floor
 EPD .F         5032.0000:   Permanent datum
 TD  .F         2740.0000:   Total depth
 DATE.        11-MAY-1966:   Date logged
 CLNT.            A2DTECH:   Client Code
 DAPD.F              10.3:   Feet Above Permanent Datum
 DD  .F              2740:   Depth driller
 DL  .F              2737:   Depth logger
 BLI .F              2736:   Bottom log interval
 TLI .F                88:   Top log interval
 CS1 .IN            10.75:   Casing size
 CBD1.       10.75" @ 24':   Casing driller 1
 BS1 .IN            7.875:   Bit size
 BSD1.F              2740:   Depth drilled with bit1
 DFT .           OIL EMUL:   Type fluid in hole
 DFD .                9.8:   Density
 DFV .                 58:   Viscosity
 MSS .         CIRCULATED:   Source of sample
 RMS .OHMM           3.04:   Rm
 MST .F                54:   Rm Meas. temp.
 RMF .OHMM           1.95:   Rmf
 MFST.F                55:   Rmf Meas. temp.
 MFSS.                 FR:   Source Rmf.
 RMB .OHMM           1.64:   Rm. at BHT
 BHT .F               100:   BHT.
 TCS .HRS               4:   Time Circ. stopped
 MRT .F               100:   Maximum recorded temp.
 LUN .               4507:   Logging unit number
 LUL .               CSPR:   Logging unit location
 ENGI.               HAUG:   Recorded By
 WITN.             TUTTLE:   Witnessed by
 ORIG.        2" 5" PRINT:   Origin of data
 UWI .     49025095110000:   Unique Well ID
 DICO. A2D TECHNOLOGIES, INC.:   Digitizing Company
~OTHER INFORMATION
~A   DEPT      SPR        ILD        ASN       CALD       CORR       RHOB         GRD  
# ...
  774.0000   -55.7040     9.6410    11.8350     8.3800     0.0530     2.4820   121.0630
  774.5000   -55.5770     9.6520    11.8150     8.4030     0.0410     2.4710   118.6610
  775.0000   -55.4450     9.6640    11.7940     8.4210     0.0340     2.4660   118.2590
  775.5000   -55.3180     9.6740    11.7740     8.4200     0.0330     2.4650   119.9090
  776.0000   -55.1850     9.6860    11.7530     8.4200     0.0320     2.4720   121.8510
  776.5000   -55.0600     9.6970    11.7320     8.4200     0.0310     2.4650   123.6080
  777.0000   -54.9360     9.7000    11.7120     8.4190     0.0300     2.4610   123.3890
  777.5000   -54.9980     9.6480    11.6910     8.4190     0.0430     2.4740   121.4010
  778.0000   -55.0730     9.6040    11.6700     8.4180     0.0590     2.5010   120.8730
  778.5000   -55.1540     9.5560    11.6500     8.4180     0.0710     2.5020   121.0580
  779.0000   -55.2300     9.5100    11.6290     8.4170     0.0640     2.4990   121.2900
  779.5000   -55.3080     9.4630    11.6080     8.4170     0.0540     2.4890   121.0350
  780.0000   -55.3860     9.4160    11.5880     8.4160     0.0430     2.4810   119.9990
  780.5000   -55.4630     9.3690    11.5670     8.4160     0.0320     2.4770   118.2860
  781.0000   -55.5430     9.3220    11.5460     8.4160     0.0310     2.4820   118.5460
  781.5000   -55.6180     9.2750    11.5250     8.4150     0.0310     2.4720   120.2500
  782.0000   -55.7010     9.2290    11.5050     8.4150     0.0220     2.4590   120.9720
  782.5000   -55.7080     9.1820    11.4840     8.4140     0.0180     2.4600   121.3070
  783.0000   -55.7090     9.1350    11.4630     8.4140     0.0250     2.4610   120.2770
  783.5000   -55.7080     9.0880    11.4430     8.4130     0.0300     2.4650   120.7740
  784.0000   -55.7090     9.0410    11.4220     8.4130     0.0370     2.4980   121.5220
  784.5000   -55.7080     8.9950    11.4010     8.4120     0.0390     2.4930   122.0070
  785.0000   -55.7080     8.9480    11.3800     8.4120     0.0360     2.4800   121.9260
  785.5000   -55.7080     8.9010    11.3600     8.4110     0.0330     2.4680   121.9520
  786.0000   -55.7090     8.8540    11.3380     8.4110     0.0310     2.4730   121.9940
  786.5000   -55.7070     8.8070    11.3190     8.4100     0.0280     2.4760   122.8530
  787.0000   -55.7060     8.7600    11.2970     8.4100     0.0250     2.4800   124.1530
  787.5000   -55.6120     8.7140    11.2720     8.4090     0.0230     2.4840   123.4260
  788.0000   -55.4790     8.6670    11.1760     8.4090     0.0200     2.4730   122.7190
  788.5000   -55.3500     8.6200    11.0630     8.4080     0.0210     2.4650   123.7750
  789.0000   -55.2210     8.5730    10.9500     8.4080     0.0280     2.4660   125.7670
  789.5000   -55.0910     8.5260    10.8380     8.4080     0.0320     2.4650   128.6040
  790.0000   -54.9620     8.4800    10.7250     8.4070     0.0300     2.4570   131.1630
  790.5000   -54.8300     8.4330    10.6130     8.4070     0.0320     2.4600   134.0320
  791.0000   -54.7050     8.3860    10.5000     8.4060     0.0360     2.4600   133.7400
  791.5000   -54.5670     8.3390    10.3880     8.4060     0.0590     2.4710   131.0930
  792.0000   -54.5720     8.2930    10.2760     8.4050     0.0770     2.4980   128.5030
  792.5000   -54.6610     8.2450    10.1620     8.4050     0.0950     2.5080   127.7670
  793.0000   -54.7360     8.1990    10.0520     8.4040     0.0790     2.4970   129.6340
  793.5000   -54.8130     8.1520     9.9360     8.4040     0.0630     2.4880   131.1500
  794.0000   -54.8920     8.1360     9.9190     8.4030     0.0450     2.4770   133.0050
  794.5000   -54.9680     8.1380     9.9560     8.4030     0.0270     2.4650   133.1490
  795.0000   -55.0470     8.1380     9.9850     8.4020     0.0230     2.4570   133.1860
  795.5000   -55.1250     8.1370    10.0150     8.4020     0.0300     2.4550   131.1470
  796.0000   -55.1980     8.1390    10.0460     8.4010     0.0350     2.4570   128.4280
  796.5000   -55.2900     8.1160    10.0760     8.4010     0.0400     2.4640   127.0320
  797.0000   -55.2380     8.0740    10.1070     8.4010     0.0470     2.4700   127.3020
  797.5000   -55.0670     8.0360    10.1370     8.4000     0.0450     2.4700   128.6790
  798.0000   -54.9150     8.0000    10.1680     8.4000     0.0290     2.4670   129.6400
  798.5000   -54.7620     7.9550    10.1980     8.3990     0.0220     2.4580   129.9870
  799.0000   -54.5960     7.9720    10.2290     8.3990     0.0230     2.4620   130.3190
  799.5000   -54.5390     8.0430    10.2600     8.3980     0.0250     2.4740   130.6180
  800.0000   -54.5850     8.1060    10.2900     8.3980     0.0280     2.4740   130.9330
  800.5000   -54.6170     8.1710    10.3210     8.3970     0.0310     2.4730   131.2410
  801.0000   -54.6530     8.2360    10.3520     8.3970     0.0310     2.4710   131.5620
  801.5000   -54.6880     8.3010    10.3820     8.3960     0.0290     2.4660   131.8670
  802.0000   -54.7230     8.3660    10.4130     8.3960     0.0270     2.4660   131.4540
  802.5000   -54.7590     8.4310    10.4450     8.3950     0.0340     2.4810   127.3980
  803.0000   -54.7940     8.4950    10.4710     8.3950     0.0430     2.4960   124.3290
  803.5000   -54.8290     8.5600    10.5450     8.3940     0.0470     2.5070   122.6710
  804.0000   -54.8640     8.6250    10.6710     8.3940     0.0430     2.5040   123.7250
  804.5000   -54.9020     8.6900    10.7910     8.3930     0.0400     2.4950   125.9350
  805.0000   -54.9230     8.7550    10.9120     8.3930     0.0370     2.4920   128.5060
  805.5000   -54.9200     8.8180    11.0350     8.3930     0.0430     2.5000   129.1500
  806.0000   -54.9210     8.8900    11.1560     8.3920     0.0540     2.5050   127.3490
  806.5000   -54.9210     8.8970    11.2740     8.3920     0.0470     2.5020   126.6040
  807.0000   -54.9210     8.8250    11.4110     8.3910     0.0320     2.4800   127.2020
  807.5000   -54.9210     8.7630    11.4230     8.3910     0.0170     2.4600   128.9000
  808.0000   -54.9210     8.6970    11.2790     8.3900     0.0110     2.4540   127.7390
  808.5000   -54.9220     8.6320    11.1550     8.3900     0.0090     2.4530   127.4570
  809.0000   -54.9070     8.5680    11.0240     8.3890     0.0070     2.4550   128.3260
  809.5000   -54.8630     8.5030    10.8940     8.3890     0.0050     2.4560   130.2730
  810.0000   -54.8210     8.4380    10.7650     8.3880     0.0120     2.4610   130.5030
  810.5000   -54.7770     8.3730    10.6340     8.3880     0.0180     2.4710   129.7400
  811.0000   -54.7340     8.3080    10.5080     8.3870     0.0140     2.4760   130.2960
  811.5000   -54.6910     8.2440    10.3670     8.3870     0.0110     2.4730   131.3080
  812.0000   -54.6480     8.1750  -999.2500     8.3860     0.0070     2.4470   130.7340
  812.5000   -54.6050     8.1150  -999.2500     8.3860     0.0100     2.4360   130.4270
  813.0000   -54.5600     8.0670  -999.2500     8.3850     0.0150     2.4380   132.5340
  813.5000   -54.5380     8.0150  -999.2500     8.3850     0.0190     2.4430   134.2230
  814.0000   -54.5770     7.9640  -999.2500     8.3850     0.0200     2.4540   134.0090
  814.5000   -54.6140     7.9130  -999.2500     8.3840     0.0200     2.4670   133.7050
  815.0000   -54.6540     7.8610  -999.2500     8.3840     0.0250     2.4810   132.7380
  815.5000   -54.6920     7.8100  -999.2500     8.3830     0.0320     2.5010   131.7070
  816.0000   -54.7310     7.7590  -999.2500     8.3830     0.0310     2.5020   129.5020
  816.5000   -54.7710     7.7070  -999.2500     8.3820     0.0260     2.4950   126.8270
  817.0000   -54.8070     7.6560  -999.2500     8.3840     0.0220     2.4820   126.1310
  817.5000   -54.8490     7.6040  -999.2500     8.3910     0.0170     2.4650   129.0590
  818.0000   -54.8860     7.5530  -999.2500     8.3970     0.0130     2.4550   131.2450
  818.5000   -54.9070     7.5020  -999.2500     8.4040     0.0200     2.4560   131.0110
  819.0000   -54.7710     7.4510  -999.2500     8.4100     0.0270     2.4660   129.5370
