~VERSION INFORMATION
 VERS.                2.0:   CWLS LOG ASCII STANDARD - VERSION 2.0
 WRAP.                 NO:   ONE LINE PER DEPTH STEP
~WELL INFORMATION
#MNEM.UNIT      DATA TYPE    INFORMATION
#----------   ------------   ------------------------------
 STRT.F            6.0000:   START DEPTH
 STOP.F         3190.0000:   STOP DEPTH
 STEP.F            0.5000:   STEP LENGTH
 NULL.          -999.2500:   NO VALUE
 COMP. LAWRENCE ALLISON & ASSOCIATES:   COMPANY
 WELL. LAWRENCE N. P. R. 73AX #3-3:   WELL
 FLD .              N P R:   FIELD
 LOC .       S3 T38N R78W:   LOCATION
 CNTY.            NATRONA:   COUNTY
 STAT.            WYOMING:   STATE
 CTRY. UNITED STATES OF AMERICA:   COUNTRY
 SRVC.      DRESSER ATLAS:   SERVICE COMPANY
 DATE.        04-JUN-1986:   LOGDATE
 API .     49025110910000:   API NUMBER
~CURVE INFORMATION
#MNEM.UNIT       API CODE    CURVE DESCRIPTION
#----------   ------------   ------------------------------
 DEPT.F                  :   
 CALD.IN     45 280 60 00:   CALIPER FROM DENSITY LOG
 DEN .LBS    45 635 01 00:   BUCK DENSITY
 CORR.G/C3   45 356 01 00:   DENSITY CORRECTION
 TEND.LBS    45 635 01 00:   TENSION FROM DENSITY LOG
 SPR .MV     07 010 01 00:   SPONTANEOUS POTENTIAL
 GRR .GAPI   07 310 01 00:   GAMMA RAY FROM RESISTIVITY
 SFLU.OHMM   07 220 01 00:   SPHERICALLY FOCUSED LOG UNAVERAGED RESISTIVITY
 ILD .OHMM   07 120 46 00:   DEEP INDUCTION RESISTIVITY
 ILM .OHMM   07 120 44 00:   INDUCTION LOG MEDIUM RESISTIVITY
 TENR.LBS    07 635 01 00:   TENSION FROM RESISTIVITY
 CNC .DEC    42 890 01 00:   NEUTRON PORISITY LIMESTONE
~PARAMETER INFORMATION
#MNEM.UNIT          VALUE    DESCRIPTION
#----------   ------------   ------------------------------
 EKB .F         5173.0000:   Kelly bushing
 EGL .F         5161.0000:   Ground level
 TD  .F         3170.0000:   Total depth
 DATE.        04-JUN-1986:   Date logged
 CLNT.            A2DTECH:   Client Code
 PD  .                 GL:   Permanent Datum
 EPD .F              5161:   Elevation Permanent Datum
 LMF .                 KB:   Log Measured From
 DMF .                 KB:   Drilling Measured From
 DAPD.F                12:   Feet Above Permanent Datum
 DD  .F              3170:   Depth driller
 DL  .F              3168:   Depth logger
 BLI .F               8.9:   Bottom log interval
 TLI .F                38:   Top log interval
 CS1 .IN            8.625:   Casing size
 CBD1.      8.625" @ 603':   Casing driller 1
 CBL1.F               602:   Casing logger 1
 BS1 .IN            7.875:   Bit size
 BSD1.F              3170:   Depth drilled with bit1
 DFT .        KCL/POLYMER:   Type fluid in hole
 DFD .                8.9:   Density
 DFV .                 38:   Viscosity
 DFPH.                9.0:   pH
 DFL .               13.2:   Fluid loss
 MSS .           FLOWLINE:   Source of sample
 RMS .OHMM           .446:   Rm
 MST .F                64:   Rm Meas. temp.
 RMF .OHMM           .361:   Rmf
 MFST.F                64:   Rmf Meas. temp.
 RMC .OHMM            .56:   Rmc
 MCST.F                64:   Rmc Meas. temp.
 MFSS.               MEAS:   Source Rmf.
 MCSS.               CALC:   Source Rmc.
 RMB .OHMM           .242:   Rm. at BHT
 BHT .F               118:   BHT.
 TCS .HRS               3:   Time Circ. stopped
 MRT .F               118:   Maximum recorded temp.
 LUN .               6274:   Logging unit number
 LUL .           GILLETTE:   Logging unit location
 WITN.             STRONG:   Witnessed by
 ORIG.           5" PRINT:   Origin of data
 UWI .     49025110910000:   Unique Well ID
 DICO. A2D TECHNOLOGIES, INC.:   Digitizing Company
~OTHER INFORMATION
~A    DEPT    CALD        DEN       CORR       TEND        SPR         GRR      SFLU        ILD        ILM       TENR        CNC   
# ...
 2293.5000     9.9600     2.5286     0.0587   -57.2242   -55.1261   119.5303     7.3315     5.5540     5.3826   -28.5673     0.2843
 2294.0000     9.9599     2.5216     0.0523   -57.3212   -55.1265   120.3340     7.1306     5.3520     5.1858   -38.6258     0.3166
 2294.5000     9.9599     2.5105     0.0466   -47.3491   -54.9258   120.7353     6.8712     5.0627     4.7438   -18.5048     0.3469
 2295.0000     9.9598     2.4954     0.0466   -57.5152   -54.9262   121.1365     5.6573     4.8336     4.7000   -38.6233     0.3291
 2295.5000     9.9396     2.4692     0.0688   -67.7010   -54.7254   123.5501     5.2534     4.7011     4.6565   -48.6821     0.3223
 2296.0000     9.9395     2.4501     0.0809   -57.7286   -54.7259   124.3537     5.1569     4.6148     4.6997   -48.6810     0.3206
 2296.5000     9.9799     2.4511     0.0930   -57.8257   -54.7263   121.9378     5.3512     4.6575     4.6995   -48.6799     0.2984
 2297.0000     9.9597     2.5005     0.0548   -57.9227   -54.9280   120.3269     5.9245     4.7007     4.7431   -38.6187     0.2617
 2297.5000     9.9394     2.5156     0.0447   -58.0197   -54.9285   117.5086     6.0351     4.7443     4.7871   -38.6176     0.2601
 2298.0000     9.9394     2.5166     0.0246   -37.9770   -54.7278   116.3002     5.9793     4.6571     4.6991   -28.5563     0.2693
 2298.5000     9.9797     2.5136     0.0145   -58.2137   -54.9294   116.2990     5.9791     4.5294     4.6557   -28.5551     0.2940
 2299.0000     9.9393     2.5116     0.0004   -58.3107   -55.1311   118.7124     6.0345     4.4876     4.5281   -28.5539     0.2984
 2299.5000     9.9392     2.5025     0.0005   -58.4077   -55.1315   120.3207     6.0343     4.4051     4.4449   -28.5527     0.3024
 2300.0000     9.9392     2.5015     0.0166   -48.4345   -54.7295   121.1245     5.8148     4.3644     4.3230   -28.5522     0.3206
 2300.5000     9.9567     2.4854     0.0502   -58.3243   -54.6263   123.4941     5.2064     4.2632     4.2892   -34.1852     0.3388
 2301.0000     9.9391     2.4723     0.0589   -58.5216   -54.5287   127.5630     5.0152     4.2455     4.2443   -46.7531     0.3400
 2301.5000     9.9391     2.4491     0.0609   -58.5226   -54.4311   127.5630     4.9236     4.2458     4.2446   -49.1130     0.3363
 2302.0000     9.9592     2.4371     0.0529   -58.5239   -54.3334   127.5630     4.8337     4.2462     4.4051   -39.1987     0.3161
 2302.5000     9.9390     2.4230     0.0678   -68.5952   -54.3272   126.3557     4.5729     4.2860     4.4877   -39.3449     0.3040
 2303.0000     9.9390     2.4441     0.0770   -58.5260   -54.5284   123.9412     5.7109     4.2863     4.5298   -29.4303     0.3016
 2303.5000     9.9591     2.4753     0.0790   -58.5270   -54.7296   119.5147     6.6230     4.3265     4.5302   -29.5765     0.3008
 2304.0000     9.9591     2.4904     0.0589   -48.4580   -54.9308   118.7099     6.8101     4.3268     4.5726   -29.7226     0.3077
 2304.5000     9.9388     2.4955     0.0488   -48.4591   -54.9308   119.9171     6.1513     4.3674     4.5730   -29.8688     0.3105
 2305.0000     9.9388     2.4975     0.0420   -48.4602   -55.1320   122.7340     4.9263     4.4907     4.5733   -30.0150     0.3081
 2305.5000     9.9792     2.4904     0.0509   -38.3914   -55.5344   122.7340     4.8363     4.7038     4.6162   -30.1612     0.2983
 2306.0000     9.9791     2.4904     0.0529   -38.3925   -55.3332   118.7099     5.0658     5.0191     4.7029   -30.3073     0.2854
 2306.5000     9.9387     2.4915     0.0408   -48.4635   -55.3332   113.4785     6.3855     5.1609     4.9719   -30.4535     0.2907
 2307.0000     9.9588     2.4965     0.0347   -48.4646   -55.1320   113.4785     7.0054     5.2577     5.1123   -30.6289     0.3036
 2307.5000     9.9734     2.5025     0.0347   -48.4657   -54.9308   116.2954     6.8801     5.3071     5.2083   -30.7751     0.3202
 2308.0000     9.9184     2.5126     0.0569   -48.4668   -55.1320   118.3074     6.8146     5.4569     5.3554   -20.8594     0.3194
 2308.5000     9.9385     2.5227     0.0710   -48.4679   -55.1320   120.7219     7.0722     5.5081     5.4559   -21.0055     0.3016
 2309.0000     9.9789     2.5187     0.0972   -48.4690   -54.9308   120.7219     7.0076     5.5598     5.4563   -31.2137     0.2971
 2309.5000     9.9788     2.5116     0.0972   -58.5397   -55.1320   119.9171     6.8162     5.5090     5.5075   -31.3014     0.2894
 2310.0000     9.8980     2.5146     0.1032   -58.5407   -55.1320   117.9050     6.7540     5.4083     5.4069   -41.5683     0.2902
 2310.5000     9.9384     2.5187     0.0630   -38.4031   -55.1320   114.6857     7.0093     5.2121     5.3575   -31.6522     0.2983
 2311.0000     9.9787     2.5136     0.0287   -28.3349   -54.9308   110.6616     6.8813     5.0698     5.2596   -31.7984     0.2987
 2311.5000     9.9383     2.4824     0.0227   -28.3361   -54.9308   110.2592     5.9896     5.1173     5.2600   -21.8821     0.2996
 2312.0000     9.9382     2.4532     0.0569   -28.3373   -54.7296   111.0640     5.4602     5.2134     5.2604   -22.0282     0.3287
 2312.5000     9.9584     2.4492     0.0730   -38.4077   -54.7296   112.6736     5.2623     5.3606     5.3591   -42.2706     0.3295
 2313.0000     9.9584     2.4703     0.0610   -38.4089   -54.5284   114.6857     6.4516     5.4110     5.4095   -22.3496     0.3250
 2313.5000     9.9583     2.4935     0.0562   -48.4792   -54.4788   115.8930     7.4134     5.4617     5.5110   -22.4957     0.3100
 2314.0000     9.9785     2.4996     0.0630   -48.4803   -54.4293   116.2954     7.6937     5.3125     5.4607   -12.5788     0.2975
 2314.5000     9.9784     2.5056     0.0724   -38.4123   -54.3798   113.4785     7.4146     5.2155     5.2625   -12.6372     0.2773
 2315.0000     9.9986     2.5056     0.0751   -38.4135   -54.3272   111.8688     7.0798     5.0262     4.7975   -22.9341     0.2599
 2315.5000     9.9784     2.5016     0.0489   -38.4147   -54.5284   111.4664     6.8229     4.7992     4.6474   -23.0803     0.2793
 2316.0000     9.9783     2.4986     0.0449   -38.4158   -54.5284   113.8809     6.3363     4.3349     4.0994   -23.2264     0.3048
 2316.5000     9.9985     2.4835     0.0449   -38.4170   -54.3272   115.0881     5.7232     4.2952     3.7719   -33.4069     0.3186
 2317.0000    10.0590     2.4261     0.0368   -38.4181   -54.1260   115.8930     5.1216     4.2560     3.7722   -33.5824     0.2995
 2317.5000    10.0792     2.4049     0.0449   -38.4193   -53.9247   113.0761     4.6262     4.2563     3.8788   -33.7286     0.2837
 2318.0000    10.0589     2.3234     0.0751   -38.4204   -53.9247   111.0640     4.0640     4.2566     4.4571   -33.8749     0.2720
 2318.5000     9.9579     2.3254     0.0952   -38.4216   -53.9247   109.4543     4.8461     4.1788     4.7120   -34.0211     0.2962
 2319.0000     9.9579     2.4422     0.0932   -38.4230   -53.9247   107.8447     5.9969     4.1406     4.7124   -24.1033     0.3040
 2319.5000     9.9377     2.4925     0.0207   -38.4241   -53.9247   107.0398     7.4898     3.9904     4.2564   -34.3429     0.2994
 2320.0000     9.9578     2.5409     0.0248   -38.4253   -54.1260   105.8326     8.1414     3.8814     3.8444   -44.5534     0.2845
 2320.5000     9.9376     2.5459     0.0670   -48.4948   -54.1260   107.0398     6.6414     3.6719     3.4404   -34.6354     0.2801
 2321.0000     9.9577     2.5177     0.0711   -38.4276   -53.9247   108.2471     5.4682     3.4417     3.0788   -34.7816     0.2785
 2321.5000     9.9779     2.4732     0.0887   -38.4287   -53.7235   111.4664     3.7411     3.1375     3.0226   -24.8633     0.2801
 2322.0000     9.9614     2.3919     0.0952   -38.4299   -53.3211   110.6616     3.3170     2.8869     2.9673   -35.0742     0.2861
 2322.5000     9.9576     2.3808     0.0993   -38.4310   -53.3211   108.6495     3.2264     2.7565     2.8862   -45.2852     0.2990
 2323.0000     9.9576     2.3979     0.0751   -38.4322   -53.4877   108.6495     3.3175     2.7061     2.8335   -35.3667     0.2990
 2323.5000     9.9778     2.4271     0.0691   -38.4333   -53.5223   107.0398     4.1053     2.6321     2.8337   -25.4480     0.2988
