~VERSION INFORMATION
 VERS.                2.0:   CWLS LOG ASCII STANDARD - VERSION 2.0
 WRAP.                 NO:   ONE LINE PER DEPTH STEP
~WELL INFORMATION
#MNEM.UNIT      DATA TYPE    INFORMATION
#----------   ------------   ------------------------------
 STRT.F           50.0000:   START DEPTH
 STOP.F         5698.0000:   STOP DEPTH
 STEP.F            0.5000:   STEP LENGTH
 NULL.          -999.2500:   NO VALUE
 COMP. LAWRENCE - ALLISON:   COMPANY
 WELL. LAWRENCE TPX #57-3:   WELL
 FLD .              NPR 3:   FIELD
 LOC .       S3 T38N R78W:   LOCATION
 CNTY.            NATRONA:   COUNTY
 STAT.            WYOMING:   STATE
 CTRY. UNITED STATES OF AMERICA:   COUNTRY
 SRVC.       SCHLUMBERGER:   SERVICE COMPANY
 DATE.        09-AUG-1982:   LOGDATE
 API .     49025108900000:   API NUMBER
~CURVE INFORMATION
#MNEM.UNIT       API CODE    CURVE DESCRIPTION
#----------   ------------   ------------------------------
 DEPT.F                  :   
 TEND.LBS    45 635 01 00:   TENSION FROM DENSITY LOG
 CALD.IN     45 280 60 00:   CALIPER FROM DENSITY LOG
 NPHI.DEC    42 890 03 00:   NEUTRON POROSITY SANDSTONE
 CORR.G/C3   45 356 01 00:   DENSITY CORRECTION
 RHOB.G/C3   45 350 01 00:   BULK DENSITY
 SPR .MV     11 010 01 00:   SPONTANEOUS POTENTIAL FROM RESISTIVITY
 TENR.LBS    11 635 01 00:   TENSION FROM RESISTIVITY
 GRR .GAPI   11 310 01 00:   GAMMA RAY FROM RESISTIVITY
 LLD .OHMM   11 220 10 00:   LATEROLOG DEEP
 LLS .OHMM   11 220 09 00:   LATEROLOG LOG SHALLOW
 MSFL.OHMM   11 270 04 00:   MICRO SPHERICALLY FOCUSED
~PARAMETER INFORMATION
#MNEM.UNIT          VALUE    DESCRIPTION
#----------   ------------   ------------------------------
 EKB .F         5190.0000:   Kelly bushing
 EGL .F         5180.0000:   Ground level
 EDF .F         5189.0000:   Drilling floor
 TD  .F         5686.0000:   Total depth
 CLNT.            A2DTECH:   Client Code
 SL  . 1002' FSL & 2479' FEL:   Surface Location
 PD  .                 GL:   Permanent Datum
 EPD .F              5180:   Elevation Permanent Datum
 LMF .                 KB:   Log Measured From
 DMF .                 KB:   Drilling Measured From
 DAPD.F                10:   Feet Above Permanent Datum
 DATE.        09-AUG-1982:   Date Logged [DD-MMM-YYYY]
 DD  .F              5685:   Depth driller
 DL  .F              5686:   Depth logger
 BLI .F              5683:   Bottom log interval
 TLI .F               494:   Top log interval
 CS1 .IN            9.625:   Casing size
 CBD1.      9.625" @ 500':   Casing driller 1
 CBL1.F               494:   Casing logger 1
 BS1 .IN             8.75:   Bit size
 BSD1.F              5685:   Depth drilled with bit1
 DFT .                KCL:   Type fluid in hole
 DFD .                9.0:   Density
 DFV .                 38:   Viscosity
 DFPH.                8.5:   pH
 DFL .                9.0:   Fluid loss
 MSS .            MUDTANK:   Source of sample
 RMS .OHMM           0.27:   Rm
 MST .F                79:   Rm Meas. temp.
 RMF .OHMM           0.27:   Rmf
 MFST.F                79:   Rmf Meas. temp.
 MFSS.               MEAS:   Source Rmf.
 RMB .OHMM            .13:   Rm. at BHT
 BHT .F               164:   BHT.
 TCS .HRS            1300:   Time Circ. stopped
 MRT .F               164:   Maximum recorded temp.
 LUN .               8035:   Logging unit number
 LUL .               CSPR:   Logging unit location
 ENGI.            PERAKIS:   Recorded By
 WITN.           L. FIVAS:   Witnessed by
 ORIG.        2" 5" PRINT:   Origin of data
 UWI .     49025108900000:   Unique Well ID
 DICO. A2D TECHNIOLOGIES,INC.:   Digitizing Company
 RMC .OHMM           0.41:   Rmc
 MCST.F                79:   Rmc Meas. temp.
 MCSS.               CALC:   Source Rmc.
 TLAB.HRS            2000:   Time logger at bottom
~OTHER INFORMATION
~A  DEPTH     TEND       CALD       NPHI       CORR       RHOB        SPR       TENR        GRR        LLD        LLS       MSFL
# ...
 5326.5000  1937.6924    10.7557     0.2012     0.0039     2.6535   -61.2673  1988.3230    83.9367    16.8098    10.4124    15.7312
 5327.0000  1937.8015    10.7415     0.2006     0.0032     2.6410   -57.1583  1987.2476    84.5636    16.1382    10.1466    13.2122
 5327.5000  1937.8386    10.7430     0.2072     0.0040     2.6306   -53.6664  1986.3695    84.5871    15.3873     9.8776    11.7534
 5328.0000  1932.4229    10.7442     0.2156     0.0064     2.6292   -52.1824  1985.4915    82.1973    14.5709     9.4193    11.4431
 5328.5000  1918.8711    10.7453     0.2237     0.0112     2.6516   -52.2578  1984.6124    78.6010    14.0853     9.1696    11.3731
 5329.0000  1905.2477    10.7314     0.2285     0.0198     2.6717   -52.3621  1983.7344    77.4154    13.8042     9.0488    11.4572
 5329.5000  1894.4062    10.7176     0.2285     0.0288     2.6764   -52.4698  1982.8553    79.0084    13.8110     9.0564    11.1538
 5330.0000  1887.1199    10.7188     0.2297     0.0408     2.6666   -52.5738  1981.9773    81.0907    13.9141     9.1251    10.8567
 5330.5000  1879.8336    10.7052     0.2354     0.0743     2.6644   -52.6829  1981.0992    82.9242    13.9206     9.9175    10.7127
 5331.0000  1887.4354    10.6913     0.2405     0.0953     2.6636   -52.4746  1980.2395    84.7577    13.9271     9.9242    10.8701
 5331.5000  1902.0081    10.6774     0.2408     0.0946     2.6533   -52.0992  1979.3413    86.8928    13.9337     9.7893    11.2588
 5332.0000  1917.6707    10.6633     0.2414     0.0752     2.6407   -51.7207  1978.4431    85.4080    14.0363     9.8710    11.6615
 5332.5000  1910.9294    10.6344     0.2446     0.0468     2.6385   -51.3424  1977.3658    77.8901    14.5339    10.6547    11.9955
 5333.0000  1903.6432    10.6208     0.2495     0.0187     2.6430   -50.9677  1976.4869    75.5003    15.3627    11.3593    12.4319
 5333.5000  1897.5903    10.6220     0.2521     0.0076     2.6394   -50.5960  1975.6089    75.2217    16.4801    12.3148    14.3734
 5334.0000  1897.5903    10.6081     0.2452     0.0017     2.6386   -50.2298  1974.8500    73.4213    18.2103    13.4922    15.1967
 5334.5000  1897.5903    10.6093     0.2328     0.0159     2.6499   -49.8660  1973.8518    66.4746    20.5353    15.2823    13.2469
 5335.0000  1898.9960    10.5954     0.2241     0.0279     2.6658   -49.4961  1973.0536    53.5792    23.5725    17.3098    12.3708
 5335.5000  1902.3962    10.5969     0.2069     0.0085     2.6872   -49.0537  1972.0947    40.9330    31.9119    21.4417    17.0058
 5336.0000  1905.7965    10.6131     0.1590    -0.0063     2.7260   -47.9444  1971.2167    29.4935    55.3301    35.2206    29.9738
 5336.5000  1909.1968    10.5842     0.1109    -0.0115     2.7864   -46.8738  1970.3593    27.1038    74.9045    50.4133  1072.1859
 5337.0000  1912.5970    10.5550     0.0700    -0.0062     2.8655   -45.8772  1969.4614    25.3173    79.7218    57.1016  1036.5177
 5337.5000  1915.9973    10.4963     0.0567    -0.0032     2.8744   -45.2513  1968.5631    24.7316    86.0233    66.4829   397.2405
 5338.0000  1913.9702    10.4523     0.0509    -0.0031     2.8737   -44.8274  1967.6649    25.6660    86.7597    77.5157   135.3804
 5338.5000  1906.6838    10.4226     0.0476    -0.0023     2.8768   -44.4392  1966.7666    24.7843   120.4583   105.7266   601.8667
 5339.0000  1899.3976    10.4096     0.0410     0.0067     2.8910   -44.0146  1965.8684    25.5390   155.5943   154.3058  1010.7785
 5339.5000  1897.5903    10.4110     0.0418     0.0522     2.9067   -43.3935  1964.9701    31.3134   137.5516   123.0324   751.6038
 5340.0000  1897.5903    10.3969     0.0629     0.0999     2.9134   -42.8553  1963.9692    29.6876    89.2502    68.1101   135.7154
 5340.5000  1897.5903    10.3529     0.0761     0.0872     2.8568   -42.3841  1963.0912    20.3597    66.8942    75.5694   220.1874
 5341.0000  1897.5903    10.2792     0.0741     0.0166     2.8248   -41.9088  1962.2754    16.4616   137.7450   157.9496   932.7120
 5341.5000  1897.5903    10.2202     0.0439    -0.0035     2.8361   -41.4698  1961.3341    15.2726  1659.1134   920.7288  1773.6843
 5342.0000  1897.5903    10.1762     0.0255    -0.0019     2.8778   -41.0899  1960.4552    16.5087  1818.5101   940.4144  1578.3699
 5342.5000  1897.5903    10.1173     0.0291     0.0033     2.9025   -41.0852  1959.5771    26.1853  1415.0391   776.2066  1110.6628
 5343.0000  1897.5903    10.0722     0.0625     0.0101     2.8660   -41.0026  1958.6824    38.2752   843.2396   302.4841   545.7639
 5343.5000  1897.5903    10.0294     0.0814     0.0139     2.8049   -40.9296  1957.7841    54.2866   276.4623    98.9925   225.6655
 5344.0000  1897.5903     9.9707     0.1175     0.0102     2.7317   -40.3369  1956.7218    70.4380   135.3293    59.7409    34.0521
 5344.5000  1897.5903     9.9268     0.1476     0.0035     2.6447   -39.6289  1955.8438    76.6623    44.7711    42.0392    18.5586
 5345.0000  1897.5903     9.8826     0.1717    -0.0041     2.6158   -39.2012  1954.9657    79.7025    28.6531    37.9405    16.5135
 5345.5000  1897.5903     9.8239     0.1876    -0.0068     2.6091   -38.8346  1954.0867    82.4409    23.4859    36.6815    15.1052
 5346.0000  1897.5903     9.7947     0.1927    -0.0053     2.6226   -38.4545  1953.2086    81.2578    22.2398    36.7062    14.9819
 5346.5000  1897.5903     9.7660     0.1912    -0.0015     2.6405   -38.0714  1952.3297    75.5498    21.9462    38.5441    19.3313
 5347.0000  1898.0087     9.7371     0.1782     0.0023     2.6570   -37.6749  1951.4517    68.0318    25.7510    40.7536    25.6476
 5347.5000  1900.0919     9.7233     0.1499     0.0038     2.6816   -36.9074  1950.5735    55.9890    49.4166    46.4792    41.2144
 5348.0000  1902.1752     9.7094     0.1147    -0.0095     2.7226   -36.3317  1949.7008    41.2312   171.6176    60.0018   135.2120
 5348.5000  1904.2584     9.6808     0.0806    -0.0177     2.7801   -35.9719  1948.8025    24.9144  1864.6016   151.1041   588.3499
 5349.0000  1906.3417     9.6669     0.0492    -0.0228     2.8554   -35.6089  1947.9042    19.1452  2673.8025  1394.7839  2027.8280
 5349.5000  1908.4249     9.6528     0.0240    -0.0168     2.8845   -35.4509  1946.8402    17.1691  5801.5894  2859.0281  1987.4846
 5350.0000  1910.5082     9.6389     0.0252    -0.0101     2.8972   -35.3790  1967.2131    24.4344  4921.6270  3374.8853  1894.8844
 5350.5000  1912.5914     9.6250     0.0342    -0.0018     2.8875   -35.2999  1966.4679    31.2458  2900.4224  3494.8267  1757.3881
 5351.0000  1914.6747     9.6115     0.0447     0.0050     2.8757   -34.9262  1965.7228    37.7600  1721.0720  1651.8844  1574.5623
 5351.5000  1916.7579     9.5749     0.0577     0.0020     2.8668   -34.5087  1979.9301    42.3083   854.1315  1204.3508  1372.3291
 5352.0000  1914.2925     9.5675     0.0598    -0.0031     2.8660   -34.0574  1981.8180    44.7450   825.5662   902.5775   852.7661
 5352.5000  1908.2802     9.5836     0.0507    -0.0076     2.8735   -33.5927  1993.3756    38.7352  1336.4766   704.8226   779.5405
 5353.0000  1902.2679     9.5845     0.0366    -0.0098     2.8892   -33.2060  1992.4645    33.9320  1978.3990  1198.5033  1452.9515
 5353.5000  1896.1722     9.5703     0.0275    -0.0104     2.9014   -32.8338  1991.7361    28.2239  2849.4436  1686.1281  1704.8850
 5354.0000  1889.7842     9.5712     0.0227    -0.0096     2.9080   -32.5928  1991.0068    21.5999 12409.9346  2981.4197  1740.8447
 5354.5000  1883.3961     9.5570     0.0205    -0.0073     2.9035   -32.4610  1975.3752    20.0843 28131.7461  3876.2537  1828.4109
 5355.0000  1877.5100     9.5579     0.0193    -0.0051     2.9021   -32.3775  1974.6467    18.9485 41930.9102  4063.9866  1987.5784
 5355.5000  1884.8595     9.5439     0.0196    -0.0028     2.9081   -32.2921  1959.0145    17.1619 48132.5938  4235.3516  2058.6616
 5356.0000  1891.6733     9.5448     0.0193    -0.0012     2.9245   -32.1296  1958.2715    15.3754 49838.8398  4264.6069  2074.2063
 5356.5000  1898.4313     9.5457     0.0193    -0.0049     2.9335   -31.9712  1957.5264    14.1921 49862.7617  4264.6069  2060.8889
