~VERSION INFORMATION
 VERS.                2.0:   CWLS LOG ASCII STANDARD - VERSION 2.0
 WRAP.                 NO:   ONE LINE PER DEPTH STEP
~WELL INFORMATION
#MNEM.UNIT      DATA TYPE    INFORMATION
#----------   ------------   ------------------------------
 STRT.F          172.0000:   START DEPTH
 STOP.F         3376.0000:   STOP DEPTH
 STEP.F            0.5000:   STEP LENGTH
 NULL.          -999.2500:   NO VALUE
 COMP.    FENIX & SCISSON:   COMPANY
 WELL. FENIX NPR 3 "AX" #23-2:   WELL
 FLD .                NPR:   FIELD
 LOC .       S2 T38N R78W:   LOCATION
 CNTY.            NATRONA:   COUNTY
 STAT.            WYOMING:   STATE
 CTRY. UNITED STATES OF AMERICA:   COUNTRY
 SRVC.              WELEX:   SERVICE COMPANY
 DATE.        02-DEC-1980:   LOGDATE
 API .     49025108740000:   API NUMBER
~CURVE INFORMATION
#MNEM.UNIT       API CODE    CURVE DESCRIPTION
#----------   ------------   ------------------------------
 DEPT.F                  :   
 CALD.IN     45 280 60 00:   CALIPER FROM DENSITY LOG
 CORR.G/C3   45 356 01 00:   DENSITY CORRECTION
 GRD .GAPI   45 310 01 00:   GAMMA RAY FROM DENSITY LOG
 RHOB.G/C3   45 350 01 00:   BULK DENSITY
 TENR.LBS    07 635 01 00:   TENSION
 SPR .MV     07 010 01 00:   SPONTANEOUS POTENTIAL
 SGRD.OHMM   07 220 05 00:   SHALLOW GUARD
 ILD .OHMM   07 120 46 00:   INDUCTION LOG DEEP RESISTIVITY
 ILM .OHMM   07 120 44 00:   INDUCTION LOG MEDIUM RESISTIVITY
~PARAMETER INFORMATION
#MNEM.UNIT          VALUE    DESCRIPTION
#----------   ------------   ------------------------------
 EKB .F         5133.0000:   Kelly bushing
 EGL .F         5123.0000:   Ground level
 EDF .F            0.0000:   Drilling floor
 TD  .F         3375.0000:   Total depth
 DATE.        02-DEC-1980:   Date logged
 CLNT.            A2DTECH:   Client Code
 SL  . 3800' FSL & 827' FWL:   Surface Location
 PD  .                 GL:   Permanent Datum
 EPD .F              5123:   Elevation Permanent Datum
 LMF .                 KB:   Log Measured From
 DMF .                 KB:   Drilling Measured From
 DAPD.F                10:   Feet Above Permanent Datum
 DD  .F              3375:   Depth driller
 DL  .F              3373:   Depth logger
 BLI .F              3371:   Bottom log interval
 TLI .F               181:   Top log interval
 CS1 .IN            8.625:   Casing size
 CBD1.      8.625" @ 181':   Casing driller 1
 CBL1.F               181:   Casing logger 1
 BS1 .IN            7.875:   Bit size
 BSD1.F              3375:   Depth drilled with bit1
 DFT .           CHEM/GEL:   Type fluid in hole
 DFD .                8.8:   Density
 DFV .                 45:   Viscosity
 DFPH.                  9:   pH
 DFL .                 16:   Fluid loss
 MSS .           FLOWLINE:   Source of sample
 RMS .OHMM           1.25:   Rm
 MST .F                64:   Rm Meas. temp.
 RMF .OHMM           1.17:   Rmf
 MFST.F                64:   Rmf Meas. temp.
 RMC .OHMM            1.1:   Rmc
 MCST.F                64:   Rmc Meas. temp.
 MFSS.               MEAS:   Source Rmf.
 MCSS.               MEAS:   Source Rmc.
 RMB .OHMM            .67:   Rm. at BHT
 BHT .F               120:   BHT.
 TCS .HRS               2:   Time Circ. stopped
 MRT .F               120:   Maximum recorded temp.
 LUN .               1892:   Logging unit number
 LUL .             CASPER:   Logging unit location
 ENGI.  PFRIMMER/MONNAHAN:   Recorded By
 WITN.              FIVAS:   Witnessed by
 ORIG.           5" PRINT:   Origin of data
 UWI .     49025108740000:   Unique Well ID
 DICO. A2D TECHNOLOGIES, INC.:   Digitizing Company
~OTHER INFORMATION
~A   DEPT     CALD       CORR         GRD      RHOB       TENR        SPR       SGRD        ILD        ILM   
# ...
 1851.0000     9.4230     0.0430   128.9320     2.4490   534.5740   -17.5810     8.4920     7.5470     7.8310
 1851.5000     9.4260     0.0390   128.4190     2.4800   536.8120   -17.6370     8.9220     7.5230     7.8050
 1852.0000     9.4290     0.0340   127.9100     2.5260   539.0510   -17.6940     9.2840     7.4980     7.7800
 1852.5000     9.4320     0.0310   127.4100     2.5640   541.2890   -17.7510     9.6610     7.4740     7.7540
 1853.0000     9.4240     0.0300   127.4910     2.5640   543.5270   -17.7990     9.3970     7.4490     7.7290
 1853.5000     9.4140     0.0290   127.6140     2.5630   545.7650   -17.7970     9.2390     7.4240     7.7030
 1854.0000     9.4030     0.0280   127.7350     2.5600   548.0030   -17.8040     8.9750     7.4000     7.6780
 1854.5000     9.3930     0.0270   128.1300     2.5570   550.2410   -17.7970     9.1420     7.3750     7.6520
 1855.0000     9.3830     0.0270   128.8850     2.5530   552.2090   -17.7810     9.2740     7.3510     7.6260
 1855.5000     9.3730     0.0260   129.9480     2.5450   560.1840   -17.5100     9.1880     7.3260     7.6010
 1856.0000     9.3630     0.0250   132.0280     2.5330   567.2980   -17.2550     9.0150     7.3010     7.5750
 1856.5000     9.3520     0.0220   134.0760     2.5390   574.4120   -16.9890     8.8430     7.2770     7.5500
 1857.0000     9.3420     0.0210   135.2680     2.5470   581.5260   -16.7210     8.6700     7.2520     7.5250
 1857.5000     9.3320     0.0200   136.2290     2.5430   588.6400   -16.4660     8.4970     7.2280     7.4980
 1858.0000     9.3220     0.0180   134.4840     2.5380   595.7540   -16.2250     8.3370     7.2030     7.4660
 1858.5000     9.3120     0.0180   132.2730     2.5330   602.8690   -16.3890     8.3830     7.1880     7.4780
 1859.0000     9.3020     0.0190   129.5750     2.5320   609.9830   -16.5630     8.4260     7.1770     7.5000
 1859.5000     9.2910     0.0210   126.5830     2.5390   612.7780   -16.7530     8.4690     7.1660     7.5230
 1860.0000     9.2810     0.0210   123.4080     2.5460   613.2810   -16.9330     8.4920     7.1560     7.5450
 1860.5000     9.2710     0.0190   124.2010     2.5440   613.7840   -17.1160     8.4990     7.1450     7.5660
 1861.0000     9.2610     0.0170   125.8260     2.5380   614.2870   -17.2990     8.5250     7.1340     7.5880
 1861.5000     9.2510     0.0160   127.5130     2.5310   614.7900   -17.4830     8.5510     7.1230     7.6100
 1862.0000     9.2400     0.0160   129.1830     2.5260   615.2930   -17.6630     8.5780     7.1120     7.6310
 1862.5000     9.2300     0.0150   130.6070     2.5270   615.7970   -17.8510     8.6040     7.1020     7.6530
 1863.0000     9.2200     0.0150   130.6050     2.5250   616.3000   -18.0300     8.6310     7.0910     7.6750
 1863.5000     9.2100     0.0150   130.4110     2.5220   616.8030   -18.1860     8.6570     7.0800     7.6970
 1864.0000     9.2080     0.0150   129.3070     2.5120   617.3060   -18.0970     8.6830     7.0690     7.7180
 1864.5000     9.2050     0.0160   128.2040     2.5150   617.8090   -18.0110     8.7110     7.0590     7.7380
 1865.0000     9.2030     0.0160   127.3180     2.5190   618.3120   -17.9130     8.7380     7.0480     7.7260
 1865.5000     9.2010     0.0170   126.5510     2.5160   618.8150   -17.8230     8.7620     7.0370     7.7000
 1866.0000     9.1990     0.0170   125.8070     2.5090   619.3180   -17.7300     8.7880     7.0260     7.6740
 1866.5000     9.1960     0.0180   125.9320     2.5090   619.8210   -17.6370     8.8110     7.0160     7.6480
 1867.0000     9.1940     0.0180   128.0310     2.5230   620.3240   -17.5450     8.4920     7.0050     7.6230
 1867.5000     9.1920     0.0190   130.1020     2.5360   620.8270   -17.4520     8.3930     6.9940     7.5970
 1868.0000     9.1890     0.0190   130.1960     2.5480   621.3300   -17.3590     8.1850     6.9830     7.5710
 1868.5000     9.1870     0.0200   128.8490     2.5490   621.8330   -17.2680     8.1850     6.9730     7.5450
 1869.0000     9.1870     0.0210   127.5220     2.5500   622.3360   -17.1720     8.2230     6.9620     7.5200
 1869.5000     9.1750     0.0200   126.4240     2.5500   622.8390   -17.0820     8.2770     6.9510     7.4950
 1870.0000     9.1540     0.0190   124.9180     2.5480   623.3420   -17.0110     8.3370     6.9400     7.4660
 1870.5000     9.1340     0.0180   123.4350     2.5350   623.8450   -17.1140     8.3370     6.9320     7.4550
 1871.0000     9.1120     0.0160   122.6090     2.5090   624.3480   -17.2070     8.3370     6.9270     7.4430
 1871.5000     9.1280     0.0160   122.6110     2.5060   624.8510   -17.3100     8.3820     6.9210     7.4310
 1872.0000     9.1600     0.0170   123.5140     2.5110   625.3540   -17.4070     8.4920     6.9160     7.4200
 1872.5000     9.1920     0.0180   125.4080     2.5130   625.8570   -17.5060     8.4920     6.9110     7.4080
 1873.0000     9.2000     0.0180   127.3450     2.5180   626.3600   -17.6050     8.4140     6.9050     7.3960
 1873.5000     9.1730     0.0210   128.3090     2.5260   626.8630   -17.7040     8.2870     6.9000     7.3840
 1874.0000     9.1480     0.0260   129.2680     2.5340   627.3660   -17.8030     8.1870     6.8940     7.3720
 1874.5000     9.1220     0.0310   130.2160     2.5600   627.8690   -17.8980     8.1860     6.8890     7.3610
 1875.0000     9.0960     0.0350   130.9310     2.5650   628.3720   -18.0040     8.1860     6.8830     7.3490
 1875.5000     9.0690     0.0350   131.4840     2.5650   628.8750   -18.0940     8.1860     6.8780     7.3370
 1876.0000     9.0470     0.0350   132.7550     2.5590   629.3780   -18.1770     8.1860     6.8730     7.3250
 1876.5000     9.0850     0.0350   135.1110     2.5610   629.8810   -17.8750     8.1860     6.8670     7.3140
 1877.0000     9.1240     0.0350   136.3520     2.5540   630.3840   -17.5530     8.1850     6.8620     7.3020
 1877.5000     9.1630     0.0360   137.2070     2.5420   630.8870   -17.2210     8.2380     6.8560     7.2900
 1878.0000     9.1670     0.0360   137.5470     2.5350   631.3900   -16.8850     8.3080     6.8510     7.2780
 1878.5000     9.1670     0.0360   136.5060     2.5370   631.8930   -16.5700     8.3770     6.8460     7.2670
 1879.0000     9.1650     0.0360   135.5120     2.5440   632.3960   -16.2310     8.4920     6.8400     7.2550
 1879.5000     9.1630     0.0360   134.5210     2.5520   630.8170   -16.3570     8.4500     6.8350     7.2430
 1880.0000     9.1610     0.0400   133.5270     2.5590   628.4830   -16.5190     8.3370     6.8290     7.2310
 1880.5000     9.1590     0.0450   132.5350     2.5670   626.1480   -16.6980     8.2530     6.8240     7.2200
 1881.0000     9.1570     0.0490   131.5430     2.5720   623.8140   -16.8640     8.1850     6.8180     7.2080
 1881.5000     9.1550     0.0540   130.5450     2.5750   621.4800   -17.0360     8.1850     6.8140     7.1960
 1882.0000     9.1530     0.0590   129.3450     2.5730   619.1450   -17.2060     8.1850     6.8090     7.2190
 1882.5000     9.1510     0.0660   127.4070     2.5710   616.8110   -17.3750     8.1850     6.8480     7.2680
 1883.0000     9.1500     0.0720   125.4610     2.6010   614.4770   -17.5470     8.1850     6.8820     7.3180
 1883.5000     9.1480     0.0790   123.5010     2.6340   612.1420   -17.7130     8.2320     6.9170     7.3670
 1884.0000     9.1470     0.0870   125.3680     2.6420   609.8080   -17.8910     8.3010     6.9530     7.4160
 1884.5000     9.1470     0.0950   127.5480     2.6470   607.4740   -18.0560     8.3700     6.9890     7.4650
 1885.0000     9.1470     0.1040   129.2820     2.6370   605.1390   -18.1740     8.4390     7.0250     7.5140
 1885.5000     9.1470     0.1120   127.9930     2.6170   602.8050   -17.9040     8.4920     7.0600     7.5630
 1886.0000     9.1470     0.1200   126.7620     2.5930   600.4710   -17.6720     8.9990     7.0960     7.6130
 1886.5000     9.1470     0.1300   125.5410     2.5630   598.1360   -17.4160     9.6080     7.1310     7.6620
 1887.0000     9.1460     0.1330   124.3250     2.5190   595.8020   -17.1720    10.2170     7.1670     7.7110
