~VERSION INFORMATION
 VERS.                2.0:   CWLS LOG ASCII STANDARD - VERSION 2.0
 WRAP.                 NO:   ONE LINE PER DEPTH STEP
~WELL INFORMATION
#MNEM.UNIT      DATA TYPE    INFORMATION
#----------   ------------   ------------------------------
 STRT.F           32.0000:   START DEPTH
 STOP.F         5116.0000:   STOP DEPTH
 STEP.F            0.5000:   STEP LENGTH
 NULL.          -999.2500:   NO VALUE
 COMP. LAWRENCE ALLISON AND ASSOCIATES:   COMPANY
 WELL. LAWRENCE "X" #11-26:   WELL
 FLD .       N.P.R. NO. 3:   FIELD
 LOC .      S26 T38N R78W:   LOCATION
 CNTY.            NATRONA:   COUNTY
 STAT.            WYOMING:   STATE
 CTRY. UNITED STATES OF AMERICA:   COUNTRY
 SRVC.      DRESSER ATLAS:   SERVICE COMPANY
 DATE.        03-DEC-1984:   LOGDATE
 API .     49025110120000:   API NUMBER
~CURVE INFORMATION
#MNEM.UNIT       API CODE    CURVE DESCRIPTION
#----------   ------------   ------------------------------
 DEPT.F                  :   
 CALD.IN     45 280 60 00:   CALIPER FROM DENSITY LOG
 TEND.LBS    45 635 01 00:   TENSION FORM DENSITY LOG
 CORR.G/C3   45 356 01 00:   DENSITY CORRECTION
 DEN .G/C3   45 350 01 00:   BULK DENSITY
 NPHI.DEC    42 890 03 00:   NEUTRON POROSITY SANDSTONE
 GRR .GAPI   07 310 01 00:   GAMMA RAY FROM RESISTIVITY
 SPR .MV     07 010 01 00:   SPONTANEOUS POTENTIAL
 CALR.IN     07 280 01 00:   CALIPER FROM RESISTIVITY
 TENR.LBS    07 635 01 00:   TENSION FROM RESISTIVITY
 RILD.OHMM   07 120 46 00:   INDUCTION LOG DEEP RESISTIVITY
 RILM.OHMM   07 120 44 00:   INDUCTION LOG MEDIUM RESISTIVITY
 RFOC.OHMM   07 220 04 00:   RESISTIVITY FOCUSED LOG RES.
 TENS.LBS    60 635 01 00:   TENSION FROM SONIC
 DT  .US/F   60 520 00 00:   DELTA TIME
~PARAMETER INFORMATION
#MNEM.UNIT          VALUE    DESCRIPTION
#----------   ------------   ------------------------------
 EKB .F         5321.0000:   Kelly bushing
 EGL .F         5309.0000:   Ground level
 EDF .F         5320.0000:   Drilling floor
 TD  .F         5104.0000:   Total depth
 CLNT.            A2DTECH:   Client Code
 SL  . 509' FWL & 22' FNL:   Surface Location
 PD  .                 GL:   Permanent Datum
 EPD .F              5309:   Elevation Permanent Datum
 LMF .                 KB:   Log Measured From
 DMF .                 KB:   Drilling Measured From
 DAPD.F                12:   Feet Above Permanent Datum
 DATE.        03-DEC-1984:   Date Logged [DD-MMM-YYYY]
 DD  .F              5100:   Depth driller
 DL  .F              5104:   Depth logger
 BLI .F              5102:   Bottom log interval
 TLI .F              1400:   Top log interval
 CS1 .IN            9.625:   Casing size
 CBD1.     9.625' @ 1657':   Casing driller 1
 CBL1.F              1652:   Casing logger 1
 BS1 .IN            7.875:   Bit size
 DFT .            KCL GEL:   Type fluid in hole
 DFD .                90.:   Density
 DFV .                 41:   Viscosity
 DFPH.                8.9:   pH
 DFL .               12.6:   Fluid loss
 MSS .           FLOWLINE:   Source of sample
 RMS .OHMM           .327:   Rm
 MST .F                84:   Rm Meas. temp.
 RMF .OHMM            .29:   Rmf
 MFST.F                84:   Rmf Meas. temp.
 MFSS.               CALC:   Source Rmf.
 RMC .OHMM            .42:   Rmc
 MCST.F                84:   Rmc Meas. temp.
 MCSS.               CALC:   Source Rmc.
 RMB .OHMM            .23:   Rm. at BHT
 BHT .F               142:   BHT.
 TCS .HRS               4:   Time Circ. stopped
 MRT .F               142:   Maximum recorded temp.
 LUN .               6307:   Logging unit number
 LUL .               CLTE:   Logging unit location
 WITN.             STRONG:   Witnessed by
 ORIG.           5" PRINT:   Origin of data
 UWI .     49025110120000:   Unique Well ID
 DICO. A2D TECHNOLOGIES, INC.:   Digitizing Company
~OTHER INFORMATION
~A  DEPTH     CALD       TEND       CORR        DEN       NPHI        GRR        SPR       CALR       TENR       RILD       RILM       RFOC       TENS         DT
# ...
 1036.5000    12.3752   -49.2504     0.0025     2.4750     0.2669    78.9661   -83.5698  -999.2500   -56.1272     5.3139     4.5456     4.9653   -34.7944    97.9156
 1037.0000    12.3771   -50.2998     0.0255     2.4803     0.2602    81.9733   -83.4171  -999.2500   -56.1122     5.3874     4.5683     4.9660   -36.0643    97.7557
 1037.5000    12.3790   -51.3923     0.0724     2.4865     0.2635    85.2944   -83.4149  -999.2500   -56.0971     5.3866     4.5910     4.8984   -37.0802    97.8952
 1038.0000    12.3659   -52.4265     0.0903     2.4896     0.2695    86.8055   -83.4123  -999.2500   -56.0820     5.4611     4.6137     4.8316   -30.3682    98.2593
 1038.5000    12.3679   -53.4604     0.0546     2.4769     0.2721    86.1680   -83.4101  -999.2500   -56.0670     5.4604     4.6364     4.7657   -31.6381    98.6982
 1039.0000    12.3698   -54.4977     0.0473     2.4718     0.2733    86.8119   -83.4080  -999.2500   -56.0519     5.5360     4.6592     4.7007   -32.6606    98.8403
 1039.5000    12.3717   -55.5472     0.0551     2.4743     0.2769    88.0214   -83.2553  -999.2500   -56.0368     5.5353     4.6819     4.7015   -33.7069    98.7527
 1040.0000    12.3740   -56.5968     0.0613     2.4788     0.2819    85.6109   -83.1020  -999.2500   -56.0218     5.6119     4.7046     4.7677   -34.9395    98.2934
 1040.5000    12.3605   -57.8548     0.0631     2.4827     0.2822    81.9945   -83.0998  -999.2500   -56.0067     5.6110     4.7273     4.8349   -35.9554    97.8251
 1041.0000    12.3629   -58.8887     0.0588     2.4851     0.2755    81.9974   -83.0977  -999.2500   -55.9917     5.6103     4.7500     4.9716   -36.9713    96.9232
 1041.5000    12.3500   -59.9227     0.0486     2.4844     0.2707    82.9052   -82.9450  -999.2500   -55.9766     5.6095     4.7727     5.0767   -52.9348    95.6406
 1042.0000    12.3516   -60.9566     0.0353     2.4853     0.2508    84.1187   -82.7922  -999.2500   -55.9615     5.6086     4.7479     5.1126   -53.9507    95.2561
 1042.5000    12.3535   -61.9905     0.0191     2.4877     0.2427    85.3248   -82.4884  -999.2500   -55.9465     5.6079     4.7479     5.1135   -54.9666    95.3956
 1043.0000    12.3406   -63.0245     0.0058     2.4863     0.2462    85.6293   -82.4862  -999.2500   -55.9314     5.5299     4.6825     5.0437   -55.9825    95.6849
 1043.5000    12.3425   -64.0584    -0.0014     2.4729     0.2558    85.9331   -82.4841  -999.2500   -55.9164     5.4529     4.5545     4.9406   -56.9984    96.2735
 1044.0000    12.3444   -64.9926    -0.0042     2.4640     0.2669    85.3333   -82.4819  -999.2500   -55.9013     5.3769     4.4712     4.8728   -43.3205    97.0867
 1044.5000    12.3463   -66.1265     0.0141     2.4701     0.2722    85.0351   -82.4793  -999.2500   -55.8862     5.2290     4.3388     4.6755   -44.3364    98.0569
 1045.0000    12.3483   -67.1604     0.0476     2.4770     0.2758    85.3396   -82.7789  -999.2500   -55.8712     5.1205     4.2454     4.5797   -45.3523    98.9871
 1045.5000    12.3506   -68.2805     0.0674     2.4824     0.2788    85.3424   -83.0780  -999.2500   -55.8561     4.9797     4.1621     4.5174   -53.5878   100.1224
 1046.0000    12.3525   -69.1905     0.0816     2.4847     0.2832    85.0436   -83.3253  -999.2500   -55.8410     4.8719     4.1334     4.5180   -54.8577   100.5613
 1046.5000    12.3544   -62.5937     0.0677     2.4817     0.2961    84.7448   -83.3744  -999.2500   -55.8260     4.7421     4.0765     4.5818   -48.3558   100.8531
 1047.0000    12.3712   -63.7999     0.0394     2.4805     0.3087    84.4460   -83.4054  -999.2500   -55.8109     4.6762     4.0738     4.6787   -41.9282   100.8404
 1047.5000    12.3729   -64.8426     0.0427     2.4829     0.3086    84.7511   -83.5203  -999.2500   -55.7959     4.6755     4.0204     4.7446   -42.9745   100.6805
 1048.0000    12.3751   -65.8921     0.0669     2.4883     0.2891    87.1680   -83.5180  -999.2500   -55.7808     4.6104     4.0204     4.8116   -51.7013   100.3709
 1048.5000    12.3770   -66.9414     0.0552     2.4824     0.2854    88.3767   -83.3652  -999.2500   -55.7657     4.6098     4.0204     4.7130   -52.7172   100.1362
 1049.0000    12.3789   -60.4396     0.0404     2.4735     0.2839    86.8719   -83.3629  -999.2500   -55.7507     4.6091     3.9926     4.7138   -46.0053    99.9760
 1049.5000    12.3808   -61.7320     0.0332     2.4705     0.2775    85.0457   -83.3605  -999.2500   -55.7356     4.6085     3.9650     4.7145   -54.7490    99.9636
 1050.0000    12.3830   -55.0112     0.0514     2.4684     0.2564    85.9733   -83.0571  -999.2500   -55.7206     4.6079     3.9650     4.6403   -55.5109    99.8787
 1050.5000    12.3699   -56.3039     0.0697     2.4588     0.2564    88.9894   -82.9748  -999.2500   -55.7055     4.6392     3.9926     4.4925   -49.1466   100.9172
 1051.0000    12.3877   -49.5829     0.0729     2.4484     0.2615    90.1961   -82.7511  -999.2500   -55.6904     4.6711     4.0483     4.4312   -50.3219   101.9556
 1051.5000    12.4200   -58.9217     0.0462     2.4475     0.2680    90.7994   -82.4478  -999.2500   -55.6754     4.7356     4.1911     4.4628   -58.7360   102.9965
 1052.0000    12.4372   -45.1694     0.0170     2.4599     0.2725    88.3861   -82.4457  -999.2500   -55.6603     4.8012     4.3089     4.6528   -59.6763   102.3859
 1052.5000    12.4545   -38.9134    -0.0150     2.4735     0.2833    85.6712   -82.1423  -999.2500   -55.6452     4.9699     4.4608     4.8175   -60.6166    99.3824
 1053.0000    12.4718   -40.4636    -0.0417     2.4879     0.2895    86.5762   -81.8384  -999.2500   -55.6302     5.1091     4.5545     4.9536   -61.5566    94.9638
 1053.5000    12.4741   -41.7038    -0.0431     2.4903     0.2883    85.3695   -81.8363  -999.2500   -55.6151     5.2523     4.6825     4.9889   -62.4969    91.7265
 1054.0000    12.4765   -42.9440    -0.0338     2.4881     0.2747    81.7496   -81.8342  -999.2500   -55.6001     5.3621     4.6825     4.9549   -63.4372    92.2410
 1054.5000    12.4495   -44.1845    -0.0201     2.4724     0.2699    79.6380   -81.8320  -999.2500   -55.5850     5.4780     4.7151     4.8875   -49.4298    94.2526
 1055.0000    12.4518   -45.4248     0.0041     2.4673     0.2699    77.5264   -82.1311  -999.2500   -55.5699     5.5116     4.7151     4.8542   -50.6051    98.8090
 1055.5000    12.4542   -46.6650     0.0494     2.4730     0.2745    78.7330   -82.4296  -999.2500   -55.5549     5.5107     4.7151     4.8550   -51.5454   100.7481
 1056.0000    12.4562   -47.9052     0.0931     2.4713     0.2767    82.0513   -82.7292  -999.2500   -55.5398     5.5100     4.7479     4.8896   -52.4857   100.5117
 1056.5000    12.4588   -49.1753     0.0993     2.4676     0.2754    85.3695   -82.9409  -999.2500   -55.5248     5.5092     4.7479     4.9585   -68.3737    99.8982
 1057.0000    12.4612   -50.6959     0.0666     2.4655     0.2685    86.5762   -83.0371  -999.2500   -55.5097     5.4324     4.7011     4.9936   -69.3139    98.6158
 1057.5000    12.4785   -44.1296     0.0428     2.4671     0.2660    85.3695   -83.3247  -999.2500   -55.4946     5.3568     4.6795     5.0640   -62.7804    97.0380
 1058.0000    12.4807   -53.1763     0.0340     2.4770     0.2615    83.5596   -83.3220  -999.2500   -55.4796     5.2823     4.6181     5.0999   -56.2466    96.6543
 1058.5000    12.4831   -46.9203     0.0282     2.4861     0.2585    82.3529   -83.3199  -999.2500   -55.4645     5.2088     4.5545     5.0655   -57.4219    96.8694
 1059.0000    12.4855   -48.1605     0.0465     2.4945     0.2617    82.3228   -83.3178  -999.2500   -55.4494     5.1006     4.4608     4.9276   -58.3622    97.3091
 1059.5000    12.4879   -49.4007     0.0617     2.4991     0.2650    82.9916   -83.0139  -999.2500   -55.4344     5.0296     4.3979     4.8269   -59.3025    97.8236
 1060.0000    12.4923   -43.1033     0.0529     2.4992     0.2769    83.5596   -82.8612  -999.2500   -55.4193     4.9253     4.3089     4.7611   -60.2428    98.0388
 1060.5000    12.5076   -36.8815     0.0366     2.4894     0.2766    83.8612   -82.7084  -999.2500   -55.4043     4.8568     4.3089     4.7288   -61.1831    98.4082
