~VERSION INFORMATION
 VERS.                2.0:   CWLS LOG ASCII STANDARD - VERSION 2.0
 WRAP.                 NO:   ONE LINE PER DEPTH STEP
~WELL INFORMATION
#MNEM.UNIT      DATA TYPE    INFORMATION
#----------   ------------   ------------------------------
 STRT.F           11.5000:   START DEPTH
 STOP.F         1726.0000:   STOP DEPTH
 STEP.F            0.5000:   STEP LENGTH
 NULL.          -999.2500:   NO VALUE
 COMP. LAWRENCE ALLISON & ASSOC WEST:   COMPANY
 WELL. LAWRENCE NPR 3 "X" #51-26:   WELL
 FLD .                NPR:   FIELD
 LOC .      S26 T38N R78W:   LOCATION
 CNTY.            NATRONA:   COUNTY
 STAT.            WYOMING:   STATE
 CTRY. UNITED STATES OF AMERICA:   COUNTRY
 SRVC.      DRESSER ATLAS:   SERVICE COMPANY
 DATE.        13-AUG-1983:   LOGDATE
 API .     49025109270000:   API NUMBER
~CURVE INFORMATION
#MNEM.UNIT       API CODE    CURVE DESCRIPTION
#----------   ------------   ------------------------------
 DEPT.F                  :   
 CALD.IN     45 280 60 00:   CALIPER FROM DENSITY LOG
 RHOB.G/C3   45 350 01 00:   BULK DENSITY
 CORR.G/C3   45 356 01 00:   DENSITY CORRECTION
 TEND.LBS    45 635 01 00:   TENSION FROM DENSITY LOG
 GRR .GAPI   07 310 01 00:   GAMMA RAY FROM RESISTIVITY
 RILD.OHMM   07 120 46 00:   INDUCTION LOG DEEP RESISTIVITY
 RILM.OHMM   07 120 44 00:   INDUCTION LOG MEDIUM RESISTIVITY
 TENR.LBS    07 635 01 00:   TENSION
~PARAMETER INFORMATION
#MNEM.UNIT          VALUE    DESCRIPTION
#----------   ------------   ------------------------------
 EKB .F         5455.0000:   Kelly bushing
 EGL .F         5444.0000:   Ground level
 EDF .F            0.0000:   Drilling floor
 EPD .F         5444.0000:   Permanent datum
 TD  .F         1726.0000:   Total depth
 DATE.        13-AUG-1983:   Date logged
 CLNT.            A2DTECH:   Client Code
 PD  .                 GL:   Permanent Datum
 LMF .                 KB:   Log Measured From
 DMF .                 KB:   Drilling Measured From
 DAPD.F                11:   Feet Above Permanent Datum
 DD  .F              1726:   Depth driller
 DL  .F              1724:   Depth logger
 BLI .F              1718:   Bottom log interval
 CBD1.F                47:   Casing driller 1
 CBL1.F                48:   Casing logger 1
 BS1 .IN            12.25:   Bit size
 BSD1.F              1726:   Depth drilled with bit1
 DFT .           AIR/FOAM:   Type fluid in hole
 TCS .HRS               1:   Time Circ. stopped
 MRT .F                85:   Maximum recorded temp.
 LUN .               6270:   Logging unit number
 LUL .              WLSTN:   Logging unit location
 ENGI.            QUICKEL:   Recorded By
 WITN.           JENNINGS:   Witnessed by
 ORIG.           5" PRINT:   Origin of data
 UWI .     49025109270000:   Unique Well ID
 DICO. A2D TECHNOLOGIES, INC.:   Digitizing Company
~OTHER INFORMATION
~A   DEPT     CALD       RHOB       CORR       TEND         GRR      RILD       RILM       TENR   
# ...
  173.5000    12.7880     2.3760     0.0710   -56.9330   130.0630    12.2960    12.5250   -72.7000
  174.0000    12.7860     2.3720     0.0570   -57.2610   129.2290    11.8910    12.0350   -72.7460
  174.5000    12.7840     2.3680     0.0420   -57.5890   127.3070    11.4850    11.5460   -72.7910
  175.0000    12.7830     2.3620     0.0280   -57.9180   123.9250    11.2660    11.3500   -72.8360
  175.5000    12.7810     2.3560     0.0140   -58.2460   121.1120    11.2380    11.1470   -72.8820
  176.0000    12.7800     2.3500     0.0180   -58.5740   119.4180    11.2100    10.9820   -72.9270
  176.5000    12.7780     2.3440     0.0230   -58.9020   118.3440    11.1760    11.0690   -72.9720
  177.0000    12.7770     2.3430     0.0280   -59.2310   119.2810    11.2190    11.1560   -73.0180
  177.5000    12.7750     2.3470     0.0160   -59.5590   120.6920    11.2760    11.2430   -73.0630
  178.0000    12.7740     2.3520     0.0000   -59.8870   122.0910    11.3330    11.3540   -73.1080
  178.5000    12.7720     2.3560    -0.0100   -60.2150   123.2190    11.3900    11.4820   -73.1540
  179.0000    12.7710     2.3600    -0.0140   -60.5430   122.9750    11.4470    11.6090   -73.1990
  179.5000    12.7690     2.3640    -0.0180   -60.8720   122.5340    11.5040    11.7370   -73.2440
  180.0000    12.7690     2.3690    -0.0330   -61.2000   121.2310    11.5610    11.8650   -73.2900
  180.5000    12.7690     2.3730    -0.0450   -61.5280   120.1150    11.6180    11.9920   -73.3350
  181.0000    12.7690     2.3770    -0.0260   -61.8560   122.3290    11.6750    12.0330   -73.3810
  181.5000    12.7690     2.3810    -0.0060   -62.1850   125.0730    11.7040    11.8030   -73.4260
  182.0000    12.7690     2.3830     0.0150   -62.5130   126.8090    11.5840    11.5650   -73.4710
  182.5000    12.7690     2.3840     0.0350   -62.8410   126.0690    11.3500    11.3270   -73.5170
  183.0000    12.7690     2.3850     0.0560   -63.1690   126.2100    11.1170    11.0900   -73.5620
  183.5000    12.7690     2.3820     0.0570   -63.4980   128.3360    10.8830    10.8520   -73.6070
  184.0000    12.7690     2.3760     0.0420   -63.8260   129.9090    10.6500    10.6140   -73.6530
  184.5000    12.7690     2.3710     0.0270   -64.1540   128.2590    10.4160    10.3760   -73.6980
  185.0000    12.7690     2.3670     0.0270   -64.4820   125.5670    10.1830    10.0960   -73.7430
  185.5000    12.7690     2.3640     0.0340   -64.8110   120.7720    10.0960    10.1060   -73.7890
  186.0000    12.7690     2.3620     0.0300   -65.1390   116.4380    10.1100    10.1280   -73.8340
  186.5000    12.7690     2.3700     0.0190   -65.4670   118.6100    10.1270    10.1510   -73.8790
  187.0000    12.7690     2.3780     0.0090   -65.7950   123.6070    10.1440    10.1740   -73.9250
  187.5000    12.7690     2.3850    -0.0010   -66.1230   127.8220    10.1620    10.1970   -73.9700
  188.0000    12.7700     2.3890    -0.0050   -66.4520   125.6760    10.1790    10.2200   -74.0150
  188.5000    12.7700     2.3870    -0.0070   -66.7670   123.5260    10.1960    10.2430   -74.0610
  189.0000    12.7710     2.3800    -0.0100   -68.0050   123.7190    10.2130    10.2660   -74.1060
  189.5000    12.7710     2.3740    -0.0120   -69.1950   126.0110    10.2300    10.2890   -74.1520
  190.0000    12.7720     2.3710    -0.0150   -70.3860   126.2330    10.2470    10.3110   -74.1970
  190.5000    12.7720     2.3680    -0.0140   -71.5770   125.3400    10.2650    10.3340   -74.2420
  191.0000    12.7720     2.3720    -0.0130   -72.7680   124.7240    10.2820    10.3570   -74.2880
  191.5000    12.7730     2.3720    -0.0120   -73.9590   125.3660    10.2990    10.3790   -74.3330
  192.0000    12.7730     2.3750    -0.0080   -75.1490   128.3140    10.3160    10.4010   -74.3780
  192.5000    12.7740     2.3790    -0.0020   -76.3400   129.9810    10.3330    10.4270   -74.4240
  193.0000    12.7740     2.3820     0.0030   -75.5450   127.8900    10.3500    10.4530   -74.4690
  193.5000    12.7750     2.3840     0.0230   -73.4700   124.3230    10.3680    10.4800   -74.5140
  194.0000    12.7750     2.3880     0.0430   -71.3940   119.8830    10.3940    10.5060   -74.5600
  194.5000    12.7750     2.3930     0.0610   -69.3180   117.6890    10.4420    10.5320   -74.6050
  195.0000    12.7760     2.3980     0.0730   -67.2420   121.2010    10.4900    10.5580   -74.6500
  195.5000    12.7760     2.4020     0.0810   -65.1660   123.8230    10.5380    10.5840   -74.6960
  196.0000    12.7770     2.3990     0.0750   -63.0900   125.6900    10.5860    10.6100   -74.7410
  196.5000    12.7770     2.3940     0.0640   -61.7470   127.9870    10.6340    10.6360   -74.7860
  197.0000    12.7780     2.3880     0.0450   -63.2840   132.3360    10.6820    10.6620   -74.8320
  197.5000    12.7780     2.3910     0.0250   -64.8850   137.2270    10.7300    10.6880   -74.8770
  198.0000    12.7790     2.3970     0.0090   -66.4850   133.9920    10.7770    10.7150   -74.9220
  198.5000    12.7790     2.4050     0.0190   -65.8070   129.8790    10.8250    10.7410   -74.9680
  199.0000    12.7790     2.4140     0.0280   -63.5820   126.9700    10.8700    10.7670   -75.0130
  199.5000    12.7800     2.4170     0.0250   -61.3570   126.6040    10.8050    10.7150   -75.0590
  200.0000    12.7800     2.4080     0.0060   -59.1310   126.5860    10.7440    10.6510   -75.1040
  200.5000    12.7810     2.3970    -0.0120   -56.7270   126.5550    10.6830    10.5880   -75.1490
  201.0000    12.7810     2.3860    -0.0270   -57.2550   124.7930    10.6220    10.5240   -75.1950
  201.5000    12.7820     2.3750    -0.0170   -57.9850   121.1190    10.5610    10.4600   -75.2400
  202.0000    12.7820     2.3750     0.0190   -58.7150   118.2050    10.5000    10.3970   -75.2850
  202.5000    12.7820     2.3760     0.0540   -59.4450   120.6990    10.4390    10.3330   -75.3310
  203.0000    12.7830     2.3720     0.0630   -60.1750   124.8280    10.3790    10.2840   -75.3760
  203.5000    12.7830     2.3710     0.0270   -60.9050   129.9410    10.6190    10.5110   -75.4210
  204.0000    12.7840     2.3730    -0.0010   -61.6350   133.7330    10.8520    10.6960   -75.4670
  204.5000    12.7840     2.3850    -0.0140   -59.4280   135.4410    10.9710    10.9710   -75.5120
  205.0000    12.7850     2.3950     0.0150   -54.3170   130.9700    10.9710    10.9260   -75.5570
  205.5000    12.7850     2.3990     0.0380   -49.2070   126.5030    10.9710    10.8390   -75.6030
  206.0000    12.7850     2.3970     0.0310   -48.4110   123.7640    10.8590    10.7510   -75.6480
  206.5000    12.7860     2.3920     0.0220   -53.9660   122.1030    10.7400    10.6630   -75.6930
  207.0000    12.7860     2.3870     0.0230   -59.5210   126.6280    10.6210    10.5750   -75.7390
  207.5000    12.7870     2.3820     0.0260   -65.0760   129.4340    10.5020    10.4870   -75.7840
  208.0000    12.7870     2.3710     0.0280   -70.6300   130.2640    10.3830    10.4000   -75.8300
  208.5000    12.7880     2.3590     0.0300   -69.5840   130.3820    10.2640    10.3120   -75.8750
  209.0000    12.7880     2.3530     0.0320   -64.0590   129.5670    10.1450    10.2240   -75.9200
  209.5000    12.7880     2.3500     0.0350   -58.5340   128.1640    10.0260    10.1360   -75.9660
  210.0000    12.7890     2.3510     0.0420   -53.0090   127.3170     9.9070    10.0480   -76.0110
  210.5000    12.8000     2.3590     0.0700   -47.4850   129.4020     9.7890     9.9610   -76.0560
  211.0000    12.8720     2.3630     0.0970   -41.9600   130.6680     9.6700     9.8730   -76.1020
  211.5000    12.9440     2.3650     0.1360   -36.4350   131.2730     9.5510     9.8270   -76.1470
  212.0000    13.0160     2.3550     0.1230   -31.6270   132.4340     9.7070     9.8900   -76.1920
  212.5000    13.0280     2.3450     0.0960   -36.9250   134.6410     9.8610     9.9410   -76.2380
  213.0000    13.0290     2.3410     0.0580   -42.6040   136.6000    10.0160     9.9910   -76.2830
  213.5000    13.0290     2.3460     0.0460   -48.2820   135.8660    10.0960    10.0410   -76.3280
