~VERSION INFORMATION
 VERS.                2.0:   CWLS LOG ASCII STANDARD - VERSION 2.0
 WRAP.                 NO:   ONE LINE PER DEPTH STEP
~WELL INFORMATION
#MNEM.UNIT      DATA TYPE    INFORMATION
#----------   ------------   ------------------------------
 STRT.F          212.0000:   START DEPTH
 STOP.F         2806.0000:   STOP DEPTH
 STEP.F            0.5000:   STEP LENGTH
 NULL.          -999.2500:   NO VALUE
 COMP.    FENIX & SCISSON:   COMPANY
 WELL.    FENIX AX #12-21:   WELL
 FLD .        TEAPOT DOME:   FIELD
 LOC .      S21 T39N R78W:   LOCATION
 CNTY.            NATRONA:   COUNTY
 STAT.            WYOMING:   STATE
 CTRY. UNITED STATES OF AMERICA:   COUNTRY
 SRVC.           BIRDWELL:   SERVICE COMPANY
 DATE.        14-AUG-1973:   LOGDATE
 API .     49025106930000:   API NUMBER
~CURVE INFORMATION
#MNEM.UNIT       API CODE    CURVE DESCRIPTION
#----------   ------------   ------------------------------
 DEPT.F                  :   
 SN  .OHMM   05 040 16 00:   SHORT NORMAL 16"
 ILD .OHMM   05 120 46 00:   INDUCTION LOG DEEP RESISTIVITY
 RHOB.G/C3   45 350 01 00:   BULK DENSITY
 CORR.G/C3   45 356 01 00:   DENSITY CORRECTION
 GRD .GAPI   45 310 01 00:   GAMMA RAY FROM DENSITY LOG
 CALD.IN     45 280 60 00:   CALIPER FROM DENSITY LOG
 SPR .MV     05 010 01 00:   SPONTANEOUS POTENTIAL
~PARAMETER INFORMATION
#MNEM.UNIT          VALUE    DESCRIPTION
#----------   ------------   ------------------------------
 EKB .F         4998.0000:   Kelly bushing
 EGL .F         4988.0000:   Ground level
 EDF .F            0.0000:   Drilling floor
 EPD .F         4988.0000:   Permanent datum
 TD  .F         2809.0000:   Total depth
 DATE.        14-AUG-1973:   Date logged
 CLNT.            A2DTECH:   Client Code
 SL  . 1300' FNL & 300' FWL:   Surface Location
 PD  .                 GL:   Permanent Datum
 DD  .F              2800:   Depth driller
 DL  .F              2809:   Depth logger
 BLI .F              2803:   Bottom log interval
 TLI .F               235:   Top log interval
 CS1 .IN            8.625:   Casing size
 BS1 .IN            7.875:   Bit size
 BSD1.F              2800:   Depth drilled with bit1
 DFT .                GEL:   Type fluid in hole
 DFD .                9.7:   Density
 DFV .                 34:   Viscosity
 DFPH.                 12:   pH
 MSS .           FLOWLINE:   Source of sample
 RMS .OHMM            .15:   Rm
 MST .F                57:   Rm Meas. temp.
 RMF .OHMM            .95:   Rmf
 MFST.F                69:   Rmf Meas. temp.
 RMC .OHMM            1.5:   Rmc
 MCST.F                78:   Rmc Meas. temp.
 MFSS.               MEAS:   Source Rmf.
 RMB .OHMM            .87:   Rm. at BHT
 BHT .F               115:   BHT.
 TCS .HRS               3:   Time Circ. stopped
 MRT .F               115:   Maximum recorded temp.
 LUN .               3006:   Logging unit number
 LUL .               CASP:   Logging unit location
 ENGI.             MILLER:   Recorded By
 WITN.           MCGINLEY:   Witnessed by
 UWI .     49025106930000:   Unique Well ID
 DICO. A2D TECHNOLOGIES, INC.:   Digitizing Company
 ORIG.           5" PRINT:   Origin of data
~OTHER INFORMATION
~A   DEPT       SN        ILD       RHOB       CORR         GRD      CALD        SPR   
# ...
 2578.0000     6.5830     5.1080     2.5780     0.2850   104.1830     8.1280    -3.4020
 2578.5000     6.5460     5.0610     2.5880     0.2980   103.5470     8.0760    -3.4190
 2579.0000     6.5460     5.0090     2.6090     0.3010   102.6030     8.0680    -3.4370
 2579.5000     6.5460     4.9560     2.6370     0.3000   101.0840     8.1210    -3.4550
 2580.0000     6.4680     4.9040     2.6520     0.2720    99.3410     8.1750    -3.4580
 2580.5000     6.3610     4.8510     2.5790     0.2140    96.7240     8.1430    -3.4590
 2581.0000     6.2540     4.7990     2.5350     0.1760    94.1760     8.0850    -3.4590
 2581.5000     6.1470     4.7450     2.5230     0.1720    92.4880     8.0270    -3.4580
 2582.0000     6.0830     4.7240     2.5170     0.1780    96.1440     8.0020    -3.4580
 2582.5000     6.0930     4.7020     2.5230     0.1840    96.8630     8.0630    -3.4580
 2583.0000     6.1010     4.6800     2.5200     0.1900    97.3160     8.1210    -3.4580
 2583.5000     6.1080     4.6590     2.5380     0.2310    99.2040     8.1160    -3.4580
 2584.0000     6.1160     4.6370     2.5680     0.2720   100.9810     8.1080    -3.4580
 2584.5000     6.1240     4.6160     2.5970     0.2750   120.1380     8.1000    -3.4580
 2585.0000     6.1320     4.6690     2.6140     0.2600   111.8780     8.0920    -3.4580
 2585.5000     6.1390     4.7180     2.5880     0.1930   107.5670     8.0850    -3.4580
 2586.0000     6.2120     4.7670     2.5660     0.1420   103.8130     8.0910    -3.4580
 2586.5000     6.2780     4.8160     2.5660     0.1470    97.7200     8.0990    -3.4580
 2587.0000     6.3980     4.8780     2.5670     0.1550    99.2890     8.1060    -3.4580
 2587.5000     6.6070     4.8600     2.5680     0.1640   101.4160     8.1130    -3.4580
 2588.0000     6.5610     4.8350     2.5690     0.1710   103.2000     8.1200    -3.4580
 2588.5000     6.5000     4.8100     2.5700     0.1810   102.4780     8.1200    -3.4580
 2589.0000     6.4260     4.7850     2.5770     0.1970   101.2050     8.1150    -3.4580
 2589.5000     6.3480     4.7610     2.5880     0.2080    99.2780     8.1090    -3.4580
 2590.0000     6.2700     4.7360     2.5620     0.2030    97.1560     8.1030    -3.4580
 2590.5000     6.1950     4.7110     2.5520     0.1990    99.8630     8.0980    -3.4580
 2591.0000     6.1740     4.6990     2.5640     0.2100   102.6190     8.0920    -3.4580
 2591.5000     6.1530     4.6950     2.5820     0.2350   102.1060     8.0860    -3.4590
 2592.0000     6.1380     4.6910     2.5690     0.2170    98.6520     8.0800    -3.4590
 2592.5000     6.1780     4.6860     2.5420     0.1850    96.4200     8.0690    -3.4580
 2593.0000     6.2090     4.6820     2.5410     0.1780    96.2470     8.0590    -3.4480
 2593.5000     6.2400     4.6780     2.5670     0.2090    96.0850     8.0490    -3.4370
 2594.0000     6.2710     4.6740     2.6080     0.2490    96.8560     8.0390    -3.4260
 2594.5000     6.3030     4.6690     2.5690     0.1820    97.8360     8.0290    -3.4150
 2595.0000     6.3340     4.6650     2.5660     0.1620   100.9560     8.0190    -3.4040
 2595.5000     6.3650     4.6610     2.5610     0.1610   104.9880     8.0080    -3.3930
 2596.0000     6.3960     4.6590     2.5530     0.1670   107.4770     8.0000    -3.3820
 2596.5000     6.4270     4.6590     2.5500     0.1800    98.6440     7.9910    -3.3710
 2597.0000     6.4210     4.6590     2.5490     0.1920    95.8500     8.0000    -3.3590
 2597.5000     6.4150     4.6590     2.5490     0.2040    95.0660     8.0340    -3.3480
 2598.0000     6.4100     4.6590     2.5610     0.2170    97.7140     8.0690    -3.3370
 2598.5000     6.4040     4.6590     2.5720     0.2260   101.3000     8.1030    -3.3260
 2599.0000     6.3980     4.6590     2.5780     0.2290   101.7680     8.1370    -3.3150
 2599.5000     6.3920     4.6590     2.5820     0.2320   103.4930     8.1460    -3.3040
 2600.0000     6.3860     4.6590     2.5830     0.2350   104.9320     8.0780    -3.2930
 2600.5000     6.3800     4.6590     2.5840     0.2380   102.4410     8.0480    -3.2820
 2601.0000     6.3750     4.6590     2.5890     0.2410   101.0260     8.0550    -3.2710
 2601.5000     6.3680     4.6590     2.5880     0.2400    99.9800     8.0600    -3.2600
 2602.0000     6.3520     4.6590     2.5830     0.2210   100.2850     8.0640    -3.2490
 2602.5000     6.3350     4.6530     2.5810     0.2020   100.5560     8.0620    -3.2370
 2603.0000     6.3180     4.6110     2.5780     0.1890   100.8320     8.0590    -3.2260
 2603.5000     6.2630     4.5690     2.5760     0.1530   101.1240     8.0560    -3.2150
 2604.0000     6.1800     4.5270     2.5740     0.1320   100.2890     8.0540    -3.2040
 2604.5000     6.0980     4.4850     2.5630     0.1110   102.7030     8.0510    -3.1930
 2605.0000     6.0150     4.4430     2.5320     0.0810   103.3260     8.0490    -3.1820
 2605.5000     5.9320     4.4010     2.5250     0.0690   103.3740     8.0460    -3.1710
 2606.0000     5.8490     4.3690     2.5230     0.0700   103.5060     8.0100    -3.1600
 2606.5000     5.7660     4.3720     2.5210     0.0700   140.0000     7.9550    -3.1490
 2607.0000     5.7030     4.3760     2.5100     0.0650   139.2820     7.9590    -3.1380
 2607.5000     5.7140     4.3790     2.5000     0.0590   139.1200     7.9830    -3.1260
 2608.0000     5.7230     4.3830     2.5010     0.0660   139.1480     8.0080    -3.1150
 2608.5000     5.7320     4.3860     2.5200     0.0900   139.2200     8.0140    -3.1040
 2609.0000     5.7410     4.3900     2.5350     0.1010   138.6040     7.9700    -3.0930
 2609.5000     5.7500     4.3930     2.5350     0.0930   137.8990     7.9270    -3.0820
 2610.0000     5.7560     4.3970     2.5340     0.0890   140.0000     7.8860    -3.0710
 2610.5000     5.7560     4.4000     2.5300     0.0860   105.5890     7.8840    -3.0690
 2611.0000     5.7550     4.4040     2.5300     0.0830   105.7960     8.1170    -3.0910
 2611.5000     5.7560     4.4070     2.5300     0.0800   108.0290     8.2130    -3.1130
 2612.0000     5.8900     4.4230     2.5280     0.0770   107.1150     8.3030    -3.1340
 2612.5000     6.0820     4.4500     2.5250     0.0750   103.2370     8.3590    -3.1560
 2613.0000     6.1190     4.4770     2.5310     0.0860   102.1410     8.3580    -3.1770
 2613.5000     6.1580     4.5040     2.5370     0.0960   102.1730     8.3580    -3.1990
 2614.0000     6.1960     4.5310     2.5330     0.1020   102.3040     8.3430    -3.2200
 2614.5000     6.2350     4.5580     2.5260     0.0980   101.2420     8.2700    -3.2420
 2615.0000     6.2740     4.5850     2.5180     0.0940   100.9450     8.2030    -3.2630
 2615.5000     6.3130     4.6120     2.5140     0.1010   101.1800     8.1150    -3.2840
 2616.0000     6.3510     4.6390     2.5080     0.1160    99.3700     7.9580    -3.3060
 2616.5000     6.3900     4.6660     2.5040     0.1320    95.6820     7.8120    -3.3270
 2617.0000     6.4270     4.6930     2.5050     0.1490    95.2520     7.9130    -3.3490
 2617.5000     6.5270     4.7200     2.5120     0.1670    94.8860     8.0400    -3.3700
 2618.0000     6.6240     4.7450     2.5320     0.1850    95.3010     8.0880    -3.3920
 2618.5000     6.7210     4.7150     2.5490     0.2030    96.1640     8.0330    -3.4130
 2619.0000     6.8170     4.6870     2.5610     0.2210    95.4520     8.1240    -3.4350
 2619.5000     6.9140     4.6590     2.5870     0.2380    94.7540     8.1140    -3.4560
 2620.0000     6.9810     4.6300     2.6060     0.2590    94.8860     8.0010    -3.4450
 2620.5000     6.9290     4.5940     2.6240     0.2490    98.3960     8.0160    -3.4300
 2621.0000     6.6170     4.5500     2.6250     0.2100   100.2290     8.2030    -3.4150
 2621.5000     6.1950     4.5060     2.5880     0.1600   100.1620     8.0620    -3.4010
 2622.0000     5.9560     4.4620     2.5500     0.1100   109.4220     7.8990    -3.3860
 2622.5000     5.7960     4.4180     2.5290     0.1000   107.7860     8.1180    -3.3710
 2623.0000     5.7070     4.3740     2.5310     0.1000   104.9360     8.2100    -3.3560
