~VERSION INFORMATION
 VERS.                2.0:   CWLS LOG ASCII STANDARD - VERSION 2.0
 WRAP.                 NO:   ONE LINE PER DEPTH STEP
~WELL INFORMATION
#MNEM.UNIT      DATA TYPE    INFORMATION
#----------   ------------   ------------------------------
 STRT.F          200.0000:   START DEPTH
 STOP.F         3050.0000:   STOP DEPTH
 STEP.F            0.5000:   STEP LENGTH
 NULL.          -999.2500:   NO VALUE
 COMP.     FENIX & SISSON:   COMPANY
 WELL. FENIX & SISSON "AX" #16-28:   WELL
 FLD .              NPR 3:   FIELD
 LOC .      S28 T39N R78W:   LOCATION
 CNTY.            NATRONA:   COUNTY
 STAT.            WYOMING:   STATE
 CTRY. UNITED STATES OF AMERICA:   COUNTRY
 SRVC.      DRESSER ATLAS:   SERVICE COMPANY
 DATE.        01-JUL-1977:   LOGDATE
 API .     49025103930000:   API NUMBER
~CURVE INFORMATION
#MNEM.UNIT       API CODE    CURVE DESCRIPTION
#----------   ------------   ------------------------------
 DEPT.F                  :   
 CALD.IN     45 280 60 00:   CALIPER FROM DENSITY LOG
 GRD .GAPI   45 310 01 00:   GAMMA RAY FROM DENSITY LOG
 CORR.G/C3   45 356 01 00:   DENSITY CORRECTION
 TEND.LBS    45 635 01 00:   TENSION FROM DENSITY LOG
 SPR .MV     07 010 01 00:   SPONTANEOUS POTENTIAL
 ILD .OHMM   07 120 46 00:   DEEP INDUCTION RESISTIVITY
 ILM .OHMM   07 120 44 00:   INDUCTION LOG MEDIUM RESISTIVITY
 SFL .OHMM   07 220 01 00:   SHALLOW FOCUSED LOG RESISTIVITY
 RHOB.G/C3   45 350 01 00:   BULK DENSITY
~PARAMETER INFORMATION
#MNEM.UNIT          VALUE    DESCRIPTION
#----------   ------------   ------------------------------
 EKB .F         5067.0000:   Kelly bushing
 EGL .F         5057.0000:   Ground level
 EDF .F         5066.0000:   Drilling floor
 EPD .F            0.0000:   Permanent datum
 TD  .F         3036.0000:   Total depth
 DATE.        01-JUL-1977:   Date logged
 CLNT.            A2DTECH:   Client Code
 SL  . 1220' FSL & 330' FWL:   Surface Location
 PD  .                 GL:   Permanent Datum
 DAPD.F                10:   Feet Above Permanent Datum
 DD  .F              3034:   Depth driller
 DL  .F              3036:   Depth logger
 BLI .F              3034:   Bottom log interval
 TLI .F               214:   Top log interval
 CS1 .IN            8.625:   Casing size
 CBD1.      8.625" @ 204':   Casing driller 1
 CBL1.F               214:   Casing logger 1
 BS1 .IN            7.875:   Bit size
 BSD1.F              3034:   Depth drilled with bit1
 DFT .                KCL:   Type fluid in hole
 DFD .                  9:   Density
 DFV .                 34:   Viscosity
 DFPH.                7.2:   pH
 DFL .                8.8:   Fluid loss
 MSS .         CIRCULATED:   Source of sample
 RMS .OHMM           .112:   Rm
 MST .F                75:   Rm Meas. temp.
 RMF .OHMM           .085:   Rmf
 MFST.F                75:   Rmf Meas. temp.
 RMC .OHMM           .141:   Rmc
 MCST.F                75:   Rmc Meas. temp.
 MFSS.               MEAS:   Source Rmf.
 MCSS.               MEAS:   Source Rmc.
 RMB .OHMM           .067:   Rm. at BHT
 BHT .F               124:   BHT.
 TCS .HRS               1:   Time Circ. stopped
 MRT .F               124:   Maximum recorded temp.
 LUN .               6134:   Logging unit number
 LUL .              GLTTE:   Logging unit location
 ENGI.              GOULD:   Recorded By
 WITN.         PETTINGILL:   Witnessed by
 ORIG.       2.5"5" PRINT:   Origin of data
 UWI .     49025103930000:   Unique Well ID
 DICO. A2D TECHNOLOGIES, INC.:   Digitizing Company
~OTHER INFORMATION
~A   DEPT     CALD         GRD      CORR       TEND        SPR        ILD        ILM        SFL       RHOB   
# ...
 1331.5000     8.0610    94.9400     0.0290   -16.8650   -68.1720     6.3630     9.5310    10.0700     2.5540
 1332.0000     8.1760    94.0900     0.0270   -28.2240   -68.5460     6.4620     9.4230    10.0700     2.5500
 1332.5000     8.2140    92.4700     0.0230   -37.4050   -68.9770     6.5600     9.2880    10.2660     2.5310
 1333.0000     8.1170    92.6890     0.0200   -39.6460   -68.8380     6.6590     9.1520    10.4660     2.5180
 1333.5000     8.0250    92.5480     0.0200   -41.8880   -68.3010     6.7570     9.0160    10.6400     2.5200
 1334.0000     8.1040    92.2280     0.0230   -44.1290   -67.8260     6.8560     8.8800    10.4270     2.5150
 1334.5000     8.1860    92.1840     0.0260   -46.3700   -67.3250     6.9540     8.7440    10.2570     2.5220
 1335.0000     8.1820    92.6510     0.0300   -42.2620   -67.1290     7.1050     8.6080    10.3380     2.5350
 1335.5000     8.1490    94.2820     0.0340   -37.3310   -67.1970     7.0640     8.5370    10.4560     2.5450
 1336.0000     8.1150    95.6900     0.0410   -32.4010   -67.2350     6.9760     8.6260    10.5740     2.5600
 1336.5000     8.1050    95.1160     0.0470   -27.4700   -67.2750     6.8880     8.7110    10.6400     2.5740
 1337.0000     8.1300    94.0690     0.0470   -22.5400   -67.3200     6.8000     8.7950    10.4740     2.5700
 1337.5000     8.1850    94.2410     0.0460   -17.6090   -67.3610     6.7120     8.8790    10.2100     2.5600
 1338.0000     8.2020    94.7460     0.0450   -31.8170   -67.4030     6.6250     8.9630     9.9080     2.5540
 1338.5000     8.1540    94.6170     0.0380   -49.4260   -67.4460     6.5370     9.0470     9.9460     2.5420
 1339.0000     8.0620    93.8730     0.0310   -66.4680   -67.4910     6.4490     9.1320    10.0210     2.5200
 1339.5000     8.0680    92.7920     0.0230   -51.9270   -67.4730     6.3610     9.3150    10.0960     2.5110
 1340.0000     8.1520    92.5600     0.0150   -37.8400   -67.2970     6.2580     9.6910    10.1730     2.5170
 1340.5000     8.1840    93.3470     0.0150   -26.7860   -67.1160     6.2790    10.2570    10.2570     2.5190
 1341.0000     8.1320    94.0590     0.0150   -37.5000   -66.9530     6.3230    10.1560    10.2570     2.5160
 1341.5000     8.0630    94.0880     0.0180   -48.0650   -66.7550     6.3660     9.9540    10.2570     2.5160
 1342.0000     8.0660    93.9590     0.0230   -55.2220   -67.0290     6.4100     9.7510    10.2570     2.5350
 1342.5000     8.1060    93.8230     0.0250   -48.4980   -67.4040     6.4540     9.5490    10.2570     2.5280
 1343.0000     8.1470    93.7970     0.0230   -41.7750   -67.7830     6.4970     9.3470    10.2570     2.5240
 1343.5000     8.1660    94.7480     0.0200   -35.0510   -68.1470     6.5410     9.1760    10.2560     2.5240
 1344.0000     8.1190    94.5710     0.0180   -28.3280   -68.5500     6.6020     9.1210    10.2560     2.5140
 1344.5000     8.0740    93.9320     0.0170   -31.8520   -68.6200     6.5780     9.0670    10.2180     2.5120
 1345.0000     8.1110    93.2480     0.0180   -38.4260   -68.3990     6.5360     9.0130    10.1790     2.5230
 1345.5000     8.1710    92.5470     0.0190   -45.0000   -68.1920     6.4940     8.9580    10.1430     2.5220
 1346.0000     8.1520    91.8280     0.0200   -46.6270   -67.9630     6.4520     8.9040    10.1070     2.5280
 1346.5000     8.1120    92.1420     0.0220   -47.1690   -67.7310     6.4100     8.8560    10.0760     2.5280
 1347.0000     8.0890    92.7550     0.0240   -50.9620   -67.5040     6.3640     8.9200    10.3300     2.5400
 1347.5000     8.1130    92.0120     0.0290   -54.7540   -67.2730     6.4970     9.0100    10.6400     2.5600
 1348.0000     8.1440    91.9910     0.0370   -35.7540   -67.0470     6.6470     9.1010    10.4510     2.5690
 1348.5000     8.1650    92.6880     0.0440   -20.3670   -66.8120     6.7960     9.1870    10.0700     2.5760
 1349.0000     8.1610    93.0640     0.0450   -27.0880   -66.7260     6.8900    10.0700    10.1680     2.5830
 1349.5000     8.1550    92.6170     0.0440   -33.8090   -66.7330     6.9530    10.0700    10.7440     2.5710
 1350.0000     8.1500    93.5750     0.0390   -40.5300   -66.7310     7.0160     9.3630    11.6400     2.5600
 1350.5000     8.1440    94.5520     0.0330   -46.6270   -66.7330     7.1050     8.6670    11.5240     2.5650
 1351.0000     8.1280    94.3350     0.0280   -45.4190   -66.7350     7.0920     8.2290    11.4090     2.5580
 1351.5000     8.1100    93.2500     0.0230   -44.3130   -66.8900     7.0700     8.4150    11.2940     2.5440
 1352.0000     8.0910    92.2700     0.0200   -43.2070   -67.0980     7.0480     8.9050    11.1780     2.5300
 1352.5000     8.0690    92.2390     0.0180   -42.1010   -67.3050     7.0260     9.0910    11.0630     2.5170
 1353.0000     8.0460    91.6400     0.0150   -40.9960   -67.5100     7.0040     9.1840    10.9480     2.5120
 1353.5000     8.0230    92.1450     0.0110   -39.8900   -67.7140     6.9820     9.2770    10.8330     2.5080
 1354.0000     8.0000    91.3130     0.0070   -38.7840   -67.9250     6.9610     9.3570    10.7170     2.5010
 1354.5000     8.0030    91.4250     0.0000   -37.6780   -68.1260     6.9390     9.1790    10.6400     2.4830
 1355.0000     8.0160    91.9540    -0.0090   -36.5730   -68.2890     6.9170     9.0230    10.6400     2.4490
 1355.5000     8.0240    91.3360    -0.0320   -35.4670   -68.1190     6.8950     8.8660    10.6400     2.3950
 1356.0000     8.0330    91.2580    -0.0420   -34.3610   -67.9670     6.8730     8.7100    10.6400     2.3610
 1356.5000     8.0420    90.5260    -0.0040   -33.2550   -67.7980     6.8490     8.5370    10.5730     2.4700
 1357.0000     8.0510    90.6460     0.0300   -32.1500   -67.6370     6.8280     8.3670    10.4470     2.5660
 1357.5000     8.0600    91.9300     0.0310   -31.0440   -67.4750     6.8040     8.0790    10.7170     2.5760
 1358.0000     8.0700    92.6410     0.0340   -29.9380   -67.3100     6.7800     8.2380    11.2430     2.5730
 1358.5000     8.0790    92.3390     0.0380   -28.8320   -67.1490     6.7560     8.5710    10.9090     2.5700
 1359.0000     8.0880    93.3400     0.0420   -27.7270   -66.9870     6.7330     8.9040    10.6400     2.5760
 1359.5000     8.0970    94.2260     0.0470   -26.7860   -66.8160     6.7250     9.0200    11.0380     2.5820
 1360.0000     8.1060    94.9930     0.0510   -28.5910   -66.7030     6.7900     9.0200    10.9650     2.5720
 1360.5000     8.1150    93.7630     0.0440   -31.0110   -66.6590     6.8690     9.0200    10.8010     2.5570
 1361.0000     8.1240    93.3080     0.0380   -33.4310   -66.6060     6.9470     9.0800    10.6400     2.5500
 1361.5000     8.1140    93.1860     0.0340   -35.8510   -66.5540     6.9760     9.2190    10.9120     2.5360
 1362.0000     8.1020    93.5080     0.0310   -38.2710   -66.5040     6.9760     9.3570    11.2530     2.5330
 1362.5000     8.0900    92.6430     0.0290   -40.6910   -66.4500     6.9760     9.0380    11.6630     2.5320
 1363.0000     8.0780    91.3640     0.0390   -43.1110   -66.4040     6.9760     8.7210    11.3950     2.5400
 1363.5000     8.0670    91.8250     0.0490   -45.5310   -66.3550     6.9760     8.4040    11.0600     2.5770
 1364.0000     8.1290    93.0680     0.0510   -47.9510   -66.5680     6.9760     8.0790    10.7250     2.5720
 1364.5000     8.1610    93.4340     0.0430   -50.3710   -66.8750     6.9760     8.3770    10.4470     2.5630
 1365.0000     8.0590    92.8070     0.0320   -52.7910   -67.1760     6.9760     8.6820    10.4470     2.5460
 1365.5000     8.0560    93.0540     0.0210   -55.2110   -67.4690     6.9760     9.1870    10.4470     2.5330
 1366.0000     8.0720    92.4660     0.0130   -55.4600   -67.7940     6.9760     9.1360    11.4510     2.5290
 1366.5000     8.0880    92.7110     0.0130   -53.0300   -67.8340     6.9760     8.9900    11.6630     2.5220
 1367.0000     8.0980    93.0810     0.0150   -50.6000   -67.6230     6.9760     8.8430    11.4110     2.5230
 1367.5000     8.0630    93.3970     0.0210   -48.1700   -67.4410     6.9760     8.6960    11.0380     2.5300
