~VERSION INFORMATION
 VERS.                2.0:   CWLS LOG ASCII STANDARD - VERSION 2.0
 WRAP.                 NO:   ONE LINE PER DEPTH STEP
~WELL INFORMATION
#MNEM.UNIT      DATA TYPE    INFORMATION
#----------   ------------   ------------------------------
 STRT.F          508.0000:   START DEPTH
 STOP.F         3170.0000:   STOP DEPTH
 STEP.F            0.5000:   STEP LENGTH
 NULL.          -999.2500:   NO VALUE
 COMP. FENIX & SCISSON - U.S. NAVY:   COMPANY
 WELL. FENIX NPR-3 "A" #58-34:   WELL
 FLD .                NPR:   FIELD
 LOC .      S34 T39N R78W:   LOCATION
 CNTY.            NATRONA:   COUNTY
 STAT.            WYOMING:   STATE
 CTRY. UNITED STATES OF AMERICA:   COUNTRY
 SRVC.       SCHLUMBERGER:   SERVICE COMPANY
 DATE.        15-MAR-1977:   LOGDATE
 API .     49025103180000:   API NUMBER
~CURVE INFORMATION
#MNEM.UNIT       API CODE    CURVE DESCRIPTION
#----------   ------------   ------------------------------
 DEPT.F                  :   
 CALD.IN     45 280 60 00:   CALIPER FROM DENSITY LOG
 GRD .GAPI   45 310 01 00:   GAMMA RAY FROM DENSITY LOG
 RHOB.G/C3   45 350 01 00:   BULK DENSITY
 CORR.G/C3   45 356 01 00:   DENSITY CORRECTION
 SPR .MV     07 010 01 00:   SPONTANEOUS POTENTIAL
 LL8 .OHMM   07 220 08 00:   LATEROLOG-8 RES.
 ILD .OHMM   07 120 46 00:   DEEP INDUCTION RESISTIVITY
 ILM .OHMM   07 120 44 00:   INDUCTION LOG MEDIUM RESISTIVITY
~PARAMETER INFORMATION
#MNEM.UNIT          VALUE    DESCRIPTION
#----------   ------------   ------------------------------
 EKB .F         5129.0000:   Kelly bushing
 EGL .F         5117.0000:   Ground level
 EDF .F            0.0000:   Drilling floor
 EPD .F            0.0000:   Permanent datum
 TD  .F         3170.0000:   Total depth
 DATE.        15-MAR-1977:   Date logged
 CLNT.            A2DTECH:   Client Code
 SL  . 2310' FEL & 330' FSL:   Surface Location
 PD  .                 GL:   Permanent Datum
 DAPD.F                12:   Feet Above Permanent Datum
 DD  .F              3170:   Depth driller
 DL  .F              3170:   Depth logger
 BLI .F              3169:   Bottom log interval
 TLI .F               508:   Top log interval
 CS1 .IN            8.625:   Casing size
 CBD1.      8.625" @ 524':   Casing driller 1
 CBL1.F               522:   Casing logger 1
 BS1 .IN            7.875:   Bit size
 BSD1.F              3170:   Depth drilled with bit1
 DFT .                KCL:   Type fluid in hole
 DFD .                9.2:   Density
 DFV .                 36:   Viscosity
 DFPH.                  9:   pH
 DFL .                  9:   Fluid loss
 MSS .                PIT:   Source of sample
 RMS .OHMM             .3:   Rm
 MST .F                58:   Rm Meas. temp.
 RMF .OHMM            .29:   Rmf
 MFST.F                58:   Rmf Meas. temp.
 MFSS.               MEAS:   Source Rmf.
 RMB .OHMM            .15:   Rm. at BHT
 BHT .F               120:   BHT.
 TCS .HRS               6:   Time Circ. stopped
 MRT .F               120:   Maximum recorded temp.
 LUN .               7711:   Logging unit number
 LUL .               CSPR:   Logging unit location
 ENGI.             SAYLER:   Recorded By
 WITN.               JAPP:   Witnessed by
 ORIG.           5" PRINT:   Origin of data
 UWI .     49025103180000:   Unique Well ID
 DICO. A2D TECHNOLOGIES, INC.:   Digitizing Company
~OTHER INFORMATION
~A   DEPT       CALD       GRD      RHOB        CORR       SPR        LL8        ILD        ILM   
# ...
  872.5000     9.2452   134.0395     2.5155     0.0148   -46.2690    10.5593    10.0517     9.9923
  873.0000     9.2450   136.2200     2.5235     0.0178   -46.4783    10.5641    10.1021    10.0892
  873.5000     9.2448   137.8053     2.5245     0.0148   -46.6874    10.5690    10.1618    10.0939
  874.0000     9.2446   139.5889     2.4995     0.0068   -46.4545    10.5738    10.1039    10.0985
  874.5000     9.2444   137.6029     2.5075     0.0068   -46.4426    10.4818    10.0463    10.1031
  875.0000     9.2442   135.6169     2.5145     0.0098   -46.2098    10.3906     9.9890    10.1077
  875.5000     9.2440   134.2261     2.5245     0.0188   -45.7559    10.3001     9.9320    10.0198
  876.0000     9.2438   131.8429     2.5354     0.0218   -45.7441    10.2105     9.8754     9.9326
  876.5000     9.2436   130.8489     2.5384     0.0208   -45.5113    10.1216     9.8191     9.8461
  877.0000     9.2633   130.8469     2.5294     0.0178   -45.7205     9.9417     9.6711     9.5825
  877.5000     9.2631   130.6465     2.5214     0.0177   -45.9296     9.8552     9.5869     9.4122
  878.0000     9.2629   131.2398     2.5224     0.0167   -45.9178     9.6799     9.4165     9.1602
  878.5000     9.2825   132.2298     2.5174     0.0137   -46.1269     9.5957     9.3345     8.9157
  879.0000     9.2625   133.6171     2.5044     0.0057   -45.8942     9.5122     9.2533     8.9190
  879.5000     9.2623   134.8055     2.5044     0.0047   -45.8824     9.5165     9.2575     9.0055
  880.0000     9.2621   135.5972     2.5194     0.0097   -46.0914     9.5209     9.2618     9.0929
  880.5000     9.2817   136.5872     2.5144     0.0167   -46.0796     9.5253     9.2660     9.0971
  881.0000     9.2617   137.1808     2.5054     0.0147   -46.0677     9.5296     9.2702     9.0996
  881.5000     9.2813   133.6068     2.5024     0.0077   -45.8351     9.6221     9.3602     9.1054
  882.0000     9.2811   134.9940     2.4994     0.0037   -46.0441     9.7155     9.3645     9.1096
  882.5000     9.2809   136.3809     2.4994    -0.0013   -46.2530     9.7199     9.3688     9.1138
  883.0000     9.2808   137.3709     2.4983    -0.0013   -46.2413     9.7244     9.3731     9.1179
  883.5000     9.2806   137.3690     2.4983    -0.0023   -46.2294     9.7288     9.3773     9.1221
  884.0000     9.2803   137.7638     2.4913     0.0017   -46.2176     9.7333     9.3808     9.2106
  884.5000     9.2801   138.1586     2.5023     0.0067   -46.4265     9.6486     9.3859     9.2148
  885.0000     9.2799   138.3551     2.4993     0.0097   -46.6330     9.6539     9.3043     9.2191
  885.5000     9.2797   138.1547     2.4923     0.0117   -47.0625     9.5690     9.2840     9.2233
  886.0000     9.2795   140.1367     2.5053     0.0117   -47.2713     9.4857     9.2900     9.1430
  886.5000     9.2992   141.1268     2.5103     0.0097   -47.0387     9.4900     9.2942     9.0634
  887.0000     9.3188   141.7200     2.5103     0.0066   -46.8062     9.5821     9.2135     9.0676
  887.5000     9.2988   140.7260     2.5102     0.0066   -46.3530     9.6751     9.2177     9.0717
  888.0000     9.2986   137.9464     2.5022     0.0046   -46.1206     9.6795     9.2219     8.9928
  888.5000     9.3182   136.5552     2.4982     0.0046   -46.1088     9.6840     9.2261     8.9969
  889.0000     9.3577   136.1572     2.5112     0.0066   -45.8764     9.5118     9.2303     9.0010
  889.5000     9.3377   138.7341     2.5182     0.0076   -45.6440     9.3427     9.2346     9.0052
  890.0000     9.3375   140.1209     2.5242     0.0086   -45.1911     9.3710     9.2388     9.0093
  890.5000     9.3373   141.1110     2.5302     0.0146   -44.9588     9.3836     9.2413     9.0134
  891.0000     9.3371   140.7122     2.5282     0.0176   -44.7265     9.3962     9.1610     9.0175
  891.5000     9.3567   138.7262     2.5222     0.0116   -44.4942     9.4089     9.1669     9.0225
  892.0000     9.3565   136.9382     2.5172     0.0076   -44.9235     9.4215     9.1719     9.0266
  892.5000     9.3563   135.1506     2.5181     0.0146   -45.1323     9.4342     9.0922     9.0307
  893.0000     9.3561   134.5534     2.5121     0.0136   -45.3411     9.4469     9.0963     8.9522
  893.5000     9.3559   134.3530     2.5151     0.0156   -45.5498     9.4596     9.1005     8.9563
  894.0000     9.3358   133.7546     2.5201     0.0166   -45.5380     9.4688     9.0214     8.8783
  894.5000     9.3357   136.9283     2.5161     0.0156   -45.7467     9.3855     9.0231     8.8824
  895.0000     9.3552   139.5060     2.5141     0.0156   -45.9553     9.3907     9.0297     8.8051
  895.5000     9.3551   140.6944     2.5141     0.0146   -46.3843     9.3090     8.8694     8.8091
  896.0000     9.3549   140.6924     2.5151     0.0096   -46.8133     9.3107     8.9553     8.6541
  896.5000     9.3746   140.6905     2.5161     0.0166   -47.0218     9.2313     8.9577     8.7364
  897.0000     9.3553   142.0773     2.5161     0.0176   -46.7896     9.2381     8.9627     8.7404
  897.5000     9.3345   142.0753     2.5121     0.0075   -46.5574     9.2410     8.9668     8.7444
  898.0000     9.3740   139.6921     2.5000     0.0055   -46.1048     9.2449     8.9709     8.7484
  898.5000     9.3540   136.5157     2.5010     0.0055   -46.5134     9.3346     8.9758     8.7524
  899.0000     9.3538   136.9105     2.5010     0.0095   -46.7218     9.3388     8.9799     8.7565
  899.5000     9.3536   137.1070     2.5000     0.0125   -46.7100     9.4295     9.0669     8.7605
  900.0000     9.3533   136.9066     2.5000     0.0125   -46.6982     9.4338     9.0710     8.8455
  900.5000     9.2855   135.1762     2.5107     0.0106   -46.4656     9.4384     9.0755     8.8498
  901.0000     9.2538   135.7138     2.5150     0.0075   -46.4539     9.4428     9.0788     8.9357
  901.5000     9.2536   136.7047     2.5230     0.0135   -46.2215     9.4473     9.0840     8.9400
  902.0000     9.2535   137.2986     2.5230     0.0085   -45.7892     9.4518     9.0884     8.9443
  902.5000     9.2335   137.0993     2.5209     0.0155   -45.5569     9.4563     9.0927     8.9486
  903.0000     9.2333   138.2887     2.5169     0.0144   -45.3246     9.3742     9.0970     8.9528
  903.5000     9.2531   139.6765     2.5099     0.0104   -45.0923     9.2928     9.0182     8.8751
  904.0000     9.2529   140.0722     2.5029     0.0064   -44.8600     9.2972     9.0225     8.7981
  904.5000     9.2725   139.2774     2.5019     0.0044   -45.0682     9.3017     9.0242     8.7997
  905.0000     9.2723   138.4826     2.4979     0.0044   -45.2764     9.3921     9.0311     8.7445
  905.5000     9.2722   139.4737     2.4979     0.0094   -45.2643     9.4834     8.9536     8.6895
  906.0000     9.2720   140.4647     2.5009     0.0084   -44.5916     9.4879     8.8743     8.6349
  906.5000     9.2917   141.4560     2.5028     0.0063   -44.5796     9.4056     8.8303     8.5807
  907.0000     9.2717   142.4471     2.5018     0.0043   -44.3473     9.3239     8.7865     8.5268
  907.5000     9.2715   141.8507     2.4948     0.0003   -44.3353     9.2430     8.7429     8.4732
  908.0000     9.3110   141.2541     2.4958    -0.0007   -44.9839     9.2474     8.6995     8.4200
  908.5000     9.3109   140.6579     2.4998    -0.0017   -45.1920     9.2518     8.6563     8.3670
  909.0000     9.3107   139.8628     2.4978    -0.0007   -45.4002     9.2562     8.6134     8.3145
  909.5000     9.3105   139.4649     2.4988     0.0022   -45.6083     9.2606     8.5707     8.2622
  910.0000     9.3104   139.8606     2.4998     0.0062   -45.8164     9.1802     8.5281     8.2103
  910.5000     9.3102   140.2567     2.5057     0.0112   -46.4649     9.1846     8.4858     8.1505
  911.0000     9.3100   141.0494     2.5207     0.0182   -47.1134     9.1890     8.4437     8.1536
  911.5000     9.3297   142.0406     2.5257     0.0182   -47.5416     9.1093     8.4018     8.0828
  912.0000     9.3295   142.8333     2.5277     0.0162   -47.5295     9.1136     8.3705     8.0859
  912.5000     9.3294   143.6261     2.5227     0.0122   -47.5174     9.1180     8.3745     8.0165
