~VERSION INFORMATION
 VERS.                2.0:   CWLS LOG ASCII STANDARD - VERSION 2.0
 WRAP.                 NO:   ONE LINE PER DEPTH STEP
~WELL INFORMATION
#MNEM.UNIT      DATA TYPE    INFORMATION
#----------   ------------   ------------------------------
 STRT.F            7.5000:   START DEPTH
 STOP.F         5700.0000:   STOP DEPTH
 STEP.F            0.5000:   STEP LENGTH
 NULL.          -999.2500:   NO VALUE
 COMP. FLUOR DANIEL (NPOSR):   COMPANY
 WELL.   FLOUR "X" #52-10:   WELL
 FLD .             NPR #3:   FIELD
 LOC .      S10 T38N R78W:   LOCATION
 CNTY.            NATRONA:   COUNTY
 STAT.            WYOMING:   STATE
 CTRY. UNITED STATES OF AMERICA:   COUNTRY
 SRVC.      WESTERN ATLAS:   SERVICE COMPANY
 DATE.        12-JAN-1996:   LOGDATE
 API .     49025227600000:   API NUMBER
~CURVE INFORMATION
#MNEM.UNIT       API CODE    CURVE DESCRIPTION
#----------   ------------   ------------------------------
 DEPT.F                  :   
 TENR.LBS    11 635 01 00:   TENSION
 GRR .GAPI   11 310 01 00:   GAMMA RAY FROM RESISTIVITY
 LLD .OHMM   11 220 10 00:   LATEROLOG DEEP
 LLS .OHMM   11 220 09 00:   LATEROLOG SHALLOW
 SPR .MV     11 010 01 00:   SPONTANEOUS POTENTIAL
 CALD.IN     45 280 60 00:   CALIPER FROM DENSITY LOG
 TEND.LBS    45 635 01 00:   TENSION FROM DENSITY LOG
 ZCOR.G/C3   45 356 01 00:   DENSITY CORRECTION
 ZDEN.G/C3   45 350 01 00:   BULK DENSITY
 CNC .DEC    42 890 03 00:   NEUTRON POROSITY SANDSTONE
~PARAMETER INFORMATION
#MNEM.UNIT          VALUE    DESCRIPTION
#----------   ------------   ------------------------------
 EKB .F         5196.0000:   Kelly bushing
 EGL .F         5186.0000:   Ground level
 EDF .F         5195.0000:   Drilling floor
 TD  .F         5699.0000:   Total depth
 DATE.        12-JAN-1996:   Date logged
 CLNT.            A2DTECH:   Client Code
 SL  . 1032' FNL & 2536' FEL:   Surface Location
 PD  .                 GL:   Permanent Datum
 EPD .F              5186:   Elevation Permanent Datum
 LMF .                 KB:   Log Measured From
 DMF .                 KB:   Drilling Measured From
 DAPD.F                11:   Feet Above Permanent Datum
 DD  .F              5699:   Depth driller
 DL  .F              5699:   Depth logger
 BLI .F              5687:   Bottom log interval
 CS1 .IN            9.625:   Casing size
 CBD1.      9.625" @ 520':   Casing driller 1
 CBL1.F               522:   Casing logger 1
 BS1 .IN             8.75:   Bit size
 BSD1.F              5699:   Depth drilled with bit1
 DFT .               CHEM:   Type fluid in hole
 DFD .                9.8:   Density
 DFV .                 50:   Viscosity
 DFPH.                9.5:   pH
 DFL .                8.4:   Fluid loss
 MSS .           FLOWLINE:   Source of sample
 RMS .OHMM          0.515:   Rm
 MST .F                66:   Rm Meas. temp.
 RMF .OHMM          0.499:   Rmf
 MFST.F                66:   Rmf Meas. temp.
 RMC .OHMM          0.761:   Rmc
 MCST.F                66:   Rmc Meas. temp.
 MFSS.               MEAS:   Source Rmf.
 MCSS.               MEAS:   Source Rmc.
 RMB .OHMM          0.233:   Rm. at BHT
 BHT .F               174:   BHT.
 TCS .HRS               6:   Time Circ. stopped
 MRT .F               174:   Maximum recorded temp.
 LUN .            HL 6530:   Logging unit number
 LUL .             CASPER:   Logging unit location
 ENGI.        VERN RAUTIO:   Recorded By
 WITN. LAFRENIERE/OPSAL/HARDY:   Witnessed by
 ORIG.     2.5", 5" PRINT:   Origin of data
 UWI .     49025227600000:   Unique Well ID
 DICO. A2D TECHNOLOGIES, INC.:   Digitizing Company
~OTHER INFORMATION
~A    DEPT    TENR         GRR       LLD        LLS        SPR       CALD       TEND       ZCOR       ZDEN        CNC   
# ...
 2922.0000   -46.4860    53.5800    15.5770    14.5560   -98.4690     9.4580   -61.1760     0.0710     2.3070     0.2000
 2922.5000   -20.5820    52.3730    15.1700    14.1970   -98.4470     9.4590   -36.2750     0.0740     2.3060     0.2010
 2923.0000   -14.0560    53.0780    14.7620    13.9920   -98.4250     9.4610   -20.1310     0.0760     2.3050     0.2010
 2923.5000   -10.3320    53.7590    14.6720    13.8900   -98.4040     9.4630   -11.8300     0.0770     2.3020     0.2050
 2924.0000     8.5070    52.9230    14.6720    13.7520   -98.3820     9.4650    -4.9020     0.0800     2.2990     0.2080
 2924.5000    26.1040    49.7410    14.8110    13.8390   -98.3600     9.4680    -4.9020     0.0840     2.2950     0.2060
 2925.0000    16.0640    46.5050    15.0270    13.9730   -98.3390     9.4700    -4.9020     0.0880     2.2950     0.2090
 2925.5000    -3.5340    44.6620    15.2420    14.1060   -98.3170     9.4720   -42.1570     0.0920     2.2950     0.2120
 2926.0000   -31.1650    44.2120    15.4570    14.2710   -98.2950     9.4740   -73.2840     0.0900     2.2980     0.2150
 2926.5000   -58.7950    46.1420    15.6730    14.2090   -98.3410     9.4760  -102.9410     0.0760     2.3120     0.2170
 2927.0000   -65.4800    49.4240    15.8460    14.1300   -98.4350     9.4780   -99.4640     0.0600     2.3200     0.2200
 2927.5000   -67.0030    52.6390    15.9610    14.0510   -98.5300     9.4800   -96.1440     0.0610     2.3240     0.2230
 2928.0000   -68.5270    55.8770    16.0760    14.0090   -98.6240     9.4820   -92.8240     0.0630     2.3240     0.2260
 2928.5000   -70.0510    57.7310    16.1900    14.3440   -98.6910     9.4840   -89.5030     0.0660     2.3250     0.2280
 2929.0000   -71.5750    57.0230    16.2430    14.5370   -98.6560     9.4860   -86.1830     0.0650     2.3250     0.2280
 2929.5000   -73.0980    55.8440    16.0400    14.4380   -98.4200     9.4880   -83.3330     0.0610     2.3240     0.2270
 2930.0000   -68.7750    56.4840    15.8640    14.1380   -98.1840     9.4910   -40.6860     0.0570     2.3260     0.2210
 2930.5000   -25.3740    63.6380    15.4110    13.6960   -97.9490     9.4930    -3.3330     0.0520     2.3260     0.2100
 2931.0000    21.7230    71.0600    15.0850    13.3760   -97.7140     9.4950    34.3140     0.0480     2.3240     0.1950
 2931.5000    23.9550    73.1430    15.7600    13.5900   -97.4790     9.4970    34.3140     0.0430     2.3260     0.1770
 2932.0000    -0.4250    69.7510    16.2430    14.3870   -97.2590     9.4990     5.4620     0.0430     2.3280     0.1770
 2932.5000   -24.8050    64.1500    16.4360    15.1850   -97.1680     9.5010   -30.1120     0.0440     2.3300     0.1810
 2933.0000   -46.8370    58.6920    16.4930    15.6530   -97.0720     9.5030   -63.7250     0.0500     2.3260     0.1900
 2933.5000   -59.7890    55.4720    16.5460    15.4220   -96.9750     9.5050   -63.7250     0.0560     2.3200     0.2050
 2934.0000   -72.7410    55.7050    15.5220    14.6130   -96.8790     9.5070   -63.7250     0.0610     2.3150     0.2190
 2934.5000   -51.5060    59.6650    14.5390    13.7260   -96.7830     9.5090   -54.7060     0.0660     2.3160     0.2230
 2935.0000   -35.6880    61.0400    13.7950    13.0440   -96.6860     9.5110   -46.4050     0.0720     2.3170     0.2270
 2935.5000   -40.3980    60.2090    13.5350    12.7720   -96.5900     9.5140   -52.1350     0.0760     2.3260     0.2360
 2936.0000   -51.0040    60.1090    13.2750    12.6170   -96.4940     9.5160   -63.2030     0.0780     2.3330     0.2450
 2936.5000   -84.3370    62.5350    13.0150    12.4580   -96.3970     9.5180   -74.2700     0.0800     2.3410     0.2430
 2937.0000   -82.0440    65.1700    12.7720    12.2990   -96.3000     9.5200   -83.3330     0.0820     2.3490     0.2380
 2937.5000   -79.3170    65.8950    12.6910    12.1410   -96.2910     9.5220   -71.5690     0.0730     2.3570     0.2320
 2938.0000   -76.5910    63.4190    12.6160    11.9710   -96.3210     9.5240   -64.2300     0.0660     2.3640     0.2310
 2938.5000   -74.2970    60.9510    12.5380    12.1990   -96.3510     9.5260   -66.6010     0.0580     2.3710     0.2300
 2939.0000   -76.2580    63.9370    13.0270    12.4420   -96.3810     9.5280   -68.9730     0.0500     2.3770     0.2280
 2939.5000   -78.2900    69.4120    13.5330    12.7450   -96.4110     9.5300   -71.3450     0.0430     2.3870     0.2210
 2940.0000   -80.3210    75.2500    14.0400    13.0850   -96.4410     9.5320   -73.7160     0.0440     2.4000     0.2080
 2940.5000   -82.3530    75.1080    15.1880    14.3210   -96.4720     9.5340   -76.0880     0.0460     2.4460     0.1910
 2941.0000   -84.3850    72.9040    17.9600    15.7990   -96.5020     9.5370   -78.4590     0.0480     2.5030     0.1740
 2941.5000   -86.4160    72.2000    20.8500    17.6530   -96.5320     9.5330   -80.8310     0.0700     2.5420     0.1590
 2942.0000   -88.4480    72.7800    24.3970    20.6830   -96.5620     9.5210   -83.3330     0.0810     2.5610     0.1220
 2942.5000   -90.4800    72.0510    28.0300    23.8470   -96.5920     9.5110   -91.1760     0.0730     2.5380     0.1150
 2943.0000   -92.5110    69.9270    28.0300    24.8550   -96.6220     9.5000  -105.4060     0.0660     2.4970     0.1160
 2943.5000   -94.3780    66.1050    25.5780    23.6210   -96.6530     9.4900  -119.6360     0.0590     2.4090     0.1430
 2944.0000   -79.6340    62.3130    22.7160    20.7940   -96.7430     9.4790  -105.5740     0.0550     2.3460     0.1700
 2944.5000   -66.0010    58.6340    19.8530    17.9670   -96.9820     9.4690   -84.2300     0.0570     2.3240     0.1930
 2945.0000   -52.3670    56.6100    17.2920    15.0850   -97.2180     9.4610   -62.8850     0.0580     2.3280     0.2000
 2945.5000   -36.2220    57.6180    16.1540    14.1940   -97.4540     9.4940   -41.5410     0.0590     2.3430     0.2020
 2946.0000   -16.2960    60.1500    15.0160    13.3230   -97.6910     9.5260   -20.1960     0.0600     2.3570     0.2050
 2946.5000     3.6300    61.6950    14.1430    12.6720   -98.0410     9.5620    -3.3330     0.0610     2.3560     0.2080
 2947.0000    10.5820    61.6170    13.5790    12.3000   -98.3960     9.5800     2.2000     0.0620     2.3540     0.2100
 2947.5000    16.0640    60.2330    13.0150    11.7890   -98.8620     9.5990     7.7340     0.0630     2.3560     0.2160
 2948.0000    11.1850    58.8310    12.3450    11.1210   -99.3880     9.6190    13.2680     0.0590     2.3620     0.2220
 2948.5000     6.0240    58.5700    11.4880    10.3720   -99.7510     9.6400     3.8830     0.0560     2.3720     0.2290
 2949.0000    -5.9780    59.0570    10.9940     9.8580  -100.0800     9.6560   -10.7400     0.0520     2.3740     0.2310
 2949.5000   -17.9330    59.5560    10.5840     9.2380  -100.4160     9.6610   -25.3630     0.0530     2.3610     0.2340
 2950.0000   -28.2860    60.0590    10.1360     8.6400  -100.8570     9.6650   -39.9850     0.0550     2.3480     0.2370
 2950.5000   -36.9340    60.5670     9.1390     8.0910  -101.1210     9.6690   -54.6080     0.0570     2.3500     0.2400
 2951.0000   -46.1230    61.5070     8.8250     7.8770  -100.9050     9.6730   -69.2310     0.0590     2.3560     0.2440
 2951.5000   -58.1020    63.1020     8.5120     7.6630  -100.5310     9.6770   -83.3330     0.0620     2.3650     0.2440
 2952.0000   -70.0800    65.1920     8.2700     7.5240  -100.1610     9.6810   -78.1960     0.0590     2.3750     0.2400
 2952.5000   -64.2070    67.2940     8.1320     7.4880   -99.7520     9.6850   -73.2350     0.0560     2.3750     0.2350
 2953.0000   -48.6350    67.4940     8.0580     7.4030   -98.9880     9.6890   -68.2750     0.0600     2.3730     0.2360
 2953.5000   -55.2910    66.5890     7.9840     7.2670   -98.5150     9.6920   -63.7250     0.0680     2.3790     0.2380
 2954.0000   -70.8630    66.1700     7.9100     7.1310   -96.9500     9.7010   -67.8580     0.0760     2.3930     0.2390
 2954.5000   -76.2240    68.8150     7.8370     6.9940   -96.6760     9.7220   -71.6740     0.0840     2.4040     0.2380
 2955.0000   -78.6960    75.7820     7.7510     6.8100   -96.8610     9.7410   -75.4900     0.0880     2.4000     0.2360
