~VERSION INFORMATION
 VERS.                2.0:   CWLS LOG ASCII STANDARD - VERSION 2.0
 WRAP.                 NO:   ONE LINE PER DEPTH STEP
~WELL INFORMATION
#MNEM.UNIT      DATA TYPE    INFORMATION
#----------   ------------   ------------------------------
 STRT.F          200.0000:   START DEPTH
 STOP.F         3058.0000:   STOP DEPTH
 STEP.F            0.5000:   STEP LENGTH
 NULL.          -999.2500:   NO VALUE
 COMP.    FENIX & SCISSON:   COMPANY
 WELL. FENIX & SCISSON "A" #45-34:   WELL
 FLD .              N P R:   FIELD
 LOC .      S34 T39N R78W:   LOCATION
 CNTY.            NATRONA:   COUNTY
 STAT.            WYOMING:   STATE
 CTRY. UNITED STATES OF AMERICA:   COUNTRY
 SRVC.              WELEX:   SERVICE COMPANY
 DATE.        11-MAY-1977:   LOGDATE
 API .     49025103760000:   API NUMBER
~CURVE INFORMATION
#MNEM.UNIT       API CODE    CURVE DESCRIPTION
#----------   ------------   ------------------------------
 DEPT.F                  :   
 GRD .GAPI   45 310 01 00:   GAMMA RAY FROM DENSITY LOG
 CALD.IN     45 280 60 00:   CALIPER FROM DENSITY LOG
 RHOB.G/C3   45 350 01 00:   BULK DENSITY
 CORR.G/C3   45 356 01 00:   DENSITY CORRECTION
 SPR .MV     07 010 01 00:   SPONTANEOUS POTENTIAL
 ILD .OHMM   07 120 46 00:   DEEP INDUCTION RESISTIVITY
 ILM .OHMM   07 120 44 00:   INDUCTION LOG MEDIUM RESISTIVITY
 GURD.OHMM   07 220 05 00:   GUARD LOG RESISTIVITY
~PARAMETER INFORMATION
#MNEM.UNIT          VALUE    DESCRIPTION
#----------   ------------   ------------------------------
 EKB .F         5123.0000:   Kelly bushing
 EGL .F         5113.0000:   Ground level
 EDF .F            0.0000:   Drilling floor
 EPD .F            0.0000:   Permanent datum
 TD  .F         3060.0000:   Total depth
 DATE.        11-MAY-1977:   Date logged
 CLNT.            A2DTECH:   Client Code
 SL  . 2310' FSL & 2310' FWL:   Surface Location
 PD  .                 GL:   Permanent Datum
 DD  .F              3060:   Depth driller
 DL  .F              3060:   Depth logger
 BLI .F              3058:   Bottom log interval
 CS1 .IN            8.625:   Casing size
 CBD1.      8.625" @ 205':   Casing driller 1
 CBL1.F               214:   Casing logger 1
 BS1 .IN            7.875:   Bit size
 DFT .            KCL/MUD:   Type fluid in hole
 DFD .                8.8:   Density
 DFV .                 45:   Viscosity
 MSS .           FLOWLINE:   Source of sample
 RMS .OHMM            3.2:   Rm
 MST .F                85:   Rm Meas. temp.
 RMF .OHMM            2.7:   Rmf
 MFST.F                85:   Rmf Meas. temp.
 RMC .OHMM            3.6:   Rmc
 MCST.F                85:   Rmc Meas. temp.
 MFSS.               CALC:   Source Rmf.
 RMB .OHMM           2.44:   Rm. at BHT
 BHT .F               112:   BHT.
 TCS .HRS             2.5:   Time Circ. stopped
 MRT .F               112:   Maximum recorded temp.
 LUN .               8611:   Logging unit number
 LUL .           GILLETTE:   Logging unit location
 ENGI.            C. DOAK:   Recorded By
 WITN.      B. HARRINGTON:   Witnessed by
 ORIG.           5" PRINT:   Origin of data
 UWI .     49025103760000:   Unique Well ID
 DICO. A2D TECHNOLOGIES, INC.:   Digitizing Company
 DAPD.F                10:   Feet Above Permanent Datum
 BSD1.F              3060:   Depth drilled with bit1
 MCSS.               CALC:   Source Rmc.
 TLI .F               200:   Top log interval
~OTHER INFORMATION
~A   DEPT       GRD      CALD         RHOB      CORR       SPR        ILD        ILM       GURD   
# ...
  767.0000   130.6790    10.0030     2.4850     0.0390  -999.2500     7.3350     7.5490     0.2090
  767.5000   129.2270     9.9830     2.4760     0.0440  -999.2500     7.3600     7.5940     0.2090
  768.0000   130.6600     9.9630     2.4700     0.0500  -999.2500     7.3830     7.6360     3.8500
  768.5000   132.7570     9.9440     2.4620     0.0580  -999.2500     7.4090     7.6780     7.2760
  769.0000   133.2720     9.9240     2.4560     0.0670  -999.2500     7.4140     7.7200     6.9660
  769.5000   133.6900     9.9040     2.4480     0.0750  -999.2500     7.4230     7.7620     6.1670
  770.0000   134.0280     9.8840     2.4500     0.0840  -999.2500     7.4300     7.8050     4.3980
  770.5000   134.4760     9.8650     2.4580     0.0930  -999.2500     7.4370     7.8470     3.1280
  771.0000   134.3580     9.8460     2.4660     0.1010  -999.2500     7.4450     7.8890     4.5220
  771.5000   134.1890     9.8240     2.4670     0.1100  -999.2500     7.4530     7.9310     5.5710
  772.0000   134.0010     9.8230     2.4490     0.1180  -999.2500     7.4600     7.9730     6.3980
  772.5000   133.8350     9.8490     2.4310     0.1270  -999.2500     7.4680     8.0160     5.7660
  773.0000   133.5420     9.8760     2.4120     0.1180  -999.2500     7.4760     8.0580     4.7670
  773.5000   133.0940     9.8940     2.3950     0.1010  -999.2500     7.4830     8.1000     7.8910
  774.0000   132.6540     9.9680     2.3850     0.0860  -999.2500     7.4910     8.1270    10.9650
  774.5000   132.2070    10.0140     2.3870     0.0710  -999.2500     7.4980     8.1250    20.3710
  775.0000   131.7690    10.0580     2.3890     0.0640  -999.2500     7.5060     8.1240    21.5260
  775.5000   131.3190    10.0900     2.3790     0.0590  -999.2500     7.5140     8.1250    20.3040
  776.0000   130.8740    10.0850     2.3690     0.0540  -999.2500     7.5210     8.1250    18.5820
  776.5000   130.4560    10.0680     2.4000     0.0510  -999.2500     7.5290     8.1250    20.7770
  777.0000   129.9290    10.0520     2.4210     0.0570  -999.2500     7.5360     8.1250    24.4940
  777.5000   130.3450    10.0350     2.4130     0.0630  -999.2500     7.5450     8.1250    30.5250
  778.0000   131.5620    10.0190     2.4050     0.0690  -999.2500     7.5520     8.1240    30.2240
  778.5000   132.5860    10.0020     2.3970     0.0740  -999.2500     7.5980     8.1240    29.4240
  779.0000   133.5770     9.9860     2.4000     0.0710  -999.2500     7.6470     8.1240    28.6240
  779.5000   132.4550     9.9730     2.4110     0.0670  -999.2500     7.6970     8.1680    27.8250
  780.0000   131.2060     9.9730     2.4040     0.0680  -999.2500     7.7470     8.2460    27.0250
  780.5000   129.7380     9.9720     2.3850     0.0700  -999.2500     7.7970     8.3250    26.3510
  781.0000   129.1560     9.9720     2.3670     0.0580  -999.2500     7.8460     8.4030    28.7890
  781.5000   129.8410     9.9720     2.3620     0.0440  -999.2500     7.8960     8.4820    30.8980
  782.0000   130.3850     9.9720     2.3780     0.0300  -999.2500     7.9460     8.5600    33.0070
  782.5000   131.0270     9.9730     2.4070     0.0160  -999.2500     7.9960     8.6380    35.1150
  783.0000   131.3660     9.9660     2.4150     0.0040  -999.2500     8.0460     8.7160    37.2240
  783.5000   131.1690     9.9460     2.4240     0.0040  -999.2500     8.0960     8.7940    39.3320
  784.0000   131.0490     9.9260     2.4310     0.0160  -999.2500     8.1450     8.8730    41.4410
  784.5000   130.9120     9.9070     2.4400     0.0270  -999.2500     8.1950     8.9510    43.2870
  785.0000   130.7520     9.8870     2.4410     0.0270  -999.2500     8.2450     9.0290    43.2870
  785.5000   130.6410     9.8670     2.4310     0.0270  -999.2500     8.2950     9.1070    43.2870
  786.0000   129.7840     9.8480     2.4220     0.0270  -999.2500     8.3450     9.1850    43.2870
  786.5000   128.7040     9.8260     2.4130     0.0270  -999.2500     8.3940     9.2640    42.3540
  787.0000   127.5690     9.8130     2.4040     0.0260  -999.2500     8.4310     9.3420    41.3310
  787.5000   128.3510     9.8150     2.3970     0.0200  -999.2500     8.4380     9.4120    40.3080
  788.0000   129.2750     9.8140     2.3910     0.0150  -999.2500     8.4450     9.3500    38.7660
  788.5000   130.3190     9.8140     2.3850     0.0100  -999.2500     8.4520     9.2940    40.0540
  789.0000   131.2470     9.8140     2.3790     0.0050  -999.2500     8.4600     9.2370    42.6600
  789.5000   132.0500     9.8140     2.3750     0.0000  -999.2500     8.4670     9.1810    45.2660
  790.0000   131.1330     9.8140     2.3660    -0.0050  -999.2500     8.4740     9.1250    49.2320
  790.5000   130.2640     9.8140     2.3570    -0.0090  -999.2500     8.4810     9.0730    48.4010
  791.0000   129.3070     9.8140     2.3520    -0.0130  -999.2500     8.4880     9.0730    46.6630
  791.5000   128.4110     9.8140     2.3530    -0.0090  -999.2500     8.4950     9.0730    44.2280
  792.0000   127.4860     9.8140     2.3660    -0.0060  -999.2500     8.5020     9.0730    41.0070
  792.5000   126.5390     9.8140     2.3820    -0.0020  -999.2500     8.5090     9.0720    36.6860
  793.0000   126.0780     9.8140     2.3960     0.0020  -999.2500     8.5160     9.0720    41.4620
  793.5000   126.7860     9.8140     2.4040     0.0050  -999.2500     8.5230     9.0720    50.8710
  794.0000   127.4900     9.8140     2.4140     0.0090  -999.2500     8.5300     9.0720    49.6330
  794.5000   128.1790     9.8140     2.4190     0.0110  -999.2500     8.5370     9.0720    40.0310
  795.0000   128.9540     9.8140     2.4230     0.0110  -999.2500     8.5450     9.0720    28.8880
  795.5000   128.8740     9.8140     2.4290     0.0110  -999.2500     8.5520     9.0720    23.5990
  796.0000   128.7410     9.8140     2.4290     0.0110  -999.2500     8.5590     9.0740    19.6360
  796.5000   128.5340     9.8140     2.4200     0.0110  -999.2500     8.5660     9.0480    25.7530
  797.0000   128.4120     9.8140     2.4090     0.0110  -999.2500     8.5730     8.9870    37.3670
  797.5000   128.3180     9.8140     2.4080     0.0120  -999.2500     8.5830     8.9280    34.0850
  798.0000   129.5190     9.8140     2.4190     0.0200  -999.2500     8.5690     8.8690    26.6500
  798.5000   130.7340     9.8140     2.4280     0.0270  -999.2500     8.5000     8.8100    19.3610
  799.0000   131.9840     9.8140     2.4390     0.0360  -999.2500     8.4300     8.7510    13.6700
  799.5000   133.2400     9.8140     2.4460     0.0440  -999.2500     8.3600     8.6910    14.0340
  800.0000   134.0200     9.8140     2.4480     0.0510  -999.2500     8.2900     8.6320    14.3970
  800.5000   134.4380     9.8140     2.4510     0.0580  -999.2500     8.2200     8.5730    14.9030
  801.0000   133.8520     9.8140     2.4530     0.0640  -999.2500     8.1490     8.5140    14.8350
  801.5000   133.2360     9.8140     2.4560     0.0710  -999.2500     8.0790     8.4540    14.7210
  802.0000   132.4890     9.8140     2.4560     0.0780  -999.2500     8.0090     8.3950    14.4810
  802.5000   132.3980     9.8140     2.4550     0.0880  -999.2500     7.9390     8.3360    13.7810
  803.0000   133.2130     9.8140     2.4540     0.1010  -999.2500     7.8690     8.2770    13.0810
  803.5000   133.9460     9.8200     2.4550     0.1120  -999.2500     7.7990     8.2180    12.4010
  804.0000   134.6880     9.8440     2.4370     0.1220  -999.2500     7.7290     8.1580    12.2100
  804.5000   135.4600     9.8580     2.4060     0.1080  -999.2500     7.6890     8.1110    12.0240
  805.0000   136.1420     9.9230     2.3780     0.0860  -999.2500     7.6350     8.0800    11.8390
  805.5000   137.2530     9.9940     2.3740     0.0720  -999.2500     7.5840     8.0500    11.7060
  806.0000   137.6090    10.0650     2.3790     0.0690  -999.2500     7.5320     8.0190    11.6400
  806.5000   136.8300    10.1420     2.3840     0.0630  -999.2500     7.4800     7.9890    11.5740
  807.0000   136.1770    10.1430     2.3880     0.0510  -999.2500     7.4290     7.9580    11.5090
