~VERSION INFORMATION
 VERS.                2.0:   CWLS LOG ASCII STANDARD - VERSION 2.0
 WRAP.                 NO:   ONE LINE PER DEPTH STEP
~WELL INFORMATION
#MNEM.UNIT      DATA TYPE    INFORMATION
#----------   ------------   ------------------------------
 STRT.F           29.5000:   START DEPTH
 STOP.F         2719.5000:   STOP DEPTH
 STEP.F            0.5000:   STEP LENGTH
 NULL.          -999.2500:   NO VALUE
 COMP.          INTEX OIL:   COMPANY
 WELL. INTEX NPR 3 "AX" #82-20:   WELL
 FLD .             TEAPOT:   FIELD
 LOC .      S20 T39N R78W:   LOCATION
 CNTY.            NATRONA:   COUNTY
 STAT.            WYOMING:   STATE
 CTRY. UNITED STATES OF AMERICA:   COUNTRY
 SRVC.       SCHLUMBERGER:   SERVICE COMPANY
 DATE.        19-MAY-1956:   LOGDATE
 API .     49025095270000:   API NUMBER
~CURVE INFORMATION
#MNEM.UNIT       API CODE    CURVE DESCRIPTION
#----------   ------------   ------------------------------
 DEPT.F                  :   
 CALD.IN     45 280 60 00:   CALIPER FROM DENSITY LOG
 GRD .GAPI   45 310 01 00:   GAMMA RAY FROM DENSITY LOG
 CORR.G/C3   45 356 01 00:   DENSITY CORRECTION
 RHOB.G/C3   45 350 01 00:   BULK DENSITY
 SPR .MV     05 010 01 00:   SPONTANEOUS POTENTIAL
 ILD .OHMM   05 120 46 00:   DEEP INDUCTION RESISTIVITY
 SN  .OHMM   05 040 00 00:   SHORT NORMAL
~PARAMETER INFORMATION
#MNEM.UNIT          VALUE    DESCRIPTION
#----------   ------------   ------------------------------
 EKB .F         5014.3000:   Kelly bushing
 EGL .F         5004.0000:   Ground level
 EDF .F            0.0000:   Drilling floor
 TD  .F         2717.0000:   Total depth
 DATE.        19-MAY-1956:   Date logged
 CLNT.            A2DTECH:   Client Code
 PD  .                 GL:   Permanent Datum
 EPD .F              5004:   Elevation Permanent Datum
 LMF .                 KB:   Log Measured From
 DMF .                 KB:   Drilling Measured From
 DAPD.F              10.3:   Feet Above Permanent Datum
 DD  .F              2717:   Depth driller
 DL  .F              2717:   Depth logger
 BLI .F              2716:   Bottom log interval
 TLI .F               100:   Top log interval
 CS1 .IN            10.75:   Casing size
 CBD1.       10.75" @ 30':   Casing driller 1
 BS1 .IN            7.875:   Bit size
 BSD1.F              2717:   Depth drilled with bit1
 DFT .        GEL/CAUSTIC:   Type fluid in hole
 DFD .                9.7:   Density
 DFV .                 35:   Viscosity
 DFPH.                7.6:   pH
 DFL .                8.8:   Fluid loss
 MSS .           FLOWLINE:   Source of sample
 RMS .OHMM           1.68:   Rm
 MST .F                58:   Rm Meas. temp.
 RMF .OHMM           1.17:   Rmf
 MFST.F                68:   Rmf Meas. temp.
 MFSS.                 FP:   Source Rmf.
 RMB .OHMM              1:   Rm. at BHT
 BHT .F               101:   BHT.
 TCS .HRS               4:   Time Circ. stopped
 MRT .F               101:   Maximum recorded temp.
 LUN .               4507:   Logging unit number
 LUL .               CSPR:   Logging unit location
 ENGI.            MANGOLD:   Recorded By
 WITN.             TUTTLE:   Witnessed by
 ORIG.           5" PRINT:   Origin of data
 UWI .     49025095270000:   Unique Well ID
 DICO. A2D TECHNOLOGIES, INC.:   Digitizing Company
~OTHER INFORMATION
~A   DEPT     CALD         GRD      CORR       RHOB        SPR        ILD         SN   
# ...
   75.0000     8.6190    91.1170     0.0790     2.3920   -69.5980  -999.2500  -999.2500
   75.5000     8.6190    90.8170     0.0970     2.3770   -69.4990  -999.2500  -999.2500
   76.0000     8.6180    91.1950     0.1260     2.3620   -69.3990  -999.2500  -999.2500
   76.5000     8.5980    90.1910     0.0890     2.3630   -69.2970  -999.2500  -999.2500
   77.0000     8.5780    86.9630     0.0530     2.3970   -69.1960  -999.2500  -999.2500
   77.5000     8.5570    84.1760     0.0590     2.4320   -69.0910  -999.2500  -999.2500
   78.0000     8.5370    85.5530     0.0640     2.4520   -69.0860  -999.2500  -999.2500
   78.5000     8.5170    87.6560     0.0680     2.4470   -69.1030  -999.2500  -999.2500
   79.0000     8.4990    86.6570     0.0630     2.4390   -69.1440  -999.2500  -999.2500
   79.5000     8.5000    85.6780     0.0660     2.4540   -69.1840  -999.2500  -999.2500
   80.0000     8.5000    84.7250     0.0730     2.4460   -69.2250  -999.2500  -999.2500
   80.5000     8.5000    83.8840     0.0780     2.4330   -69.2650  -999.2500  -999.2500
   81.0000     8.5000    79.5880     0.0660     2.4200   -69.2830  -999.2500  -999.2500
   81.5000     8.5000    74.6320     0.0660     2.4160   -69.3080  -999.2500  -999.2500
   82.0000     8.5000    67.8200     0.0730     2.4290   -69.8310  -999.2500  -999.2500
   82.5000     8.5000    59.6710     0.0760     2.4430   -70.3540  -999.2500  -999.2500
   83.0000     8.5000    51.5290     0.0720     2.4140   -70.8760  -999.2500  -999.2500
   83.5000     8.5000    44.1360     0.0860     2.3920   -71.3960  -999.2500  -999.2500
   84.0000     8.5000    46.1600     0.1460     2.3740   -71.9170  -999.2500  -999.2500
   84.5000     8.4950    50.5230     0.1300     2.3240   -72.4380  -999.2500  -999.2500
   85.0000     8.5090    48.7560     0.1060     2.2750   -72.9580  -999.2500  -999.2500
   85.5000     8.5430    45.7310     0.0930     2.2480   -73.4780  -999.2500  -999.2500
   86.0000     8.5500    44.1660     0.0840     2.2280   -74.0000  -999.2500  -999.2500
   86.5000     8.4930    45.5560     0.0750     2.2290   -74.5270  -999.2500  -999.2500
   87.0000     8.4340    46.8970     0.0620     2.2350   -74.5820  -999.2500  -999.2500
   87.5000     8.4530    48.2390     0.0720     2.2580   -74.3120  -999.2500  -999.2500
   88.0000     8.5090    49.5820     0.0900     2.2810   -74.0430  -999.2500  -999.2500
   88.5000     8.5680    50.9300     0.0990     2.2810   -73.7710  -999.2500  -999.2500
   89.0000     8.5360    52.3120     0.0980     2.2810   -73.4910  -999.2500  -999.2500
   89.5000     8.4950    52.5830     0.0990     2.2830   -73.8040  -999.2500  -999.2500
   90.0000     8.4540    50.7270     0.1080     2.2700   -74.2020  -999.2500  -999.2500
   90.5000     8.4130    48.6620     0.1040     2.2560   -74.4180  -999.2500  -999.2500
   91.0000     8.3820    49.9920     0.0850     2.2450   -74.3140  -999.2500  -999.2500
   91.5000     8.3880    52.4120     0.0900     2.2520   -74.3110  -999.2500  -999.2500
   92.0000     8.3940    54.8870     0.0950     2.2600   -74.4580  -999.2500  -999.2500
   92.5000     8.4000    54.9400     0.0940     2.2690   -74.8400  -999.2500  -999.2500
   93.0000     8.4030    53.5890     0.1080     2.2690   -75.2430  -999.2500  -999.2500
   93.5000     8.4070    51.4880     0.1170     2.2600   -75.6490  -999.2500  -999.2500
   94.0000     8.4120    49.4110     0.1110     2.2500   -76.0540  -999.2500  -999.2500
   94.5000     8.4170    47.7250     0.0990     2.2420   -76.4240  -999.2500  -999.2500
   95.0000     8.4200    48.7690     0.0980     2.2480   -76.2750  -999.2500  -999.2500
   95.5000     8.3460    48.6150     0.1050     2.2510   -76.1100  -999.2500    11.6800
   96.0000     8.2640    47.0650     0.0880     2.2280   -76.0750  -999.2500    11.8920
   96.5000     8.2200    48.0340     0.0940     2.2250   -76.1250  -999.2500    12.1040
   97.0000     8.2060    49.2080     0.0950     2.2320   -76.1750  -999.2500    12.2480
   97.5000     8.2080    50.4960     0.0820     2.2400   -76.2300  -999.2500    12.4740
   98.0000     8.2120    52.7060     0.0730     2.2470   -76.0690  -999.2500    12.6870
   98.5000     8.2150    54.9860     0.0890     2.2540   -75.8140  -999.2500    12.9000
   99.0000     8.2180    55.2740     0.1040     2.2660   -75.5580  -999.2500    13.1180
   99.5000     8.2220    54.1230     0.1230     2.2850   -75.3020    10.9630    13.5110
  100.0000     8.2250    55.4550     0.1190     2.2990   -75.0460    12.0050    14.5690
  100.5000     8.2280    58.6560     0.1120     2.2970   -74.8350    13.0480    15.6140
  101.0000     8.2320    60.7900     0.1050     2.3080   -75.0530    13.5850    16.6490
  101.5000     8.2350    59.1390     0.0980     2.3200   -75.3440    13.5220    17.4560
  102.0000     8.2380    57.4730     0.0910     2.3300   -75.6870    13.3180    17.2620
  102.5000     8.2420    55.7390     0.0830     2.3150   -76.0340    13.1200    16.4570
  103.0000     8.2430    53.1350     0.0800     2.2980   -76.3770    12.9230    15.8380
  103.5000     8.2070    50.5450     0.0970     2.2900   -76.5720    12.7250    15.8550
  104.0000     8.1670    48.4450     0.1170     2.2990   -76.2610    12.5260    15.8580
  104.5000     8.1260    50.3590     0.1300     2.3050   -75.9620    12.5750    15.8580
  105.0000     8.1240    52.9680     0.1240     2.2880   -75.6680    13.0000    15.8960
  105.5000     8.1250    55.5600     0.1080     2.2690   -75.4880    13.4190    16.3100
  106.0000     8.1250    56.8970     0.0750     2.2520   -75.6730    13.8390    16.7780
  106.5000     8.1230    54.7930     0.0740     2.2520   -75.8500    14.2690    17.2460
  107.0000     8.1070    52.8080     0.0760     2.2520   -76.0290    14.2330    17.7140
  107.5000     8.1350    51.9910     0.0770     2.2580   -76.2240    14.0730    18.1740
  108.0000     8.1730    54.0860     0.0760     2.2980   -75.7190    13.9080    18.3900
  108.5000     8.2110    56.0890     0.0630     2.3380   -75.2370    13.7420    17.6930
  109.0000     8.2410    56.2010     0.0510     2.3780   -75.2260    13.5760    17.0160
  109.5000     8.2270    54.8010     0.0600     2.4040   -76.0510    13.3990    16.3420
  110.0000     8.2120    50.3320     0.0890     2.3640   -77.0110    13.1100    15.6730
  110.5000     8.1970    48.1850     0.1040     2.3300   -76.9830    11.9420    15.1490
  111.0000     8.1830    50.8430     0.1070     2.3000   -76.4790    11.6900    15.0810
  111.5000     8.1680    52.8110     0.1090     2.3010   -75.8280    11.6810    14.9800
  112.0000     8.1860    54.7830     0.1040     2.3030   -75.2090    11.6810    14.8760
  112.5000     8.2240    56.7720     0.0940     2.3150   -74.5910    11.6800    14.7720
  113.0000     8.2630    57.6370     0.1170     2.3280   -73.9770    11.6800    14.6690
  113.5000     8.3020    57.0910     0.1080     2.3320   -73.5880    11.6800    14.5660
  114.0000     8.3410    56.4950     0.0980     2.3170   -73.2540    11.6800    14.4630
  114.5000     8.3800    55.8780     0.0870     2.3040   -72.9110    11.6800    14.3600
  115.0000     8.3690    56.6950     0.0850     2.2890   -73.1960    11.6800    14.2570
  115.5000     8.3460    57.7630     0.0930     2.2940   -73.5870    11.6800    14.1540
  116.0000     8.3230    58.8380     0.0920     2.2980   -73.8670    11.6800    14.0510
  116.5000     8.3220    59.9110     0.0850     2.2950   -73.6880    11.6800    13.9480
  117.0000     8.3370    60.9840     0.0770     2.2910   -73.4910    11.6800    13.8460
  117.5000     8.3570    62.0520     0.0840     2.3040   -73.4620    11.6760    13.7660
  118.0000     8.3770    63.1240     0.1000     2.3160   -73.4890    11.8210    13.7690
  118.5000     8.3970    63.0490     0.1030     2.3270   -73.5920    11.9720    13.8080
  119.0000     8.4170    61.5480     0.1050     2.3390   -73.6570    12.1250    13.9850
  119.5000     8.4360    61.6700     0.1050     2.3430   -73.6190    12.2790    14.1590
  120.0000     8.4560    62.7640     0.1010     2.3360   -73.4870    12.4320    14.3330
