~VERSION INFORMATION
 VERS.                2.0:   CWLS LOG ASCII STANDARD - VERSION 2.0
 WRAP.                 NO:   ONE LINE PER DEPTH STEP
~WELL INFORMATION
#MNEM.UNIT      DATA TYPE    INFORMATION
#----------   ------------   ------------------------------
 STRT.F          728.0000:   START DEPTH
 STOP.F         3296.0000:   STOP DEPTH
 STEP.F            0.5000:   STEP LENGTH
 NULL.          -999.2500:   NO VALUE
 COMP.    FENIX & SCISSON:   COMPANY
 WELL. FENIX TX "AX" #55-34:   WELL
 FLD . N. P. R. - WILDCAT:   FIELD
 LOC .      S34 T39N R78W:   LOCATION
 CNTY.            NATRONA:   COUNTY
 STAT.            WYOMING:   STATE
 CTRY. UNITED STATES OF AMERICA:   COUNTRY
 SRVC.       SCHLUMBERGER:   SERVICE COMPANY
 DATE.        22-JUL-1981:   LOGDATE
 API .     49025108770000:   API NUMBER
~CURVE INFORMATION
#MNEM.UNIT       API CODE    CURVE DESCRIPTION
#----------   ------------   ------------------------------
 DEPT.F                  :   
 TENS.LBS    60 635 01 00:   TENSION FROM SONIC LOG
 DT  .US/F   60 520 00 00:   DELTA TIME
 RHOB.G/C3   45 350 01 00:   BULK DENSITY
 TEND.LBS    45 635 01 00:   TENSION FROM DENSITY LOG
 CORR.G/C3   45 356 01 00:   DENSITY CORRECTION
 CALD.IN     45 280 60 00:   CALIPER FROM DENSITY LOG
 NPHI.DEC    42 890 03 00:   NEUTRON POROSITY SANDSTONE
 TENR.LBS    07 635 01 00:   TENSION FROM RESISTIVITY
 SPR .MV     07 010 01 00:   SPONTANEOUS POTENTIAL
 GRR .GAPI   07 310 01 00:   GAMMA RAY FROM RESISTIVITY
 SFL .OHMM   07 220 01 00:   SHALLOW FOCUSED LOG RESISTIVITY
 ILM .OHMM   07 120 44 00:   INDUCTION LOG MEDIUM RESISTIVITY
 ILD .OHMM   07 120 46 00:   DEEP INDUCTION RESISTIVITY
~PARAMETER INFORMATION
#MNEM.UNIT          VALUE    DESCRIPTION
#----------   ------------   ------------------------------
 EKB .F         5092.0000:   Kelly bushing
 EGL .F         5082.0000:   Ground level
 EDF .F            0.0000:   Drilling floor
 TD  .F         3170.0000:   Total depth
 DATE.        22-JUL-1981:   Date logged
 CLNT.            A2DTECH:   Client Code
 SL  . 2012' FSL & 2774' FWL:   Surface Location
 PD  .                 GL:   Permanent Datum
 EPD .F              5082:   Elevation Permanent Datum
 LMF .                 KB:   Log Measured From
 DMF .                 KB:   Drilling Measured From
 DAPD.F                10:   Feet Above Permanent Datum
 DD  .F              3170:   Depth driller
 DL  .F              3110:   Depth logger
 BLI .F              3104:   Bottom log interval
 TLI .F               753:   Top log interval
 CS1 .IN            9.625:   Casing size
 CBD1.      9.625" @ 751':   Casing driller 1
 CBL1.F               753:   Casing logger 1
 BS1 .IN            7.875:   Bit size
 BSD1.F              3170:   Depth drilled with bit1
 DFT .                FGM:   Type fluid in hole
 DFD .                  9:   Density
 DFV .                  9:   Viscosity
 DFPH.                9.8:   pH
 DFL .                8.6:   Fluid loss
 MSS .           MUD/TANK:   Source of sample
 RMS .OHMM           1.72:   Rm
 MST .F                72:   Rm Meas. temp.
 RMF .OHMM           1.17:   Rmf
 MFST.F                70:   Rmf Meas. temp.
 MFSS.               MEAS:   Source Rmf.
 RMB .OHMM           0.90:   Rm. at BHT
 BHT .F               144:   BHT.
 TCS .HRS            1215:   Time Circ. stopped
 TLAB.HRS            0400:   Time logger at bottom
 MRT .F               144:   Maximum recorded temp.
 LUN .               8035:   Logging unit number
 LUL .               CSPR:   Logging unit location
 ENGI.            PURPICH:   Recorded By
 WITN.           R. SCOTT:   Witnessed by
 ORIG.           5" PRINT:   Origin of data
 UWI .     49025108770000:   Unique Well ID
 DICO. A2D TECHNOLOGIES, INC.:   Digitizing Company
~OTHER INFORMATION
~A   DEPT     TENS         DT         RHOB      TEND      CORR       CALD         NPHI     TENR        SPR         GRR       SFL        ILM        ILD   
# ...
 1066.0000  -999.2500  -999.2500     2.5150   836.6100     0.0120     8.0290     0.2740   480.6740   -69.8670   117.4480     9.3370     8.5870     9.0020
 1066.5000  -999.2500  -999.2500     2.5220   837.1090     0.0160     8.0290     0.2810   480.6740   -69.8180   113.9060     9.1280     8.4920     8.9370
 1067.0000  -999.2500  -999.2500     2.5290   837.6080     0.0220     8.0280     0.2890   480.6740   -69.7700   109.6890     9.0450     8.3970     8.8810
 1067.5000  -999.2500  -999.2500     2.5210   838.1070     0.0220     8.0280     0.2910   480.6740   -69.7230   105.5230     9.0450     8.3020     8.8810
 1068.0000  -999.2500  -999.2500     2.5120   838.6060     0.0190     8.0280     0.2880   480.6740   -69.6750   102.4040     9.1610     8.2070     8.8810
 1068.5000  -999.2500  -999.2500     2.5010   839.1050     0.0120     8.0280     0.2890   480.6740   -69.6270   102.7010     9.2970     8.1120     8.8490
 1069.0000  -999.2500  -999.2500     2.4880   839.6040     0.0060     8.0280     0.2910   480.6740   -69.5790   105.3430     9.1410     8.0170     8.7200
 1069.5000  -999.2500  -999.2500     2.4860   840.1030     0.0030     8.0280     0.2930   480.6740   -69.5320   108.6430     8.9080     7.9220     8.5900
 1070.0000  -999.2500  -999.2500     2.4890   840.6020     0.0120     8.0280     0.2960   480.6740   -69.4840   111.9800     8.6740     7.8270     8.4610
 1070.5000  -999.2500  -999.2500     2.5110   841.1010     0.0220     8.0280     0.2840   480.6740   -69.4360   115.3510     8.4410     7.7320     8.3310
 1071.0000  -999.2500  -999.2500     2.5200   841.6000     0.0280     8.0280     0.2740   480.6740   -69.3880   117.0780     8.2070     7.6370     8.2020
 1071.5000  -999.2500  -999.2500     2.5260   842.0990     0.0280     8.0280     0.2740   480.6740   -69.3390   117.5650     8.1770     7.5420     8.0720
 1072.0000  -999.2500  -999.2500     2.5280   842.5980     0.0290     8.0280     0.2820   480.6740   -69.2900   116.1090     8.1770     7.4470     7.9430
 1072.5000  -999.2500  -999.2500     2.5480   843.0970     0.0800     8.0280     0.2880   480.6740   -69.0880   114.2640     8.0530     7.3520     7.8140
 1073.0000  -999.2500  -999.2500     2.5750   843.5960     0.1560     8.0280     0.2920   480.6740   -69.1030   113.5120     7.8820     7.2570     7.6840
 1073.5000  -999.2500  -999.2500     2.5700   844.0950     0.2580     8.0280     0.2960   480.6740   -69.2000   112.7150     7.9860     7.1620     7.5550
 1074.0000  -999.2500  -999.2500     2.5050   844.5950     0.2470     8.0290     0.2990   480.6740   -69.2960   112.7590     8.0280     7.0670     7.4250
 1074.5000  -999.2500  -999.2500     2.4060   845.0940     0.1710     8.0270     0.3170   480.6740   -69.3920   113.1620     7.7290     6.9720     7.2960
 1075.0000  -999.2500  -999.2500     2.3480   845.5930     0.0950     8.0280     0.3390   480.6740   -69.4870   113.6070     7.5290     6.8690     7.1910
 1075.5000  -999.2500  -999.2500     2.3840   846.0920     0.0490     8.0370     0.3380   480.6740   -69.5830   112.3760     7.3920     6.8690     7.1910
 1076.0000  -999.2500  -999.2500     2.4380   846.5910     0.0400     8.1300     0.3270   480.6740   -69.6780   110.8300     7.5180     6.9180     7.2580
 1076.5000  -999.2500  -999.2500     2.4890   847.0900     0.0220     8.2060     0.3120   480.6740   -69.6890   109.7240     7.6660     7.0230     7.3900
 1077.0000  -999.2500  -999.2500     2.5070   847.5890     0.0050     8.2360     0.2990   480.6740   -69.6900   110.5120     7.8150     7.1290     7.5120
 1077.5000  -999.2500  -999.2500     2.5150   848.0880     0.0100     8.1670     0.2960   480.6740   -69.6070   111.8660     7.9630     7.2350     7.6340
 1078.0000  -999.2500  -999.2500     2.5350   848.5870     0.0190     8.0340     0.2920   480.6740   -69.5060   113.2290     8.1120     7.3400     7.7560
 1078.5000  -999.2500  -999.2500     2.5430   849.0860     0.0280     7.9850     0.2870   480.6740   -69.4030   114.4810     8.2600     7.4460     7.8790
 1079.0000  -999.2500  -999.2500     2.5370   849.5850     0.0340     7.9930     0.2890   480.6740   -69.3020   114.6020     8.4090     7.5510     8.0010
 1079.5000  -999.2500  -999.2500     2.5280   850.0840     0.0280     7.9940     0.2940   480.6740   -69.2010   114.7730     8.5610     7.6680     8.1350
 1080.0000  -999.2500  -999.2500     2.5190   850.5830     0.0200     7.9970     0.2960   480.6740   -69.0930   113.5040     8.5610     7.6680     8.1770
 1080.5000  -999.2500  -999.2500     2.5100   851.0820     0.0130     8.0000     0.2960   480.6740   -68.8170   111.6180     8.5610     7.6320     8.1770
 1081.0000  -999.2500  -999.2500     2.5090   851.5810     0.0060     8.0020     0.2960   480.6740   -68.5430   110.9720     8.5110     7.5510     8.0850
 1081.5000  -999.2500  -999.2500     2.5180   852.0800     0.0160     8.0040     0.2960   480.6740   -68.3180   112.8450     8.4100     7.4690     7.9980
 1082.0000  -999.2500  -999.2500     2.5310   852.5790     0.0260     8.0070     0.2980   480.6740   -68.3480   114.9160     8.3080     7.3880     7.9110
 1082.5000  -999.2500  -999.2500     2.5410   853.0790     0.0330     8.0090     0.3040   480.6740   -68.3730   116.9250     8.2060     7.3240     7.8240
 1083.0000  -999.2500  -999.2500     2.5320   853.5780     0.0290     8.0120     0.3060   480.6740   -68.3980   117.4030     8.1040     7.2580     7.8100
 1083.5000  -999.2500  -999.2500     2.5300   854.0770     0.0260     8.0140     0.3070   480.6740   -68.4230   118.5710     8.0020     7.2580     7.7390
 1084.0000  -999.2500  -999.2500     2.5300   854.5760     0.0230     8.0170     0.3080   480.6740   -68.4480   121.4460     7.9550     7.3750     7.8270
 1084.5000  -999.2500  -999.2500     2.5310   855.0750     0.0240     8.0190     0.3100   480.6740   -68.4730   124.2680     8.1600     7.4650     7.9230
 1085.0000  -999.2500  -999.2500     2.5310   855.5740     0.0220     8.0220     0.3150   480.6740   -68.4980   124.2710     8.3130     7.5550     8.0190
 1085.5000  -999.2500  -999.2500     2.5310   856.0730     0.0190     8.0240     0.3210   480.6740   -68.5190   121.3320     8.4670     7.6450     8.1150
 1086.0000  -999.2500  -999.2500     2.5270   856.5720     0.0150     8.0270     0.3170   480.6740   -68.5190   118.4390     8.6200     7.7350     8.2110
 1086.5000  -999.2500  -999.2500     2.5200   857.0710     0.0120     8.0270     0.3090   480.6740   -68.5680   117.5750     8.7190     7.8100     8.3070
 1087.0000  -999.2500  -999.2500     2.5140   857.5700     0.0080     8.0240     0.3010   480.6740   -68.6820   119.4990     8.7040     7.8100     8.3280
 1087.5000  -999.2500  -999.2500     2.5110   858.0690     0.0060     8.0220     0.3050   480.6740   -68.7950   121.5080     8.6670     7.8100     8.3280
 1088.0000  -999.2500  -999.2500     2.5120   858.5680     0.0100     8.0200     0.3120   480.6740   -68.9080   118.7280     8.6390     7.8100     8.3280
 1088.5000  -999.2500  -999.2500     2.5180   859.0670     0.0130     8.0170     0.3140   480.6740   -69.0210   114.6490     8.5610     7.8760     8.3740
 1089.0000  -999.2500  -999.2500     2.5250   859.5660     0.0180     8.0150     0.3100   480.6740   -69.1350   110.5830     8.5610     7.9370     8.4380
 1089.5000  -999.2500  -999.2500     2.5290   860.0650     0.0190     8.0130     0.3040   480.6740   -69.2480   109.7660     8.7630     7.9970     8.5030
 1090.0000  -999.2500  -999.2500     2.5290   860.5640     0.0190     8.0100     0.3000   480.6740   -69.3610   110.9120     8.9120     8.0580     8.5680
 1090.5000  -999.2500  -999.2500     2.5190   861.0630     0.0140     8.0080     0.3000   480.6740   -69.4630   112.1900     9.0600     8.1190     8.6320
 1091.0000  -999.2500  -999.2500     2.5100   861.5630     0.0090     8.0060     0.3010   480.6740   -69.6890   113.4670     9.2090     8.1790     8.6970
 1091.5000  -999.2500  -999.2500     2.5060   862.0620     0.0030     8.0030     0.3020   480.6740   -69.6870   114.7820     9.3580     8.2400     8.7610
