~VERSION INFORMATION
 VERS.                2.0:   CWLS LOG ASCII STANDARD - VERSION 2.0
 WRAP.                 NO:   ONE LINE PER DEPTH STEP
~WELL INFORMATION
#MNEM.UNIT      DATA TYPE    INFORMATION
#----------   ------------   ------------------------------
 STRT.F           46.0000:   START DEPTH
 STOP.F         2952.5000:   STOP DEPTH
 STEP.F            0.5000:   STEP LENGTH
 NULL.          -999.2500:   NO VALUE
 COMP.    FENIX & SCISSON:   COMPANY
 WELL. FENIX NPR 3 "SHX" #11-15:   WELL
 FLD .        TEAPOT DOME:   FIELD
 LOC .      S15 T38N R78W:   LOCATION
 CNTY.            NATRONA:   COUNTY
 STAT.            WYOMING:   STATE
 CTRY. UNITED STATES OF AMERICA:   COUNTRY
 SRVC.           BIRDWELL:   SERVICE COMPANY
 DATE.        19-JAN-1979:   LOGDATE
 API .     49025107640000:   API NUMBER
~CURVE INFORMATION
#MNEM.UNIT       API CODE    CURVE DESCRIPTION
#----------   ------------   ------------------------------
 DEPT.F                  :   
 GRD .GAPI   45 310 01 00:   GAMMA RAY FROM DENSITY LOG
 CALD.IN     45 280 60 00:   CALIPER FROM DENSITY LOG
 RHOB.G/C3   45 350 01 00:   BULK DENSITY
 CORR.G/C3   45 356 01 00:   DENSITY CORRECTION
 SPR .MV     07 010 01 00:   SPONTANEOUS POTENTIAL
 SN  .OHMM   01 040 00 00:   SHORT NORMAL
 ILD .OHMM   07 120 46 00:   INDUCTION LOG DEEP RESISTIVITY
~PARAMETER INFORMATION
#MNEM.UNIT          VALUE    DESCRIPTION
#----------   ------------   ------------------------------
 EKB .F         5258.0000:   Kelly bushing
 EGL .F         5248.0000:   Ground level
 EDF .F            0.0000:   Drilling floor
 TD  .F         1300.0000:   Total depth
 DATE.        19-JAN-1979:   Date logged
 CLNT.            A2DTECH:   Client Code
 SL  . 177' FNL & 155' FWL:   Surface Location
 PD  .                 GL:   Permanent Datum
 EPD .F              5248:   Elevation Permanent Datum
 LMF .                 KB:   Log Measured From
 DMF .                 KB:   Drilling Measured From
 DAPD.F                10:   Feet Above Permanent Datum
 DD  .F              1300:   Depth driller
 DL  .F              1283:   Depth logger
 BLI .F              1277:   Bottom log interval
 TLI .F               100:   Top log interval
 CBD1.F                40:   Casing driller 1
 CBL1.F                40:   Casing logger 1
 BS1 .IN            7.875:   Bit size
 BSD1.F              1300:   Depth drilled with bit1
 DFT .           CHEM/GEL:   Type fluid in hole
 DFD .                8.8:   Density
 DFV .                 37:   Viscosity
 DFL .               15.4:   Fluid loss
 MSS .           FLOWLINE:   Source of sample
 RMS .OHMM            .75:   Rm
 MST .F                68:   Rm Meas. temp.
 RMF .OHMM            .75:   Rmf
 MFST.F                64:   Rmf Meas. temp.
 RMC .OHMM            1.3:   Rmc
 MCST.F                68:   Rmc Meas. temp.
 MFSS.               MEAS:   Source Rmf.
 MCSS.               MEAS:   Source Rmc.
 RMB .OHMM            .73:   Rm. at BHT
 BHT .F                70:   BHT.
 TCS .HRS               2:   Time Circ. stopped
 MRT .F                70:   Maximum recorded temp.
 LUN .               3029:   Logging unit number
 LUL .               CSPR:   Logging unit location
 ENGI.            ROLLINS:   Recorded By
 WITN.           DINSMORE:   Witnessed by
 ORIG.           5" PRINT:   Origin of data
 UWI .     49025107640000:   Unique Well ID
 DICO. A2D TECHNOLOGIES, INC.:   Digitizing Company
~OTHER INFORMATION
~A   DEPT      GRD       CALD       RHOB       CORR        SPR           SN        ILD 
# ...
 2002.5000   168.4690    11.1580     2.3640     0.1790  -999.2500  -999.2500  -999.2500
 2003.0000   166.8490    11.1500     2.3210     0.1770  -999.2500  -999.2500  -999.2500
 2003.5000   162.7650    11.1430     2.3250     0.1730  -999.2500  -999.2500  -999.2500
 2004.0000   159.2970    11.1350     2.3700     0.1650  -999.2500  -999.2500  -999.2500
 2004.5000   155.5440    11.1280     2.4240     0.1280  -999.2500  -999.2500  -999.2500
 2005.0000   152.5630    11.1200     2.4180     0.1100  -999.2500  -999.2500  -999.2500
 2005.5000   151.2650    11.1130     2.4080     0.1260  -999.2500  -999.2500  -999.2500
 2006.0000   150.0400    11.1060     2.3980     0.1650  -999.2500  -999.2500  -999.2500
 2006.5000   150.2030    11.1050     2.3920     0.1820  -999.2500  -999.2500  -999.2500
 2007.0000   151.1190    11.0700     2.3920     0.1650  -999.2500  -999.2500  -999.2500
 2007.5000   157.0390    11.0330     2.3880     0.1510  -999.2500  -999.2500  -999.2500
 2008.0000   160.7210    10.9950     2.3910     0.1460  -999.2500  -999.2500  -999.2500
 2008.5000   156.7870    10.9580     2.4200     0.1500  -999.2500  -999.2500  -999.2500
 2009.0000   151.9850    10.9200     2.4290     0.1370  -999.2500  -999.2500  -999.2500
 2009.5000   146.9740    10.9150     2.4170     0.1130  -999.2500  -999.2500  -999.2500
 2010.0000   145.9420    10.9250     2.4190     0.0930  -999.2500  -999.2500  -999.2500
 2010.5000   144.9600    10.9340     2.4250     0.1130  -999.2500  -999.2500  -999.2500
 2011.0000   144.1950    10.9430     2.4420     0.1460  -999.2500  -999.2500  -999.2500
 2011.5000   141.8650    10.9520     2.4460     0.1680  -999.2500  -999.2500  -999.2500
 2012.0000   139.9160    10.9600     2.4140     0.1610  -999.2500  -999.2500  -999.2500
 2012.5000   141.4240    10.9700     2.3360     0.1930  -999.2500  -999.2500  -999.2500
 2013.0000   145.2990    10.9770     2.3490     0.2200  -999.2500  -999.2500  -999.2500
 2013.5000   152.4150    10.9860     2.3740     0.2060  -999.2500  -999.2500  -999.2500
 2014.0000   151.0370    10.9400     2.3990     0.1890  -999.2500  -999.2500  -999.2500
 2014.5000   148.5180    10.8870     2.4230     0.1730  -999.2500  -999.2500  -999.2500
 2015.0000   146.4050    10.8340     2.4390     0.1570  -999.2500  -999.2500  -999.2500
 2015.5000   146.2950    10.7780     2.4510     0.1410  -999.2500  -999.2500  -999.2500
 2016.0000   149.0220    10.7500     2.4760     0.1240  -999.2500  -999.2500  -999.2500
 2016.5000   147.6640    10.7530     2.4700     0.1090  -999.2500  -999.2500  -999.2500
 2017.0000   146.7260    10.7520     2.4710     0.1090  -999.2500  -999.2500  -999.2500
 2017.5000   147.0010    10.7480     2.4680     0.1200  -999.2500  -999.2500  -999.2500
 2018.0000   147.5030    10.7340     2.4640     0.1330  -999.2500  -999.2500  -999.2500
 2018.5000   149.5660    10.7200     2.4240     0.1410  -999.2500  -999.2500  -999.2500
 2019.0000   152.7330    10.7060     2.3850     0.1660  -999.2500  -999.2500  -999.2500
 2019.5000   155.6080    10.6920     2.3700     0.1780  -999.2500  -999.2500  -999.2500
 2020.0000   158.6880    10.6790     2.3670     0.1740  -999.2500  -999.2500  -999.2500
 2020.5000   160.7030    10.6650     2.4110     0.1660  -999.2500  -999.2500  -999.2500
 2021.0000   160.2790    10.6500     2.4530     0.1590  -999.2500  -999.2500  -999.2500
 2021.5000   154.4790    10.6360     2.4510     0.1510  -999.2500  -999.2500  -999.2500
 2022.0000   153.7950    10.6220     2.4600     0.1430  -999.2500  -999.2500  -999.2500
 2022.5000   153.6800    10.6090     2.4510     0.1360  -999.2500  -999.2500  -999.2500
 2023.0000   154.5880    10.5930     2.4310     0.1280  -999.2500  -999.2500  -999.2500
 2023.5000   155.3040    10.6220     2.4110     0.1390  -999.2500  -999.2500  -999.2500
 2024.0000   154.9990    10.6740     2.4100     0.1500  -999.2500  -999.2500  -999.2500
 2024.5000   154.7250    10.7140     2.4330     0.1340  -999.2500  -999.2500  -999.2500
 2025.0000   154.4040    10.6830     2.4570     0.1180  -999.2500  -999.2500  -999.2500
 2025.5000   152.5620    10.5970     2.4690     0.1140  -999.2500  -999.2500  -999.2500
 2026.0000   150.7490    10.5510     2.4680     0.1120  -999.2500  -999.2500  -999.2500
 2026.5000   150.6270    10.5560     2.4670     0.1190  -999.2500  -999.2500  -999.2500
 2027.0000   152.1810    10.5560     2.4660     0.1320  -999.2500  -999.2500  -999.2500
 2027.5000   154.3520    10.5360     2.4650     0.1330  -999.2500  -999.2500  -999.2500
 2028.0000   156.3050    10.4980     2.4600     0.1260  -999.2500  -999.2500  -999.2500
 2028.5000   158.4490    10.4550     2.4450     0.1360  -999.2500  -999.2500  -999.2500
 2029.0000   157.3960    10.4620     2.4430     0.1470  -999.2500  -999.2500  -999.2500
 2029.5000   154.4140    10.5510     2.4450     0.1560  -999.2500  -999.2500  -999.2500
 2030.0000   151.5760    10.6030     2.4720     0.1490  -999.2500  -999.2500  -999.2500
 2030.5000   148.2430    10.6100     2.4720     0.1430  -999.2500  -999.2500  -999.2500
 2031.0000   147.4730    10.6240     2.4740     0.1350  -999.2500  -999.2500  -999.2500
 2031.5000   148.6460    10.6360     2.4600     0.1280  -999.2500  -999.2500  -999.2500
 2032.0000   149.3760    10.6480     2.4480     0.1210  -999.2500  -999.2500  -999.2500
 2032.5000   150.1340    10.6590     2.4630     0.1210  -999.2500  -999.2500  -999.2500
 2033.0000   150.9220    10.6740     2.4660     0.1210  -999.2500  -999.2500  -999.2500
 2033.5000   150.9280    10.6520     2.4550     0.1200  -999.2500  -999.2500  -999.2500
 2034.0000   148.3770    10.6090     2.4340     0.1280  -999.2500  -999.2500  -999.2500
 2034.5000   144.5740    10.5670     2.4150     0.1540  -999.2500  -999.2500  -999.2500
 2035.0000   143.3020    10.5840     2.4100     0.1720  -999.2500  -999.2500  -999.2500
 2035.5000   144.9850    10.6280     2.3930     0.1710  -999.2500  -999.2500  -999.2500
 2036.0000   148.2670    10.6700     2.3630     0.1680  -999.2500  -999.2500  -999.2500
 2036.5000   151.0650    10.7120     2.3600     0.1650  -999.2500  -999.2500  -999.2500
 2037.0000   152.2280    10.7540     2.3640     0.1650  -999.2500  -999.2500  -999.2500
 2037.5000   149.9520    10.7890     2.3670     0.1650  -999.2500  -999.2500  -999.2500
 2038.0000   148.2020    10.7830     2.3670     0.1850  -999.2500  -999.2500  -999.2500
 2038.5000   148.6150    10.7760     2.3630     0.1760  -999.2500  -999.2500  -999.2500
 2039.0000   149.5300    10.7690     2.3790     0.1570  -999.2500  -999.2500  -999.2500
 2039.5000   147.5560    10.7650     2.4100     0.1390  -999.2500  -999.2500  -999.2500
 2040.0000   148.2380    10.7480     2.4370     0.1330  -999.2500  -999.2500  -999.2500
 2040.5000   152.5220    10.7670     2.4650     0.1620  -999.2500  -999.2500  -999.2500
 2041.0000   158.2330    10.6260     2.4840     0.1740  -999.2500  -999.2500  -999.2500
 2041.5000   159.1770    10.5930     2.4870     0.1640  -999.2500  -999.2500  -999.2500
 2042.0000   155.8130    10.5910     2.4750     0.1420  -999.2500  -999.2500  -999.2500
 2042.5000   149.8840    10.5980     2.4530     0.1410  -999.2500  -999.2500  -999.2500
 2043.0000   146.0360    10.5910     2.4300     0.1390  -999.2500  -999.2500  -999.2500
 2043.5000   144.1520    10.6160     2.3970     0.1510  -999.2500  -999.2500  -999.2500
 2044.0000   146.6020    10.6660     2.3770     0.1760  -999.2500  -999.2500  -999.2500
 2044.5000   144.2310    10.7080     2.3780     0.1920  -999.2500  -999.2500  -999.2500
 2045.0000   140.8110    10.6840     2.3990     0.1640  -999.2500  -999.2500  -999.2500
 2045.5000   140.8920    10.6590     2.4100     0.1160  -999.2500  -999.2500  -999.2500
 2046.0000   141.2320    10.6310     2.4120     0.1000  -999.2500  -999.2500  -999.2500
 2046.5000   141.0450    10.6040     2.4130     0.1300  -999.2500  -999.2500  -999.2500
 2047.0000   142.3190    10.5940     2.4200     0.1690  -999.2500  -999.2500  -999.2500
 2047.5000   144.5480    10.5950     2.4380     0.2210  -999.2500  -999.2500  -999.2500
