~VERSION INFORMATION
 VERS.                2.0:   CWLS LOG ASCII STANDARD - VERSION 2.0
 WRAP.                 NO:   ONE LINE PER DEPTH STEP
~WELL INFORMATION
#MNEM.UNIT      DATA TYPE    INFORMATION
#----------   ------------   ------------------------------
 STRT.F          705.5000:   START DEPTH
 STOP.F         3212.0000:   STOP DEPTH
 STEP.F            0.5000:   STEP LENGTH
 NULL.          -999.2500:   NO VALUE
 COMP.    FENIX & SCISSON:   COMPANY
 WELL. FENIX 41 "AX" #1-15:   WELL
 FLD .             NPR #3:   FIELD
 LOC .      S15 T38N R78W:   LOCATION
 CNTY.            NATRONA:   COUNTY
 STAT.            WYOMING:   STATE
 CTRY. UNITED STATES OF AMERICA:   COUNTRY
 SRVC.              WELEX:   SERVICE COMPANY
 DATE.        18-NOV-1980:   LOGDATE
 API .     49025108530000:   API NUMBER
~CURVE INFORMATION
#MNEM.UNIT       API CODE    CURVE DESCRIPTION
#----------   ------------   ------------------------------
 DEPT.F                  :   
 SPR .MV     07 010 01 00:   SPONTANEOUS POTENTIAL
 ILD .OHMM   07 120 46 00:   INDUCTION LOG DEEP RESISTIVITY
 ILM .OHMM   07 120 44 00:   INDUCTION LOG MEDIUM RESISTIVITY
 SGRD.OHMM   07 220 05 00:   SHORT GUARD RESISTIVITY
 GRD .GAPI   45 310 01 00:   GAMMA RAY FROM DENSITY LOG
 CALD.IN     45 280 60 00:   CALIPER FROM DENSITY LOG
 RHOB.G/C3   45 350 01 00:   BULK DENSITY
 NPHI.DEC    42 890 03 00:   NEUTRON POROSITY SANDSTONE
~PARAMETER INFORMATION
#MNEM.UNIT          VALUE    DESCRIPTION
#----------   ------------   ------------------------------
 EKB .F         5252.0000:   Kelly bushing
 EGL .F         5242.0000:   Ground level
 EDF .F            0.0000:   Drilling floor
 TD  .F         3214.0000:   Total depth
 CLNT.            A2DTECH:   Client Code
 SL  . 2150' FWL & 550' FNL:   Surface Location
 PD  .                 GL:   Permanent Datum
 EPD .F              5242:   Elevation Permanent Datum
 LMF .                 KB:   Log Measured From
 DMF .                 KB:   Drilling Measured From
 DATE.        18-NOV-1980:   Date Logged [DD-MMM-YYYY]
 DD  .F              3210:   Depth driller
 DL  .F              3214:   Depth logger
 BLI .F              3212:   Bottom log interval
 TLI .F               734:   Top log interval
 CS1 .IN            8.625:   Casing size
 CBD1.      8.625" @ 709':   Casing driller 1
 CBL1.F               734:   Casing logger 1
 BS1 .IN            7.875:   Bit size
 BSD1.F              3210:   Depth drilled with bit1
 DFT .          FRESH MUD:   Type fluid in hole
 DFD .                8.8:   Density
 DFV .                 45:   Viscosity
 DFPH.               10.5:   pH
 DFL .                 12:   Fluid loss
 MSS .           FLOWLINE:   Source of sample
 RMS .OHMM           1.25:   Rm
 MST .F                70:   Rm Meas. temp.
 RMF .OHMM           1.25:   Rmf
 MFST.F                70:   Rmf Meas. temp.
 MFSS.               MEAS:   Source Rmf.
 RMB .OHMM           0.78:   Rm. at BHT
 BHT .F               112:   BHT.
 TCS .HRS               7:   Time Circ. stopped
 MRT .F               112:   Maximum recorded temp.
 LUN .               1892:   Logging unit number
 LUL .             CASPER:   Logging unit location
 ENGI.               REIN:   Recorded By
 WITN.              SCOTT:   Witnessed by
 ORIG.      2.5" 5" PRINT:   Origin of data
 UWI .     49025108530000:   Unique Well ID
 DICO. A2D TECHNOLOGIES, INC.:   Digitizing Company
 DAPD.                 10:   Feet Above Permanent Datum
~OTHER INFORMATION
~A   DEPT      SPR        ILD        ILM       SGRD         GRD      CALD       RHOB       NPHI   
# ...
 1353.5000   -40.3356     6.6527     6.7229     6.0674    75.9819     9.7488     2.5327     0.2690
 1354.0000   -40.3413     6.6518     6.7220     6.0657    76.6202     9.7474     2.5325     0.2669
 1354.5000   -40.3471     6.6509     6.7077     6.0641    77.7232     9.7754     2.5287     0.2647
 1355.0000   -40.3529     6.6500     6.6085     6.0624    79.2146     9.8030     2.5202     0.2644
 1355.5000   -40.3588     6.6491     6.5364     6.0607    78.7500     9.8163     2.5028     0.2661
 1356.0000   -40.3647     6.6482     6.5033     6.0591    76.7413     9.8443     2.4777     0.2673
 1356.5000   -40.3706     6.5565     6.3569     5.9746    75.6131     9.8576     2.4427     0.2655
 1357.0000   -40.3765     6.5556     6.3560     6.0185    74.7033     9.8856     2.4190     0.2637
 1357.5000   -40.3824     6.4652     6.3551     6.0541    74.0181     9.8989     2.4023     0.2713
 1358.0000   -40.3893     6.4643     6.3541     6.0521    73.7741     9.9122     2.3863     0.2754
 1358.5000   -40.3950     6.4634     6.3533     6.0505    74.4124     9.9104     2.3573     0.2720
 1359.0000   -40.4006     6.4624     6.3524     6.0489    75.2713     9.9238     2.3398     0.2701
 1359.5000   -40.4063     6.4615     6.3516     6.0473    73.6979     9.9371     2.3260     0.2718
 1360.0000   -40.1176     6.4606     6.3507     6.0457    72.1304     9.9503     2.3138     0.2726
 1360.5000   -40.1235     6.4598     6.3499     6.0441    70.7834     9.9633     2.2955     0.2725
 1361.0000   -39.8350     6.4589     6.3490     6.0424    69.4044     9.9909     2.2810     0.2722
 1361.5000   -39.8412     6.4581     6.3481     6.0407    68.3043    10.0046     2.2695     0.2703
 1362.0000   -39.8471     6.4572     6.3473     6.0391    68.0661    10.0175     2.2588     0.2657
 1362.5000   -39.8529     6.4563     6.3464     6.0374    68.9192    10.0162     2.3308     0.2629
 1363.0000   -39.8588     6.5449     6.3775     6.0734    69.5773    10.0144     2.4415     0.2705
 1363.5000   -39.7922     6.5641     6.4327     6.1623    70.1959    10.0130     2.4983     0.2667
 1364.0000   -39.5765     6.6337     6.5211     6.2008    70.8283    10.0263     2.5226     0.2589
 1364.5000   -39.5833     6.6326     6.5202     6.1989    70.8049    10.0249     2.4905     0.2568
 1365.0000   -39.5890     6.6715     6.6097     6.2831    70.3309    10.0526     2.4866     0.2603
 1365.5000   -39.5946     6.7226     6.7006     6.3687    69.2081    10.0662     2.4934     0.2616
 1366.0000   -39.3059     6.8147     6.7927     6.3668    69.1847    10.0645     2.5100     0.2591
 1366.5000   -39.3118     6.8136     6.8861     6.4534    70.4848    10.0631     2.5264     0.2569
 1367.0000   -39.3176     6.8127     7.0777     6.5411    71.5643    10.0614     2.5386     0.2510
 1367.5000   -39.3235     7.0017     7.2746     6.5506    71.9820    10.0453     2.5408     0.2470
 1368.0000   -39.3294     7.0008     7.2736     6.7202    70.6292    10.0292     2.5347     0.2543
 1368.5000   -39.3353     6.9998     7.3736     6.7181    69.9440    10.0132     2.5315     0.2543
 1369.0000   -39.3412     7.0958     7.3725     6.7163    69.4794     9.9971     2.5307     0.2594
 1369.5000   -39.3471     7.1010     7.4740     6.8075    68.7884     9.9954     2.5321     0.2619
 1370.0000   -39.3529     7.1921     7.4728     6.8056    69.4267     9.9940     2.5358     0.2623
 1370.5000   -39.3588     7.1910     7.4718     6.8038    70.5062     9.9926     2.5459     0.2579
 1371.0000   -39.3656     7.1900     7.4708     6.8016    71.1446     9.9912     2.5584     0.2542
 1371.5000   -39.3712     7.1891     7.4697     6.8940    71.3418    10.0044     2.5659     0.2555
 1372.0000   -39.3769     7.1881     7.4685     6.8922    71.3125    10.0174     2.5719     0.2527
 1372.5000   -39.3825     7.1871     7.4675     6.8905    71.0685    10.0161     2.5733     0.2503
 1373.0000   -39.3882     7.1861     7.4665     6.8885    71.2656    10.0147     2.5648     0.2556
 1373.5000   -39.3666     7.1849     7.4656     6.8867    72.1416    10.0130     2.5594     0.2588
 1374.0000   -39.1054     7.2834     7.4646     6.8848    73.4188    10.0116     2.5540     0.2623
 1374.5000   -39.1118     7.3832     7.4636     6.8829    74.0571    10.0102     2.5532     0.2611
 1375.0000   -38.8226     7.3823     7.4625     6.8810    72.9308     9.9941     2.5599     0.2599
 1375.5000   -38.8294     7.3813     7.4615     6.8791    72.0184     9.9777     2.5689     0.2634
 1376.0000   -38.8353     7.3803     7.4605     6.8772    71.1133     9.9763     2.5765     0.2669
 1376.5000   -38.8412     7.3793     7.4594     6.8753    70.4282     9.9749     2.5664     0.2679
 1377.0000   -38.8480     7.4805     7.4584     6.8734    69.7430     9.9589     2.5641     0.2735
 1377.5000   -39.1478     7.4794     7.4574     6.8712    69.4990     9.9425     2.5655     0.2733
 1378.0000   -39.1535     7.4784     7.4564     6.8694    69.6961     9.9411     2.5715     0.2701
 1378.5000   -39.1591     7.4773     7.4553     6.8675    70.1139     9.9103     2.5806     0.2646
 1379.0000   -39.1648     7.4763     7.5576     6.8657    70.9669     9.9089     2.5812     0.2605
 1379.5000   -39.4647     7.4753     7.5566     6.8639    71.1645     9.8778     2.5766     0.2559
 1380.0000   -39.4706     7.4742     7.5556     6.8621    71.3613     9.8618     2.5704     0.2544
 1380.5000   -39.4765     7.4730     7.5546     6.8602    70.6702     9.8604     2.5650     0.2579
 1381.0000   -39.4824     7.4720     7.5536     6.8583    69.9850     9.8737     2.5603     0.2620
 1381.5000   -39.4882     7.4710     7.5526     6.8527    69.0793     9.8870     2.5587     0.2642
 1382.0000   -39.4941     7.4700     7.5515     6.8165    67.6801     9.8412     2.5609     0.2592
 1382.5000   -39.5000     7.4691     7.6554     6.7803    68.1442     9.8104     2.5692     0.2571
 1383.0000   -39.5070     7.4681     7.6543     6.7569    69.0031     9.7944     2.5759     0.2621
 1383.5000   -39.5126     7.3651     7.6532     6.7551    69.8621     9.7783     2.5781     0.2609
 1384.0000   -39.5183     7.3641     7.6522     6.7533    70.2940     9.7916     2.5720     0.2572
 1384.5000   -39.5239     7.3631     7.6511     6.7515    70.9181     9.8049     2.5635     0.2573
 1385.0000   -39.5296     7.3621     7.6501     6.7496    71.5506     9.8182     2.5558     0.2560
 1385.5000   -39.5353     7.3611     7.6488     6.7478    72.1890     9.8164     2.5595     0.2535
 1386.0000   -39.5412     7.2226     7.5431     6.7459    72.8309     9.8147     2.5723     0.2520
 1386.5000   -39.2525     7.1595     7.5420     6.6519    73.2451     9.8133     2.5814     0.2574
 1387.0000   -39.2588     7.1585     7.4378     6.6500    73.2158     9.8120     2.5858     0.2550
 1387.5000   -39.2647     7.1005     7.4368     6.6482    73.6335     9.8106     2.5842     0.2537
 1388.0000   -39.5647     7.0587     7.3340     6.5077    74.4925     9.8088     2.5788     0.2576
 1388.5000   -39.5706     6.9614     7.2308     6.3754    75.7926     9.7928     2.5666     0.2582
 1389.0000   -39.5765     6.9604     7.0349     6.2865    76.8662     9.7620     2.5574     0.2548
 1389.5000   -39.5833     6.9595     7.0339     6.1142    77.7310     9.7313     2.5527     0.2492
 1390.0000   -39.5890     6.9586     7.0330     6.1125    76.8194     9.6855     2.5511     0.2568
 1390.5000   -39.5946     7.0543     7.0920     6.2816    75.9077     9.6547     2.5541     0.2540
 1391.0000   -39.6003     7.1507     7.2278     6.4552    75.8843     9.6485     2.5699     0.2522
 1391.5000   -39.6060     7.2630     7.3725     6.5482    75.8609     9.6373     2.5782     0.2478
 1392.0000   -39.6118     7.3480     7.4276     6.6319    74.9551     9.6355     2.5834     0.2475
 1392.5000   -39.6176     7.3469     7.4264     6.7220    74.0257     9.6342     2.5886     0.2492
 1393.0000   -39.6864     7.3459     7.5287     6.7200    73.7995     9.6328     2.5916     0.2505
 1393.5000   -39.9235     7.3449     7.6321     6.8116    74.4378     9.6314     2.5831     0.2527
