~VERSION INFORMATION
 VERS.                2.0:   CWLS LOG ASCII STANDARD - VERSION 2.0
 WRAP.                 NO:   ONE LINE PER DEPTH STEP
~WELL INFORMATION
#MNEM.UNIT      DATA TYPE    INFORMATION
#----------   ------------   ------------------------------
 STRT.F           46.0000:   START DEPTH
 STOP.F         2952.5000:   STOP DEPTH
 STEP.F            0.5000:   STEP LENGTH
 NULL.          -999.2500:   NO VALUE
 COMP.    FENIX & SCISSON:   COMPANY
 WELL. FENIX NPR 3 "SHX" #11-15:   WELL
 FLD .        TEAPOT DOME:   FIELD
 LOC .      S15 T38N R78W:   LOCATION
 CNTY.            NATRONA:   COUNTY
 STAT.            WYOMING:   STATE
 CTRY. UNITED STATES OF AMERICA:   COUNTRY
 SRVC.           BIRDWELL:   SERVICE COMPANY
 DATE.        19-JAN-1979:   LOGDATE
 API .     49025107640000:   API NUMBER
~CURVE INFORMATION
#MNEM.UNIT       API CODE    CURVE DESCRIPTION
#----------   ------------   ------------------------------
 DEPT.F                  :   
 GRD .GAPI   45 310 01 00:   GAMMA RAY FROM DENSITY LOG
 CALD.IN     45 280 60 00:   CALIPER FROM DENSITY LOG
 RHOB.G/C3   45 350 01 00:   BULK DENSITY
 CORR.G/C3   45 356 01 00:   DENSITY CORRECTION
 SPR .MV     07 010 01 00:   SPONTANEOUS POTENTIAL
 SN  .OHMM   01 040 00 00:   SHORT NORMAL
 ILD .OHMM   07 120 46 00:   INDUCTION LOG DEEP RESISTIVITY
~PARAMETER INFORMATION
#MNEM.UNIT          VALUE    DESCRIPTION
#----------   ------------   ------------------------------
 EKB .F         5258.0000:   Kelly bushing
 EGL .F         5248.0000:   Ground level
 EDF .F            0.0000:   Drilling floor
 TD  .F         1300.0000:   Total depth
 DATE.        19-JAN-1979:   Date logged
 CLNT.            A2DTECH:   Client Code
 SL  . 177' FNL & 155' FWL:   Surface Location
 PD  .                 GL:   Permanent Datum
 EPD .F              5248:   Elevation Permanent Datum
 LMF .                 KB:   Log Measured From
 DMF .                 KB:   Drilling Measured From
 DAPD.F                10:   Feet Above Permanent Datum
 DD  .F              1300:   Depth driller
 DL  .F              1283:   Depth logger
 BLI .F              1277:   Bottom log interval
 TLI .F               100:   Top log interval
 CBD1.F                40:   Casing driller 1
 CBL1.F                40:   Casing logger 1
 BS1 .IN            7.875:   Bit size
 BSD1.F              1300:   Depth drilled with bit1
 DFT .           CHEM/GEL:   Type fluid in hole
 DFD .                8.8:   Density
 DFV .                 37:   Viscosity
 DFL .               15.4:   Fluid loss
 MSS .           FLOWLINE:   Source of sample
 RMS .OHMM            .75:   Rm
 MST .F                68:   Rm Meas. temp.
 RMF .OHMM            .75:   Rmf
 MFST.F                64:   Rmf Meas. temp.
 RMC .OHMM            1.3:   Rmc
 MCST.F                68:   Rmc Meas. temp.
 MFSS.               MEAS:   Source Rmf.
 MCSS.               MEAS:   Source Rmc.
 RMB .OHMM            .73:   Rm. at BHT
 BHT .F                70:   BHT.
 TCS .HRS               2:   Time Circ. stopped
 MRT .F                70:   Maximum recorded temp.
 LUN .               3029:   Logging unit number
 LUL .               CSPR:   Logging unit location
 ENGI.            ROLLINS:   Recorded By
 WITN.           DINSMORE:   Witnessed by
 ORIG.           5" PRINT:   Origin of data
 UWI .     49025107640000:   Unique Well ID
 DICO. A2D TECHNOLOGIES, INC.:   Digitizing Company
~OTHER INFORMATION
~A   DEPT      GRD       CALD       RHOB       CORR        SPR           SN        ILD 
# ...
 1229.0000    79.2050     9.3950     2.5210  -999.2500   -45.6820     9.6170     8.7320
 1229.5000    79.6320     9.4090     2.5230  -999.2500   -44.5950     9.6930     8.7220
 1230.0000    79.4880     9.4220     2.5240  -999.2500   -45.2830     9.7550     8.7110
 1230.5000    77.0790     9.4350     2.5420  -999.2500   -46.1970     9.8170     8.7010
 1231.0000    75.4840     9.4480     2.5430  -999.2500   -47.0140     9.8800     8.6910
 1231.5000    77.3750     9.4510     2.5450  -999.2500   -47.1860     9.9420     8.7780
 1232.0000    75.8530     9.4460     2.5060  -999.2500   -46.7730     9.9780     8.8630
 1232.5000    73.8130     9.4430     2.4140  -999.2500   -45.2590     9.9680     8.9490
 1233.0000    71.2160     9.4390     2.3380  -999.2500   -45.5040     9.9570     9.0340
 1233.5000    70.7180     9.4350     2.5920  -999.2500   -44.6930     9.9460     9.1000
 1234.0000    71.2160     9.4310     2.5620  -999.2500   -45.2680     9.9350     8.9930
 1234.5000    75.3630     9.4270     2.5260  -999.2500   -45.9670     9.9240     8.9060
 1235.0000    75.6080     9.4240     2.5320  -999.2500   -44.9420     9.9130     8.8190
 1235.5000    72.0980     9.4200     2.5430  -999.2500   -45.3270     9.9010     8.7440
 1236.0000    68.7530     9.4160     2.5410  -999.2500   -45.7450     9.8870     8.6830
 1236.5000    70.4990     9.4130     2.5360  -999.2500   -45.3830     9.9070     8.6210
 1237.0000    71.9870     9.4130     2.5320  -999.2500   -45.0840     9.9400     8.5600
 1237.5000    74.0070     9.4140     2.5290  -999.2500   -45.3470     9.9780     8.4990
 1238.0000    75.9610     9.4130     2.5050  -999.2500   -45.4070     9.8500     8.4530
 1238.5000    78.0830     9.4110     2.4890  -999.2500   -45.0890     9.6170     8.5530
 1239.0000    78.5060     9.3570     2.4940  -999.2500   -44.7740     9.6250     8.6330
 1239.5000    77.2380     9.2970     2.5080  -999.2500   -44.4460     9.6440     8.7130
 1240.0000    75.4560     9.2340     2.5070  -999.2500   -44.4130     9.6620     8.7930
 1240.5000    76.7510     9.2160     2.5020  -999.2500   -44.7450     9.6810     8.8520
 1241.0000    78.7650     9.2170     2.4980  -999.2500   -44.9910     9.7000     8.7710
 1241.5000    76.0850     9.2170     2.5070  -999.2500   -45.4120     9.8860     8.8330
 1242.0000    69.5240     9.2160     2.5060  -999.2500   -46.1840     9.8860     8.8820
 1242.5000    67.9650     9.2170     2.4940  -999.2500   -45.9920     9.8960     8.9310
 1243.0000    68.6980     9.2170     2.4940  -999.2500   -46.0120     9.9070     8.9810
 1243.5000    73.4150     9.2170     2.5090  -999.2500   -46.2770     9.9180     9.0160
 1244.0000    77.0460     9.2170     2.5120  -999.2500   -45.7660     9.9290     8.9630
 1244.5000    78.7070     9.2170     2.4960  -999.2500   -46.1550     9.9410     8.9010
 1245.0000    77.3170     9.2170     2.4910  -999.2500   -46.0520     9.9520     8.8390
 1245.5000    75.7740     9.2170     2.5160  -999.2500   -45.4900     9.9630     8.7780
 1246.0000    74.7920     9.2170     2.5520  -999.2500   -45.8800     9.9780     8.6430
 1246.5000    73.4530     9.2170     2.5720  -999.2500   -43.5460     9.8860     8.4530
 1247.0000    74.4350     9.2170     2.5570  -999.2500   -44.0500     9.8280     8.5350
 1247.5000    76.5440     9.2170     2.5440  -999.2500   -45.0610     9.7750     8.6530
 1248.0000    78.1750     9.2170     2.5400  -999.2500   -44.6240     9.7220     8.7710
 1248.5000    77.3000     9.2170     2.5350  -999.2500   -44.3570     9.7060     8.6900
 1249.0000    75.7050     9.2170     2.5340  -999.2500   -44.2750     9.7290     8.7150
 1249.5000    74.0040     9.2170     2.5290  -999.2500   -43.4430     9.7760     8.7340
 1250.0000    73.4380     9.2170     2.5380  -999.2500   -42.9100     9.8230     8.7530
 1250.5000    73.3440     9.2170     2.5310  -999.2500   -44.7670     9.8700     8.7710
 1251.0000    73.3890     9.2170     2.5200  -999.2500   -44.6770     9.9170     8.8270
 1251.5000    70.2160     9.2170     2.5170  -999.2500   -46.1650     9.9640     8.9060
 1252.0000    69.9470     9.2170     2.5290  -999.2500   -46.0510    10.0110     8.9850
 1252.5000    70.6830     9.2170     2.5290  -999.2500   -44.4810    10.0580     9.0640
 1253.0000    72.0440     9.2170     2.5220  -999.2500   -44.8490    10.0700     9.2690
 1253.5000    72.6530     9.2170     2.5160  -999.2500   -44.5410    10.0390     9.2260
 1254.0000    72.4930     9.2170     2.5250  -999.2500   -44.1590     9.9850     9.1890
 1254.5000    72.4460     9.2170     2.5500  -999.2500   -45.6770     9.9310     9.1520
 1255.0000    72.3060     9.2170     2.5450  -999.2500   -45.1750     9.8770     9.1000
 1255.5000    72.2490     9.2170     2.5130  -999.2500   -44.6340     9.8230     9.1180
 1256.0000    70.9780     9.2170     2.5120  -999.2500   -43.9830     9.7690     9.1630
 1256.5000    74.2170     9.2170     2.5220  -999.2500   -43.1430     9.7060     9.2080
 1257.0000    75.3070     9.2170     2.5270  -999.2500   -42.8870     9.8860     9.2640
 1257.5000    72.8240     9.2170     2.5260  -999.2500   -44.6010     9.9500     9.1000
 1258.0000    74.8060     9.2170     2.5260  -999.2500   -44.2350    10.0260     9.1260
 1258.5000    75.2070     9.2170     2.5430  -999.2500   -44.8390    10.1020     9.1480
 1259.0000    72.4100     9.2170     2.5180    -0.3940   -44.8110    10.1780     9.1690
 1259.5000    68.5210     9.2170     2.5080    -0.3940   -43.8170    10.2540     9.1840
 1260.0000    68.2310     9.2170     2.5150    -0.3790   -42.5540    10.3300     9.4050
 1260.5000    70.3260     9.2170     2.5320    -0.3720   -42.8530    10.4550     9.6540
 1261.0000    76.0400     9.2170     2.5390    -0.3650   -43.8280    10.6020     9.9030
 1261.5000    76.0690     9.2160     2.5370    -0.3650   -43.7750    10.6420    10.0700
 1262.0000    76.2940     9.2170     2.5370    -0.3590   -44.4380    10.6420    10.0700
 1262.5000    75.6170     9.2160     2.5390    -0.3580   -43.7260    10.7040    10.0700
 1263.0000    75.0140     9.2160     2.5440    -0.3570   -43.0420    10.8400    10.0700
 1263.5000    72.9090     9.2180     2.5410    -0.3620   -42.3470    10.8400    10.0700
 1264.0000    70.9180     9.2130     2.5200    -0.3700   -41.5760    10.6740    10.0270
 1264.5000    70.6940     9.2510     2.5050    -0.3740   -43.6970    10.5580     9.9830
 1265.0000    70.8710     9.3200     2.4940    -0.3680   -43.8880    10.4420     9.9390
 1265.5000    70.9840     9.3010     2.4790    -0.3530   -44.3170    10.3270     9.8950
 1266.0000    70.9910     9.1900     2.4720    -0.3630   -45.3480    10.2110     9.7910
 1266.5000    70.7690     9.0700     2.4800    -0.3390   -43.9250    10.0950     9.6750
 1267.0000    70.5690     9.0520     2.4820    -0.3060   -42.7970     9.9790     9.5580
 1267.5000    70.4100     9.0140     2.4770    -0.3130   -43.6410     9.8630     9.4410
 1268.0000    69.8490     9.0230     2.4750    -0.3290   -43.6080     9.7480     9.3550
 1268.5000    68.6590     9.0190     2.4740    -0.3380   -42.5910     9.6290     9.3850
 1269.0000    65.3310     9.0310     2.4810    -0.3570   -44.5190     9.7080     9.4520
 1269.5000    62.8520     9.0440     2.5210    -0.3680   -42.3660     9.8120     9.5180
 1270.0000    63.7050     9.0570     2.5140    -0.4260   -42.2390     9.9160     9.5840
 1270.5000    65.3920     9.0700     2.4700    -0.5030   -42.9530    10.0210     9.7060
 1271.0000    65.5510     9.0830     2.4210    -0.5060   -41.9180    10.1250     9.6300
 1271.5000    63.6350     9.0980     2.3760    -0.5060   -42.0050    10.2570     9.5460
 1272.0000    57.0310     9.1320     2.3930    -0.5060   -43.5900    10.2450     9.4630
 1272.5000    54.6010     9.1730     2.5620    -0.5070   -42.9670    10.2270     9.4410
 1273.0000    57.3710     9.2140     2.5320    -0.4870   -44.3020    10.2100     9.4220
 1273.5000    62.7150     9.2540     2.4690    -0.4130   -44.5610    10.1930     9.3670
 1274.0000    67.5460     9.2930     2.4760    -0.4120   -45.3760    10.1760     9.3130
