~VERSION INFORMATION
 VERS.                2.0:   CWLS LOG ASCII STANDARD - VERSION 2.0
 WRAP.                 NO:   ONE LINE PER DEPTH STEP
~WELL INFORMATION
#MNEM.UNIT      DATA TYPE    INFORMATION
#----------   ------------   ------------------------------
 STRT.F           46.0000:   START DEPTH
 STOP.F         2952.5000:   STOP DEPTH
 STEP.F            0.5000:   STEP LENGTH
 NULL.          -999.2500:   NO VALUE
 COMP.    FENIX & SCISSON:   COMPANY
 WELL. FENIX NPR 3 "SHX" #11-15:   WELL
 FLD .        TEAPOT DOME:   FIELD
 LOC .      S15 T38N R78W:   LOCATION
 CNTY.            NATRONA:   COUNTY
 STAT.            WYOMING:   STATE
 CTRY. UNITED STATES OF AMERICA:   COUNTRY
 SRVC.           BIRDWELL:   SERVICE COMPANY
 DATE.        19-JAN-1979:   LOGDATE
 API .     49025107640000:   API NUMBER
~CURVE INFORMATION
#MNEM.UNIT       API CODE    CURVE DESCRIPTION
#----------   ------------   ------------------------------
 DEPT.F                  :   
 GRD .GAPI   45 310 01 00:   GAMMA RAY FROM DENSITY LOG
 CALD.IN     45 280 60 00:   CALIPER FROM DENSITY LOG
 RHOB.G/C3   45 350 01 00:   BULK DENSITY
 CORR.G/C3   45 356 01 00:   DENSITY CORRECTION
 SPR .MV     07 010 01 00:   SPONTANEOUS POTENTIAL
 SN  .OHMM   01 040 00 00:   SHORT NORMAL
 ILD .OHMM   07 120 46 00:   INDUCTION LOG DEEP RESISTIVITY
~PARAMETER INFORMATION
#MNEM.UNIT          VALUE    DESCRIPTION
#----------   ------------   ------------------------------
 EKB .F         5258.0000:   Kelly bushing
 EGL .F         5248.0000:   Ground level
 EDF .F            0.0000:   Drilling floor
 TD  .F         1300.0000:   Total depth
 DATE.        19-JAN-1979:   Date logged
 CLNT.            A2DTECH:   Client Code
 SL  . 177' FNL & 155' FWL:   Surface Location
 PD  .                 GL:   Permanent Datum
 EPD .F              5248:   Elevation Permanent Datum
 LMF .                 KB:   Log Measured From
 DMF .                 KB:   Drilling Measured From
 DAPD.F                10:   Feet Above Permanent Datum
 DD  .F              1300:   Depth driller
 DL  .F              1283:   Depth logger
 BLI .F              1277:   Bottom log interval
 TLI .F               100:   Top log interval
 CBD1.F                40:   Casing driller 1
 CBL1.F                40:   Casing logger 1
 BS1 .IN            7.875:   Bit size
 BSD1.F              1300:   Depth drilled with bit1
 DFT .           CHEM/GEL:   Type fluid in hole
 DFD .                8.8:   Density
 DFV .                 37:   Viscosity
 DFL .               15.4:   Fluid loss
 MSS .           FLOWLINE:   Source of sample
 RMS .OHMM            .75:   Rm
 MST .F                68:   Rm Meas. temp.
 RMF .OHMM            .75:   Rmf
 MFST.F                64:   Rmf Meas. temp.
 RMC .OHMM            1.3:   Rmc
 MCST.F                68:   Rmc Meas. temp.
 MFSS.               MEAS:   Source Rmf.
 MCSS.               MEAS:   Source Rmc.
 RMB .OHMM            .73:   Rm. at BHT
 BHT .F                70:   BHT.
 TCS .HRS               2:   Time Circ. stopped
 MRT .F                70:   Maximum recorded temp.
 LUN .               3029:   Logging unit number
 LUL .               CSPR:   Logging unit location
 ENGI.            ROLLINS:   Recorded By
 WITN.           DINSMORE:   Witnessed by
 ORIG.           5" PRINT:   Origin of data
 UWI .     49025107640000:   Unique Well ID
 DICO. A2D TECHNOLOGIES, INC.:   Digitizing Company
~OTHER INFORMATION
~A   DEPT      GRD       CALD       RHOB       CORR        SPR           SN        ILD 
# ...
 2503.0000   116.7230    10.0540     2.5150     0.0530  -999.2500  -999.2500  -999.2500
 2503.5000   120.4160    10.0330     2.5100     0.0630  -999.2500  -999.2500  -999.2500
 2504.0000   120.6250    10.1730     2.5050     0.0720  -999.2500  -999.2500  -999.2500
 2504.5000   118.4930     9.9980     2.5030     0.0820  -999.2500  -999.2500  -999.2500
 2505.0000   116.0840     9.9250     2.5030     0.0910  -999.2500  -999.2500  -999.2500
 2505.5000   118.2980     9.9830     2.5020     0.1000  -999.2500  -999.2500  -999.2500
 2506.0000   125.3390    10.1200     2.5000     0.1000  -999.2500  -999.2500  -999.2500
 2506.5000   132.1690     9.7700     2.5000     0.0930  -999.2500  -999.2500  -999.2500
 2507.0000   137.6950    10.3790     2.5000     0.0840  -999.2500  -999.2500  -999.2500
 2507.5000   138.0080    10.1460     2.5230     0.0740  -999.2500  -999.2500  -999.2500
 2508.0000   133.2050     9.7780     2.5250     0.0660  -999.2500  -999.2500  -999.2500
 2508.5000   125.5470     9.8020     2.5150     0.0570  -999.2500  -999.2500  -999.2500
 2509.0000   121.2930     9.7990     2.5080     0.0560  -999.2500  -999.2500  -999.2500
 2509.5000   125.1110     9.7040     2.5060     0.0690  -999.2500  -999.2500  -999.2500
 2510.0000   126.6970     9.9790     2.5030     0.1130  -999.2500  -999.2500  -999.2500
 2510.5000   127.5020    10.0780     2.4780     0.1180  -999.2500  -999.2500  -999.2500
 2511.0000   128.1240     9.8570     2.4570     0.1000  -999.2500  -999.2500  -999.2500
 2511.5000   132.1350    10.7450     2.4300     0.0840  -999.2500  -999.2500  -999.2500
 2512.0000   140.8000    10.3610     2.4360     0.0940  -999.2500  -999.2500  -999.2500
 2512.5000   161.7140    10.2600     2.4550     0.1590  -999.2500  -999.2500  -999.2500
 2513.0000   187.1920     9.7500     2.4520     0.1490  -999.2500  -999.2500  -999.2500
 2513.5000   180.5280     9.9330     2.4550     0.1200  -999.2500  -999.2500  -999.2500
 2514.0000   182.3710     9.4810     2.4610     0.0680  -999.2500  -999.2500  -999.2500
 2514.5000   188.9060     9.5650     2.4900     0.0650  -999.2500  -999.2500  -999.2500
 2515.0000   195.5510     9.5180     2.4850     0.0640  -999.2500  -999.2500  -999.2500
 2515.5000   197.7380     9.5100     2.4810     0.0650  -999.2500  -999.2500  -999.2500
 2516.0000   189.0060     9.5040     2.4680     0.0660  -999.2500  -999.2500  -999.2500
 2516.5000   180.9810     9.4850     2.4690     0.0670  -999.2500  -999.2500  -999.2500
 2517.0000   178.8070     9.4740     2.4740     0.0680  -999.2500  -999.2500  -999.2500
 2517.5000   172.5950     9.4610     2.4810     0.0660  -999.2500  -999.2500  -999.2500
 2518.0000   167.0100     9.4480     2.4830     0.0590  -999.2500  -999.2500  -999.2500
 2518.5000   165.7090     9.4350     2.4830     0.0530  -999.2500  -999.2500  -999.2500
 2519.0000   170.4500     9.4220     2.4830     0.0490  -999.2500  -999.2500  -999.2500
 2519.5000   180.4820     9.4090     2.4830     0.0520  -999.2500  -999.2500  -999.2500
 2520.0000   190.1070     9.3960     2.4840     0.0550  -999.2500  -999.2500  -999.2500
 2520.5000   198.4080     9.3830     2.4910     0.0590  -999.2500  -999.2500  -999.2500
 2521.0000   202.3120     9.3710     2.4900     0.0570  -999.2500  -999.2500  -999.2500
 2521.5000   206.9860     9.3580     2.4880     0.0490  -999.2500  -999.2500  -999.2500
 2522.0000   210.2050     9.3450     2.4760     0.0440  -999.2500  -999.2500  -999.2500
 2522.5000   206.5730     9.3350     2.4750     0.0440  -999.2500  -999.2500  -999.2500
 2523.0000   201.4140     9.3350     2.4720     0.0430  -999.2500  -999.2500  -999.2500
 2523.5000   195.4600     9.3300     2.4620     0.0430  -999.2500  -999.2500  -999.2500
 2524.0000   194.9450     9.3260     2.4640     0.0420  -999.2500  -999.2500  -999.2500
 2524.5000   197.2900     9.3210     2.4670     0.0420  -999.2500  -999.2500  -999.2500
 2525.0000   203.0070     9.3170     2.4710     0.0410  -999.2500  -999.2500  -999.2500
 2525.5000   196.0480     9.3120     2.4760     0.0410  -999.2500  -999.2500  -999.2500
 2526.0000   182.7430     9.3080     2.4820     0.0400  -999.2500  -999.2500  -999.2500
 2526.5000   170.1190     9.3030     2.4880     0.0420  -999.2500  -999.2500  -999.2500
 2527.0000   157.6270     9.2990     2.4930     0.0450  -999.2500  -999.2500  -999.2500
 2527.5000   149.3810     9.2950     2.4980     0.0480  -999.2500  -999.2500  -999.2500
 2528.0000   147.1620     9.3010     2.5080     0.0510  -999.2500  -999.2500  -999.2500
 2528.5000   148.5980     9.3190     2.5200     0.0540  -999.2500  -999.2500  -999.2500
 2529.0000   152.8050     9.3350     2.5300     0.0560  -999.2500  -999.2500  -999.2500
 2529.5000   158.9630     9.3520     2.5320     0.0540  -999.2500  -999.2500  -999.2500
 2530.0000   165.4630     9.3690     2.5220     0.0520  -999.2500  -999.2500  -999.2500
 2530.5000   172.2240     9.3860     2.5190     0.0500  -999.2500  -999.2500  -999.2500
 2531.0000   174.6490     9.4020     2.5190     0.0480  -999.2500  -999.2500  -999.2500
 2531.5000   168.1100     9.4190     2.5190     0.0480  -999.2500  -999.2500  -999.2500
 2532.0000   151.7940     9.4360     2.5190     0.0480  -999.2500  -999.2500  -999.2500
 2532.5000   133.9540     9.4530     2.5190     0.0480  -999.2500  -999.2500  -999.2500
 2533.0000   122.7160     9.4700     2.5190     0.0480  -999.2500  -999.2500  -999.2500
 2533.5000   123.3880     9.4860     2.5190     0.0460  -999.2500  -999.2500  -999.2500
 2534.0000   127.5640     9.5030     2.5200     0.0410  -999.2500  -999.2500  -999.2500
 2534.5000   128.8350     9.5210     2.5200     0.0360  -999.2500  -999.2500  -999.2500
 2535.0000   126.0940     9.5320     2.5210     0.0320  -999.2500  -999.2500  -999.2500
 2535.5000   123.5050     9.5310     2.5210     0.0350  -999.2500  -999.2500  -999.2500
 2536.0000   117.6210     9.5320     2.5210     0.0440  -999.2500  -999.2500  -999.2500
 2536.5000   110.9170     9.5310     2.5210     0.0450  -999.2500  -999.2500  -999.2500
 2537.0000   111.7840     9.5310     2.5170     0.0330  -999.2500  -999.2500  -999.2500
 2537.5000   117.5480     9.5320     2.5090     0.0320  -999.2500  -999.2500  -999.2500
 2538.0000   126.0910     9.5310     2.5100     0.0320  -999.2500  -999.2500  -999.2500
 2538.5000   129.8140     9.5390     2.5180     0.0480  -999.2500  -999.2500  -999.2500
 2539.0000   134.4620     9.5580     2.5250     0.0640  -999.2500  -999.2500  -999.2500
 2539.5000   138.9310     9.5750     2.5300     0.0640  -999.2500  -999.2500  -999.2500
 2540.0000   140.6150     9.5920     2.5290     0.0640  -999.2500  -999.2500  -999.2500
 2540.5000   138.1750     9.6090     2.5290     0.0420  -999.2500  -999.2500  -999.2500
 2541.0000   135.1660     9.6270     2.5340     0.0420  -999.2500  -999.2500  -999.2500
 2541.5000   132.4660     9.6420     2.5440     0.0570  -999.2500  -999.2500  -999.2500
 2542.0000   130.0610     9.6660     2.5490     0.0690  -999.2500  -999.2500  -999.2500
 2542.5000   127.6310     9.6940     2.5470     0.0660  -999.2500  -999.2500  -999.2500
 2543.0000   124.4310     9.7210     2.5410     0.0850  -999.2500  -999.2500  -999.2500
 2543.5000   121.3850     9.7480     2.5420     0.1020  -999.2500  -999.2500  -999.2500
 2544.0000   122.1740     9.7640     2.5460     0.0980  -999.2500  -999.2500  -999.2500
 2544.5000   124.7130     9.7510     2.5360     0.0710  -999.2500  -999.2500  -999.2500
 2545.0000   127.4450     9.7380     2.5260     0.0520  -999.2500  -999.2500  -999.2500
 2545.5000   127.1800     9.7270     2.5220     0.0540  -999.2500  -999.2500  -999.2500
 2546.0000   127.3560     9.7100     2.5180     0.0510  -999.2500  -999.2500  -999.2500
 2546.5000   129.7830     9.6980     2.4970     0.0690  -999.2500  -999.2500  -999.2500
 2547.0000   128.5000     9.6990     2.4660     0.1180  -999.2500  -999.2500  -999.2500
 2547.5000   129.2420     9.6600     2.4330     0.2070  -999.2500  -999.2500  -999.2500
 2548.0000   120.6480     9.9280     2.4310     0.1910  -999.2500  -999.2500  -999.2500
