~VERSION INFORMATION
 VERS.                2.0:   CWLS LOG ASCII STANDARD - VERSION 2.0
 WRAP.                 NO:   ONE LINE PER DEPTH STEP
~WELL INFORMATION
#MNEM.UNIT      DATA TYPE    INFORMATION
#----------   ------------   ------------------------------
 STRT.F          190.0000:   START DEPTH
 STOP.F         2998.5000:   STOP DEPTH
 STEP.F            0.5000:   STEP LENGTH
 NULL.          -999.2500:   NO VALUE
 COMP.    FENIX & SCISSON:   COMPANY
 WELL.   FENIX "A" #52-28:   WELL
 FLD .        TEAPOT DOME:   FIELD
 LOC .      S28 T39N R78W:   LOCATION
 CNTY.            NATRONA:   COUNTY
 STAT.            WYOMING:   STATE
 CTRY. UNITED STATES OF AMERICA:   COUNTRY
 SRVC.           BIRDWELL:   SERVICE COMPANY
 DATE.        14-AUG-1977:   LOGDATE
 API .     49025104130000:   API NUMBER
~CURVE INFORMATION
#MNEM.UNIT       API CODE    CURVE DESCRIPTION
#----------   ------------   ------------------------------
 DEPT.F                  :   
 SPR .MV     05 010 01 00:   SPONTANEOUS POTENTIAL FROM RES.
 SN  .OHMM   05 040 16 00:   SHORT NORMAL 16"
 ILD .OHMM   05 120 46 00:   INDUCTION LOG DEEP
 GRD .GAPI   45 310 01 00:   GAMMA RAY FROM DENSITY LOG
 CALD.IN     45 280 60 00:   CALIPER FROM DENSITY LOG
 RHOB.G/C3   45 350 01 00:   BULK DENSITY
 CORR.G/C3   45 356 01 00:   DENSITY CORRECTION
~PARAMETER INFORMATION
#MNEM.UNIT          VALUE    DESCRIPTION
#----------   ------------   ------------------------------
 EKB .F         5026.0000:   Kelly bushing
 EGL .F         5016.0000:   Ground level
 EDF .F            0.0000:   Drilling floor
 TD  .F         3000.0000:   Total depth
 DATE.        14-AUG-1977:   Date logged
 CLNT.            A2DTECH:   Client Code
 SL  . 990' FNL & 2310' FEL:   Surface Location
 PD  .                 GL:   Permanent Datum
 EPD .F              5016:   Elevation Permanent Datum
 LMF .                 KB:   Log Measured From
 DMF .                 KB:   Drilling Measured From
 DAPD.F                10:   Feet Above Permanent Datum
 DD  .F              3000:   Depth driller
 DL  .F              3000:   Depth logger
 BLI .F              2994:   Bottom log interval
 TLI .F               214:   Top log interval
 CS1 .IN            8.625:   Casing size
 CBD1.      8.625" @ 214':   Casing driller 1
 CBL1.F               212:   Casing logger 1
 BS1 .IN            7.875:   Bit size
 BSD1.F              3000:   Depth drilled with bit1
 DFT .                KCL:   Type fluid in hole
 DFD .                8.8:   Density
 DFV .                 30:   Viscosity
 DFPH.               10.5:   pH
 DFL .               10.4:   Fluid loss
 MSS .           FLOWLINE:   Source of sample
 RMS .OHMM           0.13:   Rm
 MST .F                82:   Rm Meas. temp.
 RMF .OHMM           0.12:   Rmf
 MFST.F                72:   Rmf Meas. temp.
 RMC .OHMM           0.16:   Rmc
 MCST.F                72:   Rmc Meas. temp.
 MFSS.               MEAS:   Source Rmf.
 MCSS.               MEAS:   Source Rmc.
 TCS .HRS               4:   Time Circ. stopped
 LUN .               2958:   Logging unit number
 LUL .             CASPER:   Logging unit location
 ENGI.                LAW:   Recorded By
 WITN.         PETTINGILL:   Witnessed by
 ORIG.           5" PRINT:   Origin of data
 UWI .     49025104130000:   Unique Well ID
 DICO. A2D TECHNOLOGIES, INC.:   Digitizing Company
~OTHER INFORMATION
~A   DEPT      SPR         SN        ILD         GRD      CALD       RHOB       CORR   
# ...
 1282.0000   -34.1530     5.5570     7.2840   111.8550     9.1380     2.5280     0.0300
 1282.5000   -34.1540     5.5550     7.1750   109.7360     9.1430     2.5390     0.0280
 1283.0000   -34.1540     5.5520     7.0660   111.2470     9.1490     2.5430     0.0220
 1283.5000   -34.1540     5.5500     6.9560   113.5390     9.1550     2.5410     0.0170
 1284.0000   -34.1540     5.5470     6.8470   112.3620     9.1590     2.5370     0.0160
 1284.5000   -34.1530     5.5450     6.7380   116.6840     9.1570     2.5470     0.0240
 1285.0000   -34.1540     5.5420     6.6330   113.9250     9.1530     2.5650     0.0250
 1285.5000   -34.0960     5.5400     6.5860   114.7740     9.1500     2.5750     0.0210
 1286.0000   -34.0060     5.5370     6.5400   117.2260     9.1460     2.5750     0.0160
 1286.5000   -33.8470     5.5350     6.4950   117.3610     9.1430     2.5670     0.0180
 1287.0000   -33.6000     5.5320     6.4490   117.3640     9.1400     2.5550     0.0230
 1287.5000   -33.3550     5.5190     6.3970   114.3970     9.1390     2.5540     0.0210
 1288.0000   -33.1620     5.5000     6.4040   111.9610     9.1040     2.5490     0.0210
 1288.5000   -33.1120     5.4820     6.4130   112.4320     9.0670     2.5450     0.0270
 1289.0000   -33.0560     5.4870     6.4210   113.0840     9.0450     2.5520     0.0330
 1289.5000   -33.0020     5.4930     6.4300   116.3160     9.0200     2.5610     0.0360
 1290.0000   -32.7490     5.4980     6.4380   118.8030     8.9960     2.5640     0.0310
 1290.5000   -32.2130     5.5040     6.4470   117.5650     8.9700     2.5560     0.0250
 1291.0000   -32.0980     5.5090     6.4550   115.9770     8.9560     2.5460     0.0210
 1291.5000   -32.2390     5.5150     6.4550   114.7180     8.9460     2.5410     0.0210
 1292.0000   -32.3910     5.5200     6.4550   113.8100     8.9430     2.5480     0.0220
 1292.5000   -32.5440     5.5260     6.4550   113.1640     8.9450     2.5380     0.0200
 1293.0000   -32.6950     5.5310     6.4550   113.2430     8.9530     2.5370     0.0230
 1293.5000   -32.8220     5.5370     6.4550   116.2290     8.9610     2.5420     0.0270
 1294.0000   -32.9210     5.5420     6.4550   119.6740     8.9680     2.5470     0.0240
 1294.5000   -33.0180     5.5470     6.4570   122.9780     8.9760     2.5380     0.0160
 1295.0000   -33.1160     5.5530     6.4620   121.3390     8.9840     2.5310     0.0140
 1295.5000   -32.9900     5.5580     6.4680   119.4250     8.9910     2.5320     0.0220
 1296.0000   -32.6200     5.5640     6.4730   119.4700     8.9990     2.5360     0.0220
 1296.5000   -32.1720     5.5690     6.4790   118.3040     9.0040     2.5400     0.0230
 1297.0000   -31.7120     5.5750     6.4840   115.7760     9.0080     2.5430     0.0280
 1297.5000   -31.2510     5.5800     6.4890   117.5390     9.0120     2.5560     0.0260
 1298.0000   -30.7910     5.5820     6.4950   119.7130     9.0150     2.5530     0.0210
 1298.5000   -30.3340     5.5820     6.5000   118.6630     9.0190     2.5510     0.0210
 1299.0000   -29.8670     5.5820     6.5060   118.3860     9.0230     2.5500     0.0220
 1299.5000   -28.4430     5.5820     6.5140   120.9580     9.0260     2.5520     0.0290
 1300.0000   -27.6670     5.5820     6.5090   116.6680     9.0300     2.5550     0.0340
 1300.5000   -27.6890     5.5820     6.5000   116.2350     9.0340     2.5590     0.0320
 1301.0000   -27.7100     5.5820     6.4910   116.5720     9.0370     2.5640     0.0350
 1301.5000   -27.7350     5.5820     6.4820   114.8630     9.0410     2.5680     0.0340
 1302.0000   -27.7610     5.5820     6.4730   117.7080     9.0450     2.5700     0.0300
 1302.5000   -27.7860     5.5820     6.4640   119.9480     9.0480     2.5520     0.0250
 1303.0000   -27.8110     5.5820     6.4540   118.6140     9.0520     2.5530     0.0260
 1303.5000   -27.8390     5.5820     6.4450   117.6330     9.0560     2.5580     0.0260
 1304.0000   -27.9150     5.5820     6.4360   118.5820     9.0590     2.5560     0.0240
 1304.5000   -28.1420     5.5820     6.4270   116.9180     9.0600     2.5500     0.0290
 1305.0000   -28.1420     5.5820     6.4180   117.1250     9.0590     2.5520     0.0270
 1305.5000   -27.9470     5.5820     6.4090   119.0890     9.0580     2.5510     0.0250
 1306.0000   -27.6010     5.5800     6.3990   119.3910     9.0560     2.5450     0.0260
 1306.5000   -27.2180     5.5770     6.3940   118.0840     9.0550     2.5440     0.0280
 1307.0000   -27.1330     5.5740     6.3880   119.8230     9.0530     2.5500     0.0270
 1307.5000   -27.1980     5.5720     6.3820   118.9070     9.0520     2.5540     0.0190
 1308.0000   -27.1430     5.5690     6.3760   116.5390     9.0500     2.5480     0.0240
 1308.5000   -26.2440     5.5660     6.3700   115.5620     9.0490     2.5510     0.0290
 1309.0000   -25.3300     5.5630     6.3640   117.4170     9.0470     2.5550     0.0290
 1309.5000   -25.2520     5.5600     6.3580   119.2200     9.0460     2.5560     0.0290
 1310.0000   -25.2170     5.5580     6.3520   119.3140     9.0440     2.5530     0.0290
 1310.5000   -25.1800     5.5550     6.3460   118.5670     9.0430     2.5490     0.0290
 1311.0000   -25.1410     5.5520     6.3390   116.4910     9.0410     2.5500     0.0290
 1311.5000   -25.0940     5.5490     6.3510   115.2390     9.0410     2.5510     0.0290
 1312.0000   -24.8300     5.5460     6.3650   112.9570     9.0410     2.5530     0.0320
 1312.5000   -24.5280     5.5440     6.3790   113.5960     9.0410     2.5550     0.0340
 1313.0000   -24.3110     5.5410     6.3930   113.7310     9.0410     2.5580     0.0350
 1313.5000   -24.8540     5.5380     6.4070   111.5710     9.0410     2.5600     0.0330
 1314.0000   -26.2240     5.5350     6.4210   110.6200     9.0410     2.5590     0.0310
 1314.5000   -27.1390     5.5320     6.4340   112.8650     9.0410     2.5530     0.0290
 1315.0000   -27.4840     5.5230     6.4550   115.0210     9.0410     2.5500     0.0270
 1315.5000   -27.5370     5.5100     6.4490   116.6320     9.0410     2.5480     0.0250
 1316.0000   -27.5940     5.4970     6.4370   118.0770     9.0410     2.5460     0.0230
 1316.5000   -27.6500     5.4850     6.4250   121.1880     9.0410     2.5440     0.0210
 1317.0000   -27.7060     5.4720     6.4130   122.0010     9.0410     2.5380     0.0150
 1317.5000   -27.7650     5.4590     6.4000   120.2270     9.0410     2.5290     0.0120
 1318.0000   -27.8210     5.4470     6.3660   120.0230     9.0410     2.5310     0.0140
 1318.5000   -27.8190     5.4340     6.3210   120.2680     9.0410     2.5420     0.0190
 1319.0000   -28.8010     5.4210     6.2770   119.0930     9.0410     2.5530     0.0250
 1319.5000   -29.4050     5.4090     6.2330   117.8140     9.0410     2.5700     0.0360
 1320.0000   -29.4310     5.3960     6.1880   117.5650     9.0410     2.5790     0.0330
 1320.5000   -29.4300     5.3830     6.1440   119.1540     9.0410     2.5770     0.0330
 1321.0000   -29.4290     5.3710     6.1010   122.3940     9.0410     2.5730     0.0370
 1321.5000   -29.4290     5.3580     6.0600   120.0500     9.0410     2.5750     0.0390
 1322.0000   -29.4290     5.3450     6.0200   116.0430     9.0410     2.5800     0.0410
 1322.5000   -29.4280     5.3340     5.9790   115.9120     9.0410     2.5860     0.0420
 1323.0000   -29.4270     5.3180     5.9390   118.6790     9.0410     2.5920     0.0400
 1323.5000   -29.4450     5.3040     5.8950   122.1700     9.0410     2.5990     0.0280
 1324.0000   -29.7600     5.2890     5.9070   125.4670     9.0410     2.5620     0.0220
 1324.5000   -30.6070     5.2750     5.9240   126.1320     9.0410     2.5660     0.0260
 1325.0000   -31.6910     5.2610     5.9420   123.3310     9.0410     2.5590     0.0260
 1325.5000   -31.8570     5.2460     5.9590   120.3620     9.0410     2.5550     0.0220
 1326.0000   -31.6730     5.2320     5.9770   118.2640     9.0420     2.5520     0.0210
 1326.5000   -31.2960     5.2170     5.9940   119.3860     9.0430     2.5500     0.0200
 1327.0000   -30.8030     5.2030     6.0030   124.4900     9.0430     2.5470     0.0160
