~VERSION INFORMATION
 VERS.                2.0:   CWLS LOG ASCII STANDARD - VERSION 2.0
 WRAP.                 NO:   ONE LINE PER DEPTH STEP
~WELL INFORMATION
#MNEM.UNIT      DATA TYPE    INFORMATION
#----------   ------------   ------------------------------
 STRT.F          200.0000:   START DEPTH
 STOP.F         3080.0000:   STOP DEPTH
 STEP.F            0.5000:   STEP LENGTH
 NULL.          -999.2500:   NO VALUE
 COMP.    FENIX & SCISSON:   COMPANY
 WELL. FENIX NPR 3 "AX" #55-33:   WELL
 FLD .        TEAPOT DOME:   FIELD
 LOC .      S33 T38N R78W:   LOCATION
 CNTY.            NATRONA:   COUNTY
 STAT.            WYOMING:   STATE
 CTRY. UNITED STATES OF AMERICA:   COUNTRY
 SRVC.           BIRDWELL:   SERVICE COMPANY
 DATE.        08-FEB-1978:   LOGDATE
 API .     49025105740000:   API NUMBER
~CURVE INFORMATION
#MNEM.UNIT       API CODE    CURVE DESCRIPTION
#----------   ------------   ------------------------------
 DEPT.F                  :   
 CALD.IN     45 280 60 00:   CALIPER FROM DENSITY LOG
 GRD .GAPI   45 310 01 00:   GAMMA RAY FROM DENSITY LOG
 RHOB.G/C3   45 350 01 00:   BULK DENSITY
 CORR.G/C3   45 356 01 00:   DENSITY CORRECTION
 NPOR.DEC    42 890 03 00:   ALPHA PROCESSED NEUTRON POROSITY
 SPR .MV     05 010 01 00:   SPONTANEOUS POTENTIAL
 SN  .OHMM   05 040 16 00:   SHORT NORMAL 16"
 ILD .OHMM   05 120 46 00:   DEEP INDUCTION RESISTIVITY
~PARAMETER INFORMATION
#MNEM.UNIT          VALUE    DESCRIPTION
#----------   ------------   ------------------------------
 EKB .F         5197.0000:   Kelly bushing
 EGL .F         5187.0000:   Ground level
 EDF .F            0.0000:   Drilling floor
 TD  .F         3084.0000:   Total depth
 DATE.        08-FEB-1978:   Date logged
 CLNT.            A2DTECH:   Client Code
 SL  . 2000' FSL & 2310' FEL:   Surface Location
 PD  .                 GL:   Permanent Datum
 EPD .F              5187:   Elevation Permanent Datum
 LMF .                 KB:   Log Measured From
 DMF .                 KB:   Drilling Measured From
 DAPD.F                10:   Feet Above Permanent Datum
 DD  .F              3084:   Depth driller
 DL  .F              3080:   Depth logger
 BLI .F              3074:   Bottom log interval
 TLI .F               200:   Top log interval
 CS1 .IN            8.625:   Casing size
 CBD1.      8.625" @ 229':   Casing driller 1
 CBL1.F               230:   Casing logger 1
 BS1 .IN            7.875:   Bit size
 BSD1.F              3084:   Depth drilled with bit1
 DFT .     LIGNOSULFONATE:   Type fluid in hole
 DFD .                9.2:   Density
 DFV .                 30:   Viscosity
 DFPH.                  9:   pH
 DFL .                  5:   Fluid loss
 MSS .           FLOWLINE:   Source of sample
 RMS .OHMM            1.5:   Rm
 MST .F                62:   Rm Meas. temp.
 RMF .OHMM            1.2:   Rmf
 MFST.F                66:   Rmf Meas. temp.
 RMC .OHMM            2.8:   Rmc
 MCST.F                65:   Rmc Meas. temp.
 MFSS.               MEAS:   Source Rmf.
 RMB .OHMM            .82:   Rm. at BHT
 BHT .F               114:   BHT.
 TCS .HRS               3:   Time Circ. stopped
 MRT .F               114:   Maximum recorded temp.
 LUN .               2958:   Logging unit number
 LUL .               CASP:   Logging unit location
 ENGI.            POINTER:   Recorded By
 WITN.         HARRINGTON:   Witnessed by
 ORIG.           5" PRINT:   Origin of data
 UWI .     49025105740000:   Unique Well ID
 DICO. A2D TECHNOLOGIES, INC.:   Digitizing Company
~OTHER INFORMATION
~A   DEPT       CALD      GRD       RHOB        CORR      NPOR        SPR         SN        ILD   
# ...
 1739.0000     9.8216    86.0627     2.5889     0.1745  -999.2500   -49.0691     9.0998     7.8717
 1739.5000     9.8414    82.6897     2.5889     0.1745  -999.2500   -49.0676     9.1005     7.8723
 1740.0000     9.8414    80.5071     2.5889     0.1745  -999.2500   -49.0661     9.1012     7.8729
 1740.5000     9.8414    82.4913     2.5969     0.1765  -999.2500   -49.0647     9.0182     7.9463
 1741.0000     9.8414    85.4675     2.5979     0.1805  -999.2500   -48.8648     8.9366     7.9471
 1741.5000     9.8414    87.8484     2.5999     0.1785  -999.2500   -49.0617     8.9373     7.9478
 1742.0000     9.8414    89.0389     2.5929     0.1785  -999.2500   -49.2587     9.0206     7.9483
 1742.5000     9.8613    87.8484     2.5849     0.1705  -999.2500   -49.6541     9.1889     7.9490
 1743.0000     9.8613    87.2532     2.5839     0.1705  -999.2500   -49.6529     9.2745     7.9496
 1743.5000     9.8017    84.6738     2.5739     0.1705  -999.2500   -49.6515     9.2752     7.9501
 1744.0000     9.7819    82.2929     2.5699     0.1625  -999.2500   -49.6500     9.2759     7.9507
 1744.5000     9.7819    81.6976     2.5649     0.1585  -999.2500   -50.0454     9.2767     7.9513
 1745.0000     9.7819    81.6976     2.5649     0.1605  -999.2500   -50.2424     9.1924     7.9519
 1745.5000     9.7621    82.0944     2.5649     0.1605  -999.2500   -50.6378     9.1931     7.9526
 1746.0000     9.7621    82.6897     2.5689     0.1625  -999.2500   -50.4380     9.1938     7.9533
 1746.5000     9.7621    83.2849     2.5809     0.1645  -999.2500   -50.4365     9.4520     8.0275
 1747.0000     9.7422    85.0706     2.5879     0.1665  -999.2500   -50.2366     9.5401     8.0282
 1747.5000     9.7224    85.8643     2.5909     0.1645  -999.2500   -50.0367     9.8079     8.0288
 1748.0000     9.7025    86.0627     2.5929     0.1645  -999.2500   -49.8368     9.8087     8.0295
 1748.5000     9.7025    87.2532     2.5729     0.1565  -999.2500   -49.6369     9.7196     8.0301
 1749.0000     9.7025    85.0706     2.5799     0.1485  -999.2500   -49.6354     9.5431     8.0307
 1749.5000     9.6827    80.9040     2.5809     0.1485  -999.2500   -49.4358     9.4564     8.0314
 1750.0000     9.6629    80.9040     2.5709     0.1485  -999.2500   -49.2359     9.1153     7.9583
 1750.5000     9.6629    82.0944     2.5839     0.1505  -999.2500   -49.2344     9.2002     7.9590
 1751.0000     9.6827    82.8881     2.5889     0.1525  -999.2500   -49.0345     9.2009     8.0333
 1751.5000     9.6827    82.8881     2.5698     0.1485  -999.2500   -49.4300     9.2016     8.0339
 1752.0000     9.7025    84.6738     2.5578     0.1485  -999.2500   -49.8255     9.2874     8.0341
 1752.5000     9.7025    86.0627     2.5588     0.1485  -999.2500   -50.0225     9.8154     8.1845
 1753.0000     9.7025    83.4833     2.5548     0.1485  -999.2500   -50.4180     9.9069     8.3374
 1753.5000     9.6827    78.9198     2.5568     0.1485  -999.2500   -50.6150     9.9993     8.4153
 1754.0000     9.6827    74.7532     2.5698     0.1605  -999.2500   -50.4151    10.0925     8.4160
 1754.5000     9.7025    73.5627     2.5879     0.1545  -999.2500   -50.4136    10.0933     8.4946
 1755.0000     9.7224    75.3484     2.5638     0.1545  -999.2500   -50.4122     9.9100     8.4371
 1755.5000     9.7422    80.1103     2.5638     0.1805  -999.2500   -50.4107     9.8200     8.3601
 1756.0000     9.7422    84.0786     2.5668     0.2085  -999.2500   -50.4093     9.7310     8.2079
 1756.5000     9.7621    86.4595     2.5738     0.2085  -999.2500   -50.4081     9.7316     8.1332
 1757.0000     9.7422    85.6659     2.5848     0.2065  -999.2500   -50.2082     9.5547     7.9851
 1757.5000     9.7621    83.4833     2.5929     0.2065  -999.2500   -50.2067     9.2953     7.9123
 1758.0000     9.7621    83.0865     2.5969     0.1925  -999.2500   -50.4038     9.2960     7.9130
 1758.5000     9.7621    82.8881     2.6039     0.1925  -999.2500   -50.2038     9.1272     7.8409
 1759.0000     9.7621    83.8802     2.5848     0.1725  -999.2500   -49.8054     9.0443     7.8415
 1759.5000     9.7422    87.6500     2.5858     0.1564  -999.2500   -49.8039     8.9622     7.8248
 1760.0000     9.7422    89.0389     2.5928     0.1584  -999.2500   -50.1995     9.0458     7.7534
 1760.5000     9.7025    89.0389     2.6049     0.1584  -999.2500   -50.3965     8.9636     7.7537
 1761.0000     9.7224    90.6262     2.5928     0.1484  -999.2500   -50.3951     8.9643     7.6130
 1761.5000     9.7224    93.4040     2.5838     0.1324  -999.2500   -49.9966     8.8829     7.4746
 1762.0000     9.7224    93.6024     2.5828     0.1264  -999.2500   -49.5975     8.8836     7.4067
 1762.5000     9.7224    87.8484     2.5728     0.1244  -999.2500   -49.7955     8.8843     7.4758
 1763.0000     9.7224    86.6579     2.5728     0.1244  -999.2500   -49.7940     8.8850     7.5456
 1763.5000     9.7224    86.6579     2.5758     0.1264  -999.2500   -50.1896     8.8857     7.5460
 1764.0000     9.7422    86.2611     2.5758     0.1264  -999.2500   -50.1890     8.9685     7.5468
 1764.5000     9.7422    83.6817     2.5828     0.1264  -999.2500   -50.1867     9.0522     7.5474
 1765.0000     9.7422    84.8722     2.5978     0.1264  -999.2500   -50.3838     9.0527     7.5479
 1765.5000     9.7422    87.0548     2.5988     0.1264  -999.2500   -50.5808     8.9705     7.5486
 1766.0000     9.7224    87.0548     2.5818     0.1264  -999.2500   -50.5794     8.9712     7.5492
 1766.5000     9.7422    87.0548     2.5918     0.1264  -999.2500   -51.1736     8.9719     7.5498
 1767.0000     9.7422    85.4675     2.6008     0.1284  -999.2500   -51.1721     8.8905     7.4812
 1767.5000     9.7224    83.2849     2.5708     0.1264  -999.2500   -51.1707     8.8912     7.4817
 1768.0000     9.7422    82.6897     2.5668     0.1264  -999.2500   -51.1692     8.9740     7.3457
 1768.5000     9.7422    82.8881     2.5608     0.1324  -999.2500   -51.1678     8.9747     7.4829
 1769.0000     9.7422    84.0786     2.5618     0.1404  -999.2500   -51.1664     8.9754     7.4835
 1769.5000     9.7621    84.6738     2.5668     0.1404  -999.2500   -51.1649     8.8940     7.4841
 1770.0000     9.7422    84.6738     2.5688     0.1444  -999.2500   -50.3696     8.9769     7.4847
 1770.5000     9.7224    86.2611     2.5758     0.1484  -999.2500   -50.3681     8.9776     7.4853
 1771.0000     9.7025    89.0389     2.5828     0.1524  -999.2500   -50.3667     8.9783     7.4859
 1771.5000     9.7025    89.4357     2.5848     0.1524  -999.2500   -50.3652     8.9790     7.5556
 1772.0000     9.7224    90.4278     2.5968     0.1524  -999.2500   -50.3638     9.0627     7.5563
 1772.5000     9.7224    91.6183     2.5878     0.1504  -999.2500   -50.3623     9.0632     7.7687
 1773.0000     9.7224    91.6183     2.5768     0.1484  -999.2500   -50.1623     9.1477     7.7692
 1773.5000     9.7025    91.8167     2.5788     0.1484  -999.2500   -50.3594     9.2330     7.8233
 1774.0000     9.7025    91.8167     2.5798     0.1484  -999.2500   -50.5565     9.3191     7.8777
 1774.5000     9.7025    91.4198     2.5858     0.1484  -999.2500   -50.5551     9.3198     7.9325
 1775.0000     9.7025    88.4437     2.5928     0.1524  -999.2500   -50.5536     9.5813     7.9896
 1775.5000     9.7025    85.4675     2.5768     0.1524  -999.2500   -50.5522     9.7600     7.9901
 1776.0000     9.7422    82.6897     2.5758     0.1604  -999.2500   -50.5507     9.7608     7.9908
 1776.5000     9.7621    84.2770     2.5647     0.1724  -999.2500   -50.5496     9.8517     7.9914
 1777.0000     9.7621    85.0706     2.5667     0.1744  -999.2500   -50.5481     9.7623     7.9920
 1777.5000     9.7819    85.0706     2.5737     0.1744  -999.2500   -50.5467     9.7631     7.9927
 1778.0000     9.7819    85.0706     2.5577     0.1704  -999.2500   -50.5452     9.8541     7.9933
 1778.5000     9.7819    83.8802     2.5657     0.1684  -999.2500   -50.5438     9.8547     7.9939
 1779.0000     9.7819    82.0944     2.5747     0.1684  -999.2500   -50.5423     9.8554     7.9946
