~VERSION INFORMATION
 VERS.                2.0:   CWLS LOG ASCII STANDARD - VERSION 2.0
 WRAP.                 NO:   ONE LINE PER DEPTH STEP
~WELL INFORMATION
#MNEM.UNIT      DATA TYPE    INFORMATION
#----------   ------------   ------------------------------
 STRT.F          200.0000:   START DEPTH
 STOP.F         3050.0000:   STOP DEPTH
 STEP.F            0.5000:   STEP LENGTH
 NULL.          -999.2500:   NO VALUE
 COMP.     FENIX & SISSON:   COMPANY
 WELL. FENIX & SISSON "AX" #16-28:   WELL
 FLD .              NPR 3:   FIELD
 LOC .      S28 T39N R78W:   LOCATION
 CNTY.            NATRONA:   COUNTY
 STAT.            WYOMING:   STATE
 CTRY. UNITED STATES OF AMERICA:   COUNTRY
 SRVC.      DRESSER ATLAS:   SERVICE COMPANY
 DATE.        01-JUL-1977:   LOGDATE
 API .     49025103930000:   API NUMBER
~CURVE INFORMATION
#MNEM.UNIT       API CODE    CURVE DESCRIPTION
#----------   ------------   ------------------------------
 DEPT.F                  :   
 CALD.IN     45 280 60 00:   CALIPER FROM DENSITY LOG
 GRD .GAPI   45 310 01 00:   GAMMA RAY FROM DENSITY LOG
 CORR.G/C3   45 356 01 00:   DENSITY CORRECTION
 TEND.LBS    45 635 01 00:   TENSION FROM DENSITY LOG
 SPR .MV     07 010 01 00:   SPONTANEOUS POTENTIAL
 ILD .OHMM   07 120 46 00:   DEEP INDUCTION RESISTIVITY
 ILM .OHMM   07 120 44 00:   INDUCTION LOG MEDIUM RESISTIVITY
 SFL .OHMM   07 220 01 00:   SHALLOW FOCUSED LOG RESISTIVITY
 RHOB.G/C3   45 350 01 00:   BULK DENSITY
~PARAMETER INFORMATION
#MNEM.UNIT          VALUE    DESCRIPTION
#----------   ------------   ------------------------------
 EKB .F         5067.0000:   Kelly bushing
 EGL .F         5057.0000:   Ground level
 EDF .F         5066.0000:   Drilling floor
 EPD .F            0.0000:   Permanent datum
 TD  .F         3036.0000:   Total depth
 DATE.        01-JUL-1977:   Date logged
 CLNT.            A2DTECH:   Client Code
 SL  . 1220' FSL & 330' FWL:   Surface Location
 PD  .                 GL:   Permanent Datum
 DAPD.F                10:   Feet Above Permanent Datum
 DD  .F              3034:   Depth driller
 DL  .F              3036:   Depth logger
 BLI .F              3034:   Bottom log interval
 TLI .F               214:   Top log interval
 CS1 .IN            8.625:   Casing size
 CBD1.      8.625" @ 204':   Casing driller 1
 CBL1.F               214:   Casing logger 1
 BS1 .IN            7.875:   Bit size
 BSD1.F              3034:   Depth drilled with bit1
 DFT .                KCL:   Type fluid in hole
 DFD .                  9:   Density
 DFV .                 34:   Viscosity
 DFPH.                7.2:   pH
 DFL .                8.8:   Fluid loss
 MSS .         CIRCULATED:   Source of sample
 RMS .OHMM           .112:   Rm
 MST .F                75:   Rm Meas. temp.
 RMF .OHMM           .085:   Rmf
 MFST.F                75:   Rmf Meas. temp.
 RMC .OHMM           .141:   Rmc
 MCST.F                75:   Rmc Meas. temp.
 MFSS.               MEAS:   Source Rmf.
 MCSS.               MEAS:   Source Rmc.
 RMB .OHMM           .067:   Rm. at BHT
 BHT .F               124:   BHT.
 TCS .HRS               1:   Time Circ. stopped
 MRT .F               124:   Maximum recorded temp.
 LUN .               6134:   Logging unit number
 LUL .              GLTTE:   Logging unit location
 ENGI.              GOULD:   Recorded By
 WITN.         PETTINGILL:   Witnessed by
 ORIG.       2.5"5" PRINT:   Origin of data
 UWI .     49025103930000:   Unique Well ID
 DICO. A2D TECHNOLOGIES, INC.:   Digitizing Company
~OTHER INFORMATION
~A   DEPT     CALD         GRD      CORR       TEND        SPR        ILD        ILM        SFL       RHOB   
# ...
 1149.0000     8.0470    91.3340     0.0300   -39.9590   -65.1840     8.6950    15.1370    15.7770     2.5200
 1149.5000     8.0580    90.6130     0.0190   -38.9140   -65.1010     8.6760    15.6440    16.2290     2.5090
 1150.0000     8.0690    89.8080     0.0160   -37.8690   -64.9650     8.6530    15.6440    16.2290     2.5000
 1150.5000     8.0790    89.2390     0.0140   -36.8250   -64.8080     8.6300    15.1600    15.7440     2.5000
 1151.0000     8.0920    89.3430     0.0150   -36.9720   -64.8780     8.6070    14.7560    15.1350     2.5030
 1151.5000     8.1070    89.4350     0.0200   -37.5220   -65.1270     8.5840    14.3530    14.5270     2.5110
 1152.0000     8.1220    89.6710     0.0250   -38.0730   -65.3510     8.5610    13.9490    13.9180     2.5190
 1152.5000     8.1580    89.9030     0.0240   -38.6240   -65.5780     8.5370    13.5460    13.4300     2.5200
 1153.0000     8.1980    90.1360     0.0230   -39.1740   -65.8090     8.6070    13.1420    13.0710     2.5180
 1153.5000     8.1780    90.1750     0.0250   -39.7250   -66.0300     8.6830    13.0210    13.2010     2.5160
 1154.0000     8.1490    90.1110     0.0260   -40.2760   -66.2740     8.7590    13.0210    13.8170     2.5180
 1154.5000     8.1240    90.0400     0.0310   -40.8260   -66.2490     8.8350    13.0210    14.3370     2.5250
 1155.0000     8.1250    90.3820     0.0420   -41.3770   -66.0680     8.9110    12.7770    14.5860     2.5490
 1155.5000     8.1550    90.6170     0.0470   -41.9280   -65.8960     8.9880    12.4910    14.8340     2.5710
 1156.0000     8.2010    91.0970     0.0380   -42.4780   -65.6920     9.0640    11.9680    15.0810     2.5480
 1156.5000     8.1570    92.4140     0.0240   -43.0290   -65.4820     9.1870    11.1110    14.1050     2.5280
 1157.0000     8.1360    92.1860     0.0240   -43.5790   -65.2750     9.1330    10.2530    13.2620     2.5240
 1157.5000     8.1690    90.8680     0.0270   -44.1300   -65.0670     8.9910     9.3960    13.4370     2.5320
 1158.0000     8.1660    91.8280     0.0270   -44.6810   -64.8610     8.8500     9.1870    13.7450     2.5260
 1158.5000     8.1320    92.6010     0.0190   -45.2310   -64.6740     8.7080     9.1870    14.0130     2.5130
 1159.0000     8.1430    92.5220     0.0180   -45.7820   -64.5170     8.5670     9.1870    13.9490     2.5070
 1159.5000     8.1620    91.9870     0.0210   -46.3330   -64.3850     8.3810     9.1870    13.8920     2.5130
 1160.0000     8.1440    91.4750     0.0230   -45.0710   -64.5160     8.4110     9.3360    13.8350     2.5180
 1160.5000     8.1270    92.2670     0.0230   -41.7300   -64.6370     8.4540     9.5510    13.7580     2.5180
 1161.0000     8.1610    91.6030     0.0230   -38.3880   -64.7710     8.4970     9.7660    13.8610     2.5180
 1161.5000     8.1700    90.8700     0.0250   -35.0470   -64.8990     8.5390     9.8870    14.0130     2.5230
 1162.0000     8.1410    92.1970     0.0230   -31.7050   -65.0280     8.5820     9.8870    13.8660     2.5210
 1162.5000     8.1590    92.3090     0.0150   -28.3640   -65.1580     8.6250     9.8870    13.7240     2.5130
 1163.0000     8.2360    92.8350     0.0090   -25.0230   -65.2950     8.6950     9.8870    13.5820     2.5030
 1163.5000     8.2500    93.4380     0.0050   -21.6810   -65.4360     8.6440     9.8870    13.4400     2.4900
 1164.0000     8.1260    94.0840    -0.0080   -18.3400   -65.5720     8.5080     9.7160    13.3000     2.4620
 1164.5000     8.0440    94.7830    -0.0290   -17.1190   -65.7100     8.3730     9.4110    13.3750     2.4090
 1165.0000     8.0910    92.9480    -0.0660   -17.5720   -65.8620     8.2370     9.0200    13.5080     2.3420
 1165.5000     8.1520    92.0420    -0.0820   -18.0260   -65.9240     8.1010     9.0590    13.8440     2.3030
 1166.0000     8.2050    92.3890    -0.0730   -18.4800   -65.8150     7.9650     9.1840    14.2730     2.2960
 1166.5000     8.1870    93.3710    -0.0310   -18.9340   -65.7220     7.8300     9.3100    13.4750     2.4130
 1167.0000     8.0890    93.4180     0.0010   -19.3870   -65.6250     7.6940     9.4350    12.7840     2.4980
 1167.5000     8.0640    92.4060     0.0100   -19.8410   -65.5270     7.5580     9.5610    12.7170     2.5020
 1168.0000     8.1470    92.8650     0.0090   -20.2950   -65.4310     7.4230     9.6860    12.6530     2.4880
 1168.5000     8.2160    93.7410     0.0060   -20.7490   -65.3330     7.2880     9.8870    12.5900     2.4830
 1169.0000     8.2630    93.9890     0.0030   -21.2030   -65.2360     7.5320     9.8100    12.5520     2.4830
 1169.5000     8.1790    93.6310    -0.0020   -21.6560   -65.1590     7.7760     9.6160    11.9130     2.4800
 1170.0000     8.0620    93.1330    -0.0140   -22.1100   -65.1580     8.0190     9.4220    11.2430     2.4390
 1170.5000     8.0910    92.6430    -0.0190   -22.5640   -65.1570     8.2630     9.2280    12.4440     2.4120
 1171.0000     8.1740    92.0060    -0.0130   -23.0180   -65.1580     8.5070     9.0200    13.6960     2.4190
 1171.5000     8.1610    91.2090     0.0060   -23.4710   -65.1570     8.7500     9.0200    14.8060     2.4900
 1172.0000     8.0740    90.4180     0.0220   -23.9250   -65.1570     9.0200     9.1740    14.8400     2.5090
 1172.5000     8.0260    89.7360     0.0260   -24.3790   -65.1570     9.0200     9.3120    14.9530     2.5170
 1173.0000     8.0230    89.4560     0.0290   -24.8330   -65.1570     9.0200     9.3570    15.0810     2.5240
 1173.5000     8.0970    89.3040     0.0330   -25.2870   -65.1580     8.8820     9.3570    15.0080     2.5250
 1174.0000     8.1730    89.7120     0.0370   -25.7400   -65.1540     8.6950     9.3570    14.9240     2.5340
 1174.5000     8.2080    90.3010     0.0360   -26.1940   -65.1610     8.5630     9.5250    14.8390     2.5350
 1175.0000     8.2430    91.7970     0.0300   -26.6480   -65.1700     8.4030     9.9210    14.4240     2.5230
 1175.5000     8.1990    93.5090     0.0230   -36.5360   -65.6340     8.2440    10.3170    13.7960     2.5090
 1176.0000     8.1470    93.4500     0.0140   -50.5390   -66.2330     8.0850    10.7130    13.1690     2.4850
 1176.5000     8.1920    93.3310     0.0050   -64.5410   -66.8880     7.9250    11.1090    13.0210     2.4650
 1177.0000     8.2420    92.7710     0.0060   -58.3830   -66.9880     7.7880    11.4510    13.8740     2.4590
 1177.5000     8.2420    92.4470     0.0110   -46.1310   -66.6180     7.7650    11.7590    13.5750     2.4850
 1178.0000     8.1460    92.4000     0.0130   -33.8790   -66.3350     7.7440    12.0300    12.6760     2.4900
 1178.5000     8.1870    91.7490     0.0030   -27.3500   -66.1410     7.7240    12.3010    12.6960     2.4870
 1179.0000     8.1350    91.2610    -0.0030   -29.9290   -65.9550     7.7030    12.5520    13.1910     2.4730
 1179.5000     8.2190    91.7000     0.0000   -32.5080   -65.7740     7.6830    12.7220    13.7580     2.4700
 1180.0000     8.1940    92.1480     0.0050   -35.0880   -65.5920     7.6620    12.8810    13.1550     2.4890
 1180.5000     8.1930    92.6370     0.0130   -37.6670   -65.4150     7.6530    13.0400    12.3230     2.5080
 1181.0000     8.1740    93.3510     0.0200   -40.2460   -65.2150     7.6820    13.1990    12.2730     2.5200
 1181.5000     8.0970    93.5860     0.0250   -42.8260   -65.2560     7.7110    13.5320    12.2120     2.5320
 1182.0000     8.1560    92.8570     0.0290   -45.4050   -65.4700     7.7410    13.9800    12.1500     2.5300
 1182.5000     8.1450    91.7700     0.0270   -45.8330   -65.6620     7.7870    14.4480    12.0990     2.5230
 1183.0000     8.1270    91.4300     0.0260   -44.3250   -65.8530     7.7790    14.2730    12.5740     2.5160
 1183.5000     8.1610    92.4860     0.0250   -42.8170   -66.0490     7.7510    13.9250    13.2620     2.5090
 1184.0000     8.0950    92.6100     0.0240   -41.3100   -66.2460     7.7230    13.5770    13.0130     2.5080
 1184.5000     8.1360    92.0210     0.0230   -39.8020   -66.3850     7.6950    13.2620    12.2260     2.5110
 1185.0000     8.1980    92.2970     0.0220   -38.2940   -66.4640     7.6680    13.3410    11.6750     2.4960
