~VERSION INFORMATION
 VERS.                2.0:   CWLS LOG ASCII STANDARD - VERSION 2.0
 WRAP.                 NO:   ONE LINE PER DEPTH STEP
~WELL INFORMATION
#MNEM.UNIT      DATA TYPE    INFORMATION
#----------   ------------   ------------------------------
 STRT.F          176.0000:   START DEPTH
 STOP.F         3442.0000:   STOP DEPTH
 STEP.F            0.5000:   STEP LENGTH
 NULL.          -999.2500:   NO VALUE
 COMP.  FENIX AND SCISSON:   COMPANY
 WELL.  FENIX "AX" #65-15:   WELL
 FLD . NAVAL PETROLEUM RESERVE #3:   FIELD
 LOC .      S15 T38N R78W:   LOCATION
 CNTY.            NATRONA:   COUNTY
 STAT.            WYOMING:   STATE
 CTRY. UNITED STATES OF AMERICA:   COUNTRY
 SRVC.       SCHLUMBERGER:   SERVICE COMPANY
 DATE.        09-APR-1981:   LOGDATE
 API .     49025108710000:   API NUMBER
~CURVE INFORMATION
#MNEM.UNIT       API CODE    CURVE DESCRIPTION
#----------   ------------   ------------------------------
 DEPT.F                  :   
 TENR.LBS    07 635 01 00:   TENSION
 SPR .MV     07 010 01 00:   SPONTANEOUS POTENTIAL
 ILD .OHMM   07 120 46 00:   INDUCTION LOG DEEP RESISTIVITY
 ILM .OHMM   07 120 44 00:   INDUCTION LOG MEDIUM RESISTIVITY
 SFL .OHMM   07 220 01 00:   SHALLOW FOCUSED LOG RESISTIVITY
 TEND.LBS    45 635 01 00:   TENSION FROM DENSITY LOG
 CALD.IN     45 280 60 00:   CALIPER FROM DENSITY LOG
 GRD .GAPI   45 310 01 00:   GAMMA RAY FROM DENSITY LOG
 RHOB.G/C3   45 350 01 00:   BULK DENSITY
 CORR.G/C3   45 356 01 00:   DENSITY CORRECTION
~PARAMETER INFORMATION
#MNEM.UNIT          VALUE    DESCRIPTION
#----------   ------------   ------------------------------
 EKB .F         5287.0000:   Kelly bushing
 EGL .F         5277.0000:   Ground level
 EDF .F            0.0000:   Drilling floor
 TD  .F         5476.0000:   Total depth
 DATE.        09-APR-1981:   Date logged
 CLNT.            A2DTECH:   Client Code
 SL  . 1945' FSL & 1161' FEL:   Surface Location
 PD  .                 GL:   Permanent Datum
 EPD .F              5277:   Elevation Permanent Datum
 LMF .                 KB:   Log Measured From
 DMF .                 KB:   Drilling Measured From
 DAPD.F                10:   Feet Above Permanent Datum
 DD  .F              5476:   Depth driller
 DL  .F              5436:   Depth logger
 BLI .F              5430:   Bottom log interval
 TLI .F               190:   Top log interval
 CS1 .IN            8.625:   Casing size
 CBD1.      8.625" @ 190':   Casing driller 1
 CBL1.F               190:   Casing logger 1
 BS1 .IN            7.875:   Bit size
 BSD1.F              5476:   Depth drilled with bit1
 DFT .           CHEM GEL:   Type fluid in hole
 DFD .                9.1:   Density
 DFV .                 42:   Viscosity
 DFPH.                9.5:   pH
 DFL .                  8:   Fluid loss
 MSS .            MUDTANK:   Source of sample
 RMS .OHMM           1.62:   Rm
 MST .F                71:   Rm Meas. temp.
 RMF .OHMM           1.45:   Rmf
 MFST.F                71:   Rmf Meas. temp.
 MFSS.               MEAS:   Source Rmf.
 RMB .OHMM           1.02:   Rm. at BHT
 BHT .F               116:   BHT.
 TCS .HRS            1600:   Time Circ. stopped
 TLAB.HRS            1830:   Time logger at bottom
 MRT .F               116:   Maximum recorded temp.
 LUN .               8035:   Logging unit number
 LUL .               CSPR:   Logging unit location
 ENGI.            BEATTIE:   Recorded By
 WITN.              EIVAS:   Witnessed by
 ORIG.           5" PRINT:   Origin of data
 UWI .     49025108710000:   Unique Well ID
 DICO. A2D TECHNOLOGIES, INC.:   Digitizing Company
~OTHER INFORMATION
~A   DEPT     TENR        SPR        ILD        ILM        SFL       TEND       CALD         GRD      RHOB       CORR   
  176.0000  -999.2500  -999.2500  -999.2500  -999.2500  -999.2500  -999.2500  -999.2500    74.5550  -999.2500  -999.2500
  176.5000  -999.2500  -999.2500  -999.2500  -999.2500  -999.2500  -999.2500  -999.2500    74.5550  -999.2500  -999.2500
  177.0000  -999.2500  -999.2500  -999.2500  -999.2500  -999.2500  -999.2500  -999.2500    71.5910  -999.2500  -999.2500
  177.5000  -999.2500  -999.2500  -999.2500  -999.2500  -999.2500  -999.2500  -999.2500    70.9980  -999.2500  -999.2500
  178.0000  -999.2500  -999.2500  -999.2500  -999.2500  -999.2500  -999.2500  -999.2500    70.7300  -999.2500  -999.2500
  178.5000  -999.2500  -999.2500  -999.2500  -999.2500  -999.2500  -999.2500  -999.2500    71.4690  -999.2500  -999.2500
  179.0000  -999.2500  -999.2500  -999.2500  -999.2500  -999.2500  -999.2500  -999.2500    72.1810  -999.2500  -999.2500
  179.5000  -999.2500  -999.2500  -999.2500  -999.2500  -999.2500  -999.2500  -999.2500    71.1790  -999.2500  -999.2500
  180.0000  -999.2500  -999.2500  -999.2500  -999.2500  -999.2500  -999.2500  -999.2500    67.6040  -999.2500    -0.2480
  180.5000  -999.2500  -999.2500  -999.2500  -999.2500  -999.2500  -999.2500  -999.2500    67.6040  -999.2500    -0.2480
  181.0000  -999.2500  -999.2500  -999.2500  -999.2500  -999.2500  -999.2500  -999.2500    68.2810  -999.2500    -0.2480
  181.5000  -999.2500  -999.2500  -999.2500  -999.2500  -999.2500  -999.2500  -999.2500    70.1410  -999.2500    -0.2480
  182.0000  -999.2500  -999.2500  -999.2500  -999.2500  -999.2500  -999.2500  -999.2500    71.9700  -999.2500    -0.2480
  182.5000  -999.2500  -999.2500  -999.2500  -999.2500  -999.2500  -999.2500  -999.2500    72.3780  -999.2500    -0.2470
  183.0000  -999.2500  -999.2500  -999.2500  -999.2500  -999.2500  -999.2500  -999.2500    71.2690  -999.2500    -0.2480
  183.5000  -999.2500  -999.2500  -999.2500  -999.2500  -999.2500  -999.2500  -999.2500    69.0140  -999.2500    -0.2300
  184.0000  -999.2500  -999.2500  -999.2500  -999.2500  -999.2500  -999.2500  -999.2500    67.5910  -999.2500    -0.2230
  184.5000  -999.2500  -999.2500  -999.2500  -999.2500  -999.2500  -999.2500  -999.2500    68.1730  -999.2500    -0.2260
  185.0000  -999.2500  -999.2500  -999.2500  -999.2500  -999.2500  -999.2500  -999.2500    69.6650  -999.2500    -0.2210
  185.5000  -999.2500  -999.2500  -999.2500  -999.2500  -999.2500  -999.2500  -999.2500    70.7790  -999.2500    -0.2120
  186.0000  -999.2500  -999.2500  -999.2500  -999.2500  -999.2500  -999.2500  -999.2500    71.0660  -999.2500    -0.2050
  186.5000  -999.2500  -999.2500  -999.2500  -999.2500  -999.2500  -999.2500  -999.2500    70.9330  -999.2500    -0.1990
  187.0000  -999.2500  -999.2500  -999.2500  -999.2500  -999.2500  -999.2500  -999.2500    70.4700  -999.2500    -0.1970
  187.5000  -999.2500  -999.2500  -999.2500  -999.2500  -999.2500  -999.2500  -999.2500    69.5730  -999.2500    -0.1940
  188.0000  -999.2500  -999.2500  -999.2500  -999.2500  -999.2500  -999.2500  -999.2500    68.6850  -999.2500    -0.1930
  188.5000  -999.2500  -999.2500  -999.2500  -999.2500  -999.2500  -999.2500  -999.2500    68.4320  -999.2500    -0.1970
  189.0000   268.6420  -999.2500  -999.2500  -999.2500  -999.2500  -999.2500  -999.2500    68.9280  -999.2500    -0.2000
  189.5000   272.4800  -999.2500  -999.2500  -999.2500  -999.2500  -999.2500  -999.2500    69.4040  -999.2500    -0.2170
  190.0000   276.3190  -999.2500  -999.2500  -999.2500  -999.2500   304.3300  -999.2500    67.9940  -999.2500    -0.2250
  190.5000   280.1570  -999.2500  -999.2500  -999.2500  -999.2500   304.1560     8.9710    66.5620     2.0570    -0.1570
  191.0000   283.9960  -999.2500  -999.2500  -999.2500  -999.2500   303.9810     9.7240    66.4580     2.0640    -0.0610
  191.5000   286.5610  -999.2500  -999.2500  -999.2500     0.4360   303.8070    10.1910    69.3080     2.0770     0.0280
  192.0000   286.5610   -30.2970  -999.2500  -999.2500     1.6630   303.6760    10.1950    75.9510     2.0860     0.0480
  192.5000   286.5610   -34.8360  -999.2500  -999.2500     3.3840   303.5020    10.2080    81.6590     2.0950     0.0490
  193.0000   286.5610   -35.4900  -999.2500  -999.2500     4.1420   303.3270    10.2580    85.7510     2.1060     0.0540
  193.5000   286.5610   -32.3720  -999.2500  -999.2500     5.5430   303.1530    10.4160    89.8560     2.1240     0.0680
  194.0000   286.5610   -29.3310     2.3610    87.1230     5.1980   302.9790    10.5760    94.0150     2.1520     0.1260
  194.5000   286.5610   -26.2900     3.8560     4.5370     4.8440   302.8040    10.7360    94.7660     2.1860     0.1700
  195.0000   286.5610   -23.2480     6.0710     7.8430     4.8830   302.6300    10.8980    92.3710     2.2180     0.1990
  195.5000   286.5610   -21.7510     5.8400    13.2790     4.3140   302.4560    11.1580    87.4980     2.2220     0.1500
  196.0000   286.5610   -18.6940     5.5550    10.3740     4.1420   302.2810    11.6050    85.3840     2.2210     0.0790
  196.5000   286.5610   -17.5420     5.2690     7.5120     7.1510   302.1070    12.0470    84.9160     2.2440     0.0460
  197.0000   286.5610   -17.4370     4.9840     5.2140     6.2900   301.9320    12.3820    84.7750     2.2680     0.0280
  197.5000   286.5610   -17.4410     5.0420     5.2390     5.3640   301.7580    12.5730    85.1750     2.3080     0.0230
  198.0000   286.5610   -17.4780     4.5560     4.4080     4.2180   301.5840    12.7630    85.5950     2.3460     0.0210
  198.5000   286.5610   -17.1330     4.3370     4.0680     4.2920   301.4090    12.9500    85.8700     2.3770     0.0270
  199.0000   286.5610   -17.0680     4.2350     3.9700     4.4930   301.2350    13.0740    84.1980     2.3970     0.0320
  199.5000   286.5610   -17.2070     4.1330     3.8690     4.2780   301.0600    13.1110    83.2760     2.4040     0.0370
  200.0000   286.5610   -17.3530     4.0310     3.7690     3.9470   300.8860    13.1990    84.6390     2.3900     0.0410
  200.5000   286.5610   -17.4800     3.9280     3.6680     3.6150   300.7120    13.3380    85.9460     2.3590     0.0340
  201.0000   286.5610   -17.6150     3.8260     3.5680     3.2840   300.5370    13.4770    85.3490     2.3290     0.0240
  201.5000   286.5610   -17.7480     3.7240     3.4670     3.0960   300.3630    13.5080    82.7510     2.3100     0.0140
  202.0000   286.5610   -17.8810     3.5500     3.3660     3.3410   300.1880    13.4230    80.0930     2.3140     0.0010
  202.5000   286.5610   -18.0140     3.1560     3.2660     3.7230   300.0140    13.3310    78.4860     2.3180     0.0010
  203.0000   286.5610   -18.1480     2.7610     3.1530     3.8510   299.8400    13.3460    77.3190     2.3080     0.0050
  203.5000   286.5610   -18.2800     2.3990     3.0240     3.6570   299.6650    13.3560    77.0450     2.2950     0.0100
  204.0000   286.5610   -18.4130     2.3560     2.8780     3.4350   299.4910    13.3840    76.7980     2.2860     0.0150
  204.5000   286.5610   -18.5530     2.2820     2.7310     3.2130   299.3170    13.4110    77.4580     2.2820     0.0190
  205.0000   286.5610   -18.6620     2.1990     2.5850     2.9910   299.1420    13.4370    79.0140     2.2790     0.0290
  205.5000   286.5610   -18.7300     2.1170     2.3990     2.7680   298.9680    13.4700    81.4260     2.2660     0.0480
  206.0000   286.5610   -18.8050     2.0340     2.4430     2.5340   298.7930    13.6620    83.9890     2.2390     0.0480
  206.5000   286.5610   -18.8790     1.9640     2.7150     2.5340   298.6190    13.8560    84.4360     2.2080     0.0330
  207.0000   286.5610   -18.9530     2.3170     3.0020     2.7700   298.4450    13.8640    83.4840     2.2160     0.0160
  207.5000   286.5610   -19.0270     2.6230     3.2900     2.9740   298.2700    13.6410    82.4630     2.2550     0.0080
  208.0000   286.5610   -19.1010     2.9300     3.5770     3.1780   298.0960    13.4120    82.6650     2.3030     0.0080
  208.5000   286.5610   -19.1750     3.2360     3.8650     3.3820   297.9210    13.4020    83.9490     2.3540     0.0140
  209.0000   286.5610   -19.2500     3.5420     4.1520     3.5860   297.7470    13.3990    85.2930     2.3760     0.0190
