~VERSION INFORMATION
 VERS.                2.0:   CWLS LOG ASCII STANDARD - VERSION 2.0
 WRAP.                 NO:   ONE LINE PER DEPTH STEP
~WELL INFORMATION
#MNEM.UNIT      DATA TYPE    INFORMATION
#----------   ------------   ------------------------------
 STRT.F          470.0000:   START DEPTH
 STOP.F         3791.5000:   STOP DEPTH
 STEP.F            0.5000:   STEP LENGTH
 NULL.          -999.2500:   NO VALUE
 COMP.    FENIX & SCISSON:   COMPANY
 WELL.   FENIX MDX #44-10:   WELL
 FLD .                NPR:   FIELD
 LOC .      S10 T38N R78W:   LOCATION
 CNTY.            NATRONA:   COUNTY
 STAT.            WYOMING:   STATE
 CTRY. UNITED STATES OF AMERICA:   COUNTRY
 SRVC.       SCHLUMBERGER:   SERVICE COMPANY
 DATE.        25-OCT-1977:   LOGDATE
 API .     49025104310000:   API NUMBER
~CURVE INFORMATION
#MNEM.UNIT       API CODE    CURVE DESCRIPTION
#----------   ------------   ------------------------------
 DEPT.F                  :   
 DT  .US/F   60 520 00 00:   DELTA TIME
 SPR .MV     11 010 01 00:   SPONTANEOUS POTENTIAL FROM RES.
 LLS .OHMM   11 220 09 00:   LATEROLOG LOG SHALLOW
 LLD .OHMM   11 220 10 00:   LATEROLOG LOG DEEP
 MSFL.OHMM   11 270 04 00:   MICRO SPHERICALLY FOCUSED
 NPOR.DEC    42 890 03 00:   ALPHA PROCESSED NEUTRON POROSITY
 RHOB.G/C3   45 350 01 00:   BULK DENSITY
 CORR.G/C3   45 356 01 00:   DENSITY CORRECTION
 GRD .GAPI   45 310 01 00:   GAMMA RAY FROM DENSITY LOG
 CALD.IN     45 280 60 00:   CALIPER FROM DENSITY LOG
~PARAMETER INFORMATION
#MNEM.UNIT          VALUE    DESCRIPTION
#----------   ------------   ------------------------------
 EKB .F         5239.0000:   Kelly bushing
 EGL .F         5229.0000:   Ground level
 EDF .F            0.0000:   Drilling floor
 EPD .F           10.0000:   Permanent datum
 TD  .F         3802.0000:   Total depth
 DATE.        25-OCT-1977:   Date logged
 CLNT.            A2DTECH:   Client Code
 SL  . 2640' FNL & 2640' FEL:   Surface Location
 PD  .                 GL:   Permanent Datum
 DD  .F              3802:   Depth driller
 DL  .F              3791:   Depth logger
 BLI .F              3789:   Bottom log interval
 TLI .F               505:   Top log interval
 CS1 .IN            8.625:   Casing size
 CBD1.       8.625 @ 505':   Casing driller 1
 CBL1.F               505:   Casing logger 1
 BS1 .IN            7.875:   Bit size
 DFT .            KCL MUD:   Type fluid in hole
 DFD .                9.1:   Density
 DFV .                 45:   Viscosity
 DFPH.               10.5:   pH
 DFL .                  8:   Fluid loss
 MSS .             MUDPIT:   Source of sample
 RMS .OHMM           .209:   Rm
 MST .F                72:   Rm Meas. temp.
 RMF .OHMM           .179:   Rmf
 MFST.F                72:   Rmf Meas. temp.
 RMC .OHMM           .314:   Rmc
 MCST.F                72:   Rmc Meas. temp.
 MFSS.               MEAS:   Source Rmf.
 RMB .OHMM           .122:   Rm. at BHT
 BHT .F               123:   BHT.
 TCS .HRS            1400:   Time Circ. stopped
 MRT .F               123:   Maximum recorded temp.
 LUN .               5642:   Logging unit number
 LUL .               CSPR:   Logging unit location
 ENGI.             SAYLER:   Recorded By
 WITN.         PETTINGILL:   Witnessed by
 ORIG.           5" PRINT:   Origin of data
 UWI .     49025104310000:   Unique Well ID
 DICO. A2D TECHNOLOGIES, INC.:   Digitizing Company
 DAPD.                 10:   Feet Above Permanent Datum
 BSD1.               3802:   Depth drilled with bit1
 MCSS.               CALC:   Source Rmc.
~OTHER INFORMATION
~A   DEPT        DT       SPR        LLS        LLD       MSFL       NPOR       RHOB       CORR        GRD       CALD   
# ...
 2446.5000    90.3410   -58.8820     7.3110     6.2950    10.4880     0.3190     2.5010     0.0230   127.4070    10.4270
 2447.0000    90.1910   -58.8620     7.3350     6.2950    10.5910     0.3210     2.4970     0.0190   127.8070    10.4250
 2447.5000    89.5200   -58.8410     7.3590     6.5160    10.6420     0.3220     2.4950     0.0100   127.0220    10.4230
 2448.0000    88.8950   -58.8210     7.6710     6.7610    10.6420     0.3260     2.5010     0.0050   123.5290    10.4210
 2448.5000    90.2500   -58.8010     8.0620     7.0050    11.2190     0.3270     2.4970     0.0200   120.1690    10.4190
 2449.0000    90.6500   -58.7800     8.5480     7.2280    12.4230     0.3210     2.4900     0.0070   116.8380    10.4170
 2449.5000    90.4480   -58.7600     9.0340     7.8310    13.4450     0.3080     2.4970     0.0210   114.4700    10.4170
 2450.0000    89.4960   -58.7390     9.5200     8.3850    14.0290     0.2980     2.5090     0.0340   114.6580    10.4340
 2450.5000    87.3810   -58.7190    10.0070     8.9380    14.5560     0.2740     2.5190     0.0190   114.7910    10.4510
 2451.0000    85.8100   -58.6780    10.4480     9.4410    14.5560     0.2620     2.5160     0.0150   114.9140    10.4700
 2451.5000    84.3760   -58.6290    10.3410     9.5290    14.3320     0.2510     2.5100     0.0090   115.0310    10.4950
 2452.0000    82.9410   -58.5800    10.1860     9.2180    14.0090     0.2500     2.5080     0.0140   115.1460    10.5360
 2452.5000    82.3800   -58.5310    10.0320     8.9770    13.6860     0.2570     2.5060     0.0000   115.2670    10.5780
 2453.0000    82.6500   -58.4810     9.8770     8.8520    13.5220     0.2640     2.5010     0.0110   115.9860    10.6210
 2453.5000    83.5260   -58.4320     9.7060     8.9090    13.5340     0.2700     2.4900     0.0120   116.7900    10.6300
 2454.0000    84.3500   -58.3830     9.7530     8.9740    13.5800     0.2800     2.4800    -0.0040   117.5960    10.6260
 2454.5000    84.9120   -58.3330     9.8070     9.0390    13.6260     0.2810     2.4850     0.0130   118.3990    10.6210
 2455.0000    85.5500   -58.2840     9.8600     9.1000    13.6720     0.2850     2.4970     0.0230   119.2010    10.6170
 2455.5000    85.5500   -58.2350     9.9140     9.1000    13.7180     0.2930     2.5070     0.0270   119.4770    10.6140
 2456.0000    85.5500   -58.1860     9.9680     9.1000    13.7640     0.3010     2.5140     0.0210   118.7010    10.6310
 2456.5000    85.9010   -58.1350    10.0220     9.1000    13.8100     0.3010     2.5170     0.0090   116.3590    10.6480
 2457.0000    86.3690   -58.1740    10.0760     9.1000    13.8560     0.2950     2.5110     0.0270   114.0530    10.6650
 2457.5000    86.8380   -58.2570    10.1300     8.9780    13.9020     0.2890     2.5040     0.0190   111.7230    10.6820
 2458.0000    86.6230   -58.3410    10.1830     8.8600    13.9480     0.2850     2.4970     0.0170   111.0110    10.6980
 2458.5000    86.1920   -58.4250    10.2570     8.7280    13.9940     0.2790     2.4920     0.0100   111.1320    10.7150
 2459.0000    85.7500   -58.5090    10.0590     8.5460    14.0290     0.2740     2.5030     0.0040   111.2420    10.7320
 2459.5000    85.1290   -58.5930     9.7450     8.3650    13.2510     0.2690     2.4980     0.0060   112.5480    10.7490
 2460.0000    84.4900   -58.6770     9.4320     8.1830    12.6190     0.2670     2.4940     0.0150   115.1480    10.7580
 2460.5000    84.6760   -58.7600     9.1180     8.0010    11.9960     0.2740     2.5060     0.0260   118.7040    10.7640
 2461.0000    85.5300   -58.8450     8.9340     7.8190    11.9960     0.2910     2.5170     0.0370   120.2660    10.7710
 2461.5000    86.1500   -58.9410     8.9340     7.6390    12.3270     0.2990     2.5210     0.0430   120.6710    10.7780
 2462.0000    87.3670   -59.0960     8.9670     7.8220    12.5610     0.2940     2.5010     0.0120   121.0870    10.7850
 2462.5000    88.4330   -59.2490     9.0210     8.0040    12.7950     0.2840     2.4920     0.0170   120.1590    10.7910
 2463.0000    88.8500   -59.4020     9.0750     8.2230    12.8340     0.2730     2.4970     0.0080   118.3780    10.7980
 2463.5000    88.7240   -59.5550     9.1290     8.1250    12.8730     0.2740     2.5030     0.0160   118.7120    10.8050
 2464.0000    88.4300   -59.7080     9.1830     8.0010    12.9120     0.2810     2.5070     0.0260   120.3920    10.8120
 2464.5000    87.8950   -59.8610     9.2370     7.9260    12.9130     0.2870     2.5120     0.0160   122.0960    10.8180
 2465.0000    87.3590   -60.0140     9.2910     8.0390    12.9150     0.2950     2.5180     0.0290   122.3250    10.8250
 2465.5000    87.2920   -60.1670     9.3460     8.1200    12.9130     0.3020     2.5260     0.0200   120.9140    10.8320
 2466.0000    87.8500   -60.3200     9.4000     8.2020    13.1180     0.3030     2.5330     0.0190   119.1590    10.8390
 2466.5000    87.5440   -60.4730     9.4540     8.2830    13.4750     0.2800     2.5310     0.0330   117.6830    10.8460
 2467.0000    87.0160   -60.6260     9.5080     8.3650    13.7730     0.2750     2.5240     0.0300   118.1780    10.8520
 2467.5000    86.8730   -60.7930     9.5620     8.4460    13.6470     0.2700     2.5180     0.0190   118.6390    10.8540
 2468.0000    86.3900   -60.9730     9.6160     8.5320    13.5140     0.2670     2.5170     0.0260   117.4210    10.8560
 2468.5000    85.8420   -61.1520     9.6710     8.5730    13.3980     0.2650     2.5170     0.0110   114.9370    10.8580
 2469.0000    85.7800   -61.3320     9.7250     8.6280    13.2750     0.2630     2.5200     0.0010   112.4590    10.8600
 2469.5000    85.6310   -61.5110     9.7790     8.6830    13.6540     0.2610     2.4960     0.0130   110.9040    10.8620
 2470.0000    85.1210   -61.6890     9.8330     8.7380    14.0540     0.2590     2.5040    -0.0050   112.8780    10.8640
 2470.5000    84.4040   -61.8790     9.8870     8.7920    14.1590     0.2530     2.4990     0.0120   114.0760    10.8670
 2471.0000    83.6870   -62.3150     9.9410     8.8470    13.5220     0.2510     2.4890    -0.0040   113.4430    10.8690
 2471.5000    83.2820   -62.7780    10.0700     8.9020    13.7730     0.2550     2.4790     0.0050   111.1900    10.8710
 2472.0000    83.7610   -63.2440    10.1010     8.9570    14.1060     0.2520     2.4760     0.0020   109.7130    10.8740
 2472.5000    83.7800   -63.5290    10.1340     9.0160    14.4220     0.2560     2.5110     0.0200   111.4250    10.8770
 2473.0000    83.2710   -63.6610    10.1630     9.0160    14.0920     0.2590     2.5020     0.0260   113.2900    10.8800
 2473.5000    82.7270   -63.7900     9.3970     8.5850    13.6110     0.2570     2.4960     0.0040   115.1950    10.8830
 2474.0000    83.0150   -63.9200     8.6620     7.7450    12.1680     0.2570     2.4890     0.0160   115.0890    10.8860
 2474.5000    83.9280   -64.0520     8.1480     7.0960    11.3510     0.2600     2.4830     0.0050   113.3440    10.8880
 2475.0000    84.7500   -64.0600     8.1480     7.5370    11.4680     0.2650     2.4830     0.0180   112.0540    10.8770
 2475.5000    86.0500   -64.0600     9.1120     8.4160    12.6330     0.2690     2.4900     0.0100   112.2380    10.8230
 2476.0000    84.6470   -64.0590    10.0160     9.2940    14.1590     0.2690     2.5090     0.0340   115.2260    10.7720
 2476.5000    83.0950   -64.0590    10.8400    10.1730    13.7730     0.2510     2.5310     0.0280   118.1300    10.7200
 2477.0000    78.0070   -64.0590    10.9400    10.4480    12.7530     0.2430     2.5460     0.0110   121.3790    10.6740
 2477.5000    74.6500   -64.0590    10.1940     9.4550    11.4560     0.2420     2.5590     0.0080   124.6720    10.7040
 2478.0000    71.9500   -64.0590     9.6140     8.7870    11.5620     0.2550     2.5530     0.0270   127.9490    10.7330
 2478.5000    73.3500   -64.0590     9.0330     8.1190    11.5330     0.2690     2.5350     0.0320   130.5190    10.7630
 2479.0000    75.9600   -64.0590     8.4530     7.4510    11.5620     0.2770     2.5170     0.0200   130.8450    10.7660
 2479.5000    78.9500   -64.0590     7.8990     6.7190    10.6430     0.2810     2.5000     0.0080   130.6870    10.7580
