~VERSION INFORMATION
 VERS.                2.0:   CWLS LOG ASCII STANDARD - VERSION 2.0
 WRAP.                 NO:   ONE LINE PER DEPTH STEP
~WELL INFORMATION
#MNEM.UNIT      DATA TYPE    INFORMATION
#----------   ------------   ------------------------------
 STRT.F          148.0000:   START DEPTH
 STOP.F         3394.0000:   STOP DEPTH
 STEP.F            0.5000:   STEP LENGTH
 NULL.          -999.2500:   NO VALUE
 COMP.    FENIX & SCISSON:   COMPANY
 WELL.  FENIX "AX" #28-10:   WELL
 FLD .        TEAPOT DOME:   FIELD
 LOC .      S10 T38N R78W:   LOCATION
 CNTY.            NATRONA:   COUNTY
 STAT.            WYOMING:   STATE
 CTRY. UNITED STATES OF AMERICA:   COUNTRY
 SRVC.       SCHLUMBERGER:   SERVICE COMPANY
 DATE.        03-MAR-1981:   LOGDATE
 API .     49025108680000:   API NUMBER
~CURVE INFORMATION
#MNEM.UNIT       API CODE    CURVE DESCRIPTION
#----------   ------------   ------------------------------
 DEPT.F                  :   
 SFL .OHMM   07 220 01 00:   SHALLOW FOCUSED LOG RESISTIVITY
 ILD .OHMM   07 120 46 00:   INDUCTION LOG DEEP RESISTIVITY
 ILM .OHMM   07 120 44 00:   INDUCTION LOG MEDIUM RESISTIVITY
 TENR.LBS    07 635 01 00:   TENSION
 SPR .MV     07 010 01 00:   SPONTANEOUS POTENTIAL
 CALD.IN     45 280 60 00:   CALIPER FROM DENSITY LOG
 GRD .GAPI   45 310 01 00:   GAMMA RAY FROM DENSITY LOG
 TEND.LBS    45 635 01 00:   TENSION FROM DENSITY LOG
 CORR.G/C3   45 356 01 00:   DENSITY CORRECTION
 RHOB.G/C3   45 350 01 00:   BULK DENSITY
~PARAMETER INFORMATION
#MNEM.UNIT          VALUE    DESCRIPTION
#----------   ------------   ------------------------------
 EKB .F         5241.0000:   Kelly bushing
 EGL .F         5231.0000:   Ground level
 EDF .F            0.0000:   Drilling floor
 TD  .F         3381.0000:   Total depth
 DATE.        03-MAR-1981:   Date logged
 CLNT.            A2DTECH:   Client Code
 SL  . 640' FSL & 720' FWL:   Surface Location
 PD  .                 GL:   Permanent Datum
 EPD .F              5231:   Elevation Permanent Datum
 LMF .                 KB:   Log Measured From
 DMF .                 KB:   Drilling Measured From
 DAPD.F                10:   Feet Above Permanent Datum
 DD  .F              3361:   Depth driller
 DL  .F              3381:   Depth logger
 BLI .F              3375:   Bottom log interval
 TLI .F               233:   Top log interval
 CS1 .IN            8.625:   Casing size
 CBD1.      8.625" @ 224':   Casing driller 1
 CBL1.F               233:   Casing logger 1
 BS1 .IN            7.875:   Bit size
 BSD1.F              3361:   Depth drilled with bit1
 DFT .           CHEM/GEL:   Type fluid in hole
 DFD .                  9:   Density
 DFV .                 40:   Viscosity
 DFPH.                8.5:   pH
 DFL .                 11:   Fluid loss
 MSS .           MUD/TANK:   Source of sample
 RMS .OHMM           2.52:   Rm
 MST .F                66:   Rm Meas. temp.
 RMF .OHMM            1.8:   Rmf
 MFST.F                67:   Rmf Meas. temp.
 MFSS.               MEAS:   Source Rmf.
 RMB .OHMM           1.47:   Rm. at BHT
 BHT .F               118:   BHT.
 TCS .HRS            0500:   Time Circ. stopped
 TLAB.HRS            0830:   Time logger at bottom
 MRT .F               118:   Maximum recorded temp.
 LUN .               8035:   Logging unit number
 LUL .               CSPR:   Logging unit location
 ENGI.            BEATTLE:   Recorded By
 WITN.              FIVAS:   Witnessed by
 ORIG.           5" PRINT:   Origin of data
 UWI .     49025108680000:   Unique Well ID
 DICO. A2D TECHNOLOGIES, INC.:   Digitizing Company
~OTHER INFORMATION
~A   DEPT      SFL        ILD        ILM       TENR        SPR         CALD       GRD      TEND       CORR       RHOB   
# ...
  851.5000    10.6820     9.8010    10.0990   310.8540   -21.5280     8.8490   104.3040   391.5660     0.0110     2.5170
  852.0000    10.4440     9.5240     9.8610   310.5060   -21.3490     8.8420   104.2520   391.5660     0.0140     2.5240
  852.5000    10.0460     9.2480     9.6220   310.1590   -21.2500     8.8330   104.5150   391.5660     0.0180     2.5310
  853.0000     9.6380     9.0260     9.3830   309.8110   -21.3340     8.8410   105.2060   391.5660     0.0210     2.5380
  853.5000     9.5480     9.0570     9.1450   309.4630   -21.4070     8.8610   105.6820   391.5660     0.0240     2.5390
  854.0000     9.6010     9.1330     8.8590   309.1150   -21.4860     8.8790   107.4320   391.5660     0.0270     2.5340
  854.5000     9.6550     9.2100     8.8810   308.7670   -21.5630     8.8970   110.0820   391.5660     0.0200     2.5280
  855.0000     9.7080     9.2870     8.9090   308.4200   -21.6400     8.9160   112.5700   391.5660     0.0150     2.5250
  855.5000     9.7620     9.3640     8.9370   308.0720   -21.6610     8.9350   113.3870   391.5660     0.0170     2.5260
  856.0000     9.8150     9.4400     8.9650   307.7240   -21.6600     8.9530   112.0510   391.5660     0.0210     2.5320
  856.5000     9.8690     9.5480     8.9930   307.3760   -21.6600     8.9720   109.5060   391.5660     0.0260     2.5390
  857.0000     9.9120     9.4890     9.0260   307.0280   -21.6610     8.9890   107.1770   391.5660     0.0290     2.5420
  857.5000     9.8010     9.3910     8.9350   306.6800   -21.6590     9.0080   104.7580   391.5660     0.0290     2.5460
  858.0000     9.7280     9.2940     8.8210   306.3330   -21.6600     9.0350   103.2560   391.5660     0.0290     2.5450
  858.5000     9.5340     9.1960     8.7060   305.9850   -21.6020     9.0770   104.1440   391.5660     0.0270     2.5320
  859.0000     9.3730     9.0990     8.5920   305.6370   -21.5200     9.0700   105.5840   391.5660     0.0190     2.5160
  859.5000     9.2110     9.0010     8.4780   305.2890   -21.4390     9.0730   104.8380   391.5660     0.0110     2.5010
  860.0000     9.0500     8.9040     8.3640   304.9410   -21.3590     9.0720   102.7020   391.5660     0.0030     2.4850
  860.5000     8.8880     8.8060     8.2500   304.5940   -21.2780     9.0720   100.7620   391.5660     0.0050     2.4840
  861.0000     8.6940     8.7090     8.1360   304.2460   -21.1980     9.0720    99.2040   391.5660     0.0100     2.4960
  861.5000     8.6940     8.6110     8.0670   303.8980   -21.1160     9.0720   102.2550   391.5660     0.0160     2.5080
  862.0000     8.6940     8.5330     8.0670   303.5500   -21.0360     9.0720   105.3910   391.5660     0.0220     2.5040
  862.5000     8.6940     8.3750     8.0670   303.2020   -20.9570     9.0720   106.9630   391.5660     0.0250     2.5010
  863.0000     8.6510     8.1950     8.0670   302.8540   -20.8720     9.0720   104.7920   391.5660     0.0230     2.5030
  863.5000     8.5780     8.0140     7.9640   302.5070   -20.8810     9.0720   102.8710   391.5660     0.0220     2.5080
  864.0000     8.5060     7.8340     7.7060   302.1590   -20.9960     9.0720   102.0920   391.5660     0.0240     2.5160
  864.5000     8.4330     7.6540     7.4470   301.8110   -21.1070     9.0720   106.2150   391.5660     0.0280     2.5270
  865.0000     8.3750     7.4730     7.1890   301.4630   -21.2190     9.0720   109.6600   391.5660     0.0310     2.5390
  865.5000     8.2200     7.2930     6.9310   301.1150   -21.3310     9.0720   112.8800   391.5660     0.0480     2.5500
  866.0000     7.6800     7.0760     6.6720   300.7670   -21.4430     9.0710   115.9210   391.5660     0.0700     2.5500
  866.5000     6.7820     6.9450     6.4140   300.4200   -21.5540     9.0580   115.7940   391.5660     0.0620     2.5260
  867.0000     5.3440     6.9450     6.1500   300.0720   -21.6680     9.0440   111.7020   391.5660     0.0430     2.5020
  867.5000     5.7240     6.8160     6.2780   299.7240   -21.7790     9.0320   107.5020   391.5660     0.0270     2.4880
  868.0000     6.6750     7.0370     6.5100   299.3760   -21.8880     9.0170   104.8470   391.5660     0.0120     2.5010
  868.5000     7.6270     7.4060     6.7420   299.0280   -22.0190     9.0050   103.8010   391.5660     0.0150     2.5140
  869.0000     8.5330     7.7740     6.9740   298.6810   -21.9490     9.0000   102.6640   391.5660     0.0140     2.5220
  869.5000     9.1970     8.1420     7.2070   298.3330   -21.6450     9.0360   102.9230   391.5660     0.0120     2.5190
  870.0000     9.3580     8.5110     7.4850   297.9850   -21.3580     9.0120   107.2510   391.5660     0.0090     2.5160
  870.5000     9.6260     8.8790     7.9350   297.6370   -21.2200     8.9920   110.0310   391.5660     0.0040     2.5130
  871.0000     9.8940     9.1470     8.8590   297.2890   -21.1720     8.9690   109.4680   391.5660     0.0040     2.5140
  871.5000    10.1620     9.3480     9.0780   296.9410   -21.1230     8.9530   106.8760   391.5660     0.0060     2.5150
  872.0000    10.4840     9.5490     9.2090   296.5940   -21.0710     8.9590   104.0800   391.5660     0.0080     2.5150
  872.5000    10.4840     9.7510     9.3390   296.2460   -21.0210     8.9630   103.1270   391.5660     0.0110     2.5220
  873.0000    10.4840     9.9120     9.4690   295.8980   -20.9710     8.9690   103.7890   391.5660     0.0200     2.5350
  873.5000    10.4840     9.9120     9.5480   295.5500   -20.9210     8.9740   104.3480   391.5660     0.0310     2.5480
  874.0000    10.4840     9.9120     9.5390   295.2020   -20.8680     8.9790   104.8630   391.5660     0.0400     2.5570
  874.5000    10.4840    10.0990     9.5250   294.8550   -20.8620     8.9850   106.0290   391.5660     0.0390     2.5510
  875.0000    10.4840    10.0690     9.5100   294.7880   -20.9250     8.9900   106.9770   391.5660     0.0330     2.5450
  875.5000    10.4840    10.0390     9.4960   294.9080   -20.9850     8.9950   107.5170   391.5660     0.0260     2.5380
  876.0000    10.4840    10.0090     9.4820   295.0290   -21.0460     9.0000   103.6820   391.5660     0.0210     2.5320
  876.5000    10.4850     9.9790     9.4680   295.1490   -21.1070     9.0060   101.2690   391.5660     0.0160     2.5260
  877.0000    10.4860     9.9490     9.4530   295.2700   -21.1680     9.0110   101.8110   391.5660     0.0130     2.5190
  877.5000    10.4850     9.9190     9.4390   295.3900   -21.2290     9.0160   105.3690   391.5660     0.0160     2.5160
  878.0000    10.5850     9.8890     9.4250   295.5100   -21.2900     9.0220   105.7260   391.5660     0.0190     2.5210
  878.5000    10.6860     9.8590     9.4110   295.6310   -21.3510     9.0270   104.6230   391.5660     0.0220     2.5290
  879.0000    10.7870     9.8290     9.3970   295.7510   -21.4130     9.0320   103.4750   391.5660     0.0250     2.5350
  879.5000    10.8830     9.7990     9.3830   295.8720   -21.4740     9.0320   103.6290   391.5660     0.0270     2.5320
  880.0000    10.6740     9.7680     9.3730   295.9920   -21.5350     9.0310   105.0610   391.5660     0.0250     2.5260
  880.5000    10.3870     9.7350     9.3380   296.1130   -21.5970     9.0160   104.9430   391.5660     0.0230     2.5210
  881.0000    10.2900     9.6380     9.2930   296.2330   -21.6550     9.0000   103.5150   391.5660     0.0210     2.5120
  881.5000     9.7770     9.2220     9.2510   296.3540   -21.6490     8.9830   103.5140   391.5660     0.0160     2.5030
  882.0000     9.3500     8.8140     9.2050   296.4740   -21.5130     8.9660   104.5400   391.5660     0.0100     2.4950
  882.5000     8.9220     8.4070     8.6940   296.5950   -21.3910     8.9520   105.5310   391.5660     0.0050     2.4870
  883.0000     8.4950     7.9180     8.1900   296.7150   -21.2630     8.9520   106.0580   391.5660     0.0050     2.4830
  883.5000     8.0670     7.7420     7.6850   296.8360   -21.1360     8.9520   105.7530   391.5660     0.0030     2.4840
  884.0000     7.5810     7.3040     7.1800   296.9560   -21.0120     8.9520   105.6410   391.8830     0.0110     2.4940
  884.5000     7.0950     6.8650     6.6760   297.0760   -20.8910     8.9530   104.7500   392.8440     0.0240     2.5060
