~VERSION INFORMATION
 VERS.                2.0:   CWLS LOG ASCII STANDARD - VERSION 2.0
 WRAP.                 NO:   ONE LINE PER DEPTH STEP
~WELL INFORMATION
#MNEM.UNIT      DATA TYPE    INFORMATION
#----------   ------------   ------------------------------
 STRT.F          205.0000:   START DEPTH
 STOP.F         3171.5000:   STOP DEPTH
 STEP.F            0.5000:   STEP LENGTH
 NULL.          -999.2500:   NO VALUE
 COMP.    FENIX & SCISSON:   COMPANY
 WELL. FENIX & SCISSON  "AX" #27-28:   WELL
 FLD .              NPR 3:   FIELD
 LOC .      S28 T39N R78W:   LOCATION
 CNTY.            NATRONA:   COUNTY
 STAT.            WYOMING:   STATE
 CTRY. UNITED STATES OF AMERICA:   COUNTRY
 SRVC.       SCHLUMBERGER:   SERVICE COMPANY
 DATE.        30-MAY-1977:   LOGDATE
 API .     49025103870000:   API NUMBER
~CURVE INFORMATION
#MNEM.UNIT       API CODE    CURVE DESCRIPTION
#----------   ------------   ------------------------------
 DEPT.F                  :   
 NPHI.DEC    42 890 03 00:   NEUTRON POROSITY SANDSTONE
 CALD.IN     45 280 60 00:   CALIPER FROM DENSITY LOG
 GRD .GAPI   45 310 01 00:   GAMMA RAY FROM DENSITY LOG
 RHOB.G/C3   45 350 01 00:   BULK DENSITY
 CORR.G/C3   45 356 01 00:   DENSITY CORRECTION
 SPR .MV     11 010 01 00:   SPONTANEOUS POTENTIAL
 MSFL.OHMM   11 270 04 00:   MICRO SPHERICALLY FOCUSED RES.
 LLD .OHMM   11 220 10 00:   LATEROLOG LOG DEEP
 LLS .OHMM   11 220 09 00:   LATEROLOG LOG SHALLOW
~PARAMETER INFORMATION
#MNEM.UNIT          VALUE    DESCRIPTION
#----------   ------------   ------------------------------
 EKB .F         5094.0000:   Kelly bushing
 EGL .F         5084.0000:   Ground level
 EDF .F            0.0000:   Drilling floor
 EPD .F            0.0000:   Permanent datum
 TD  .F         3169.0000:   Total depth
 DATE.        30-MAY-1977:   Date logged
 CLNT.            A2DTECH:   Client Code
 SL  . 1266' FSL & 871' FWL:   Surface Location
 PD  .                 GL:   Permanent Datum
 DD  .F              3163:   Depth driller
 DL  .F              3169:   Depth logger
 BLI .F              3168:   Bottom log interval
 CS1 .IN            8.625:   Casing size
 CBD1.      8.625" @ 210':   Casing driller 1
 CBL1.F               219:   Casing logger 1
 BS1 .IN            7.875:   Bit size
 DFT .           SALT/MUD:   Type fluid in hole
 DFD .                8.9:   Density
 DFV .                 32:   Viscosity
 DFPH.                8.5:   pH
 DFL .                5.8:   Fluid loss
 MSS .                PIT:   Source of sample
 RMS .OHMM           .194:   Rm
 MST .F                65:   Rm Meas. temp.
 RMF .OHMM           .165:   Rmf
 MFST.F                65:   Rmf Meas. temp.
 MFSS.               MEAS:   Source Rmf.
 RMB .OHMM           .107:   Rm. at BHT
 BHT .F               118:   BHT.
 MRT .F               118:   Maximum recorded temp.
 LUN .               5642:   Logging unit number
 LUL .               CSPR:   Logging unit location
 ENGI.             MARTIN:   Recorded By
 WITN.         PETTINGILL:   Witnessed by
 ORIG.           5" PRINT:   Origin of data
 UWI .     49025103870000:   Unique Well ID
 DICO. A2D TECHNOLOGIES, INC.:   Digitizing Company
 DAPD.F                10:   Feet Above Permanent Datum
 BSD1.F              3163:   Depth drilled with bit1
 TLI .F               219:   Top log interval
 TLAB.HRS            0930:   Time logger at bottom
~OTHER INFORMATION
~A   DEPT     NPHI         CALD      GRD         RHOB      CORR       SPR       MSFL        LLD        LLS   
# ...
  606.5000     0.3205     8.6116   147.4255     2.5088     0.0586  -111.0407    13.4118    10.1363    11.2148
  607.0000     0.3221     8.6117   145.8323     2.5287     0.0456  -111.2365    13.4125    10.3248    11.2153
  607.5000     0.3228     8.6118   146.6293     2.5097     0.0576  -110.6416    13.2907    10.3253    11.4239
  608.0000     0.3188     8.5522   149.0200     2.5267     0.0506  -110.6398    12.7570    10.3258    11.5300
  608.5000     0.3172     8.6321   151.0124     2.5356     0.0735  -110.4402    12.6405    10.3263    11.3205
  609.0000     0.3156     8.6322   155.3944     2.5356     0.0795  -110.4384    12.4108    10.2322    11.0130
  609.5000     0.3156     8.6523   158.1831     2.5326     0.0795  -110.4365    12.2978    10.1391    10.8129
  610.0000     0.3168     8.6524   158.1839     2.5376     0.0476  -110.4346    12.2984     9.9548    10.7145
  610.5000     0.3202     8.6326   155.7952     2.5166     0.0575  -110.4327    12.2990     9.8642    10.7033
  611.0000     0.3244     8.6527   151.8141     2.5146     0.0336  -110.4309    12.2420     9.7744    10.7036
  611.5000     0.3268     8.6329   151.8149     2.5216     0.0436  -110.4290    12.2426     9.6854    10.4161
  612.0000     0.3308     8.6331   152.2141     2.5285     0.0674  -110.4271    12.2432     9.6859    10.4163
  612.5000     0.3344     8.6531   151.8168     2.5255     0.0575  -110.6229    12.3565     9.6863    10.4169
  613.0000     0.3344     8.6533   151.4195     2.5195     0.0526  -110.8187    12.3571     9.8094    10.4174
  613.5000     0.3336     8.6534   153.4133     2.5155     0.0465  -110.8169    12.1900     9.7768    10.4179
  614.0000     0.3329     8.6536   155.0053     2.5235     0.0275  -110.6173    12.3029     9.7771    10.4185
  614.5000     0.3321     8.6338   154.2097     2.5354     0.0554  -111.2085    12.1909     9.6880    10.4188
  615.0000     0.3313     8.6539   153.4142     2.5264     0.0574  -111.2067    11.9694     9.5120    10.4194
  615.5000     0.3309     8.6341   152.6188     2.5474     0.0813  -110.6117    11.7519     9.5125    10.1393
  616.0000     0.3254     8.6542   152.2216     2.5613     0.0733  -111.4006    11.4329     9.4259    10.0480
  616.5000     0.3222     8.6543   152.6207     2.5424     0.0663  -111.5965    11.3288     9.3401     9.7779
  617.0000     0.3214     8.6544   153.8161     2.5543     0.0922  -111.7923    11.2256     9.1703     9.6020
  617.5000     0.3218     8.6546   154.2151     2.5632     0.0872  -111.5927    11.2262     9.0868     9.6024
  618.0000     0.3230     8.6747   152.6235     2.5473     0.1002  -111.5909    11.2267     8.8401     9.4297
  618.5000     0.3247     8.6549   150.6339     2.5682     0.1012  -111.5890    11.0227     8.7596     9.3447
  619.0000     0.3275     8.6551   150.6348     2.5672     0.0812  -111.1917    10.8224     8.6057     9.0938
  619.5000     0.3295     8.6751   154.2187     2.5343     0.0673  -110.7944    10.7239     8.4546     9.0116
  620.0000     0.3295     8.6752   156.6082     2.5283     0.0613  -110.5948    10.6262     8.3060     8.6899
  620.5000     0.3271     8.6754   158.9976     2.5034     0.0423  -110.5953    10.5295     8.1601     8.6115
  621.0000     0.3251     8.6556   157.0080     2.5183     0.0503  -110.7919    10.5300     8.0175     8.5339
  621.5000     0.3224     8.6757   156.6108     2.5293     0.0792  -110.7892    10.5304     8.0179     8.5344
  622.0000     0.3248     8.6758   158.6019     2.5093     0.0483  -110.7889    10.7263     8.0182     8.5346
  622.5000     0.3272     8.6561   158.6027     2.5352     0.0553  -110.8864    10.9258     8.0927     8.6130
  623.0000     0.3328     8.6761   156.6133     2.5402     0.0891  -111.1791    10.9263     8.0932     8.6136
  623.5000     0.3412     8.6962   153.4299     2.5322     0.0781  -111.1779    10.9268     8.1684     8.6927
  624.0000     0.3460     8.6963   153.8288     2.5132     0.0662  -111.2836    11.0283     8.3205     8.8527
  624.5000     0.3496     8.6765   156.2179     2.5003     0.0363  -111.3892    10.9803     8.3206     8.8528
  625.0000     0.3500     8.6767   155.8207     2.4883     0.0502  -111.4948    10.9807     8.3982     8.9344
  625.5000     0.3576     8.6967   154.6278     2.5262     0.0721  -111.6005    10.9813     8.3986     8.9349
  626.0000     0.3612     8.6969   154.6286     2.5241     0.0601  -111.7061    10.8815     8.3987     8.9350
  626.5000     0.3521     8.7169   154.6295     2.5540     0.0850  -111.8117    10.6328     8.3993     8.9357
  627.0000     0.3417     8.7171   156.6203     2.5450     0.0711  -111.9543    10.5355     8.3996     8.9359
  627.5000     0.3358     8.7172   159.8050     2.5490     0.0810  -112.1510    10.1441     8.1713     8.6958
  628.0000     0.3350     8.7174   163.7856     2.5430     0.0561  -112.1491     9.7673     8.0968     8.6174
  628.5000     0.3386     8.7374   163.7859     2.5330     0.0661  -112.1450     9.4044     7.8520     8.4623
  629.0000     0.3434     8.7177   163.7863     2.5340     0.0740  -111.9454     9.0133     7.6386     8.1604
  629.5000     0.3462     8.7178   164.4202     2.5061     0.0361  -111.7458     8.9312     7.3204     7.9410
  630.0000     0.3566     8.7179   165.0541     2.5011     0.0481  -111.5462     8.7689     7.0156     7.7982
  630.5000     0.3638     8.6981   165.6880     2.5280     0.0740  -111.5443     8.6891     6.7793     7.4518
  631.0000     0.3681     8.6784   166.5754     2.5240     0.0690  -111.5424     8.6099     6.7176     7.1858
  631.5000     0.3673     8.6785   165.7803     2.5170     0.0530  -111.3428     8.5316     6.7179     7.1210
  632.0000     0.3597     8.6787   165.7807     2.5329     0.0680  -111.1432     8.5319     6.5548     6.9930
  632.5000     0.3701     8.6788   164.9853     2.5349     0.0710  -111.3391     8.5323     6.5551     6.9932
  633.0000     0.3692     8.6789   164.0083     2.5080     0.0580  -111.1395     8.5327     6.5554     6.9935
  633.5000     0.3680     8.6791   163.0313     2.5020     0.0630  -110.7420     8.4550     6.5557     6.9938
  634.0000     0.3645     8.6593   162.0543     2.5219     0.0899  -111.3331     8.1210     6.4960     6.9309
  634.5000     0.3624     8.6596   161.0773     2.4900     0.0500  -111.5294     7.6868     6.3778     6.8445
  635.0000     0.3608     8.6597   160.2147     2.4740     0.0370  -111.5275     7.3427     6.2618     6.5977
  635.5000     0.3600     8.6599   160.2155     2.4810     0.0440  -111.7234     7.0787     5.7644     6.2440
  636.0000     0.3648     8.6600   161.4098     2.4610     0.0509  -111.5238     7.2336     5.5054     5.8850
  636.5000     0.3799     8.6602   162.6041     2.4730     0.0290  -111.5219     7.4361     5.3558     5.7268
  637.0000     0.3819     8.6603   164.1961     2.4760     0.0569  -111.5201     7.9533     5.4908     5.8696
  637.5000     0.3847     8.6406   164.1968     2.4740     0.0489  -111.5182     8.4582     5.6445     6.0320
  638.0000     0.3894     8.6407   163.4019     2.4630     0.0140  -111.7141     8.5367     6.0756     6.4873
  638.5000     0.3914     8.6409   161.4136     2.4510     0.0329  -111.5145     8.5368     6.2640     6.6861
  639.0000     0.3890     8.6211   161.4144     2.4799     0.0140  -111.5141     8.5853     6.3220     6.7473
  639.5000     0.3814     8.6212   160.6196     2.4968     0.0349  -111.3159     8.6342     6.3807     6.8093
  640.0000     0.3778     8.6213   159.0294     2.5138     0.0489  -111.3148     8.6832     6.4399     6.8717
  640.5000     0.3647     8.6214   159.0302     2.5267     0.0708  -111.0785     8.7326     6.4403     6.8722
  641.0000     0.3830     8.6216   162.2130     2.5217     0.0708  -110.8422     8.7822     6.4406     6.8724
  641.5000     0.3941     8.6217   165.7935     2.4848     0.0299  -110.6059     8.8322     6.5608     6.9992
  642.0000     0.3822     8.6618   169.3739     2.4858     0.0448  -110.3164     8.7786     6.6215     7.0632
  642.5000     0.3654     8.6222   168.5790     2.5187     0.0498  -110.1153     8.7789     6.7448     7.1933
