~VERSION INFORMATION
 VERS.                2.0:   CWLS LOG ASCII STANDARD - VERSION 2.0
 WRAP.                 NO:   ONE LINE PER DEPTH STEP
~WELL INFORMATION
#MNEM.UNIT      DATA TYPE    INFORMATION
#----------   ------------   ------------------------------
 STRT.F            0.0000:   START DEPTH
 STOP.F         3982.0000:   STOP DEPTH
 STEP.F            0.5000:   STEP LENGTH
 NULL.          -999.2500:   NO VALUE
 COMP.   LAWRENCE ALLISON:   COMPANY
 WELL. LAWRENCE NPR 3 "LX" #61-10:   WELL
 FLD .                NPR:   FIELD
 LOC .      S10 T38N R78W:   LOCATION
 CNTY.            NATRONA:   COUNTY
 STAT.            WYOMING:   STATE
 CTRY. UNITED STATES OF AMERICA:   COUNTRY
 SRVC.      DRESSER ATLAS:   SERVICE COMPANY
 DATE.        14-APR-1983:   LOGDATE
 API .     49025109180000:   API NUMBER
~CURVE INFORMATION
#MNEM.UNIT       API CODE    CURVE DESCRIPTION
#----------   ------------   ------------------------------
 DEPT.F                  :   
 CALD.IN     45 280 60 00:   CALIPER FROM DENSITY LOG
 RHOB.G/C3   45 350 01 00:   BULK DENSITY
 DRHO.G/C3   45 356 01 00:   DENSITY CORRECTION
 TEND.LBS    45 635 01 00:   TENSION FROM DENSITY LOG
 CNC .DEC    42 890 03 00:   NEUTRON PORISITY SANDSTONE
 GRR .GAPI   07 310 01 00:   GAMMA RAY FROM RESISTIVITY
 SPR .MV     07 010 01 00:   SPONTANEOUS POTENTIAL
 ILD .OHMM   07 120 46 00:   DEEP INDUCTION RESISTIVITY
 ILM .OHMM   07 120 44 00:   INDUCTION LOG MEDIUM RESISTIVITY
 SFL .OHMM   07 220 01 00:   SHALLOW FOCUSED LOG RESISTIVITY
 TENS.LBS    60 635 01 00:   TENSION FROM SONIC LOG
 DT  .US/F   60 520 00 00:   DELTA TIME
 TENR.LBS    07 635 01 00:   TENSION FROM RESISTIVITY
~PARAMETER INFORMATION
#MNEM.UNIT          VALUE    DESCRIPTION
#----------   ------------   ------------------------------
 EKB .F         5164.0000:   Kelly bushing
 EGL .F         5154.0000:   Ground level
 EDF .F            0.0000:   Drilling floor
 TD  .F         3985.0000:   Total depth
 DATE.        14-APR-1983:   Date logged
 CLNT.            A2DTECH:   Client Code
 SL  . 138' FNL & 1331' FEL:   Surface Location
 PD  .                 GL:   Permanent Datum
 EPD .F              5154:   Elevation Permanent Datum
 LMF .                 KB:   Log Measured From
 DMF .                 KB:   Drilling Measured From
 DD  .F              3985:   Depth driller
 DL  .F              3948:   Depth logger
 BLI .F              3945:   Bottom log interval
 CS1 .IN            8.625:   Casing size
 CBD1.      8.625" @ 442':   Casing driller 1
 CBL1.F               453:   Casing logger 1
 BS1 .IN            7.875:   Bit size
 DFT .                KCI:   Type fluid in hole
 DFD .                8.9:   Density
 DFV .                 40:   Viscosity
 DFPH.                8.5:   pH
 DFL .                 10:   Fluid loss
 MSS .           FLOWLINE:   Source of sample
 RMS .OHMM           0.38:   Rm
 MST .F                68:   Rm Meas. temp.
 RMF .OHMM           0.30:   Rmf
 MFST.F                68:   Rmf Meas. temp.
 RMC .OHMM           0.49:   Rmc
 MCST.F                68:   Rmc Meas. temp.
 MFSS.               MEAS:   Source Rmf.
 RMB .OHMM           0.22:   Rm. at BHT
 BHT .F               122:   BHT.
 TCS .HRS               4:   Time Circ. stopped
 MRT .F               122:   Maximum recorded temp.
 LUN .               6764:   Logging unit number
 LUL .              WLSTN:   Logging unit location
 ENGI.            QUICKEL:   Recorded By
 WITN.           JENNINGS:   Witnessed by
 ORIG.           5" PRINT:   Origin of data
 UWI .     49025109180000:   Unique Well ID
 DICO. A2D TECHNOLOGIES, INC.:   Digitizing Company
 DAPD.                 10:   Feet Above Permanent Datum
 BSD1.               3985:   Depth drilled with bit1
 MCSS.               CALC:   Source Rmc.
~OTHER INFORMATION
~A    DEPT    CALD       RHOB       DRHO       TEND        CNC         GRR       SPR        ILD        ILM        SFL       TENS         DT       TENR   
# ...
 2288.0000    14.1520     2.0050     0.1740   -99.4140     0.3230   101.3960   -22.6820     4.1530     2.7880     3.5510  -999.2500  -999.2500   -59.0180
 2288.5000    13.7340     2.0080     0.2410   -52.8240     0.3380    93.8080   -21.2240     4.3170     2.8130     2.3660  -999.2500  -999.2500   -59.2220
 2289.0000    13.7340     2.0010     0.2560   -25.8960     0.3710    87.7820   -20.1600     4.4780     3.1190     2.1800  -999.2500  -999.2500   -59.4270
 2289.5000    14.2780     2.0000     0.2400   -25.8960     0.4010    85.6170   -19.7030     4.4780     3.3760     2.2200  -999.2500  -999.2500   -59.6310
 2290.0000    14.9260     2.0000     0.2090   -35.8570     0.4060    89.1180   -19.5790     4.2010     3.8350     2.7620  -999.2500  -999.2500   -59.8360
 2290.5000    15.0850     2.0000     0.1650   -94.7710     0.3630    92.6980   -19.7440     3.4690     3.8500     3.3450  -999.2500  -999.2500   -60.0400
 2291.0000    14.5410     2.0000     0.1210  -152.5230     0.3410    93.3760   -20.3750     3.4690     3.8700     3.9060  -999.2500  -999.2500   -60.2440
 2291.5000    13.9700     2.0000     0.1290  -145.3190     0.3710    93.8690   -21.3210     3.7450     3.7600     3.8700  -999.2500  -999.2500   -60.4490
 2292.0000    13.8240     1.9990     0.1810   -95.8170     0.4160    92.3920   -22.1700     4.2010     3.7320     3.4070  -999.2500  -999.2500   -60.6530
 2292.5000    14.0380     1.9990     0.2370   -65.7370     0.4650    89.9080   -22.6390     4.7730     4.4370     3.3760  -999.2500  -999.2500   -60.8580
 2293.0000    13.9500     1.9990     0.2060   -65.7370     0.4560    90.2500   -23.2230     5.0410     4.6860     3.4070  -999.2500  -999.2500   -61.0620
 2293.5000    13.9160     1.9990     0.1580   -80.1290     0.4010    95.1880   -24.3580     4.7730     4.5190     3.9060  -999.2500  -999.2500   -61.2660
 2294.0000    13.9060     1.9990     0.1400   -93.8960     0.3350   100.4280   -25.6250     4.5080     4.0380     4.4780  -999.2500  -999.2500   -61.4710
 2294.5000    14.7470     1.9990     0.1680  -104.5030     0.3000   100.7530   -26.5660     4.1630     3.5010     4.1040  -999.2500  -999.2500   -61.6750
 2295.0000    14.6250     1.9990     0.2090  -115.5380     0.3110    98.6840   -26.9020     4.1630     3.5010     3.5330  -999.2500  -999.2500   -61.8800
 2295.5000    14.2810     2.0000     0.2310  -119.2160     0.3320    97.1330   -27.1700     4.3450     4.3860     3.1380  -999.2500  -999.2500   -62.0840
 2296.0000    13.9370     2.0010     0.2320  -125.8170     0.3290    95.3700   -28.2700     4.5300     5.1340     3.5650  -999.2500  -999.2500   -62.2880
 2296.5000    12.9110     2.0020     0.2280  -132.4170     0.3310    95.3190   -29.5280     4.5930     5.1430     4.6320  -999.2500  -999.2500   -62.4930
 2297.0000    11.9240     2.0080     0.2240  -110.5440     0.3340    98.6260   -30.2080     4.5720     5.1670     5.4720  -999.2500  -999.2500   -62.6970
 2297.5000    10.9480     2.1110     0.2370   -64.3430     0.3140   103.7400   -30.9110     4.5600     5.1360     5.2760  -999.2500  -999.2500   -62.9020
 2298.0000    10.2240     2.1990     0.2750   -18.1410     0.2850   108.6610   -31.7370     4.8160     5.0340     5.0900  -999.2500  -999.2500   -63.1060
 2298.5000    10.2530     2.2630     0.3140    13.9440     0.2750   111.3820   -32.3130     5.1920     4.9310     4.9110  -999.2500  -999.2500   -63.3100
 2299.0000    10.5250     2.2950     0.3470    13.9440     0.2810   112.1040   -32.7970     5.5220     4.8160     4.7460  -999.2500  -999.2500   -63.5150
 2299.5000    10.8300     2.3150     0.3450     1.1530     0.2880   109.6440   -33.1090     5.8100     4.7730     4.5950  -999.2500  -999.2500   -63.7190
 2300.0000    11.1390     2.3210     0.3210   -16.8560     0.2820   105.2600   -33.1080     6.1040     4.7730     4.5190  -999.2500  -999.2500   -63.9240
 2300.5000    11.4570     2.2930     0.3040   -34.8650     0.2700   104.1000   -33.1210     5.9940     4.9640     4.7450  -999.2500  -999.2500   -64.1280
 2301.0000    11.4680     2.2540     0.3100   -52.8740     0.2570   106.0050   -33.0960     5.8860     5.1380     5.0080  -999.2500  -999.2500   -64.3320
 2301.5000    11.4260     2.2180     0.3330   -70.8830     0.2450   107.8510   -32.6970     5.6370     5.3240     5.2280  -999.2500  -999.2500   -64.5370
 2302.0000    11.2240     2.2090     0.3510  -104.3600     0.2410   108.1330   -32.1800     5.4140     5.1520     4.9890  -999.2500  -999.2500   -64.7410
 2302.5000    10.9690     2.2300     0.3590  -145.4180     0.2430   107.3360   -31.7460     5.1810     4.9950     4.6640  -999.2500  -999.2500   -64.9460
 2303.0000    10.7110     2.2560     0.3640  -115.2230     0.2490   107.3760   -31.0300     5.1560     4.6500     4.4070  -999.2500  -999.2500   -65.1500
 2303.5000    10.6110     2.2670     0.3650   -83.4560     0.2530   106.7800   -30.1270     5.1340     4.3500     4.2010  -999.2500  -999.2500   -65.3540
 2304.0000    10.8060     2.2700     0.3630   -51.6880     0.2530   104.9470   -29.3300     5.3420     4.1630     3.9640  -999.2500  -999.2500   -65.5590
 2304.5000    11.1350     2.2530     0.3620   -25.8960     0.2540   105.4380   -28.3230     5.5220     5.1240     3.7660  -999.2500  -999.2500   -65.7630
 2305.0000    11.1110     2.2300     0.3540   -25.8960     0.2620   107.4190   -27.4500     5.3730     6.1040     3.9060  -999.2500  -999.2500   -65.9670
 2305.5000    11.0800     2.2020     0.3450   -36.1060     0.2780   107.0860   -27.3890     5.2760     5.6130     4.5020  -999.2500  -999.2500   -66.1720
 2306.0000    11.0490     2.1750     0.3360   -55.7770     0.2970   106.4890   -27.6310     4.8480     5.1340     5.4300  -999.2500  -999.2500   -66.3760
 2306.5000    10.9690     2.1760     0.3270  -107.0720     0.3080   108.9440   -27.6760     4.4370     4.3570     5.7270  -999.2500  -999.2500   -66.5810
 2307.0000    10.7850     2.1980     0.3210  -115.5380     0.2940   112.0150   -27.5610     4.3970     3.8350     4.9500  -999.2500  -999.2500   -53.4090
 2307.5000    10.8380     2.2110     0.3390   -83.1670     0.2850   113.0400   -27.1820     4.4960     3.8580     3.9690  -999.2500  -999.2500   -33.3500
 2308.0000    10.8820     2.1850     0.3530   -55.7770     0.2860   111.8240   -26.7190     4.5890     3.9060     3.1380  -999.2500  -999.2500    -7.1850
 2308.5000    10.8910     2.0020     0.3350   -55.7770     0.2910   109.4510   -26.1610     4.6810     4.4890     3.2390  -999.2500  -999.2500   -46.8290
 2309.0000    10.7510     2.0030     0.2890   -77.6890     0.3040   108.9100   -25.6930     4.7650     4.9950     3.4380  -999.2500  -999.2500   -41.5620
 2309.5000    10.4790     2.0030     0.2610  -102.8390     0.3160   110.2320   -26.4730     4.8390     5.6750     4.3170  -999.2500  -999.2500   -36.7860
 2310.0000    10.2080     2.0120     0.2380  -111.1800     0.3210   110.5060   -28.4020     4.9140     5.9940     4.9570  -999.2500  -999.2500   -32.0100
 2310.5000     9.8920     2.1210     0.2150  -115.5380     0.3220   108.6890   -30.0080     4.9950     5.8250     5.7790  -999.2500  -999.2500   -27.0070
 2311.0000     9.5690     2.2770     0.2020   -67.4800     0.3100   106.3210   -31.0230     5.2430     5.5220     6.2160  -999.2500  -999.2500   -24.0210
 2311.5000     9.4890     2.4070     0.2900   -14.0380     0.2870   105.6700   -31.8550     5.6710     5.5790     6.0000  -999.2500  -999.2500   -20.8870
 2312.0000     9.7550     2.4430     0.3800    39.4050     0.2640   105.1660   -32.5350     6.1600     5.6220     5.6230  -999.2500  -999.2500   -17.0960
 2312.5000    10.1110     2.3860     0.4150    63.7450     0.2570   103.5240   -33.0510     6.4470     5.6650     5.4250  -999.2500  -999.2500   -24.0920
 2313.0000    10.4500     2.3310     0.4030    44.8210     0.2570   104.0250   -33.3590     6.4470     5.7080     5.1570  -999.2500  -999.2500   -32.9420
 2313.5000    10.6430     2.2950     0.3710   -11.7650     0.2560   106.8040   -33.5760     6.3230     5.7810     5.0120  -999.2500  -999.2500   -41.7920
