~VERSION INFORMATION
 VERS.                2.0:   CWLS LOG ASCII STANDARD - VERSION 2.0
 WRAP.                 NO:   ONE LINE PER DEPTH STEP
~WELL INFORMATION
#MNEM.UNIT      DATA TYPE    INFORMATION
#----------   ------------   ------------------------------
 STRT.F           46.0000:   START DEPTH
 STOP.F         2736.5000:   STOP DEPTH
 STEP.F            0.5000:   STEP LENGTH
 NULL.          -999.2500:   NO VALUE
 COMP.          INTEX OIL:   COMPANY
 WELL. INTEX NPR 3 "AX" #72-20:   WELL
 FLD .             TEAPOT:   FIELD
 LOC .      S20 T39N R78W:   LOCATION
 CNTY.            NATRONA:   COUNTY
 STAT.            WYOMING:   STATE
 CTRY. UNITED STATES OF AMERICA:   COUNTRY
 SRVC.       SCHLUMBERGER:   SERVICE COMPANY
 DATE.        11-MAY-1966:   LOGDATE
 API .     49025095110000:   API NUMBER
~CURVE INFORMATION
#MNEM.UNIT       API CODE    CURVE DESCRIPTION
#----------   ------------   ------------------------------
 DEPT.F                  :   
 SPR .MV     05 010 01 00:   SPONTANEOUS POTENTIAL FROM RES.
 ILD .OHMM   05 120 46 00:   INDUCTION LOG DEEP
 ASN .OHMM   05 041 16 00:   AMPLIFIED SHORT NORMAL 16"
 CALD.IN     45 280 60 00:   CALIPER FROM DENSITY LOG
 CORR.G/C3   45 356 01 00:   DENSITY CORRECTION
 RHOB.G/C3   45 350 01 00:   BULK DENSITY
 GRD .GAPI   45 310 01 00:   GAMMA RAY FROM DENSITY LOG
~PARAMETER INFORMATION
#MNEM.UNIT          VALUE    DESCRIPTION
#----------   ------------   ------------------------------
 EKB .F         5042.3000:   Kelly bushing
 EGL .F         5032.0000:   Ground level
 EDF .F            0.0000:   Drilling floor
 EPD .F         5032.0000:   Permanent datum
 TD  .F         2740.0000:   Total depth
 DATE.        11-MAY-1966:   Date logged
 CLNT.            A2DTECH:   Client Code
 DAPD.F              10.3:   Feet Above Permanent Datum
 DD  .F              2740:   Depth driller
 DL  .F              2737:   Depth logger
 BLI .F              2736:   Bottom log interval
 TLI .F                88:   Top log interval
 CS1 .IN            10.75:   Casing size
 CBD1.       10.75" @ 24':   Casing driller 1
 BS1 .IN            7.875:   Bit size
 BSD1.F              2740:   Depth drilled with bit1
 DFT .           OIL EMUL:   Type fluid in hole
 DFD .                9.8:   Density
 DFV .                 58:   Viscosity
 MSS .         CIRCULATED:   Source of sample
 RMS .OHMM           3.04:   Rm
 MST .F                54:   Rm Meas. temp.
 RMF .OHMM           1.95:   Rmf
 MFST.F                55:   Rmf Meas. temp.
 MFSS.                 FR:   Source Rmf.
 RMB .OHMM           1.64:   Rm. at BHT
 BHT .F               100:   BHT.
 TCS .HRS               4:   Time Circ. stopped
 MRT .F               100:   Maximum recorded temp.
 LUN .               4507:   Logging unit number
 LUL .               CSPR:   Logging unit location
 ENGI.               HAUG:   Recorded By
 WITN.             TUTTLE:   Witnessed by
 ORIG.        2" 5" PRINT:   Origin of data
 UWI .     49025095110000:   Unique Well ID
 DICO. A2D TECHNOLOGIES, INC.:   Digitizing Company
~OTHER INFORMATION
~A   DEPT      SPR        ILD        ASN       CALD       CORR       RHOB         GRD  
# ...
   91.5000   -75.5900    15.0970    16.5930     9.7190     0.0080     2.2980    81.0730
   92.0000   -75.4360    14.9900    16.2900     9.7220     0.0200     2.3040    80.0850
   92.5000   -75.4750    14.8320    15.9830     9.7250     0.0290     2.3100    81.9290
   93.0000   -75.5910    14.6790    15.6640     9.7270     0.0250     2.3170    85.9380
   93.5000   -75.7000    14.5980    15.3420     9.7300     0.0300     2.3220    88.6660
   94.0000   -75.8100    14.5850    15.1610     9.7330     0.0330     2.3260    89.6750
   94.5000   -75.9220    14.5650    15.1220     9.7350     0.0220     2.3280    88.4100
   95.0000   -76.0280    14.5460    15.0750     9.7380     0.0160     2.3260    86.6870
   95.5000   -76.1450    14.5280    15.0230     9.7400     0.0150     2.3240    84.5180
   96.0000   -76.1600    14.5100    14.9760     9.7430     0.0190     2.3210    84.4780
   96.5000   -76.1110    14.4920    14.9270     9.7460     0.0220     2.3230    85.5250
   97.0000   -76.0720    14.4740    14.8780     9.7480     0.0250     2.3320    86.3800
   97.5000   -76.0310    14.4560    14.8290     9.7510     0.0290     2.3380    83.8570
   98.0000   -75.9900    14.4380    14.7800     9.7530     0.0370     2.3420    82.5300
   98.5000   -75.9490    14.4220    14.7310     9.7560     0.0290     2.3350    85.1890
   99.0000   -75.9080    14.3860    14.6820     9.7590     0.0220     2.3480    86.6560
   99.5000   -75.8680    14.3310    14.6330     9.7520     0.0290     2.3610    85.3180
  100.0000   -75.8270    14.2790    14.5840     9.7330     0.0360     2.3640    84.3100
  100.5000   -75.7860    14.2250    14.5350     9.7100     0.0420     2.3580    85.9030
  101.0000   -75.7450    14.1720    14.4880     9.6970     0.0370     2.3540    86.9280
  101.5000   -75.7030    14.1190    14.4340     9.6730     0.0260     2.3410    89.0150
  102.0000   -75.6630    14.0660    14.4280     9.6100     0.0240     2.3480    86.1530
  102.5000   -75.6220    14.0130    14.4710     9.2430     0.0340     2.3630    84.1790
  103.0000   -75.5810    13.9590    14.5090     8.8900     0.0300     2.3620    88.0650
  103.5000   -75.5400    13.9080    14.5480     8.6190     0.0270     2.3610    91.9100
  104.0000   -75.4990    13.8490    14.5870     8.5520     0.0400     2.3710    94.3880
  104.5000   -75.4590    13.8420    14.6260     9.0680     0.0550     2.3820    95.5120
  105.0000   -75.4160    13.8970    14.6650     9.4220     0.0630     2.3950    96.4970
  105.5000   -75.3890    13.9430    14.7040     9.4460     0.0620     2.4020    96.0880
  106.0000   -75.4410    13.9930    14.7430     9.4470     0.0490     2.4010    95.7960
  106.5000   -75.5570    14.0410    14.7820     9.4430     0.0370     2.3700    95.4400
  107.0000   -75.6670    14.0900    14.8200     9.4460     0.0330     2.3750    96.2590
  107.5000   -75.7790    14.1380    14.8600     9.4450     0.0430     2.3790    97.4460
  108.0000   -75.8910    14.1890    14.8990     9.4450     0.0560     2.3840    96.2300
  108.5000   -76.0000    14.2350    14.9360     9.4450     0.0720     2.3850    92.8580
  109.0000   -76.1220    14.2770    14.9800     9.4450     0.0630     2.3550    89.7340
  109.5000   -76.1730    14.3200    14.9840     9.4450     0.0380     2.3360    87.8210
  110.0000   -76.1320    14.3640    14.9360     9.4450     0.0370     2.3430    86.3120
  110.5000   -76.1030    14.4060    14.8930     9.4450     0.0500     2.3510    86.3980
  111.0000   -76.0690    14.4500    14.8490     9.4450     0.0640     2.3580    86.9450
  111.5000   -76.0370    14.4930    14.8040     9.4450     0.0690     2.3650    87.5900
  112.0000   -76.0050    14.5340    14.7600     9.4450     0.0560     2.3710    86.0470
  112.5000   -75.9720    14.5870    14.7160     9.4450     0.0450     2.3690    87.2310
  113.0000   -75.9400    14.5600    14.6720     9.4450     0.0430     2.3590    88.1400
  113.5000   -75.9070    14.4150    14.6270     9.4450     0.0490     2.3450    89.1810
  114.0000   -75.8750    14.2810    14.5830     9.4450     0.0350     2.3460    90.0250
  114.5000   -75.8440    14.1430    14.5390     9.4440     0.0520     2.3480    88.3590
  115.0000   -75.8030    14.0050    14.4940     9.4470     0.0480     2.3370    84.8620
  115.5000   -75.8310    13.8680    14.4500     9.4300     0.0330     2.3080    82.5560
  116.0000   -75.9660    13.7300    14.4060     9.4030     0.0220     2.3200    83.1570
  116.5000   -76.0930    13.5930    14.3610     9.3820     0.0430     2.3570    85.2320
  117.0000   -76.2250    13.4550    14.3170     9.3220     0.0480     2.3510    89.2790
  117.5000   -76.3520    13.3170    14.2720     9.2240     0.0370     2.3400    88.7940
  118.0000   -76.4960    13.1800    14.2280     9.1200     0.0290     2.3340    88.4440
  118.5000   -76.5650    13.0420    14.1840     9.1170     0.0440     2.3430    90.3900
  119.0000   -76.4970    12.9050    14.1400     9.1740     0.0450     2.3450    90.7060
  119.5000   -76.4470    12.7670    14.0970     9.1960     0.0350     2.3390    88.9770
  120.0000   -76.3900    12.6300    14.0480     9.1460     0.0330     2.3470    88.5640
  120.5000   -76.3350    12.4960    14.0180     9.1000     0.0370     2.3490    89.5350
  121.0000   -76.2830    12.3400    14.0210     9.0490     0.0390     2.3380    90.3290
  121.5000   -76.2170    12.2860    14.0210     8.9990     0.0310     2.3300    90.8490
  122.0000   -76.2610    12.4290    14.0220     8.9570     0.0250     2.3350    91.2210
  122.5000   -76.5240    12.5510    14.0160     8.9280     0.0320     2.3270    91.5370
  123.0000   -76.7660    12.6840    14.0900     8.8260     0.0390     2.3080    91.8160
  123.5000   -77.2180    12.8120    14.3420     8.6760     0.0470     2.2920    92.4210
  124.0000   -78.1300    12.9420    14.5880     8.7640     0.0380     2.2770    91.4220
  124.5000   -79.0490    13.0720    14.8410     8.9180     0.0150     2.3060    89.8940
  125.0000   -79.7480    13.2010    15.0890     8.9340     0.0040     2.3340    80.9700
  125.5000   -79.8750    13.3350    15.3400     8.9340     0.0070     2.3470    71.0680
  126.0000   -80.0240    13.4000    15.5970     8.9320     0.0250     2.2900    63.5720
  126.5000   -80.0830    13.2890    15.7550     8.9340     0.0440     2.2540    62.3390
  127.0000   -79.9810    13.1830    15.6580     8.9330     0.0590     2.2490    63.8520
  127.5000   -79.8780    13.0680    15.5670     8.9330     0.0660     2.2710    65.7610
  128.0000   -79.7690    12.9590    15.4660     8.9330     0.0570     2.2830    67.8290
  128.5000   -79.6650    12.8470    15.3660     8.9330     0.0330     2.2740    69.5660
  129.0000   -79.5580    12.7350    15.2490     8.9330     0.0490     2.2880    72.5970
  129.5000   -79.4510    12.6550    15.1320     8.9330     0.0620     2.3060    74.6700
  130.0000   -79.3450    12.7090    15.0170     8.9330     0.0490     2.3110    76.1380
  130.5000   -79.2360    12.7540    14.8970     8.9330     0.0380     2.3100    77.2760
  131.0000   -79.1330    12.8050    14.7990     8.9320     0.0380     2.3090    80.7880
  131.5000   -79.0230    12.8410    14.7100     8.9330     0.0590     2.3240    83.7240
  132.0000   -78.9200    12.8300    14.6340     8.8890     0.0750     2.3400    86.8630
  132.5000   -78.7030    12.8200    14.5550     8.8280     0.0810     2.3560    86.6060
  133.0000   -78.5130    12.8080    14.4770     8.7690     0.0760     2.3590    85.1660
  133.5000   -78.3110    12.7980    14.3990     8.7080     0.0660     2.3330    82.9000
  134.0000   -78.1570    12.7870    14.3210     8.6490     0.0350     2.3120    81.8300
  134.5000   -78.1520    12.7760    14.2440     8.5900     0.0280     2.3020    83.9610
  135.0000   -78.1490    12.7650    14.1650     8.5240     0.0380     2.3050    89.9220
  135.5000   -78.1520    12.7540    14.0870     8.5310     0.0480     2.2990    93.2810
  136.0000   -78.1510    12.7440    14.0250     8.6070     0.0510     2.2920    91.1010
  136.5000   -78.1500    12.7330    14.0440     8.6760     0.0390     2.2850    87.5080
