~VERSION INFORMATION
 VERS.                2.0:   CWLS LOG ASCII STANDARD - VERSION 2.0
 WRAP.                 NO:   ONE LINE PER DEPTH STEP
~WELL INFORMATION
#MNEM.UNIT      DATA TYPE    INFORMATION
#----------   ------------   ------------------------------
 STRT.F           10.5000:   START DEPTH
 STOP.F         5650.0000:   STOP DEPTH
 STEP.F            0.5000:   STEP LENGTH
 NULL.          -999.2500:   NO VALUE
 COMP.    FENIX & SCISSON:   COMPANY
 WELL. FENIX NPR 3 "LX" #56-3:   WELL
 FLD .              N P R:   FIELD
 LOC .       S3 T38N R78W:   LOCATION
 CNTY.            NATRONA:   COUNTY
 STAT.            WYOMING:   STATE
 CTRY. UNITED STATES OF AMERICA:   COUNTRY
 SRVC.              WELEX:   SERVICE COMPANY
 DATE.        13-JUN-1978:   LOGDATE
 API .     49025109250000:   API NUMBER
~CURVE INFORMATION
#MNEM.UNIT       API CODE    CURVE DESCRIPTION
#----------   ------------   ------------------------------
 DEPT.F                  :   
 NPHI.DEC    42 890 03 00:   NEUTRON POROSITY SANDSTONE
 SPR .MV     07 010 01 00:   SPONTANEOUS POTENTIAL
 ILD .OHMM   07 120 46 00:   DEEP INDUCTION RESISTIVITY
 ILM .OHMM   07 120 44 00:   INDUCTION LOG MEDIUM RESISTIVITY
 SFL .OHMM   07 220 01 00:   SHALLOW FOCUSED LOG RESISTIVITY
 GRD .GAPI   45 310 01 00:   GAMMA RAY FROM DENSITY LOG
 CALD.IN     45 280 60 00:   CALIPER FROM DENSITY LOG
 RHOB.G/C3   45 350 01 00:   BULK DENSITY
 CORR.G/C3   45 356 01 00:   DENSITY CORRECTION
~PARAMETER INFORMATION
#MNEM.UNIT          VALUE    DESCRIPTION
#----------   ------------   ------------------------------
 EKB .F         5181.0000:   Kelly bushing
 EGL .F         5171.0000:   Ground level
 EDF .F         5180.0000:   Drilling floor
 TD  .F         5644.0000:   Total depth
 DATE.        13-JUN-1978:   Date logged
 CLNT.            A2DTECH:   Client Code
 SL  . 1980' FSL & 2080' FEL:   Surface Location
 PD  .                 GL:   Permanent Datum
 EPD .F              5171:   Elevation Permanent Datum
 LMF .                 KB:   Log Measured From
 DMF .                 KB:   Drilling Measured From
 DD  .F              5640:   Depth driller
 DL  .F              5644:   Depth logger
 BLI .F              5638:   Bottom log interval
 TLI .F              3093:   Top log interval
 CS1 .IN            8.625:   Casing size
 CBD1.      8.625" @ 545':   Casing driller 1
 BS1 .IN            7.875:   Bit size
 DFT .                FGM:   Type fluid in hole
 DFD .                9.2:   Density
 DFV .                 52:   Viscosity
 DFPH.                 11:   pH
 DFL .                5.2:   Fluid loss
 MSS .           MUD/TANK:   Source of sample
 RMS .OHMM           0.59:   Rm
 MST .F                80:   Rm Meas. temp.
 RMF .OHMM           0.48:   Rmf
 MFST.F                80:   Rmf Meas. temp.
 MFSS.               MEAS:   Source Rmf.
 RMB .OHMM           0.29:   Rm. at BHT
 BHT .F               162:   BHT.
 TCS .HRS            1200:   Time Circ. stopped
 MRT .F               162:   Maximum recorded temp.
 LUN .               7675:   Logging unit number
 LUL .               CODY:   Logging unit location
 ENGI.               BOND:   Recorded By
 ORIG.           5" PRINT:   Origin of data
 UWI .     49025109250000:   Unique Well ID
 DICO. A2D TECHNOLOGIES, INC.:   Digitizing Company
 DAPD.F                10:   Feet Above Permanent Datum
 BSD1.F              5640:   Depth drilled with bit1
 TLAB.HRS            1630:   Time logger at bottom
~OTHER INFORMATION
~A  DEPTH     NPHI        SPR        ILD        ILM        SFL        GRD       CALD       RHOB       CORR
# ...
  521.5000     0.4780  -999.2500  -999.2500  -999.2500  -999.2500    86.3800  -999.2500     2.4240    -0.1760
  522.0000     0.4830  -999.2500  -999.2500  -999.2500  -999.2500    86.3280  -999.2500     2.4210    -0.1790
  522.5000     0.4880  -999.2500  -999.2500  -999.2500  -999.2500    86.1930  -999.2500     2.3990    -0.1810
  523.0000     0.4880  -999.2500  -999.2500  -999.2500  -999.2500    84.1170  -999.2500     2.3780    -0.1840
  523.5000     0.4880  -999.2500  -999.2500  -999.2500  -999.2500    82.3990  -999.2500     2.3590    -0.1870
  524.0000     0.4850  -999.2500  -999.2500  -999.2500  -999.2500    80.4920  -999.2500     2.3240    -0.1900
  524.5000     0.4810  -999.2500  -999.2500  -999.2500  -999.2500    79.8300  -999.2500     2.2800    -0.1930
  525.0000     0.4750  -999.2500  -999.2500  -999.2500  -999.2500    79.7980  -999.2500     2.2380    -0.1950
  525.5000     0.4610  -999.2500  -999.2500  -999.2500  -999.2500    79.7190  -999.2500     2.1970    -0.1980
  526.0000     0.4480  -999.2500  -999.2500  -999.2500  -999.2500    79.6370  -999.2500     2.1560    -0.1990
  526.5000     0.4340  -999.2500  -999.2500  -999.2500  -999.2500    79.5680  -999.2500     2.1210    -0.1960
  527.0000     0.4210  -999.2500  -999.2500  -999.2500  -999.2500    79.4920  -999.2500     2.1090    -0.1930
  527.5000     0.4190  -999.2500  -999.2500  -999.2500  -999.2500    79.4180  -999.2500     2.0960    -0.1900
  528.0000     0.4180  -999.2500  -999.2500  -999.2500  -999.2500    79.3450  -999.2500     2.0840    -0.1880
  528.5000     0.4180  -999.2500  -999.2500  -999.2500  -999.2500    79.2700  -999.2500     2.0790    -0.1850
  529.0000     0.4210  -999.2500  -999.2500  -999.2500  -999.2500    79.1950  -999.2500     2.0910    -0.1820
  529.5000     0.4240  -999.2500  -999.2500  -999.2500  -999.2500    79.1200  -999.2500     2.1040    -0.1790
  530.0000     0.4250    -3.9080  -999.2500  -999.2500     5.2020    79.0450  -999.2500     2.1300    -0.1800
  530.5000     0.4210    -3.9080  -999.2500  -999.2500     5.2020    78.9700  -999.2500     2.1570    -0.1840
  531.0000     0.4170    -3.9080  -999.2500  -999.2500     5.7820    78.8960  -999.2500     2.1870    -0.1890
  531.5000     0.4130    -3.9080  -999.2500  -999.2500     6.4440    78.8180  -999.2500     2.2190    -0.1840
  532.0000     0.4090    -3.9080  -999.2500  -999.2500     6.4270    78.7430  -999.2500     2.2500    -0.1770
  532.5000     0.4080    -3.9080  -999.2500  -999.2500     6.2760    78.6680  -999.2500     2.2810    -0.1700
  533.0000     0.4100    -3.9080  -999.2500  -999.2500     5.8020    78.5820  -999.2500     2.3080    -0.1650
  533.5000     0.4150    -3.9070  -999.2500  -999.2500     5.3480    78.5200  -999.2500     2.3230    -0.1610
  534.0000     0.4150    -3.9100  -999.2500  -999.2500     5.4010    78.4320  -999.2500     2.3400    -0.1520
  534.5000     0.4140    -3.9040  -999.2500  -999.2500     5.4650    78.3230  -999.2500     2.3560    -0.1400
  535.0000     0.4170    -3.8550  -999.2500  -999.2500     5.4970    78.9280  -999.2500     2.3700    -0.1280
  535.5000     0.4220    -4.9960  -999.2500  -999.2500     5.2500    81.5990  -999.2500     2.4130    -0.1190
  536.0000     0.4270    -6.5230  -999.2500  -999.2500     3.9630    84.1260  -999.2500     2.4760    -0.1100
  536.5000     0.4320    -9.7280  -999.2500  -999.2500     2.5660    87.6040  -999.2500     2.5390    -0.0800
  537.0000     0.4330   -12.9330  -999.2500  -999.2500     1.1420    92.1310     8.3720     2.6000     0.0270
  537.5000     0.4310   -16.1310  -999.2500  -999.2500     1.1950    96.3260     8.6220     2.6690     0.1500
  538.0000     0.4280   -19.3280  -999.2500  -999.2500     1.4230   100.5010     9.1040     2.5680     0.0990
  538.5000     0.4250   -22.5270  -999.2500  -999.2500    47.6730    99.5490     9.6550     2.4910     0.0670
  539.0000     0.4210   -25.7150  -999.2500  -999.2500    23.4810    98.4030    10.1260     2.5010     0.0650
  539.5000     0.4140   -28.2230  -999.2500  -999.2500     9.8320    97.1040    10.1500     2.5130     0.0560
  540.0000     0.4050   -29.4890  -999.2500     3.5670     8.6660    96.0920    10.1610     2.5140     0.0460
  540.5000     0.3960   -30.7620  -999.2500     4.4090     8.3900    96.8620    10.2520     2.5100     0.0370
  541.0000     0.3870   -31.9520    12.7340     5.2510     9.3440    97.5680    10.3290     2.5160     0.0290
  541.5000     0.3790   -32.2180    24.3650     5.9060    10.2710    98.3750    10.4760     2.5150     0.0200
  542.0000     0.3700   -32.4510    28.7550     6.7240    10.2710    99.1510    10.6820     2.5110     0.0240
  542.5000     0.3640   -32.6870    21.0500     7.5650    10.2710    99.8850    11.5070     2.5250     0.0250
  543.0000     0.3690   -32.9240     8.2380     8.3900    10.2710   100.7610    12.0170     2.5390     0.0520
  543.5000     0.3740   -33.1610     8.3140     8.5160    10.1000   100.5920    12.0390     2.5260     0.0440
  544.0000     0.3790   -33.3980     8.1580     8.6250     9.9320   100.1070    12.0050     2.5110     0.0340
  544.5000     0.3830   -33.6350     7.8440     6.6830     9.7640    99.6090    11.9800     2.5080     0.0240
  545.0000     0.3860   -33.8720     7.3770     6.7680     9.5960    99.1370    11.9710     2.5060     0.0230
  545.5000     0.3860   -34.1090     7.5240     6.8810     9.4280    98.6320    11.9550     2.5060     0.0180
  546.0000     0.3840   -34.3460     7.8110     6.9950     9.2600    98.1750    11.9890     2.5090     0.0180
  546.5000     0.3760   -34.5830     8.0980     7.0460     9.0920    97.6380    11.9980     2.5240     0.0290
  547.0000     0.3690   -34.8200     8.3900     6.9940     8.9250    97.8280    12.0630     2.5390     0.0550
  547.5000     0.3680   -35.0570     8.3430     6.9400     8.7570    98.1220    12.1410     2.5410     0.0510
  548.0000     0.3730   -35.2940     8.2940     6.8860     8.6250    98.4250    12.2270     2.5360     0.0530
  548.5000     0.3800   -35.5300     8.2460     6.8320     8.7850    98.9990    12.2980     2.5300     0.0500
  549.0000     0.3740   -35.7650     8.1970     6.7920     8.9420    99.5380    12.3810     2.5260     0.0440
  549.5000     0.3650   -36.0100     8.1620     7.1840     9.0990   100.0890    12.1220     2.5210     0.0400
  550.0000     0.3560   -36.4630     8.3220     7.4950     9.2570   100.6400    11.7250     2.5240     0.0350
  550.5000     0.3460   -37.5840     8.4700     7.8070     9.4140   101.2000    11.3530     2.5240     0.0310
  551.0000     0.3480   -38.7060     8.6170     8.1180     9.5710   101.4630    10.9280     2.5230     0.0300
  551.5000     0.3510   -38.9910     8.7650     8.4290     9.7280   100.8810    10.7420     2.5210     0.0280
  552.0000     0.3520   -39.0330     8.9130     8.8660     9.8850   100.3140    10.5410     2.5200     0.0290
  552.5000     0.3490   -39.0640     9.0310     8.8260    10.0420    99.7180    10.3790     2.5210     0.0310
  553.0000     0.3420   -39.0970     8.9550     8.7240    10.1990    99.1510    10.3710     2.5110     0.0330
  553.5000     0.3380   -39.1310     8.8920     8.6230    10.3560    98.5570    10.3680     2.5000     0.0220
  554.0000     0.3390   -39.1640     8.8300     8.5220    10.5140    98.8210    10.3720     2.4950     0.0080
  554.5000     0.3440   -39.1980     8.7850     8.4200    10.6560    99.4770    10.3720     2.5030     0.0070
  555.0000     0.3480   -39.2320     8.8440     8.3900    10.4860   100.1140    10.3720     2.5090     0.0070
  555.5000     0.3400   -39.2660     8.8990     8.4300    10.3320   100.7410    10.3730     2.5160     0.0080
  556.0000     0.3330   -39.2990     8.9530     8.4730    10.1780   101.3790    10.3740     2.5220     0.0090
  556.5000     0.3300   -39.3330     9.0070     8.5160    10.0230   102.0120    10.3740     2.5290     0.0090
  557.0000     0.3320   -39.3680     9.0610     8.5590     9.9000   102.6450    10.3750     2.5300     0.0100
  557.5000     0.3330   -39.3050     9.1150     8.6020     9.9000   103.2800    10.3760     2.5180     0.0110
