~VERSION INFORMATION
 VERS.                2.0:   CWLS LOG ASCII STANDARD - VERSION 2.0
 WRAP.                 NO:   ONE LINE PER DEPTH STEP
~WELL INFORMATION
#MNEM.UNIT      DATA TYPE    INFORMATION
#----------   ------------   ------------------------------
 STRT.F          200.0000:   START DEPTH
 STOP.F         3124.0000:   STOP DEPTH
 STEP.F            0.5000:   STEP LENGTH
 NULL.          -999.2500:   NO VALUE
 COMP.    FENIX & SCISSON:   COMPANY
 WELL. FENIX SCISSON #18-27:   WELL
 FLD .                NPR:   FIELD
 LOC .      S27 T39N R78W:   LOCATION
 CNTY.            NATRONA:   COUNTY
 STAT.            WYOMING:   STATE
 CTRY. UNITED STATES OF AMERICA:   COUNTRY
 SRVC.              WELEX:   SERVICE COMPANY
 DATE.        26-SEP-1977:   LOGDATE
 API .     49025104210000:   API NUMBER
~CURVE INFORMATION
#MNEM.UNIT       API CODE    CURVE DESCRIPTION
#----------   ------------   ------------------------------
 DEPT.F                  :   
 CALD.IN     45 280 60 00:   CALIPER FROM DENSITY LOG
 GRD .GAPI   45 310 01 00:   GAMMA RAY FROM DENSITY LOG
 RHOB.G/C3   45 350 01 00:   BULK DENSITY
 CORR.G/C3   45 356 01 00:   DENSITY CORRECTION
 NPHI.DEC    42 890 03 00:   NEUTRON POROSITY SANDSTONE
 SPR .MV     07 010 01 00:   SPONTANEOUS POTENTIAL
 GURD.OHMM   07 220 05 00:   GUARD LOG RESISTIVITY
 ILD .OHMM   07 120 46 00:   DEEP INDUCTION RESISTIVITY
 ILM .OHMM   07 120 44 00:   INDUCTION LOG MEDIUM RESISTIVITY
 TENR.LBS    07 635 01 00:   TENSION FROM RESISTIVITY
~PARAMETER INFORMATION
#MNEM.UNIT          VALUE    DESCRIPTION
#----------   ------------   ------------------------------
 EKB .F         5080.0000:   Kelly bushing
 EGL .F         5070.0000:   Ground level
 EDF .F            0.0000:   Drilling floor
 EPD .F            0.0000:   Permanent datum
 TD  .F         3117.0000:   Total depth
 DATE.        26-SEP-1977:   Date logged
 CLNT.            A2DTECH:   Client Code
 SL  . 330' FSL & 1650' FWL:   Surface Location
 PD  .                 GL:   Permanent Datum
 DAPD.F                10:   Feet Above Permanent Datum
 DD  .F              3115:   Depth driller
 DL  .F              3117:   Depth logger
 BLI .F              3115:   Bottom log interval
 TLI .F               200:   Top log interval
 CS1 .IN            8.625:   Casing size
 CBD1.      8.625" @ 219':   Casing driller 1
 CBL1.F               220:   Casing logger 1
 BS1 .IN            7.875:   Bit size
 BSD1.F              3115:   Depth drilled with bit1
 DFT .            KCL MUD:   Type fluid in hole
 DFD .                9.1:   Density
 DFV .                 35:   Viscosity
 DFPH.                 11:   pH
 DFL .               17.2:   Fluid loss
 MSS .           FLOWLINE:   Source of sample
 RMS .OHMM            .59:   Rm
 MST .F                98:   Rm Meas. temp.
 RMF .OHMM            .56:   Rmf
 MFST.F                98:   Rmf Meas. temp.
 RMC .OHMM            .24:   Rmc
 MCST.F                98:   Rmc Meas. temp.
 MFSS.               MEAS:   Source Rmf.
 MCSS.               MEAS:   Source Rmc.
 RMB .OHMM            .48:   Rm. at BHT
 BHT .F               116:   BHT.
 TCS .HRS               4:   Time Circ. stopped
 MRT .F               116:   Maximum recorded temp.
 LUN .               8611:   Logging unit number
 LUL .             CASPER:   Logging unit location
 ENGI.            C. DOAK:   Recorded By
 WITN.         PETTINGILL:   Witnessed by
 ORIG.           5" PRINT:   Origin of data
 UWI .     49025104210000:   Unique Well ID
 DICO. A2D TECHNOLOGIES, INC.:   Digitizing Company
~OTHER INFORMATION
~A   DEPT     CALD        GRD       RHOB       CORR         NPHI      SPR       GURD        ILD        ILM        TENR  
# ...
 1942.0000     8.0160   136.6647     2.4777     0.0084     0.3656   -70.8541    11.4388     7.7080     7.8753   713.2648
 1942.5000     8.0172   136.6721     2.4807     0.0084     0.3695   -70.8509    11.2332     7.7097     7.9501   722.9517
 1943.0000     8.0184   137.4734     2.4767     0.0084     0.3771   -70.8453    11.2357     7.6409     8.0994   712.6793
 1943.5000     8.0196   138.6740     2.4747     0.0124     0.3819   -70.8413    11.3419     7.4349     8.4046   722.3664
 1944.0000     8.0208   137.8857     2.4747     0.0144     0.3831   -70.8373    11.6613     6.8468     8.7209   722.0737
 1944.5000     8.0220   135.1074     2.4747     0.0085     0.3827   -70.8341    11.7715     6.6622     9.3888   721.7810
 1945.0000     8.0232   141.8805     2.4857     0.0105     0.3791   -70.8301    11.7741     6.7872     9.7426   711.5082
 1945.5000     8.0244   139.2985     2.4857     0.0105     0.3739   -70.8254    11.5625     6.8513     9.7448   721.1956
 1946.0000     8.0256   131.3516     2.4887     0.0105     0.3688   -70.8214    11.7794     6.9160     9.0559   720.9029
 1946.5000     8.0268   129.7667     2.4837     0.0106     0.3640   -70.8182    11.8908     6.8543     8.4935   720.6102
 1947.0000     8.0279   129.5780     2.4768     0.0106     0.3628   -70.8134    11.5703     6.8558     8.3406   710.3370
 1947.5000     8.0291   132.3692     2.4878     0.0146     0.3676   -70.8094    11.3623     6.7946     8.3425   720.0248
 1948.0000     8.0303   137.1487     2.4977     0.0186     0.3640   -70.8054    11.6823     6.7961     8.6568   679.8093
 1948.5000     8.0315   137.5537     2.4967     0.0206     0.3616   -70.8014    11.5781     6.7354     9.2342   699.5364
 1949.0000     8.0327   136.7657     2.4967     0.0206     0.3592   -70.7982    11.5807     6.7369     9.2363   719.1466
 1949.5000     8.0339   136.3753     2.4948     0.0181     0.3561   -70.7934    11.5833     6.7384     8.9048   718.8539
 1950.0000     8.0351   133.2015     2.4928     0.0147     0.3521   -70.7894    11.6928     6.7399     8.3517   718.5611
 1950.5000     8.0363   134.0041     2.4898     0.0087     0.3497   -70.7853    14.0513     6.7414     8.2765   718.2530
 1951.0000     8.0375   135.6020     2.4918     0.0146     0.3473   -70.7814    12.4711     6.8032     8.1262   718.3460
 1951.5000     8.0386   134.0188     2.4948     0.0148     0.3457   -70.7773    11.3780     6.6800     8.0526   728.2247
 1952.0000     8.0398   135.6152     2.4978     0.0188     0.3441   -70.7733    11.6969     6.7423     8.0534   728.1434
 1952.5000     8.0400   136.8153     2.4988     0.0208     0.3437   -70.7693    11.5911     6.7429     8.2035   738.0222
 1953.0000     8.0403   137.6178     2.4998     0.0208     0.3469   -70.7654    11.4862     6.7435     8.2801   727.9402
 1953.5000     8.0408   138.8179     2.4929     0.0208     0.3505   -70.7620    11.0730     6.7442     8.2809   717.8581
 1954.0000     8.0413   143.1985     2.4819     0.0149     0.3656   -70.7588    11.0741     6.7448     8.2816   717.7565
 1954.5000     8.0418   143.6033     2.4830     0.0109     0.3732   -70.7540    11.8104     6.6838     8.2822   727.6353
 1955.0000     8.0421   147.9837     2.4860     0.0109     0.3763   -70.7500    12.0304     6.6844     8.2072   727.5336
 1955.5000     8.0425   150.9726     2.4919     0.0110     0.3740   -70.7467    12.5970     6.4440     8.2080   717.4516
 1956.0000     8.0433   143.6248     2.4969     0.0130     0.3700   -70.7419    12.1434     6.5640     8.4383   717.3500
 1956.5000     8.0437   140.8492     2.4949     0.0190     0.3672   -70.9361    10.8776     6.3862     9.0000   717.2483
 1957.0000     8.0440   136.8811     2.4870     0.0110     0.3648   -70.9321    10.3905     6.2133     9.0008   727.1271
 1957.5000     8.0846   130.9255     2.4781     0.0071     0.3672   -70.9281    10.3913     6.1570     9.9591   727.0458
 1958.0000     8.0849   127.1568     2.4661     0.0051     0.3692   -70.9241    10.2031     6.1013     7.3313   726.9442
 1958.5000     8.0802   132.9279     2.4592     0.0031     0.3712   -70.7218    10.4302     6.1018     7.5367   716.8621
 1959.0000     8.0755   138.8978     2.4552     0.0012     0.3720   -70.7186    11.0221     6.1024     7.8194   726.7409
 1959.5000     8.0707   143.4736     2.4592     0.0012     0.3724   -70.7145    11.6481     6.1030     7.8923   716.6589
 1960.0000     8.0660   138.9109     2.4652     0.0032     0.3676   -70.7105    11.8654     6.1597     7.8930   746.4984
 1960.5000     8.0613   140.1106     2.4722     0.0052     0.3608   -70.7065    11.3334     6.2173     7.8935   726.4360
 1961.0000     8.0565   142.9001     2.4672     0.0032     0.3557   -70.5042    10.9253     6.2752     7.8944   716.3540
 1961.5000     8.0518   146.6805     2.4782     0.0053     0.3497   -70.5002    11.0894     6.3921     7.8951   726.1921
 1962.0000     8.0471   138.9399     2.4812     0.0053     0.3481   -70.4962    11.1925     6.5712     8.0423   726.1311
 1962.5000     8.0423   137.3574     2.4782     0.0033     0.3477   -70.4921    11.2968     6.6324     7.8244   726.0295
 1963.0000     8.0376   136.9673     2.4653    -0.0006     0.3465   -70.6864    11.0923     6.6330     7.7536   715.9678
 1963.5000     8.0306   138.7632     2.4543    -0.0046     0.3565   -70.6657    10.6933     6.6336     7.6835   725.8465
 1964.0000     8.0309   131.4179     2.4534    -0.0026     0.3620   -70.4801    10.5001     6.6342     7.6139   725.7449
 1964.5000     8.0312   128.6434     2.4524    -0.0026     0.3700   -70.8734    10.2153     6.6348     7.7558   725.6433
 1965.0000     8.0314   127.8561     2.4464    -0.0065     0.3708   -70.8685    10.8332     6.6965     7.9256   725.5416
 1965.5000     8.0319   127.4662     2.4325    -0.0065     0.3696   -70.8653    11.5127     6.7591     8.0733   715.4596
 1966.0000     8.0325   135.8189     2.4445    -0.0065     0.3712   -70.8621    11.6198     6.7597     8.1486   725.3384
 1966.5000     8.0330   141.7870     2.4554    -0.0025     0.3756   -70.8573    11.8364     6.6985     8.1494   715.2563
 1967.0000     8.0334   143.5782     2.4644    -0.0005     0.3760   -70.8532    11.9465     6.5172     8.0755   715.1547
 1967.5000     8.0339   144.3815     2.4684    -0.0004     0.3756   -70.8500    11.9476     6.3407     7.9038   725.0335
 1968.0000     8.0739   141.8072     2.4714    -0.0004     0.3696   -70.6485    11.6241     6.2833     7.9046   734.9122
 1968.5000     8.0734   142.2117     2.4773    -0.0004     0.3609   -70.6437    11.3095     6.2262     7.9053   724.8505
 1969.0000     8.0729   143.0136     2.4783    -0.0004     0.3557   -70.6397    11.0646     6.1700     7.9062   724.7489
 1969.5000     8.0724   141.8288     2.4764     0.0016     0.3561   -70.4374    10.8038     6.1706     7.8697   724.6473
 1970.0000     8.0720   143.6269     2.4694    -0.0003     0.3573   -70.2343    10.3200     6.1712     7.8352   684.6240
 1970.5000     8.0715   143.2310     2.4565    -0.0023     0.3557   -70.2303    10.2266     6.1717     7.7643   714.4636
 1971.0000     8.0710   141.0557     2.4535    -0.0023     0.3517   -70.2263    10.7081     6.1723     7.7649   724.3424
 1971.5000     8.0705   140.2683     2.4506    -0.0022     0.3497   -70.2223    11.5254     6.2298     7.6948   714.2603
 1972.0000     8.0700   141.8648     2.4565    -0.0022     0.3509   -70.2198    11.3821     6.4044     7.6954   714.1587
 1972.5000     8.0695   144.0543     2.4625    -0.0002     0.3573   -70.2142    11.2405     6.7678     7.6961   724.0374
 1973.0000     8.0690   137.5091     2.4834     0.0078     0.3636   -70.4092    10.4214     6.9574     8.0589   723.9358
 1973.5000     8.0685   135.9272     2.4864     0.0118     0.3640   -70.4052    10.5284     7.1523     8.0592   723.8342
 1974.0000     8.0680   136.3318     2.4795    -0.0002     0.3652   -70.2029    10.6160     7.4891     8.3615   723.7529
 1974.5000     8.0675   136.7364     2.4775    -0.0001     0.3680   -70.3972    11.0142     7.7700     9.8650   723.6512
 1975.0000     8.0670   136.7437     2.4805     0.0098     0.3652   -70.1949    11.5327     7.9147    10.0838   723.5496
