~VERSION INFORMATION
 VERS.                2.0:   CWLS LOG ASCII STANDARD - VERSION 2.0
 WRAP.                 NO:   ONE LINE PER DEPTH STEP
~WELL INFORMATION
#MNEM.UNIT      DATA TYPE    INFORMATION
#----------   ------------   ------------------------------
 STRT.F          200.5000:   START DEPTH
 STOP.F         3012.5000:   STOP DEPTH
 STEP.F            0.5000:   STEP LENGTH
 NULL.          -999.2500:   NO VALUE
 COMP.    FENIX & SCISSON:   COMPANY
 WELL.  FENIX "AX" #75-29:   WELL
 FLD .              NPR-3:   FIELD
 LOC .      S29 T39N R78W:   LOCATION
 CNTY.            NATRONA:   COUNTY
 STAT.            WYOMING:   STATE
 CTRY. UNITED STATES OF AMERICA:   COUNTRY
 SRVC.           BIRDWELL:   SERVICE COMPANY
 DATE.        15-FEB-1978:   LOGDATE
 API .     49025105830000:   API NUMBER
~CURVE INFORMATION
#MNEM.UNIT       API CODE    CURVE DESCRIPTION
#----------   ------------   ------------------------------
 DEPT.F                  :   
 GRD .GAPI   45 310 01 00:   GAMMA RAY FROM DENSITY LOG
 CALD.IN     45 280 60 00:   CALIPER FROM DENSITY LOG
 DEN .G/C3   45 350 01 00:   BULK DENSITY
 DCOR.G/C3   45 356 01 00:   DENSITY CORRECTION
 SPR .MV     05 010 01 00:   SPONTANEOUS POTENTIAL
 SN  .OHMM   05 040 16 00:   SHORT NORMAL 16"
 RILD.OHMM   05 120 46 00:   DEEP INDUCTION RESISTIVITY
~PARAMETER INFORMATION
#MNEM.UNIT          VALUE    DESCRIPTION
#----------   ------------   ------------------------------
 EKB .F         5042.0000:   Kelly bushing
 EGL .F         5032.0000:   Ground level
 EDF .F            0.0000:   Drilling floor
 TD  .F         3010.0000:   Total depth
 DATE.        15-FEB-1978:   Date logged
 CLNT.            A2DTECH:   Client Code
 SL  . 2550' FSL & 950' FEL:   Surface Location
 PD  .                 GL:   Permanent Datum
 EPD .F              5032:   Elevation Permanent Datum
 LMF .                 KB:   Log Measured From
 DMF .                 KB:   Drilling Measured From
 DAPD.F                10:   Feet Above Permanent Datum
 DD  .F              3010:   Depth driller
 DL  .F              3010:   Depth logger
 BLI .F              3002:   Bottom log interval
 TLI .F               200:   Top log interval
 CS1 .IN            8.625:   Casing size
 CBD1.      8.625" @ 222':   Casing driller 1
 CBL1.F               222:   Casing logger 1
 BS1 .IN            7.875:   Bit size
 BSD1.F              3010:   Depth drilled with bit1
 DFT .         LIGNO/SULF:   Type fluid in hole
 DFD .                9.1:   Density
 DFV .                 33:   Viscosity
 DFPH.                 10:   pH
 DFL .                4.9:   Fluid loss
 MSS .           FLOWLINE:   Source of sample
 RMS .OHMM              2:   Rm
 MST .F                66:   Rm Meas. temp.
 RMF .OHMM            2.2:   Rmf
 MFST.F                58:   Rmf Meas. temp.
 RMC .OHMM            1.8:   Rmc
 MCST.F                60:   Rmc Meas. temp.
 MFSS.               MEAS:   Source Rmf.
 RMB .OHMM            1.7:   Rm. at BHT
 BHT .F               118:   BHT.
 TCS .HRS               5:   Time Circ. stopped
 MRT .F               118:   Maximum recorded temp.
 LUN .               2958:   Logging unit number
 LUL .               CASP:   Logging unit location
 ENGI.            POINTER:   Recorded By
 WITN.           MCGINLEY:   Witnessed by
 ORIG.           5" PRINT:   Origin of data
 UWI .     49025105830000:   Unique Well ID
 DICO. A2D TECHNOLOGIES, INC.:   Digitizing Company
~OTHER INFORMATION
~A   DEPT       GRD      CALD        DEN       DCOR        SPR         SN       RILD   
# ...
  382.5000    68.7970     9.5160     2.5130     0.1000   -62.7260     8.1840     9.8320
  383.0000    70.1380     9.5290     2.5110     0.0980   -62.7070     8.2150     9.4780
  383.5000    69.8050     9.5410     2.5050     0.0970   -62.6880     8.2460     9.4780
  384.0000    66.3780     9.5540     2.4990     0.0990   -62.6690     8.5910     9.5990
  384.5000    62.6630     9.5730     2.4930     0.0830   -62.6460     8.8850     9.8240
  385.0000    62.6800     9.5910     2.4870     0.0780   -62.5230     8.7230    10.0480
  385.5000    62.9220     9.6100     2.4800     0.0800   -62.3940     8.9810    10.2030
  386.0000    60.9030     9.6290     2.4810     0.0900   -62.2660     9.4840    10.3090
  386.5000    60.0930     9.6480     2.4870     0.0950   -62.1390     9.9250    10.4950
  387.0000    61.2740     9.6650     2.4920     0.0940   -62.0620     9.7680    10.8570
  387.5000    62.5730     9.6830     2.4970     0.0920   -62.1540     9.9300    11.2190
  388.0000    60.7710     9.6830     2.4860     0.0920   -62.2470    10.1460    11.5810
  388.5000    59.1390     9.6830     2.4880     0.0980   -62.3380    10.3620    11.9350
  389.0000    59.1110     9.6830     2.4900     0.0990   -62.4300    10.5780    12.1010
  389.5000    59.5890     9.6910     2.4870     0.0940   -62.5220    10.7940    12.2650
  390.0000    60.5900     9.7050     2.4790     0.0900   -62.6140    10.9200    12.4280
  390.5000    62.6060     9.7190     2.4680     0.0860   -62.6490    10.9830    12.4980
  391.0000    64.6440     9.7330     2.4740     0.0850   -62.6490    11.0450    12.4980
  391.5000    65.8480     9.7470     2.4720     0.0900   -62.6490    11.0860    12.4980
  392.0000    64.6980     9.7610     2.4690     0.0930   -62.6350    10.9840    12.4980
  392.5000    63.8590     9.7750     2.4770     0.0880   -62.5460    10.9560    12.4980
  393.0000    63.1170     9.7890     2.4760     0.0890   -62.4570    10.9250    12.4970
  393.5000    62.0860     9.8030     2.4750     0.0910   -62.3680    10.8940    12.4990
  394.0000    62.6820     9.8170     2.5000     0.0950   -62.2790    10.8630    12.4580
  394.5000    64.2020     9.8310     2.4910     0.0960   -62.1900    10.8320    12.3760
  395.0000    63.5380     9.8390     2.4820     0.0940   -62.1010    10.8010    12.2930
  395.5000    63.2370     9.8260     2.4770     0.0920   -62.0530    10.7520    12.2100
  396.0000    66.1550     9.8130     2.4860     0.0940   -62.0820    10.6150    12.1280
  396.5000    69.5120     9.8010     2.4950     0.0950   -62.1110    10.4770    12.0450
  397.0000    70.5490     9.7880     2.5020     0.0940   -62.1400    10.3860    11.9910
  397.5000    71.3970     9.7850     2.4830     0.0850   -62.1680    10.3690    11.9230
  398.0000    71.2780     9.7900     2.4820     0.0850   -62.1970    10.3520    11.8560
  398.5000    68.8720     9.7950     2.4770     0.0910   -62.2260    10.3340    11.7570
  399.0000    65.7980     9.8000     2.4770     0.0950   -62.2540    10.3170    11.5590
  399.5000    65.4340     9.7990     2.4840     0.0980   -62.2800    10.2980    11.3610
  400.0000    65.6420     9.7920     2.4970     0.0990   -62.3060     9.9490    11.1640
  400.5000    67.0850     9.7850     2.5080     0.0960   -62.3320     9.7440    10.9660
  401.0000    68.7990     9.7790     2.4980     0.0940   -62.3580     9.7440    10.7690
  401.5000    68.6690     9.7720     2.4820     0.0970   -62.3840     9.5030    10.5870
  402.0000    69.7580     9.7660     2.4870     0.1000   -62.4100     9.2760    10.5180
  402.5000    69.4240     9.7630     2.4960     0.1030   -62.4360     9.1710    10.4540
  403.0000    69.0570     9.7640     2.4950     0.1050   -62.4950     9.0660    10.3930
  403.5000    71.6980     9.7660     2.5040     0.1050   -62.5940     9.0040    10.2260
  404.0000    74.7980     9.7670     2.5100     0.1050   -62.6920     8.9500    10.1420
  404.5000    74.5840     9.7680     2.5060     0.1060   -62.7900     8.8850    10.0580
  405.0000    69.0380     9.7700     2.5080     0.1000   -62.7930     8.9280     9.9740
  405.5000    68.8700     9.7710     2.5120     0.0940   -62.6600     8.9680     9.8150
  406.0000    70.7150     9.7720     2.4930     0.0930   -62.5290     8.5380     9.5500
  406.5000    71.0780     9.7740     2.4900     0.0930   -62.3980     8.2540     9.3340
  407.0000    71.5100     9.7750     2.4870     0.0940   -62.2660     8.2540     9.1930
  407.5000    73.2670     9.7760     2.4700     0.1000   -62.1350     8.2540     9.1220
  408.0000    73.1980     9.7780     2.4800     0.1070   -62.0680     8.2540     9.1020
  408.5000    72.7940     9.7790     2.4940     0.1090   -62.1170     8.2540     9.0810
  409.0000    73.2280     9.7800     2.5080     0.1090   -62.1640     8.2540     9.0600
  409.5000    72.2650     9.7820     2.5120     0.1040   -62.2110     8.2540     9.0350
  410.0000    69.1640     9.7800     2.5000     0.1000   -62.2590     8.2530     8.9890
  410.5000    69.3770     9.7770     2.4910     0.0960   -62.3140     8.2530     8.9440
  411.0000    71.4920     9.7740     2.4840     0.1000   -62.3690     8.2530     8.8980
  411.5000    73.7290     9.7710     2.4950     0.1060   -62.4230     8.2320     8.7950
  412.0000    74.7640     9.7680     2.4960     0.1120   -62.4780     8.0500     8.6700
  412.5000    74.3970     9.7650     2.4940     0.1200   -62.5330     7.8670     8.5450
  413.0000    73.7810     9.7620     2.4930     0.1330   -62.5880     7.7220     8.4190
  413.5000    73.3650     9.7750     2.4980     0.1390   -62.6430     7.6680     8.3190
  414.0000    73.3540     9.9180     2.4890     0.1590   -62.6490     7.6140     8.2790
  414.5000    74.6160     9.9580     2.4900     0.2010   -62.6500     7.5430     8.2390
  415.0000    77.8990     9.9530     2.4780     0.2450   -62.6590     7.4640     8.2000
  415.5000    76.5370    10.2570     2.4850     0.2560   -62.8050     7.3850     8.1320
  416.0000    75.1070    10.3790     2.4620     0.1220   -62.7490     7.3060     8.0310
  416.5000    74.5070     9.7240     2.3640     0.0310   -62.6500     7.2270     7.9180
  417.0000    74.3080     9.7160     2.3250     0.0920   -62.5470     7.1480     7.7620
  417.5000    73.1960     9.7020     2.4740     0.0890   -62.4480     7.0690     7.6060
  418.0000    72.1040     9.6910     2.4830     0.0790   -62.3490     6.9900     7.4500
  418.5000    69.2510     9.6800     2.4860     0.0690   -62.2540     6.9270     7.3420
  419.0000    68.1820     9.6690     2.4910     0.0650   -62.2510     6.9270     7.2640
  419.5000    67.0790     9.6720     2.4960     0.0610   -62.2510     6.9270     7.1860
  420.0000    66.1790     9.6910     2.5020     0.0640   -62.2510     6.9270     7.1220
  420.5000    66.4650     9.7090     2.5160     0.1040   -62.2510     6.9460     7.2390
  421.0000    68.3780     9.7270     2.5470     0.1410   -62.2510     7.0530     7.3420
  421.5000    70.4160     9.7460     2.5770     0.1200   -62.2510     7.2070     7.4700
  422.0000    71.9830     9.7640     2.5950     0.0970   -62.2510     7.4450     7.7160
  422.5000    70.7590     9.7830     2.5400     0.0800   -62.2510     7.6830     8.0560
  423.0000    69.2390     9.8100     2.5040     0.0760   -62.2510     7.9220     8.3960
  423.5000    68.9300     9.8380     2.5030     0.0780   -62.2510     8.1780     8.7360
  424.0000    70.9440     9.8660     2.4930     0.0800   -62.2510     8.4170     9.0510
  424.5000    72.0020     9.8930     2.4850     0.0850   -62.2510     8.6760     9.3140
  425.0000    72.0670     9.9200     2.4910     0.0870   -62.2510     8.8720     9.3910
  425.5000    72.1340     9.9250     2.4890     0.0860   -62.2510     8.9680     9.3910
  426.0000    72.4390     9.9290     2.4880     0.0850   -62.2510     8.8700     9.3690
  426.5000    73.9400     9.9330     2.4920     0.0880   -62.2510     8.7800     9.2930
  427.0000    74.6030     9.9380     2.4900     0.0920   -62.2510     8.6900     9.2170
  427.5000    71.3160     9.9570     2.4890     0.0950   -62.2510     8.6010     9.1410
