~VERSION INFORMATION
 VERS.                2.0:   CWLS LOG ASCII STANDARD - VERSION 2.0
 WRAP.                 NO:   ONE LINE PER DEPTH STEP
~WELL INFORMATION
#MNEM.UNIT      DATA TYPE    INFORMATION
#----------   ------------   ------------------------------
 STRT.F           11.0000:   START DEPTH
 STOP.F         4154.0000:   STOP DEPTH
 STEP.F            0.5000:   STEP LENGTH
 NULL.          -999.2500:   NO VALUE
 COMP.   LAWRENCE ALLISON:   COMPANY
 WELL. ALLISON NPR 3 "LX" #14-22:   WELL
 FLD .                NPR:   FIELD
 LOC .      S22 T38N R78W:   LOCATION
 CNTY.            NATRONA:   COUNTY
 STAT.            WYOMING:   STATE
 CTRY. UNITED STATES OF AMERICA:   COUNTRY
 SRVC.       DRESER ATLAS:   SERVICE COMPANY
 DATE.        14-APR-1985:   LOGDATE
 API .     49025110230000:   API NUMBER
~CURVE INFORMATION
#MNEM.UNIT       API CODE    CURVE DESCRIPTION
#----------   ------------   ------------------------------
 DEPT.F                  :   
 TEND.LBS    45 635 01 00:   TENSION FROM DENSITY LOG
 RHOB.G/C3   45 350 01 00:   BULK DENSITY
 DRHO.G/C3   45 356 01 00:   DENSITY CORRECTION
 CALD.IN     45 280 60 00:   CALIPER FROM DENSITY LOG
 NPHI.DEC    42 890 03 00:   NEUTRON POROSITY SANDSTONE
 TENR.LBS    07 635 01 00:   TENSION FROM RESISTIVITY
 SPR .MV     07 010 01 00:   SPONTANEOUS POTENTIAL
 GRR .GAPI   07 310 01 00:   GAMMA RAY FROM RESISTIVITY
 RFOC.OHMM   07 220 01 00:   RESISTIVITY FOCUSED LOG RES.
 RILD.OHMM   07 120 46 00:   DEEP INDUCTION RESISTIVITY
 RILM.OHMM   07 120 44 00:   INDUCTION LOG MEDIUM RESISTIVITY
~PARAMETER INFORMATION
#MNEM.UNIT          VALUE    DESCRIPTION
#----------   ------------   ------------------------------
 EKB .F         5230.4000:   Kelly bushing
 EGL .F         5220.4000:   Ground level
 EDF .F            0.0000:   Drilling floor
 TD  .F         4150.0000:   Total depth
 DATE.        14-APR-1985:   Date logged
 CLNT.            A2DTECH:   Client Code
 SL  . 905' FNL & 824' FWL:   Surface Location
 PD  .                 GL:   Permanent Datum
 EPD .F            5220.4:   Elevation Permanent Datum
 LMF .                 KB:   Log Measured From
 DMF .                 KB:   Drilling Measured From
 DAPD.F                10:   Feet Above Permanent Datum
 DD  .F              4150:   Depth driller
 DL  .F              4140:   Depth logger
 BLI .F              4138:   Bottom log interval
 CS1 .IN            8.625:   Casing size
 CBD1.      8.625" @ 738':   Casing driller 1
 CBL1.F               738:   Casing logger 1
 BS1 .IN            7.875:   Bit size
 BSD1.F              4150:   Depth drilled with bit1
 DFT .            KCL/GEL:   Type fluid in hole
 DFD .                9.1:   Density
 DFV .                 48:   Viscosity
 DFPH.                8.5:   pH
 DFL .                 10:   Fluid loss
 MSS .           FLOWLINE:   Source of sample
 RMS .OHMM            .35:   Rm
 MST .F                62:   Rm Meas. temp.
 RMF .OHMM            .26:   Rmf
 MFST.F                62:   Rmf Meas. temp.
 RMC .OHMM            .43:   Rmc
 MCST.F                62:   Rmc Meas. temp.
 MFSS.               CALC:   Source Rmf.
 MCSS.               CALC:   Source Rmc.
 RMB .OHMM            .16:   Rm. at BHT
 BHT .F               140:   BHT.
 TCS .HRS               6:   Time Circ. stopped
 MRT .F               140:   Maximum recorded temp.
 LUN .               6274:   Logging unit number
 LUL .               GLTE:   Logging unit location
 ENGI.               MACK:   Recorded By
 WITN.             STRONG:   Witnessed by
 ORIG.           5" PRINT:   Origin of data
 UWI .     49025110230000:   Unique Well ID
 DICO. A2D TECHNOLOGIES, INC.:   Digitizing Company
~OTHER INFORMATION
~A   DEPT     TEND       RHOB       DRHO       CALD       NPHI       TENR        SPR        GRR       RFOC       RILD       RILM   
# ...
 2298.5000  -999.2500  -999.2500  -999.2500  -999.2500  -999.2500   -69.8570   -69.2220    94.5860     6.9180     6.0330     6.9740
 2299.0000  -999.2500  -999.2500  -999.2500  -999.2500  -999.2500   -68.7820   -68.9280    93.2740     7.6590     6.8520     7.5040
 2299.5000  -999.2500  -999.2500  -999.2500  -999.2500  -999.2500   -67.7070   -68.6260    91.9670     8.6520     7.2880     8.0350
 2300.0000  -999.2500  -999.2500  -999.2500  -999.2500  -999.2500   -66.6320   -68.2600    88.4200     9.7440     7.5270     8.7230
 2300.5000  -999.2500  -999.2500  -999.2500  -999.2500  -999.2500   -65.5570   -68.2720    84.4730     9.0330     7.2360     8.3550
 2301.0000  -999.2500  -999.2500  -999.2500  -999.2500  -999.2500   -65.2370   -68.3320    83.1660     8.2430     6.9920     7.6220
 2301.5000  -999.2500  -999.2500  -999.2500  -999.2500  -999.2500   -66.5980   -68.3890    82.6850     7.3890     6.9390     7.1140
 2302.0000  -999.2500  -999.2500  -999.2500  -999.2500  -999.2500   -67.9580   -68.4450    82.2530     7.3210     6.8650     7.0490
 2302.5000  -999.2500  -999.2500  -999.2500  -999.2500  -999.2500   -69.3190   -68.5010    82.1990     7.2530     6.8010     6.9840
 2303.0000  -999.2500  -999.2500  -999.2500  -999.2500  -999.2500   -70.6800   -68.5570    84.4140     7.0460     6.8660     6.9270
 2303.5000  -999.2500  -999.2500  -999.2500  -999.2500  -999.2500   -72.0410   -68.6040    85.9370     6.9270     6.9560     7.0310
 2304.0000  -999.2500  -999.2500  -999.2500  -999.2500  -999.2500   -73.4020   -68.9370    82.1090     7.4240     7.0460     7.1720
 2304.5000  -999.2500  -999.2500  -999.2500  -999.2500  -999.2500   -74.8250   -69.3380    77.1250     8.1130     7.1350     7.3120
 2305.0000  -999.2500  -999.2500  -999.2500  -999.2500  -999.2500   -72.9030   -69.7500    72.0690     8.0920     7.2250     7.4530
 2305.5000  -999.2500  -999.2500  -999.2500  -999.2500  -999.2500   -70.8890   -69.7060    71.8770     8.0240     7.3150     7.5930
 2306.0000  -999.2500  -999.2500  -999.2500  -999.2500  -999.2500   -68.8750   -69.6230    75.7580     7.9550     7.3890     7.7380
 2306.5000  -999.2500  -999.2500  -999.2500  -999.2500  -999.2500   -66.8610   -69.5970    79.4070     7.9380     7.4670     7.7910
 2307.0000  -999.2500  -999.2500  -999.2500  -999.2500  -999.2500   -64.8150   -69.4730    79.6740     7.9170     7.6020     7.8590
 2307.5000  -999.2500  -999.2500  -999.2500  -999.2500  -999.2500   -63.8430   -69.3520    79.8460     7.8840     7.7380     7.9270
 2308.0000  -999.2500  -999.2500  -999.2500  -999.2500  -999.2500   -62.8560   -69.2320    79.1330     7.9890     7.5970     7.9550
 2308.5000  -999.2500  -999.2500  -999.2500  -999.2500  -999.2500   -61.8690   -69.1110    78.0210     8.2630     7.3820     7.5650
 2309.0000  -999.2500  -999.2500  -999.2500  -999.2500  -999.2500   -60.8810   -68.9900    79.1610     8.5360     7.0050     7.2380
 2309.5000  -999.2500  -999.2500  -999.2500  -999.2500  -999.2500   -59.8940   -68.8700    81.5130     8.6430     6.6290     6.9110
 2310.0000  -999.2500  -999.2500  -999.2500  -999.2500  -999.2500   -58.9070   -68.7480    84.7950     7.8520     6.2590     6.5850
 2310.5000  -999.2500  -999.2500  -999.2500  -999.2500  -999.2500   -57.9200   -68.6270    89.0810     7.0750     5.8270     6.2580
 2311.0000  -999.2500  -999.2500  -999.2500  -999.2500  -999.2500   -56.9320   -68.5170    93.3720     6.2990     5.5010     5.9940
 2311.5000  -999.2500  -999.2500  -999.2500  -999.2500  -999.2500   -55.9450   -68.5860    97.6930     5.5520     5.3580     5.7420
 2312.0000  -999.2500  -999.2500  -999.2500  -999.2500  -999.2500   -54.9580   -68.6300   101.9780     5.3020     5.2540     5.4070
 2312.5000  -999.2500  -999.2500  -999.2500  -999.2500  -999.2500   -56.6960   -68.6270   102.3030     5.4610     5.2860     5.4280
 2313.0000  -999.2500  -999.2500  -999.2500  -999.2500  -999.2500   -58.9330   -68.6250    98.5020     6.0350     5.3120     5.4710
 2313.5000  -999.2500  -999.2500  -999.2500  -999.2500  -999.2500   -61.1710   -68.6250    93.3440     6.8730     5.3370     5.5130
 2314.0000  -999.2500  -999.2500  -999.2500  -999.2500  -999.2500   -63.4090   -68.6250    93.0560     7.3210     5.4170     5.5520
 2314.5000  -999.2500  -999.2500  -999.2500  -999.2500  -999.2500   -65.6470   -68.6250    96.3780     6.9820     5.5580     6.4350
 2315.0000  -999.2500  -999.2500  -999.2500  -999.2500  -999.2500   -67.8850   -68.6260    99.7090     6.2620     5.6390     6.2830
 2315.5000  -999.2500  -999.2500  -999.2500  -999.2500  -999.2500   -70.1220   -68.6270   101.6670     5.6040     5.6920     6.0580
 2316.0000  -999.2500  -999.2500  -999.2500  -999.2500  -999.2500   -72.3600   -68.7360   101.9470     5.7070     5.7080     5.8680
 2316.5000  -999.2500  -999.2500  -999.2500  -999.2500  -999.2500   -74.5980   -69.0050    98.5610     5.8820     5.7490     6.1210
 2317.0000  -999.2500  -999.2500  -999.2500  -999.2500  -999.2500   -61.8980   -69.2710    95.2300     6.0580     5.8320     6.1630
 2317.5000  -999.2500  -999.2500  -999.2500  -999.2500  -999.2500   -54.8050   -69.4210    91.9180     6.2340     5.9150     6.1890
 2318.0000  -999.2500  -999.2500  -999.2500  -999.2500  -999.2500   -55.5310   -69.4200    91.0420     6.4100     5.9970     6.2160
 2318.5000  -999.2500  -999.2500  -999.2500  -999.2500  -999.2500   -61.8240   -69.2090    90.6750     7.1500     6.0800     6.2420
 2319.0000  -999.2500  -999.2500  -999.2500  -999.2500  -999.2500   -68.1180   -69.0890    91.6930     8.2540     6.1630     6.3170
 2319.5000  -999.2500  -999.2500  -999.2500  -999.2500  -999.2500   -74.8250   -69.3760    92.6880     8.1530     6.2020     6.1320
 2320.0000  -999.2500  -999.2500  -999.2500  -999.2500  -999.2500   -74.8250   -69.6180    95.3740     7.5170     6.1370     5.9320
 2320.5000  -999.2500  -999.2500  -999.2500  -999.2500  -999.2500   -74.8250   -69.5530   102.5870     6.7200     6.0890     5.7320
 2321.0000  -999.2500  -999.2500  -999.2500  -999.2500  -999.2500   -74.8250   -69.2930   112.4960     6.1450     5.8010     5.5330
 2321.5000  -999.2500  -999.2500  -999.2500  -999.2500  -999.2500   -74.8250   -69.0410   122.2810     6.2020     5.4920     5.3330
 2322.0000  -999.2500  -999.2500  -999.2500  -999.2500  -999.2500   -74.8250   -68.7900   132.1580     5.8900     5.1820     5.1100
 2322.5000  -999.2500  -999.2500  -999.2500  -999.2500  -999.2500   -74.8250   -68.5380   131.9870     5.6200     4.9250     5.0630
 2323.0000  -999.2500  -999.2500  -999.2500  -999.2500  -999.2500   -74.8250   -68.2850   125.4700     5.4510     4.8570     5.0010
 2323.5000  -999.2500  -999.2500  -999.2500  -999.2500  -999.2500   -74.8250   -68.0360   118.8660     5.4750     4.7690     4.9390
 2324.0000  -999.2500  -999.2500  -999.2500  -999.2500  -999.2500   -74.8250   -67.9970   113.2710     5.4990     4.6810     4.8780
 2324.5000  -999.2500  -999.2500  -999.2500  -999.2500  -999.2500   -74.8250   -67.9480   110.9830     5.5230     4.5750     4.8160
 2325.0000  -999.2500  -999.2500  -999.2500  -999.2500  -999.2500   -74.8250   -67.8980   112.1780     5.5470     4.6210     4.7470
 2325.5000  -999.2500  -999.2500  -999.2500  -999.2500  -999.2500   -74.8250   -67.8480   113.9440     5.5520     4.6980     4.8300
 2326.0000  -999.2500  -999.2500  -999.2500  -999.2500  -999.2500   -74.8250   -67.8270   115.7680     5.3530     4.7740     4.8990
 2326.5000  -999.2500  -999.2500  -999.2500  -999.2500  -999.2500   -74.8250   -67.9500   117.6060     5.1580     4.8510     4.9680
 2327.0000  -999.2500  -999.2500  -999.2500  -999.2500  -999.2500   -74.8250   -68.1430   119.4320     5.4920     4.9280     5.0370
 2327.5000  -999.2500  -999.2500  -999.2500  -999.2500  -999.2500   -74.8250   -68.3360   119.9330     5.9010     5.0050     5.2040
 2328.0000  -999.2500  -999.2500  -999.2500  -999.2500  -999.2500   -74.8250   -68.5290   120.1860     6.3760     5.0630     5.4300
 2328.5000  -999.2500  -999.2500  -999.2500  -999.2500  -999.2500   -74.8250   -68.7220   120.4600     6.3120     5.4240     5.6550
