~VERSION INFORMATION
 VERS.                2.0:   CWLS LOG ASCII STANDARD - VERSION 2.0
 WRAP.                 NO:   ONE LINE PER DEPTH STEP
~WELL INFORMATION
#MNEM.UNIT      DATA TYPE    INFORMATION
#----------   ------------   ------------------------------
 STRT.F          720.0000:   START DEPTH
 STOP.F         3416.0000:   STOP DEPTH
 STEP.F            0.5000:   STEP LENGTH
 NULL.          -999.2500:   NO VALUE
 COMP.    FENIX & SCISSON:   COMPANY
 WELL.  FENIX "AX" #31-14:   WELL
 FLD .                NPR:   FIELD
 LOC .      S14 T38N R78W:   LOCATION
 CNTY.            NATRONA:   COUNTY
 STAT.            WYOMING:   STATE
 CTRY. UNITED STATES OF AMERICA:   COUNTRY
 SRVC.       SCHLUMBERGER:   SERVICE COMPANY
 DATE.        04-JUN-1981:   LOGDATE
 API .     49025108730000:   API NUMBER
~CURVE INFORMATION
#MNEM.UNIT       API CODE    CURVE DESCRIPTION
#----------   ------------   ------------------------------
 DEPT.F                  :   
 TEND.LBS    45 635 01 00:   TENSION FROM DENSITY LOG
 CORR.G/C3   45 356 01 00:   DENSITY CORRECTION
 RHOB.G/C3   45 350 01 00:   BULK DENSITY
 CALD.IN     45 280 60 00:   CALIPER FROM DENSITY LOG
 GRD .GAPI   45 310 01 00:   GAMMA RAY FROM DENSITY LOG
 SPR .MV     07 010 01 00:   SPONTANEOUS POTENTIAL
 SFL .OHMM   07 220 01 00:   SHALLOW FOCUSED LOG RESISTIVITY
 ILD .OHMM   07 120 46 00:   INDUCTION LOG DEEP RESISTIVITY
 ILM .OHMM   07 120 44 00:   INDUCTION LOG MEDIUM RESISTIVITY
 TENR.LBS    07 635 01 00:   TENSION FROM RESISTIVITY
~PARAMETER INFORMATION
#MNEM.UNIT          VALUE    DESCRIPTION
#----------   ------------   ------------------------------
 EKB .F         5196.0000:   Kelly bushing
 EGL .F         5186.0000:   Ground level
 EDF .F            0.0000:   Drilling floor
 TD  .F         3402.0000:   Total depth
 DATE.        04-JUN-1981:   Date logged
 CLNT.            A2DTECH:   Client Code
 SL  . 377' FWL & 1733' FWL:   Surface Location
 PD  .                 GL:   Permanent Datum
 DD  .F              3400:   Depth driller
 DL  .F              3402:   Depth logger
 BLI .F              3395:   Bottom log interval
 TLI .F               720:   Top log interval
 CS1 .IN            8.625:   Casing size
 CBD1.      8.625" @ 707':   Casing driller 1
 CBL1.F               751:   Casing logger 1
 BS1 .IN            7.875:   Bit size
 BSD1.F              3400:   Depth drilled with bit1
 DFT .                FGM:   Type fluid in hole
 DFD .                8.8:   Density
 DFV .                 55:   Viscosity
 DFPH.                9.5:   pH
 DFL .                  9:   Fluid loss
 MSS .           MUD TANK:   Source of sample
 RMS .OHMM            1.7:   Rm
 MST .F                78:   Rm Meas. temp.
 RMF .OHMM           1.45:   Rmf
 MFST.F                78:   Rmf Meas. temp.
 MFSS.               MEAS:   Source Rmf.
 RMB .OHMM           1.12:   Rm. at BHT
 BHT .F               118:   BHT.
 TCS .HRS            1200:   Time Circ. stopped
 TLAB.HRS            1600:   Time logger at bottom
 MRT .F               118:   Maximum recorded temp.
 LUN .               8043:   Logging unit number
 LUL .             CASPER:   Logging unit location
 ENGI.             LARSON:   Recorded By
 WITN.              FIVAS:   Witnessed by
 ORIG.      2.5" 5" PRINT:   Origin of data
 UWI .     49025108730000:   Unique Well ID
 DICO. A2D TECHNOLOGIES, INC.:   Digitizing Company
 EPD .               5186:   Elevation Permanent Datum
 LMF .                 KB:   Log Measured From
 DMF .                 KB:   Drilling Measured From
 DAPD.                 10:   Feet Above Permanent Datum
~OTHER INFORMATION
~A   DEPT     TEND       CORR       RHOB       CALD         GRD       SPR        SFL        ILD        ILM       TENR   
# ...
 1457.0000  1038.5470    -0.0020     2.5040     8.6420   102.0580   -11.6330     7.9720     7.0160     6.5480  1113.0630
 1457.5000  1035.7710     0.0040     2.5030     8.6420   101.0900   -11.6350     8.0070     7.0160     6.5060  1113.4150
 1458.0000  1032.9960     0.0110     2.5070     8.6420   100.1270   -11.6780     8.0070     7.0160     6.5060  1113.7679
 1458.5000  1030.2209     0.0170     2.5180     8.6420    99.1490   -11.7260     8.0070     7.1500     6.5200  1114.1210
 1459.0000  1027.4449     0.0190     2.5290     8.6420    98.6560   -11.7750     8.0070     7.1500     6.5380  1114.4730
 1459.5000  1024.6700     0.0210     2.5340     8.6420    98.6990   -11.8230     8.0040     7.1500     6.5560  1114.8260
 1460.0000  1022.2670     0.0180     2.5350     8.6420    98.8190   -11.8720     8.0110     7.1540     6.5750  1115.1780
 1460.5000  1024.4760     0.0160     2.5310     8.6420    98.2090   -11.9200     8.1180     7.1910     6.5930  1115.5310
 1461.0000  1026.8199     0.0200     2.5270     8.6420    97.4190   -11.9690     8.1620     7.2250     6.6110  1115.8831
 1461.5000  1029.1630     0.0240     2.5240     8.6420    96.7630   -12.0180     8.1590     7.2610     6.6300  1116.2360
 1462.0000  1031.5070     0.0200     2.5120     8.6420    96.7840   -12.0380     8.1630     7.2980     6.6480  1116.5880
 1462.5000  1033.8510     0.0080     2.5000     8.6420    96.2410   -11.9730     8.1670     7.3330     6.6660  1116.9410
 1463.0000  1036.1940     0.0030     2.4980     8.6420    95.5910   -11.9160     8.1520     7.3690     6.6850  1117.2939
 1463.5000  1038.5380     0.0010     2.5140     8.6420    96.0550   -11.8550     8.3700     7.4050     6.7030  1117.6460
 1464.0000  1040.8820     0.0030     2.5220     8.6410    98.5700   -11.7960     8.4490     7.4410     6.7210  1117.9990
 1464.5000  1042.5880     0.0040     2.5120     8.6400    99.5890   -11.7360     8.4740     7.4770     6.7390  1118.3510
 1465.0000  1042.8430     0.0050     2.5010     8.6400    96.6870   -11.6740     8.4740     7.5120     6.7560  1118.7040
 1465.5000  1043.0970     0.0050     2.4990     8.6390    94.7040   -11.6420     8.4740     7.5480     6.7720  1119.0560
 1466.0000  1043.3521     0.0060     2.5070     8.6380    94.7520   -11.6730     8.4740     7.5840     6.7950  1119.4091
 1466.5000  1043.6071     0.0060     2.5100     8.6370    95.9580   -11.7020     8.4740     7.6200     6.8190  1119.7610
 1467.0000  1043.8621     0.0030     2.5070     8.6360    96.9220   -11.7340     8.5370     7.6560     6.8420  1120.1140
 1467.5000  1044.1169     0.0010     2.5050     8.6350    98.3240   -11.7640     8.6710     7.7180     6.8660  1120.4670
 1468.0000  1044.3710     0.0000     2.5050     8.6340   102.0220   -11.7950     8.8040     7.7000     6.8890  1120.8190
 1468.5000  1044.6260    -0.0020     2.5050     8.6340   104.2750   -11.8260     8.7970     7.8760     6.9120  1121.1720
 1469.0000  1044.8810    -0.0030     2.5050     8.6330   101.1440   -11.8570     8.8010     7.8390     6.9360  1121.5240
 1469.5000  1045.1360    -0.0010     2.5060     8.6320    97.6790   -11.8870     8.8000     8.0160     6.9590  1121.8770
 1470.0000  1045.3910     0.0010     2.5000     8.6310    97.6110   -11.9190     8.7990     7.9910     6.9820  1122.2290
 1470.5000  1045.6450    -0.0020     2.4900     8.6300    98.6180   -11.9480     8.8000     8.0000     7.0060  1122.5820
 1471.0000  1045.9000    -0.0050     2.4820     8.6290    99.6870   -11.9820     8.8000     7.9820     7.0290  1122.9340
 1471.5000  1046.1550    -0.0030     2.4820     8.6280    99.7530   -12.0090     8.7990     7.9730     7.0520  1123.2870
 1472.0000  1046.4100     0.0010     2.4930     8.6280    99.2120   -12.0300     8.8000     7.9630     7.0750  1123.6400
 1472.5000  1046.6650     0.0050     2.5070     8.6270    98.6680   -11.8820     8.8010     7.9540     7.0980  1123.9919
 1473.0000  1046.9189     0.0080     2.5070     8.6260    98.1210   -11.7340     8.8020     7.9450     7.1210  1124.3450
 1473.5000  1047.1740     0.0080     2.5020     8.6250    97.5800   -11.5780     8.8750     7.9360     7.1490  1124.6970
 1474.0000  1047.4290     0.0040     2.4970     8.6240    97.0290   -11.4280     8.9630     7.9270     7.1500  1125.0500
 1474.5000  1047.6840     0.0000     2.4930     8.6230    97.7820   -11.2760     8.8880     7.9180     7.1430  1125.4020
 1475.0000  1047.9390    -0.0050     2.4980     8.6220    99.6250   -11.1210     8.7470     7.9090     7.1310  1125.7550
 1475.5000  1048.1930    -0.0090     2.5020     8.6210   101.1470   -10.9740     8.6350     7.9000     7.1190  1126.1071
 1476.0000  1048.4480    -0.0090     2.5130     8.6360    98.0770   -10.8190     8.7590     7.8910     7.1070  1126.4600
 1476.5000  1048.7030    -0.0070     2.5250     8.6540    94.6140   -10.8920     9.0720     7.8820     7.0950  1126.8130
 1477.0000  1048.9580    -0.0010     2.5320     8.6710    92.8860   -11.0370     9.1380     7.8730     7.0830  1127.1650
 1477.5000  1049.2130     0.0060     2.5390     8.6820    94.6840   -11.1770     9.1380     7.8630     7.0720  1127.5179
 1478.0000  1049.4670     0.0140     2.5460     8.6780    98.1220   -11.3130     9.1380     7.8580     7.0600  1127.8700
 1478.5000  1049.7220     0.0150     2.5520     8.6750    99.0550   -11.4530     9.1380     7.8570     7.0480  1128.2230
 1479.0000  1049.9771     0.0090     2.5400     8.6710    99.5920   -11.5910     9.1380     7.8580     7.0360  1128.5750
 1479.5000  1050.2321     0.0030     2.5140     8.6680    99.9900   -11.7300     9.1380     7.8540     7.0230  1128.9280
 1480.0000  1050.4871    -0.0020     2.4890     8.6640    97.2110   -11.8670     8.7800     7.8630     7.0160  1129.2800
 1480.5000  1050.7410    -0.0010     2.4890     8.6610    94.1060   -12.0050     8.4740     7.8680     7.0160  1129.6331
 1481.0000  1050.9960     0.0020     2.4940     8.6570    92.7670   -12.0430     8.4940     7.7010     6.9700  1129.9860
 1481.5000  1051.2510     0.0060     2.5000     8.6540    92.7580   -12.0400     8.5520     7.7180     6.9300  1130.3380
 1482.0000  1051.5060     0.0090     2.5040     8.6500    94.7720   -12.0420     8.6090     7.7060     6.8910  1130.6910
 1482.5000  1051.7610     0.0080     2.5000     8.6470    96.9510   -12.0390     8.6350     7.7120     6.8510  1131.0430
 1483.0000  1052.0150     0.0040     2.4970     8.6430    99.1100   -12.0330     8.4140     7.6030     6.8120  1131.3960
 1483.5000  1052.2700     0.0010     2.4990     8.6400   100.6570   -11.8820     8.2210     7.5150     6.7720  1131.7480
 1484.0000  1052.5250    -0.0030     2.5050     8.6360   100.6280   -11.7140     8.0270     7.4240     6.7320  1132.1010
 1484.5000  1052.7800    -0.0020     2.5100     8.6330   100.6230   -11.5430     7.8580     7.3320     6.6930  1132.4540
 1485.0000  1053.0350    -0.0020     2.5090     8.6290   100.9070   -11.3750     7.8580     7.2410     6.6530  1132.8060
 1485.5000  1053.2889    -0.0020     2.5080     8.6260   102.5160   -11.2030     7.8580     7.1500     6.6130  1133.1591
 1486.0000  1053.5439     0.0080     2.5140     8.6230   104.2190   -11.0390     7.9420     7.0580     6.5730  1133.5110
 1486.5000  1053.7990     0.0150     2.5230     8.6190   104.1890   -10.8640     8.0170     6.9670     6.5330  1133.8640
 1487.0000  1054.0540     0.0130     2.5150     8.6160   102.9470   -10.9160     8.0920     6.8750     6.5050  1134.2159
 1487.5000  1054.3090     0.0090     2.5070     8.6120   101.6960   -11.0610     8.1600     6.7840     6.5060  1134.5690
 1488.0000  1054.5630     0.0060     2.5060     8.6090   101.0150   -11.2130     8.1600     6.7560     6.5060  1134.9210
 1488.5000  1054.8180     0.0060     2.5120     8.6050   101.7790   -11.2300     7.9710     6.8850     6.5060  1135.2740
 1489.0000  1055.0730     0.0090     2.5180     8.6020   102.8350   -11.1370     7.7600     6.8850     6.5060  1135.6270
 1489.5000  1055.3280     0.0120     2.5240     8.5980   103.9100   -10.8290     7.5670     7.0160     6.5060  1135.9790
 1490.0000  1055.5830     0.0110     2.5150     8.5950   103.8050   -10.5300     7.5670     7.2860     6.7560  1136.3320
