~VERSION INFORMATION
 VERS.                2.0:   CWLS LOG ASCII STANDARD - VERSION 2.0
 WRAP.                 NO:   ONE LINE PER DEPTH STEP
~WELL INFORMATION
#MNEM.UNIT      DATA TYPE    INFORMATION
#----------   ------------   ------------------------------
 STRT.F            4.0000:   START DEPTH
 STOP.F         5696.0000:   STOP DEPTH
 STEP.F            0.5000:   STEP LENGTH
 NULL.          -999.2500:   NO VALUE
 COMP.       FLUOR DANIEL:   COMPANY
 WELL.   FLUOR "X" #72-10:   WELL
 FLD .             NPR #3:   FIELD
 LOC .      S10 T38N R78W:   LOCATION
 CNTY.            NATRONA:   COUNTY
 STAT.            WYOMING:   STATE
 CTRY. UNITED STATES OF AMERICA:   COUNTRY
 SRVC.      WESTERN ATLAS:   SERVICE COMPANY
 DATE.        26-SEP-1996:   LOGDATE
 API .     49025228080000:   API NUMBER
~CURVE INFORMATION
#MNEM.UNIT       API CODE    CURVE DESCRIPTION
#----------   ------------   ------------------------------
 DEPT.F                  :   
 GRR .GAPI   07 310 01 00:   GAMMA RAY FROM RESISTIVITY
 SPR .MV     07 010 01 00:   SPONTANEOUS POTENTIAL
 CALR.IN     07 280 01 00:   CALIPER FROM RESISTIVITY
 RD  .OHMM   07 220 10 00:   RESISTIVITY DEEP
 RS  .OHMM   07 220 09 00:   RESISTIVITY SHALLOW
 TENR.LBS    07 635 01 00:   TENSION FROM RESISTIVITY
~PARAMETER INFORMATION
#MNEM.UNIT          VALUE    DESCRIPTION
#----------   ------------   ------------------------------
 EKB .F         5178.0000:   Kelly bushing
 EGL .F         5168.0000:   Ground level
 EDF .F         5177.0000:   Drilling floor
 TD  .F         5698.0000:   Total depth
 CLNT.            A2DTECH:   Client Code
 SL  . 687' FNL & 1002' FEL:   Surface Location
 PD  .                 GL:   Permanent Datum
 EPD .F              5168:   Elevation Permanent Datum
 LMF .                 KB:   Log Measured From
 DMF .                 KB:   Drilling Measured From
 DAPD.F                10:   Feet Above Permanent Datum
 DATE.        26-SEP-1996:   Date Logged [DD-MMM-YYYY]
 DD  .F              5698:   Depth driller
 DL  .F              5697:   Depth logger
 BLI .F              5685:   Bottom log interval
 CS1 .IN            9.625:   Casing size
 CBD1.      9.625" @ 526':   Casing driller 1
 CBL1.F               526:   Casing logger 1
 BS1 .IN             8.75:   Bit size
 BSD1.F              5698:   Depth drilled with bit1
 DFT .               CHEM:   Type fluid in hole
 DFD .                9.1:   Density
 DFV .                 60:   Viscosity
 DFPH.                9.5:   pH
 DFL .                7.6:   Fluid loss
 MSS .               CIRC:   Source of sample
 RMS .OHMM           0.82:   Rm
 MST .F                64:   Rm Meas. temp.
 RMF .OHMM           0.64:   Rmf
 MFST.F                64:   Rmf Meas. temp.
 MFSS.               CALC:   Source Rmf.
 RMC .OHMM           1.08:   Rmc
 MCST.F                64:   Rmc Meas. temp.
 MCSS.               CALC:   Source Rmc.
 RMB .OHMM           0.29:   Rm. at BHT
 BHT .F               183:   BHT.
 TCS .HRS               5:   Time Circ. stopped
 MRT .F               183:   Maximum recorded temp.
 LUN .            HL-6530:   Logging unit number
 LUL .             CASPER:   Logging unit location
 ENGI.           BROWNLOW:   Recorded By
 ORIG.        2" 5" PRINT:   Origin of data
 UWI .     49025228080000:   Unique Well ID
 WITN.              HARDY:   Witnessed by
 DICO. A2D TECHNOLOGIES, INC.:   Digitizing Company
~OTHER INFORMATION
~A  DEPTH      GRR        SPR       CALR         RD         RS       TENR
# ...
 1876.0000   125.4940   -61.8675     9.0789     7.9556     7.0995   -34.6677
 1876.5000   124.0126   -61.8500     9.0649     8.0131     7.1959   -36.2282
 1877.0000   122.2254   -61.8357     9.0515     8.1277     7.1959   -37.7887
 1877.5000   118.9322   -61.8215     9.0533     8.1864     7.1959   -39.3492
 1878.0000   115.6390   -61.8072     9.0392     8.2456     7.1959   -40.9098
 1878.5000   115.3579   -61.7893     9.0457     8.2477     7.2470   -42.4703
 1879.0000   117.1901   -61.7771     9.0576     8.2500     7.3471   -35.7571
 1879.5000   117.8126   -61.6102     9.0591     8.3679     7.4497   -35.6690
 1880.0000   117.2302   -61.5959     9.0760     8.5461     7.5536   -35.5984
 1880.5000   116.6476   -61.4177     9.0775     8.7280     7.6591   -35.5277
 1881.0000   118.5644   -61.2626     9.0788     8.9139     7.8200   -20.4645
 1881.5000   122.4159   -61.0977     9.0803     9.0414     7.9291   -27.8724
 1882.0000   124.5444   -61.0834     9.0818     9.1067     7.9842   -50.2904
 1882.5000   125.1668   -61.2199     9.0836     8.8598     7.9842   -65.2299
 1883.0000   125.1869   -61.3561     9.0695     8.6197     7.9842   -65.1416
 1883.5000   123.7059   -61.6430     9.0712     8.3735     7.7123   -20.0757
 1884.0000   121.6175   -61.7793     9.0727     7.7189     7.3833   -12.5087
 1884.5000   119.5291   -62.2133     9.0742     7.3042     7.1462   -34.9268
 1885.0000   118.0432   -62.0482     9.0760     7.9955     7.1462   -64.8411
 1885.5000   117.1596   -61.5788     9.0773     8.6316     7.3471   -72.2667
 1886.0000   119.2931   -61.4139     9.0789     8.8773     7.8200   -64.6821
 1886.5000   120.5180   -60.9478     9.0803     8.8183     8.2152   -34.6263
 1887.0000   121.4416   -60.3311     9.0821     8.7597     8.3811   -33.6877
 1887.5000   122.6665   -59.8615     9.0835     8.8229     8.3811   -42.9112
 1888.0000   123.9036   -59.8472     9.0850     8.9518     8.4981   -64.3993
 1888.5000   124.8200   -59.9835     9.0713     9.2033     8.6766   -71.8248
 1889.0000   125.4425   -59.9693     9.0576     9.3992     8.9305   -72.8643
 1889.5000   125.4625   -60.1056     9.0591     9.5330     9.3639   -63.4843
 1890.0000   121.2657   -60.0877     9.0606     9.6019     9.6941   -41.5924
 1890.5000   121.3529   -60.2276     9.0622     9.6714     9.8294   -34.0255
 1891.0000   125.5277   -60.2098     9.0636     9.7418     9.8294   -33.9548
 1891.5000   126.1451   -60.1955     9.0654     9.8122     9.7615   -33.8831
 1892.0000   122.5558   -60.1812     9.0669     9.8147     9.3639   -56.2845
 1892.5000   122.8770   -60.4682     9.0684     9.8173     8.9826   -63.7277
 1893.0000   127.2431   -60.7551     9.0697     9.6183     8.5572   -63.6394
 1893.5000   132.5607   -61.1891     9.0712     8.9142     8.0398   -48.5757
 1894.0000   136.1952   -61.3254     9.0727     8.1478     7.9291   -63.4980
 1894.5000   136.5114   -61.4617     9.0742     8.5553     8.3232   -70.9235
 1895.0000   133.8256   -61.4439     9.0759     8.9296     8.7370   -78.3491
 1895.5000   131.0513   -61.4307     9.0775     9.2390     8.9205   -63.2682
 1896.0000   129.3527   -61.4153     9.0788     9.3058     8.8589   -48.1873
 1896.5000   126.9631   -61.4006     9.0803     9.0536     8.7977   -48.1167
 1897.0000   122.4651   -61.2326     9.0818     8.9312     8.7370   -40.5497
 1897.5000   120.3767   -61.2183     9.0836     9.3137     8.7977   -32.9828
 1898.0000   119.7943   -61.0535     9.0697     9.5121     8.8589   -55.4008
 1898.5000   120.7230   -60.8885     9.0712     9.6475     8.9205   -62.8264
 1899.0000   121.0442   -60.7201     9.0726     9.6500     8.9826   -47.7455
 1899.5000   119.8595   -60.7059     9.0589     9.4538     9.1079   -32.6823
 1900.0000   118.3735   -60.8458     9.0456     9.1981     8.9826   -32.5940
 1900.5000   115.0853   -60.8279     9.0319     9.0732     9.0746   -32.5233
 1901.0000   112.9969   -61.1148     9.0333     8.8893     8.8921   -32.4526
 1901.5000   114.5230   -61.0970     9.0351     8.7692     8.6000   -54.8706
 1902.0000   117.5551   -61.0827     9.0365     8.8946     8.3621   -70.7912
 1902.5000   119.9951   -61.2226     9.0380     8.9588     8.3090   -84.7143
 1903.0000   120.3060   -61.2048     9.0242     8.9612     8.3716   -92.1398
 1903.5000   117.0178   -61.3411     9.0258     8.9635     8.4336   -92.0515
 1904.0000   117.3391   -61.3233     9.0267     8.9659     8.4962   -84.4828
 1904.5000   120.3712   -61.4632     9.0264     8.9688     8.5601   -84.3962
 1905.0000   124.1397   -61.4453     9.0261     8.9712     8.5640   -76.8292
 1905.5000   128.5473   -61.2801     9.0259     8.9736     8.5679   -76.7585
 1906.0000   130.9768   -61.2626     9.0256     8.9759     8.4537   -76.6866
 1906.5000   132.5030   -61.2483     9.0253     8.9162     8.3410   -69.1032
 1907.0000   129.8164   -61.2340     9.0251     8.8569     8.2308   -61.5363
 1907.5000   126.8242   -61.0692     9.0248     8.7980     8.1211   -53.9693
 1908.0000   125.3373   -61.2055     9.0245     8.7401     8.0686   -38.6570
 1908.5000   127.5965   -61.3418     9.0242     8.7424     8.0732   -23.8253
 1909.0000   130.5029   -61.4746     9.0240     8.6843     8.0768   -16.2583
 1909.5000   129.0167   -61.4603     9.0237     8.6271     8.0814    -1.2128
 1910.0000   129.6389   -61.4458     9.0234     8.7499     8.0850   -16.1169
 1910.5000   132.0733   -61.4282     9.0231     8.7522     8.0887   -46.0136
 1911.0000   132.9966   -61.2633     9.0229     8.7550     8.0339   -53.4568
 1911.5000   131.8116   -60.9478     9.0226     8.5177     7.9293   -60.8824
 1912.0000   126.1085   -60.7829     9.0223     8.4611     7.8245   -53.2978
 1912.5000   123.4224   -60.4639     9.0220     8.4633     7.7739   -30.7206
 1913.0000   123.4422   -60.1484     9.0218     8.4656     7.7784   -30.6499
 1913.5000   124.3656   -60.1341     9.0215     8.5866     7.7819   -45.5718
 1914.0000   125.5904   -60.1199     9.0212     8.6486     7.8942   -60.4936
 1914.5000   125.0125   -60.1054     9.0209     8.7111     7.9528   -75.4154
 1915.0000   120.8154   -60.0877     9.0207     8.7741     7.9572   -90.3372
 1915.5000   118.4206   -60.2276     9.0204     8.7765     7.9424   -90.2488
 1916.0000   118.4458   -60.3640     9.0201     8.6577     7.8546   -75.1856
 1916.5000   120.2773   -60.6473     9.0198     8.3190     7.6441   -67.6187
 1917.0000   123.3091   -60.7309     9.0196     7.8633     7.4383   -82.5405
 1917.5000   126.9433   -61.3178     9.0193     7.7549     7.2885   -89.9661
 1918.0000   129.1162   -61.6035     9.0190     7.8658     7.2414   -89.8777
 1918.5000   126.6867   -61.8854     9.0187     7.9226     7.2959   -89.8051
 1919.0000   124.5931   -61.7193     9.0185     7.9798     7.3500   -82.2224
 1919.5000   124.6178   -61.5341     9.0182     8.0379     7.3533   -67.1592
 1920.0000   127.0521   -60.7808     9.0180     7.9839     7.3575   -44.5997
 1920.5000   127.6694   -60.3135     9.0194     7.8765     7.2594   -29.5352
 1921.0000   121.9712   -60.2980     9.0208     7.7168     7.1626   -21.9520
 1921.5000   121.0874   -60.1280     9.0371     7.7725     7.1164   -36.8738
 1922.0000   121.1121   -59.9619     9.0382     7.9380     7.1699   -59.3095
 1922.5000   122.3367   -59.9464     9.0242     8.1070     7.2734   -81.7099
 1923.0000   124.4649   -59.9307     9.0255     8.2229     7.3783   -89.1178
 1923.5000   127.2352   -59.9116     9.0267     8.3399     7.5377   -81.5508
 1924.0000   129.3287   -59.8961     9.0279     8.3421     7.5936   -73.9839
 1924.5000   127.8425   -59.8806     9.0291     8.2298     7.6499   -58.8585
 1925.0000   126.3562   -59.8612     9.0304     8.1180     7.4966   -28.8473
 1925.5000   125.4152   -60.0002     9.0164     7.7897     7.2948   -13.7841
 1926.0000   123.9911   -60.0361     9.0176     7.4741     7.0494   -36.2022
 1926.5000   123.7048   -60.1160     9.0190     7.2715     6.8596   -81.1090
 1927.0000   124.9343   -60.0994     9.0200     7.3754     6.8635   -88.5346
 1927.5000   131.5855   -60.0811     9.0213     7.5849     6.9144   -88.4462
