~VERSION INFORMATION
 VERS.                2.0:   CWLS LOG ASCII STANDARD - VERSION 2.0
 WRAP.                 NO:   ONE LINE PER DEPTH STEP
~WELL INFORMATION
#MNEM.UNIT      DATA TYPE    INFORMATION
#----------   ------------   ------------------------------
 STRT.F           34.0000:   START DEPTH
 STOP.F         2909.0000:   STOP DEPTH
 STEP.F            0.5000:   STEP LENGTH
 NULL.          -999.2500:   NO VALUE
 COMP.   TESORO PETROLEUM:   COMPANY
 WELL. TESORO NPR "A" #3-28:   WELL
 FLD .             TEAPOT:   FIELD
 LOC .      S28 T39N R78W:   LOCATION
 CNTY.            NATRONA:   COUNTY
 STAT.            WYOMING:   STATE
 CTRY. UNITED STATES OF AMERICA:   COUNTRY
 SRVC.              WELEX:   SERVICE COMPANY
 DATE.        22-JUL-1968:   LOGDATE
 API .     49025102620000:   API NUMBER
~CURVE INFORMATION
#MNEM.UNIT       API CODE    CURVE DESCRIPTION
#----------   ------------   ------------------------------
 DEPT.F                  :   
 GRD .GAPI   45 310 01 00:   GAMMA RAY FROM DENSITY LOG
 SPR .MV     05 010 01 00:   SPONTANEOUS POTENTIAL FROM RES.
 ASN .OHMM   05 041 16 00:   AMPLIFIED SHORT NORMAL 16"
 ILD .OHMM   05 120 46 00:   INDUCTION LOG DEEP
~PARAMETER INFORMATION
#MNEM.UNIT          VALUE    DESCRIPTION
#----------   ------------   ------------------------------
 EKB .F         5050.0000:   Kelly bushing
 EGL .F         5039.0000:   Ground level
 EDF .F            0.0000:   Drilling floor
 EPD .F         5039.0000:   Permanent datum
 TD  .F         2906.0000:   Total depth
 CLNT.            A2DTECH:   Client Code
 DATE.       22-JULY-1968:   Date Logged [DD-MMM-YYYY]
 DD  .F              2906:   Depth driller
 DL  .F              2906:   Depth logger
 BLI .F              2901:   Bottom log interval
 TLI .F               356:   Top log interval
 CS1 .              10.75:   Casing size
 CBD1.      10.75" @ 356':   Casing driller 1
 CBL1.IN              356:   Casing logger 1
 BS1 .IN                9:   Bit size
 DFT .     WATER BASE MUD:   Type fluid in hole
 DFD .                9.6:   Density
 DFV .                 60:   Viscosity
 DFPH.                9.0:   pH
 DFL .                  6:   Fluid loss
 MSS .               CTRC:   Source of sample
 RMS .OHMM            2.1:   Rm
 MST .F                74:   Rm Meas. temp.
 RMF .OHMM            1.6:   Rmf
 MFST.F                71:   Rmf Meas. temp.
 MFSS.               MEAS:   Source Rmf.
 RMC .OHMM            3.0:   Rmc
 MCST.F                66:   Rmc Meas. temp.
 RMB .OHMM            1.3:   Rm. at BHT
 BHT .F               120:   BHT.
 MRT .F               120:   Maximum recorded temp.
 LUN .               6869:   Logging unit number
 ORIG.         2.5" PRINT:   Origin of data
 UWI .     49025102620000:   Unique Well ID
 DICO. A2D TECHNOLOGIES, INC.:   Digitizing Company
 LUL .          NEWCASTLE:   Logging unit location
~OTHER INFORMATION
~A   DEPT      GRD        SPR         ASN         ILD 
# ...
 2078.0000    59.0071   -31.2500     7.5824     5.9623
 2078.5000    61.3337   -31.2500     7.2997     5.4132
 2079.0000    63.6601   -31.2500     6.9856     5.2545
 2079.5000    65.7839   -31.2500     6.9850     5.2530
 2080.0000    67.6367   -31.2500     7.0596     5.4087
 2080.5000    68.5185   -31.2500     7.2200     5.7217
 2081.0000    66.1357   -31.2500     7.4020     5.8774
 2081.5000    63.8805   -31.2500     7.5539     5.8957
 2082.0000    60.4967   -31.1457     7.6703     6.1888
 2082.5000    62.1065   -30.9375     7.7649     6.1399
 2083.0000    63.8518   -30.9375     7.6388     5.9676
 2083.5000    65.5972   -30.9375     7.5215     5.7951
 2084.0000    67.3425   -30.6250     7.3868     5.7107
 2084.5000    69.0878   -30.6250     7.1981     5.7089
 2085.0000    70.6644   -30.6250     7.2602     5.8646
 2085.5000    68.8685   -30.6250     7.4476     6.0203
 2086.0000    64.5595   -30.6250     7.6702     6.3333
 2086.5000    61.2655   -30.6250     8.0069     6.4890
 2087.0000    62.7274   -30.6250     8.2922     6.8019
 2087.5000    63.7148   -30.6250     8.0408     6.4596
 2088.0000    64.1153   -30.6250     7.8119     5.9727
 2088.5000    64.2831   -30.6250     7.5830     5.6432
 2089.0000    62.7802   -30.6250     7.2940     5.3133
 2089.5000    61.6535   -30.8073     7.0812     5.2217
 2090.0000    59.5597   -30.9375     7.0971     5.2198
 2090.5000    54.1127   -30.9375     7.2218     5.2183
 2091.0000    53.3830   -30.6250     7.3466     5.3742
 2091.5000    57.7876   -30.6250     7.3520     5.5298
 2092.0000    62.6960   -30.6250     7.2514     5.5283
 2092.5000    65.1725   -30.6250     7.2194     5.6840
 2093.0000    65.1409   -30.9375     7.1561     5.6824
 2093.5000    64.1443   -30.9375     7.1242     5.6808
 2094.0000    63.7957   -30.9375     7.0922     5.4759
 2094.5000    67.5389   -30.9375     7.0843     5.2060
 2095.0000    72.4107   -30.9375     7.0502     5.0472
 2095.5000    75.4016   -30.9375     6.9730     4.8884
 2096.0000    77.2640   -30.9375     6.7561     4.8865
 2096.5000    80.2549   -31.2500     6.6668     5.0424
 2097.0000    82.8696   -31.2500     6.7617     5.0407
 2097.5000    85.1082   -31.5625     6.7115     5.0392
 2098.0000    88.0991   -31.5625     6.6795     5.0377
 2098.5000    91.0900   -31.8750     6.7104     4.8789
 2099.0000    94.8332   -31.5625     6.7097     4.7201
 2099.5000    97.4480   -31.4845     6.6464     4.5613
 2100.0000    94.4201   -30.9375     6.4890     4.4025
 2100.5000    89.8369   -30.9375     6.4571     4.6242
 2101.0000    85.9675   -30.9375     6.6802     5.0303
 2101.5000    83.9222   -30.9375     6.8614     5.8650
 2102.0000    81.2758   -31.2500     7.1508     6.0327
 2102.5000    81.4012   -31.2500     7.4389     6.3578
 2103.0000    82.7022   -31.5625     7.6999     6.6829
 2103.5000    84.2600   -31.5625     8.0721     7.0927
 2104.0000    85.8181   -31.4457     8.5291     7.5516
 2104.5000    86.5711   -31.2024     8.9358     7.7074
 2105.0000    85.4493   -30.9592     9.1661     7.7048
 2105.5000    82.0692   -30.7159     9.3033     7.3870
 2106.0000    78.6891   -30.4266     9.3342     7.2270
 2106.5000    76.8137   -30.4330     9.3335     7.0670
 2107.0000    75.3144   -30.4410     9.2075     6.8953
 2107.5000    75.3008   -30.4489     9.0188     6.7468
 2108.0000    76.0876   -30.4569     8.7278     6.7087
 2108.5000    78.5419   -30.4648     8.5071     6.5844
 2109.0000    85.0570   -30.4728     8.5922     6.4243
 2109.5000    88.2853   -30.4807     8.6402     6.4219
 2110.0000    88.5134   -30.4887     8.5456     6.4196
 2110.5000    87.3903   -30.4966     8.6693     6.4167
 2111.0000    88.9005   -30.5046     8.8310     6.4145
 2111.5000    87.4354   -30.5125     9.0450     6.4122
 2112.0000    87.0320   -30.5205     9.2012     6.5678
 2112.5000    87.4138   -30.5284     9.3573     6.7231
 2113.0000    88.5489   -30.5364     9.4821     6.7208
 2113.5000    89.0390   -30.5443     9.6382     6.7295
 2114.0000    85.9266   -30.5523     9.5604     6.8969
 2114.5000    86.6845   -30.5602     9.4176     7.1872
 2115.0000    87.8185   -30.5681     9.5507     7.3426
 2115.5000    89.3286   -30.5761     9.6579     7.4981
 2116.0000    90.4626   -30.5840     9.8470     7.6530
 2116.5000    87.2885   -30.5920    10.2393     7.8920
 2117.0000    84.2813   -30.5999    10.8376     8.1210
 2117.5000    83.3317   -30.6079    11.1641     8.4342
 2118.0000    85.6405   -30.6158    11.1060     8.5899
 2118.5000    85.2127   -30.6238    10.9486     8.5874
 2119.0000    84.1005   -30.6317    10.4776     8.2696
 2119.5000    84.1072   -30.6397    10.0068     7.7942
 2120.0000    84.1128   -30.6476     9.5662     7.3082
 2120.5000    84.1196   -30.6556     9.1560     6.8204
 2121.0000    83.7480   -30.6635     8.3435     6.6830
 2121.5000    82.6258   -30.6715     8.2175     6.6806
 2122.0000    79.9981   -30.6794     8.2796     6.7371
 2122.5000    78.8750   -30.6874     8.5298     6.8336
 2123.0000    79.2567   -30.6953     8.9053     6.9890
 2123.5000    80.0145   -30.7022     9.0615     6.8284
 2124.0000    81.5703   -30.7084     8.8689     6.6684
 2124.5000    83.4110   -30.7147     8.3714     6.5084
 2125.0000    82.6641   -30.7210     7.8998     6.1907
 2125.5000    83.1332   -30.7272     7.4752     6.0307
 2126.0000    84.0251   -30.7335     7.0981     5.7129
 2126.5000    85.2071   -30.7398     6.8632     5.3951
 2127.0000    87.5774   -30.7461     6.7059     5.3707
 2127.5000    86.6614   -30.7523     6.6739     5.2327
 2128.0000    84.5089   -30.7586     6.8614     5.1840
 2128.5000    81.5766   -30.7649     6.8921     5.0702
 2129.0000    81.0821   -30.7711     6.7637     4.9973
 2129.5000    81.5876   -30.7774     6.5319     4.8252
 2130.0000    82.3454   -30.7837     6.3135     4.7472
 2130.5000    83.1032   -30.7900     6.1686     4.7449
 2131.0000    83.8610   -30.7962     6.1797     4.7426
 2131.5000    84.6188   -30.8025     6.3216     4.5826
 2132.0000    86.1693   -30.8088     6.4518     4.5803
 2132.5000    87.6835   -30.8150     6.5110     4.5781
 2133.0000    88.3970   -30.8213     6.5417     4.5757
 2133.5000    86.9138   -30.8276     6.6977     4.5734
 2134.0000    85.5498   -30.8338     7.0733     4.5710
 2134.5000    83.5249   -30.8401     7.0100     4.7267
 2135.0000    80.1448   -30.8464     6.9781     4.9395
 2135.5000    76.7647   -30.8527     7.3463     5.2647
 2136.0000    75.5610   -30.8589     7.9071     5.4322
 2136.5000    78.6565   -30.8652     8.1048     5.9782
 2137.0000    82.0765   -30.8715     8.0155     5.9760
 2137.5000    84.3414   -30.8777     7.9311     5.9737
 2138.0000    84.2610   -30.8840     7.9146     5.8137
 2138.5000    82.5794   -30.8903     7.8513     5.4959
 2139.0000    80.5295   -30.8965     7.6626     5.3359
 2139.5000    76.6780   -30.9028     7.3799     5.3336
 2140.0000    75.3092   -30.9091     7.3648     5.3312
 2140.5000    76.0410   -30.9154     7.4733     5.4868
 2141.0000    79.1448   -30.9216     7.5381     5.6872
 2141.5000    81.5002   -30.9279     7.6838     5.8546
 2142.0000    78.7194   -30.9342     7.9674     5.9527
 2142.5000    77.5964   -30.9404     8.0659     5.7111
 2143.0000    76.8495   -30.9467     7.9427     5.4743
 2143.5000    76.1026   -30.9530     7.5392     5.1566
 2144.0000    75.7319   -30.9593     7.0295     4.8388
 2144.5000    75.7374   -30.9655     6.5214     4.5211
 2145.0000    76.5954   -30.9718     6.2424     4.3611
 2145.5000    81.1243   -30.9781     5.7424     4.3588
 2146.0000    82.5250   -30.9843     5.9394     4.5143
 2146.5000    80.0217   -30.9906     5.9728     4.5118
 2147.0000    77.1066   -30.9969     6.1279     4.6674
 2147.5000    71.8389   -31.0031     6.6469     4.5071
 2148.0000    69.6025   -31.0094     7.1811     4.3470
 2148.5000    69.5669   -31.0157     6.9611     4.1180
 2149.0000    70.1758   -31.0220     6.2708     3.9459
 2149.5000    72.7854   -31.0282     5.4865     3.7085
 2150.0000    76.9288   -31.0345     4.7962     3.3908
 2150.5000    78.9160   -31.0408     4.2724     3.2308
