~VERSION INFORMATION
 VERS.                2.0:   CWLS LOG ASCII STANDARD - VERSION 2.0
 WRAP.                 NO:   ONE LINE PER DEPTH STEP
~WELL INFORMATION
#MNEM.UNIT      DATA TYPE    INFORMATION
#----------   ------------   ------------------------------
 STRT.F           31.5000:   START DEPTH
 STOP.F         3370.0000:   STOP DEPTH
 STEP.F            0.5000:   STEP LENGTH
 NULL.          -999.2500:   NO VALUE
 COMP. LAWRENCE ALLISON & ASSOC - WEST:   COMPANY
 WELL. LAWRENCE "AX" #46-34:   WELL
 FLD .             NPR #3:   FIELD
 LOC .      S34 T39N R78W:   LOCATION
 CNTY.            NATRONA:   COUNTY
 STAT.            WYOMING:   STATE
 CTRY. UNITED STATES OF AMERICA:   COUNTRY
 SRVC.       SCHLUMBERGER:   SERVICE COMPANY
 DATE.        30-APR-1986:   LOGDATE
 API .     49025111380000:   API NUMBER
~CURVE INFORMATION
#MNEM.UNIT       API CODE    CURVE DESCRIPTION
#----------   ------------   ------------------------------
 DEPT.F                  :   
 TENR.LBS    07 635 01 00:   TENSION FROM RESISTIVITY
 GRR .GAPI   07 310 01 00:   GAMMA RAY FROM RESISTIVITY
 CALR.IN     07 280 01 00:   CALIPER FROM RESISTIVITY
 SPR .MV     07 010 01 00:   SPONTANEOUS POTENTIAL
 TEND.LBS    45 635 01 00:   TENSION FROM DENSITY LOG
 DEN .G/C3   45 350 01 00:   BULK DENSITY
 CORR.G/C3   45 356 01 00:   DENSITY CORRECTION
 CNC .DEC    42 890 03 00:   NEUTRON PORISITY SANDSTONE
 RFOC.OHMM   07 220 04 00:   RESISTIVITY FOCUSED LOG
 RILD.OHMM   07 120 46 00:   RESISTIVITY INDUCTION LOG DEEP
 RILM.OHMM   07 120 44 00:   RESISTIVITY INDUCTION LOG MEDIUM
~PARAMETER INFORMATION
#MNEM.UNIT          VALUE    DESCRIPTION
#----------   ------------   ------------------------------
 EKB .F         5094.0000:   Kelly bushing
 EGL .F         5082.0000:   Ground level
 EDF .F            0.0000:   Drilling floor
 TD  .F         3370.0000:   Total depth
 DATE.        30-APR-1986:   Date logged
 CLNT.            A2DTECH:   Client Code
 SL  . 2462' FWL & 1545' FSL:   Surface Location
 PD  .                 GL:   Permanent Datum
 EPD .F              5082:   Elevation Permanent Datum
 LMF .                 KB:   Log Measured From
 DMF .                 KB:   Drilling Measured From
 DAPD.F                12:   Feet Above Permanent Datum
 DD  .F              3370:   Depth driller
 DL  .F              3369:   Depth logger
 BLI .F              3367:   Bottom log interval
 CS1 .IN            8.625:   Casing size
 CBD1.      8.625" @ 642':   Casing driller 1
 CBL1.F               642:   Casing logger 1
 BS1 .IN            7.875:   Bit size
 BSD1.F              3370:   Depth drilled with bit1
 DFT .        POLYMER/KCL:   Type fluid in hole
 DFD .                8.9:   Density
 DFV .                 36:   Viscosity
 DFPH.                8.5:   pH
 DFL .               10.2:   Fluid loss
 MSS .           FLOWLINE:   Source of sample
 RMS .OHMM           .319:   Rm
 MST .F                79:   Rm Meas. temp.
 RMF .OHMM            .24:   Rmf
 MFST.F                79:   Rmf Meas. temp.
 RMC .OHMM            .40:   Rmc
 MCST.F                79:   Rmc Meas. temp.
 MFSS.               CALC:   Source Rmf.
 MCSS.               CALC:   Source Rmc.
 RMB .OHMM            .21:   Rm. at BHT
 BHT .F               117:   BHT.
 TCS .HRS               4:   Time Circ. stopped
 MRT .F               117:   Maximum recorded temp.
 LUN .            HL-6264:   Logging unit number
 LUL .           GILLETTE:   Logging unit location
 ENGI.     P. M. FAHLSING:   Recorded By
 WITN.             STRONG:   Witnessed by
 ORIG.        2" 5" PRINT:   Origin of data
 UWI .     49025111380000:   Unique Well ID
 DICO. A2D TECHNOLOGIES, INC.:   Digitizing Company
 TLI .                  0:   Top log interval
~OTHER INFORMATION
~A   DEPT     TENR        GRR       CALR        SPR       TEND        DEN       CORR        CNC       RFOC       RILD       RILM   
# ...
  641.5000  -999.2500    63.8570  -999.2500  -999.2500  -999.2500  -999.2500  -999.2500  -999.2500  -999.2500  -999.2500  -999.2500
  642.0000   -24.3902    64.1420     8.8300   -48.7574  -999.2500  -999.2500  -999.2500  -999.2500  -999.2500  -999.2500  -999.2500
  642.5000   -24.3902    68.8630     8.8700   -53.8660  -999.2500  -999.2500  -999.2500  -999.2500     0.3897    79.0177  1798.2300
  643.0000   -24.3902    73.7900     9.7500   -58.3360  -999.2500  -999.2500  -999.2500  -999.2500     0.6325    42.1040   962.0040
  643.5000   -24.3902    76.2820     9.9410   -62.8060  -999.2500  -999.2500  -999.2500  -999.2500     1.5027    10.7830     3.3720
  644.0000   -24.3902    77.8670    10.1440   -68.3000  -999.2500  -999.2500  -999.2500  -999.2500     2.7010     3.7710     3.1900
  644.5000   -24.3902    79.9450    10.3500   -69.2000  -999.2500  -999.2500  -999.2500  -999.2500     3.7670     4.7800     4.3540
  645.0000   -24.3902    82.0460    10.4790   -70.3680  -999.2500  -999.2500  -999.2500  -999.2500     4.9460    11.1310     5.6420
  645.5000   -24.3902    85.4080    11.3900   -71.5350  -999.2500  -999.2500  -999.2500  -999.2500     5.7130    28.2260     6.9290
  646.0000   -24.3902    88.8820    11.9700   -72.7030  -999.2500  -999.2500  -999.2500  -999.2500     5.8220    45.7580     8.2170
  646.5000   -24.3902    89.0980    12.0000   -73.8710  -999.2500  -999.2500  -999.2500  -999.2500     5.9170    32.1810     9.7680
  647.0000   -24.3902    88.9330    12.0130   -75.2390  -999.2500  -999.2500  -999.2500  -999.2500     6.0120    14.7290     8.8200
  647.5000   -24.3230    89.0270    12.0240   -75.1990  -999.2500  -999.2500  -999.2500  -999.2500     6.1070     7.4700     7.8230
  648.0000   -34.3530    87.4850    12.0260   -76.7510  -999.2500  -999.2500  -999.2500  -999.2500     6.2010     7.1990     7.6800
  648.5000   -34.3530    85.3440    12.0430   -78.1920  -999.2500  -999.2500  -999.2500  -999.2500     6.2960     6.8730     7.6090
  649.0000   -24.3230    85.5070    12.0550   -78.8070  -999.2500  -999.2500  -999.2500  -999.2500     6.3830     6.6850     7.5390
  649.5000   -10.7200    88.6400    12.0370   -79.0170  -999.2500  -999.2500  -999.2500  -999.2500     6.3450     6.6050     7.6790
  650.0000   -10.2150    90.8480    12.0180   -79.2370  -999.2500  -999.2500  -999.2500  -999.2500     6.3610     6.5630     7.5390
  650.5000    -4.2630    90.8580    11.9170   -79.4550  -999.2500  -999.2500  -999.2500  -999.2500     6.3010     6.5020     7.5390
  651.0000   -14.2930    89.6940    11.8370   -79.6700  -999.2500  -999.2500  -999.2500  -999.2500     6.2580     6.5020     7.4700
  651.5000   -14.2930    87.8070    12.0100   -79.8930  -999.2500  -999.2500  -999.2500  -999.2500     6.2140     6.5020     6.8730
  652.0000   -15.3260    86.7040    11.9540   -80.1020  -999.2500  -999.2500  -999.2500  -999.2500     6.1710     6.5020     6.6070
  652.5000   -17.2090    89.9670    11.6330   -80.3320  -999.2500  -999.2500  -999.2500  -999.2500     6.2500     6.5630     6.6670
  653.0000   -19.0920    93.0230    11.2960   -80.5350  -999.2500  -999.2500  -999.2500  -999.2500     6.3610     6.6850     6.7270
  653.5000   -20.9760    95.9640    10.9590   -80.7660  -999.2500  -999.2500  -999.2500  -999.2500     6.4730     6.6850     6.7870
  654.0000   -22.8590    99.3620    10.8890   -80.9740  -999.2500  -999.2500  -999.2500  -999.2500     6.5850     6.6850     6.5520
  654.5000   -24.7430    99.7280    10.9350   -81.1000  -999.2500  -999.2500  -999.2500  -999.2500     6.6970     6.4100     6.1250
  655.0000   -26.6260    99.8570    10.9870   -81.2370  -999.2500  -999.2500  -999.2500  -999.2500     6.8090     6.2230     5.6980
  655.5000   -28.5100   100.3020    11.0040   -80.9100  -999.2500  -999.2500  -999.2500  -999.2500     6.9370     6.0360     5.2710
  656.0000   -30.3930    98.9270    11.0100   -80.1190  -999.2500  -999.2500  -999.2500  -999.2500     6.9370     5.8480     4.8440
  656.5000   -32.2760    94.0900    10.9770   -79.2790  -999.2500  -999.2500  -999.2500  -999.2500     6.1480     5.6610     4.8390
  657.0000   -34.3530    92.4640    11.0050   -78.9130  -999.2500  -999.2500  -999.2500  -999.2500     5.4080     5.4550     5.0390
  657.5000   -34.3530    94.2000    11.1750   -79.4890  -999.2500  -999.2500  -999.2500  -999.2500     4.7480     5.2570     5.2390
  658.0000   -84.5040    94.0930    11.1520   -80.3200  -999.2500  -999.2500  -999.2500  -999.2500     5.2370     5.6100     5.4390
  658.5000   -58.3700    93.8860    11.0330   -81.1460  -999.2500  -999.2500  -999.2500  -999.2500     5.7740     5.9280     5.6390
  659.0000   -34.3530    94.3380    10.9800   -81.9430  -999.2500  -999.2500  -999.2500  -999.2500     6.4430     6.2470     5.8390
  659.5000   -60.9330    95.8150    10.9670   -82.8050  -999.2500  -999.2500  -999.2500  -999.2500     6.5880     6.5660     6.0390
  660.0000   -84.5040    95.9650    10.9850   -83.4700  -999.2500  -999.2500  -999.2500  -999.2500     6.7810     6.8840     6.2390
  660.5000   -62.3480    94.7800    10.9850   -83.5330  -999.2500  -999.2500  -999.2500  -999.2500     6.9740     7.2030     6.4380
  661.0000   -44.3830    94.5940    10.9950   -83.6390  -999.2500  -999.2500  -999.2500  -999.2500     7.1670     7.5220     6.6380
  661.5000    -4.2630    95.4460    11.0010   -83.6350  -999.2500  -999.2500  -999.2500  -999.2500     7.3600     7.8960     6.8730
  662.0000    15.7970    95.0430    11.0080   -83.5190  -999.2500  -999.2500  -999.2500  -999.2500     7.4700     7.8580     6.8230
  662.5000   -24.3230    93.3810    11.0100   -83.4940  -999.2500  -999.2500  -999.2500  -999.2500     7.7720     7.8130     6.8430
  663.0000   -44.3830    94.7140    11.0100   -83.4030  -999.2500  -999.2500  -999.2500  -999.2500     8.0160     7.7670     6.8630
  663.5000   -64.4430    98.4110    11.0070   -83.3530  -999.2500  -999.2500  -999.2500  -999.2500     8.1940     7.7230     6.8840
  664.0000   -74.4730   100.3060    11.0030   -83.2840  -999.2500  -999.2500  -999.2500  -999.2500     8.1280     7.6790     6.9040
  664.5000   -84.5040    96.9370    10.9920   -83.2170  -999.2500  -999.2500  -999.2500  -999.2500     8.0760     7.6360     6.9240
  665.0000   -74.4730    92.4710    10.9920   -83.1600  -999.2500  -999.2500  -999.2500  -999.2500     8.0250     7.5930     6.9440
  665.5000   -54.4130    92.6380    11.0300   -83.0850  -999.2500  -999.2500  -999.2500  -999.2500     7.9700     7.5500     6.9650
  666.0000   -54.4130    98.4670    11.0780   -83.0320  -999.2500  -999.2500  -999.2500  -999.2500     7.9580     7.5060     6.9850
  666.5000   -34.3530   102.0740    11.1080   -82.9560  -999.2500  -999.2500  -999.2500  -999.2500     7.9450     7.4700     7.0020
  667.0000   -34.3530    98.7890    11.0740   -82.9060  -999.2500  -999.2500  -999.2500  -999.2500     7.9320     7.5020     6.9760
  667.5000   -34.3530    95.4500    11.0290   -82.9910  -999.2500  -999.2500  -999.2500  -999.2500     7.9190     7.5300     6.9540
  668.0000   -44.3830    92.9770    11.0300   -83.1130  -999.2500  -999.2500  -999.2500  -999.2500     7.9060     7.5580     6.9320
  668.5000   -34.3530    91.5580    11.0300   -83.2190  -999.2500  -999.2500  -999.2500  -999.2500     7.8960     7.5860     6.9100
  669.0000   -14.2930    90.5930    11.0300   -83.3350  -999.2500  -999.2500  -999.2500  -999.2500     7.8230     7.6140     6.8880
  669.5000    15.7970    87.2680    11.0310   -83.4480  -999.2500  -999.2500  -999.2500  -999.2500     8.0720     7.6420     6.8660
  670.0000    15.7970    85.1910    11.0290   -83.5570  -999.2500  -999.2500  -999.2500  -999.2500     8.2750     7.6700     6.8440
  670.5000   -24.3230    87.3250    11.0300   -83.6790  -999.2500  -999.2500  -999.2500  -999.2500     8.4770     7.6980     6.8220
  671.0000   -34.3530    89.8190    11.0300   -83.7780  -999.2500  -999.2500  -999.2500  -999.2500     8.6790     7.7260     6.7230
  671.5000   -54.4130    90.3400    11.0300   -83.9110  -999.2500  -999.2500  -999.2500  -999.2500     8.6280     7.7510     6.5410
