~VERSION INFORMATION
 VERS.                2.0:   CWLS LOG ASCII STANDARD - VERSION 2.0
 WRAP.                 NO:   ONE LINE PER DEPTH STEP
~WELL INFORMATION
#MNEM.UNIT      DATA TYPE    INFORMATION
#----------   ------------   ------------------------------
 STRT.F           16.0000:   START DEPTH
 STOP.F         4208.0000:   STOP DEPTH
 STEP.F            0.5000:   STEP LENGTH
 NULL.          -999.2500:   NO VALUE
 COMP.    FENIX & SCISSON:   COMPANY
 WELL. FENIX NPR 3 "MX" #41-10:   WELL
 FLD .                NPR:   FIELD
 LOC .      S10 T38N R78W:   LOCATION
 CNTY.            NATRONA:   COUNTY
 STAT.            WYOMING:   STATE
 CTRY. UNITED STATES OF AMERICA:   COUNTRY
 SRVC.       SCHLUMBERGER:   SERVICE COMPANY
 DATE.        04-NOV-1978:   LOGDATE
 API .     49025107260000:   API NUMBER
~CURVE INFORMATION
#MNEM.UNIT       API CODE    CURVE DESCRIPTION
#----------   ------------   ------------------------------
 DEPT.F                  :   
 TENR.LBS    07 635 01 00:   TENSION FROM RESISTIVITY
 SPR .MV     07 010 01 00:   SPONTANEOUS POTENTIAL
 SFL .OHMM   07 220 01 00:   SHALLOW FOCUSED LOG RESISTIVITY
 ILD .OHMM   07 120 46 00:   DEEP INDUCTION RESISTIVITY
 ILM .OHMM   07 120 44 00:   INDUCTION LOG MEDIUM RESISTIVITY
 CALD.IN     45 280 60 00:   CALIPER FROM DENSITY LOG
 GRD .GAPI   45 310 01 00:   GAMMA RAY FROM DENSITY LOG
 TEND.LBS    45 635 01 00:   TENSION FROM DENSITY LOG
 RHOB.G/C3   45 350 01 00:   BULK DENSITY
 CORR.G/C3   45 356 01 00:   DENSITY CORRECTION
 NPHI.DEC    42 890 03 00:   NEUTRON POROSITY SANDSTONE
~PARAMETER INFORMATION
#MNEM.UNIT          VALUE    DESCRIPTION
#----------   ------------   ------------------------------
 EKB .F         5237.0000:   Kelly bushing
 EGL .F         5227.0000:   Ground level
 EDF .F            0.0000:   Drilling floor
 TD  .F         4200.0000:   Total depth
 DATE.        04-NOV-1978:   Date logged
 CLNT.            A2DTECH:   Client Code
 SL  . 70' FNL & 2370' FWL:   Surface Location
 PD  .                 GL:   Permanent Datum
 EPD .F              5227:   Elevation Permanent Datum
 LMF .                 KB:   Log Measured From
 DMF .                 KB:   Drilling Measured From
 DAPD.F                10:   Feet Above Permanent Datum
 DD  .F              4200:   Depth driller
 DL  .F              4191:   Depth logger
 BLI .F              4185:   Bottom log interval
 TLI .F               506:   Top log interval
 CS1 .IN            9.625:   Casing size
 CBD1.      9.625" @ 500':   Casing driller 1
 CBL1.F               506:   Casing logger 1
 BS1 .IN             8.75:   Bit size
 BSD1.F              4200:   Depth drilled with bit1
 DFT .                FGM:   Type fluid in hole
 DFD .                9.3:   Density
 DFV .                 42:   Viscosity
 DFPH.               11.5:   pH
 DFL .                6.4:   Fluid loss
 MSS .               TANK:   Source of sample
 RMS .OHMM           1.08:   Rm
 MST .F                67:   Rm Meas. temp.
 RMF .OHMM           0.83:   Rmf
 MFST.F                67:   Rmf Meas. temp.
 MFSS.               MEAS:   Source Rmf.
 RMB .OHMM           0.58:   Rm. at BHT
 BHT .F               125:   BHT.
 TCS .HRS            0430:   Time Circ. stopped
 TLAB.HRS            0830:   Time logger at bottom
 MRT .F               125:   Maximum recorded temp.
 LUN .               8039:   Logging unit number
 LUL .               CSPR:   Logging unit location
 ENGI.          STADULLIS:   Recorded By
 WITN.              AMEND:   Witnessed by
 ORIG.           5" PRINT:   Origin of data
 UWI .     49025107260000:   Unique Well ID
 DICO. A2D TECHNOLOGIES, INC.:   Digitizing Company
~OTHER INFORMATION
~A   DEPT     TENR        SPR        SFL        ILD        ILM       CALD         GRD      TEND       RHOB       CORR       NPHI   
# ...
 3432.0000  1385.5420   -19.1470     4.3660     3.5320     3.7590    10.3290   165.3250  1650.7290     2.4960     0.0280     0.3150
 3432.5000  1385.5420   -19.1470     4.1930     3.4390     3.6560    10.3300   163.4480  1650.8350     2.4990     0.0290     0.3160
 3433.0000  1385.5420   -19.1470     4.0190     3.3460     3.5530    10.3310   161.7600  1650.9399     2.5030     0.0330     0.3240
 3433.5000  1385.5420   -19.1470     3.8210     3.2530     3.4490    10.3330   163.1210  1651.0460     2.5020     0.0360     0.3310
 3434.0000  1385.5420   -19.1470     3.8920     3.1600     3.3570    10.3340   164.5070  1651.1510     2.4960     0.0370     0.3370
 3434.5000  1385.5420   -19.1470     3.8920     3.0600     3.2930    10.3350   166.0670  1651.2570     2.4890     0.0350     0.3410
 3435.0000  1385.5420   -19.1470     3.8920     3.0500     3.2350    10.3360   167.5180  1651.3621     2.4820     0.0340     0.3440
 3435.5000  1385.5420   -19.1470     3.7580     3.0380     3.1760    10.3370   168.8670  1651.4680     2.4760     0.0320     0.3470
 3436.0000  1385.5420   -19.1470     3.5830     3.0270     3.1670    10.3390   171.1600  1651.5730     2.4700     0.0300     0.3500
 3436.5000  1385.5420   -19.1470     3.4830     3.0150     3.1520    10.3400   174.6830  1651.6790     2.4650     0.0290     0.3530
 3437.0000  1385.5420   -19.1470     3.5390     3.0040     3.1370    10.3410   178.4580  1651.7841     2.4620     0.0310     0.3530
 3437.5000  1385.5420   -19.1470     3.6240     2.9930     3.1220    10.3420   174.8670  1651.8900     2.4580     0.0340     0.3520
 3438.0000  1385.5420   -19.1470     3.6820     2.9810     3.1080    10.3430   169.5630  1651.9950     2.4530     0.0310     0.3490
 3438.5000  1385.5420   -19.1460     3.6440     2.9700     3.0930    10.3450   161.7330  1652.1010     2.4500     0.0240     0.3460
 3439.0000  1385.5420   -19.1470     3.5750     2.9580     3.0780    10.3450   160.8600  1652.2070     2.4580     0.0270     0.3430
 3439.5000  1385.5420   -19.1460     3.5050     2.9350     3.0600    10.3460   164.2100  1652.3120     2.4780     0.0450     0.3400
 3440.0000  1385.5420   -19.1920     3.4350     2.8670     3.0090    10.3490   167.3010  1652.4180     2.5010     0.1100     0.3340
 3440.5000  1385.5420   -19.2580     3.3570     2.7900     2.9470    10.3470   167.6540  1652.5229     2.5210     0.1770     0.3280
 3441.0000  1385.5420   -19.3210     3.2950     2.6720     2.8850    10.3530   168.0630  1652.6290     2.5000     0.2220     0.3230
 3441.5000  1385.5420   -19.3860     3.1510     2.5360     2.7960    10.3540   168.4790  1652.7340     2.4630     0.2060     0.3290
 3442.0000  1385.5420   -19.4530     2.9470     2.4000     2.6490    10.4080   168.8010  1652.8400     2.4230     0.1830     0.3220
 3442.5000  1385.5420   -19.5020     2.7390     2.2640     2.5020    10.8130   169.2970  1652.9449     2.3820     0.1650     0.3150
 3443.0000  1385.5420   -19.6690     2.5900     2.1290     2.3550    11.4940   169.8650  1653.0510     2.3670     0.1490     0.3090
 3443.5000  1385.5420   -19.7480     2.3370     1.9930     2.2080    11.3420   173.6560  1653.1560     2.3610     0.1370     0.3090
 3444.0000  1385.5420   -19.7460     2.0850     1.9230     2.0610    11.1490   178.6830  1653.2620     2.3560     0.1160     0.3110
 3444.5000  1385.5420   -19.8470     1.8330     2.0450     1.9270    10.8980   183.8170  1653.3669     2.3480     0.0840     0.3220
 3445.0000  1385.5420   -19.9370     1.7570     2.1660     2.0920    10.8960   187.8250  1653.4730     2.3530     0.0820     0.3440
 3445.5000  1385.5420   -19.9190     2.2300     2.2880     2.3260    10.9060   182.4770  1653.5780     2.3590     0.0820     0.3650
 3446.0000  1385.5420   -19.9040     2.7420     2.4090     2.5600    10.6960   173.6520  1653.6840     2.3790     0.0820     0.3800
 3446.5000  1385.5420   -19.8870     3.2540     2.5310     2.7950    10.4070   159.6270  1653.7889     2.4660     0.1220     0.3690
 3447.0000  1385.5420   -19.8700     3.7670     2.6520     3.0290    10.3570   149.5200  1653.8950     2.4590     0.2490     0.3610
 3447.5000  1385.5420   -19.8540     4.3490     2.7900     3.2950    10.4650   141.8570  1654.0000     2.4190     0.2500     0.3350
 3448.0000  1385.5420   -19.8370     4.6830     3.0040     3.2890    10.5520   140.7560  1654.1060     2.3610     0.2230     0.3120
 3448.5000  1385.5420   -19.8210     4.3830     3.1760     3.2760    10.5640   141.3970  1654.2111     2.2920     0.1420     0.2990
 3449.0000  1385.5420   -19.8030     3.9530     3.1760     3.2620    10.5760   144.9190  1654.3170     2.3220     0.0370     0.2930
 3449.5000  1385.5420   -19.7870     3.5220     3.1760     3.2490    10.6120   148.0390  1654.4220     2.3800     0.0460     0.3070
 3450.0000  1385.5420   -19.7740     3.1760     3.1760     3.2350    10.7160   151.3880  1654.5280     2.4500     0.0540     0.3170
 3450.5000  1385.5420   -19.7470     3.1760     3.1350     3.2220    11.1120   154.4970  1654.6331     2.4350     0.0640     0.3300
 3451.0000  1385.5420   -19.7480     3.6600     3.0380     3.2090    11.3550   157.9570  1654.7390     2.4140     0.0490     0.3540
 3451.5000  1385.5420   -19.7740     4.1310     2.9400     3.1950    11.3030   156.2600  1654.8440     2.3910     0.0330     0.3490
 3452.0000  1385.5420   -20.0260     4.3490     2.8430     3.1820    11.2370   154.0970  1654.9500     2.3860     0.0190     0.3370
 3452.5000  1385.5420   -20.1610     4.3490     2.7460     3.0410    11.2030   151.5150  1655.0560     2.4160     0.0050     0.3170
 3453.0000  1385.5420   -19.9880     3.7860     2.6490     2.7930    11.2800   149.9610  1655.1610     2.4490     0.0060     0.3000
 3453.5000  1385.5420   -20.1070     3.1210     2.4970     2.5450    11.2130   150.7430  1655.2670     2.4840     0.0680     0.2970
 3454.0000  1385.5420   -19.9100     2.2350     2.5250     2.4060    11.1530   154.9980  1655.3719     2.5380     0.1280     0.2980
 3454.5000  1385.5420   -19.8700     2.3920     2.5880     2.6080    11.0950   167.9470  1655.4780     2.5050     0.2240     0.3310
 3455.0000  1385.5420   -19.5490     3.1030     2.6510     2.7990    11.2970   185.1460  1655.5830     2.3260     0.2080     0.4150
 3455.5000  1385.5420   -19.5090     3.8140     2.7140     2.9900    11.5340   182.4230  1655.6890     2.1300     0.1160     0.4080
 3456.0000  1385.5420   -19.4720     4.5260     2.7770     3.1810    11.6100   174.5130  1655.7939     2.1290    -0.0230     0.3840
 3456.5000  1385.5420   -19.4380     4.9500     2.9650     3.3660    10.9680   159.6650  1655.9000     2.4040    -0.0180     0.3520
 3457.0000  1385.5420   -19.4050     4.7250     3.1870     3.5400    10.3300   149.3500  1656.0050     2.4280    -0.0020     0.3210
 3457.5000  1385.5420   -19.3690     4.5030     3.4080     3.7140    10.3060   142.2250  1656.1110     2.5060     0.0160     0.3040
 3458.0000  1385.5420   -19.3440     4.3490     3.6300     3.8890    10.2910   140.5510  1656.2159     2.5350     0.0350     0.3120
 3458.5000  1385.5420   -19.3140     4.5210     3.8210     4.0390    10.2870   141.7400  1656.3220     2.5740     0.0540     0.3200
 3459.0000  1385.5420   -19.2780     4.8460     3.7490     3.9990    10.2780   145.2450  1656.4270     2.5570     0.0590     0.3270
 3459.5000  1385.5420   -19.2410     5.2320     3.6860     3.9460    10.2690   149.0800  1656.5330     2.5310     0.0500     0.3040
 3460.0000  1385.5420   -19.2050     5.2320     3.6230     3.8930    10.2500   153.2360  1656.6379     2.5070     0.0430     0.2960
 3460.5000  1385.5420   -19.1660     4.8640     3.5600     3.8400    10.2320   157.4720  1656.7440     2.5120     0.0360     0.3030
 3461.0000  1385.5420   -19.1450     4.5090     3.4970     3.7870    10.2140   161.6240  1656.8490     2.5200     0.0610     0.2940
 3461.5000  1385.5420   -19.1470     4.2690     3.4340     3.7510    10.1950   165.6990  1656.9550     2.5290     0.0990     0.2990
 3462.0000  1385.5420   -19.1450     4.2510     3.3710     3.6120    10.1770   170.9160  1657.0601     2.5310     0.1050     0.3160
