~VERSION INFORMATION
 VERS.                2.0:   CWLS LOG ASCII STANDARD - VERSION 2.0
 WRAP.                 NO:   ONE LINE PER DEPTH STEP
~WELL INFORMATION
#MNEM.UNIT      DATA TYPE    INFORMATION
#----------   ------------   ------------------------------
 STRT.F           15.0000:   START DEPTH
 STOP.F         2952.5000:   STOP DEPTH
 STEP.F            0.5000:   STEP LENGTH
 NULL.          -999.2500:   NO VALUE
 COMP.    FENIX & SCISSON:   COMPANY
 WELL.  FENIX "AX" #64-29:   WELL
 FLD .  TEAPOT DOME NPR-3:   FIELD
 LOC .      S29 T39N R78W:   LOCATION
 CNTY.            NATRONA:   COUNTY
 STAT.            WYOMING:   STATE
 CTRY. UNITED STATES OF AMERICA:   COUNTRY
 SRVC.           BIRDWELL:   SERVICE COMPANY
 DATE.        02-MAY-1978:   LOGDATE
 API .     49025106460000:   API NUMBER
~CURVE INFORMATION
#MNEM.UNIT       API CODE    CURVE DESCRIPTION
#----------   ------------   ------------------------------
 DEPT.F                  :   
 SPR .MV     05 010 01 00:   SPONTANEOUS POTENTIAL
 IL  .OHMM   05 120 00 00:   INDUCTION RESISTIVITY
 SN  .OHMM   05 040 16 00:   SHORT NORMAL 16"
 CALD.IN     45 280 60 00:   CALIPER FROM DENSITY LOG
 GRD .GAPI   45 310 01 00:   GAMMA RAY FROM DENSITY LOG
 CORR.G/C3   45 356 01 00:   DENSITY CORRECTION
 RHOB.G/C3   45 350 01 00:   BULK DENSITY
~PARAMETER INFORMATION
#MNEM.UNIT          VALUE    DESCRIPTION
#----------   ------------   ------------------------------
 EKB .F         4993.0000:   Kelly bushing
 EGL .F         4983.0000:   Ground level
 EDF .F            0.0000:   Drilling floor
 TD  .F         2952.0000:   Total depth
 DATE.        02-MAY-1978:   Date logged
 CLNT.            A2DTECH:   Client Code
 SL  . 2150' FNL & 1560' FEL:   Surface Location
 PD  .                 GL:   Permanent Datum
 DD  .F              2950:   Depth driller
 DL  .F              2952:   Depth logger
 BLI .F              2947:   Bottom log interval
 CBL1.F               150:   Casing logger 1
 BS1 .IN            7.875:   Bit size
 DFT .                GEL:   Type fluid in hole
 DFD .                8.7:   Density
 DFV .                 30:   Viscosity
 DFPH.                 10:   pH
 DFL .                7.6:   Fluid loss
 MSS .            MUD PIT:   Source of sample
 RMS .OHMM            1.3:   Rm
 MST .F                62:   Rm Meas. temp.
 RMF .OHMM            .95:   Rmf
 MFST.F                64:   Rmf Meas. temp.
 RMC .OHMM              1:   Rmc
 MCST.F                64:   Rmc Meas. temp.
 MFSS.               MEAS:   Source Rmf.
 RMB .OHMM            .73:   Rm. at BHT
 BHT .F               110:   BHT.
 TCS .HRS               3:   Time Circ. stopped
 MRT .F               110:   Maximum recorded temp.
 LUN .               2958:   Logging unit number
 LUL .               CASP:   Logging unit location
 ENGI.             MILLER:   Recorded By
 WITN.           MCGINLEY:   Witnessed by
 ORIG.         2.5" PRINT:   Origin of data
 UWI .     49025106460000:   Unique Well ID
 DICO. A2D TECHNOLOGIES, INC.:   Digitizing Company
 DAPD.                 10:   Feet Above Permanent Datum
 BSD1.F              2950:   Depth drilled with bit1
 EPD .F              4983:   Elevation Permanent Datum
 LMF .                 KB:   Log Measured From
 DMF .                 KB:   Drilling Measured From
 TLI .F               150:   Top log interval
~OTHER INFORMATION
~A   DEPT      SPR         IL         SN       CALD        GRD       CORR       RHOB   
# ...
 1653.0000   -55.9760     6.5160     7.8930     8.1050   100.7370     0.1140     2.5870
 1653.5000   -55.9760     6.5160     8.0740     8.2510   101.8220     0.1030     2.5850
 1654.0000   -55.9760     6.7370     8.4710     8.2140   103.5120     0.1030     2.5830
 1654.5000   -55.9760     7.0140     8.7450     8.2110   105.1080     0.1090     2.5810
 1655.0000   -55.9760     6.9750     8.7450     8.2320    99.9110     0.1140     2.5810
 1655.5000   -55.9760     6.9340     8.7450     8.2270    92.5020     0.1210     2.5820
 1656.0000   -55.9760     6.8860     8.7450     8.2340    89.4800     0.1270     2.5830
 1656.5000   -55.9760     6.9920     8.7450     8.2340    90.2610     0.1280     2.5790
 1657.0000   -55.9760     7.1180     8.7450     8.2470    92.4730     0.1200     2.5680
 1657.5000   -55.9760     7.2700     8.7450     8.2450    91.3960     0.1120     2.5540
 1658.0000   -55.9760     7.2580     8.7450     8.2820    89.0990     0.1220     2.5430
 1658.5000   -55.9760     7.2330     8.7450     8.5960    86.7770     0.1340     2.5570
 1659.0000   -55.9760     7.2090     8.9810     8.1520    84.2280     0.1390     2.5720
 1659.5000   -55.9760     7.1840     9.4120     8.0350    80.9040     0.1390     2.5860
 1660.0000   -55.9760     7.1600     9.3050     7.9920    76.4460     0.1390     2.5910
 1660.5000   -55.9760     7.1260     9.0910     7.9980    78.3210     0.1390     2.5880
 1661.0000   -55.9760     7.0750     8.8760     7.9630    83.3220     0.1390     2.5860
 1661.5000   -55.9760     7.0230     8.6620     7.9470    87.9020     0.1390     2.5830
 1662.0000   -55.9760     6.9720     8.5850     7.9370    92.5000     0.1390     2.5800
 1662.5000   -55.9760     6.9210     8.5850     8.0610    94.2160     0.1390     2.5770
 1663.0000   -55.9760     6.8860     8.5850     8.1820    94.5990     0.1380     2.5730
 1663.5000   -55.9760     6.8860     8.5850     8.3050    94.9420     0.1430     2.5610
 1664.0000   -55.9760     6.8860     8.5850     8.4300   101.5360     0.1520     2.5480
 1664.5000   -55.9760     6.8860     8.5850     8.5560   100.6610     0.1600     2.5430
 1665.0000   -55.9760     6.8860     8.5850     8.5970    98.9870     0.1680     2.5540
 1665.5000   -55.9760     6.8860     8.5850     8.4160    97.2540     0.1640     2.5660
 1666.0000   -55.9760     6.8860     8.5850     8.2220    95.6000     0.1460     2.5760
 1666.5000   -55.9760     6.8860     8.5850     8.2170    93.7390     0.1230     2.5870
 1667.0000   -55.9760     6.8860     8.5850     8.2180    93.2860     0.0960     2.5750
 1667.5000   -55.9760     6.8860     8.5860     8.2300    95.2990     0.0800     2.5640
 1668.0000   -55.9760     6.8860     8.5860     8.2360    96.9990     0.0710     2.5600
 1668.5000   -55.9760     6.8860     8.5860     8.2430    98.9850     0.0670     2.5570
 1669.0000   -55.9760     6.8860     8.5860     8.2510    98.9470     0.0700     2.5560
 1669.5000   -55.9760     6.8860     8.5860     8.2590    98.8940     0.0730     2.5560
 1670.0000   -55.9760     6.8870     8.5870     8.2660    97.0550     0.0780     2.5560
 1670.5000   -55.9760     6.8870     8.5850     8.2740    93.1350     0.0820     2.5560
 1671.0000   -55.9760     6.8870     8.5850     8.2810    94.6680     0.0870     2.5540
 1671.5000   -55.9780     6.8900     8.4980     8.2890    98.2980     0.0910     2.5530
 1672.0000   -55.9620     6.8870     8.3770     8.2960   103.0970     0.0960     2.5550
 1672.5000   -55.9320     6.8930     8.2550     8.3010   107.8730     0.0990     2.5580
 1673.0000   -55.9050     6.8830     8.1340     8.3130   112.9240     0.0980     2.5510
 1673.5000   -55.8770     6.8860     8.0130     8.3230   115.0980     0.0970     2.5440
 1674.0000   -55.8490     6.1410     7.7600     8.3110   114.6100     0.0960     2.5240
 1674.5000   -55.8210     5.6360     7.4520     8.3330   112.5930     0.0950     2.5040
 1675.0000   -55.7930     5.1310     7.1440     8.2880   109.0630     0.0960     2.4780
 1675.5000   -55.7650     5.0040     6.7200     8.1970   103.2830     0.0980     2.4350
 1676.0000   -55.7370     4.8780     6.2970    10.0590    98.1330     0.1290     2.4420
 1676.5000   -55.7090     4.7510     5.8360     9.3160    92.1440     0.1960     2.5270
 1677.0000   -55.6810     4.6240     5.8360     7.9420    97.5110     0.1010     2.5190
 1677.5000   -55.6540     4.4980     5.8360     8.1050   104.2240     0.0720     2.4960
 1678.0000   -55.6260     4.3490     5.9490     8.1130   107.4380     0.0540     2.4770
 1678.5000   -55.5980     4.6030     6.0640     8.2190   107.2890     0.0830     2.4580
 1679.0000   -55.5700     4.9460     6.1800     8.0970   107.3770     0.1050     2.4330
 1679.5000   -55.5420     4.9850     6.2810    10.0150   107.3350     0.1310     2.4600
 1680.0000   -55.5140     5.0280     6.4200     7.8380   110.5200     0.1170     2.5140
 1680.5000   -55.4860     5.0720     6.5440     8.0620   109.3380     0.0880     2.5770
 1681.0000   -55.4580     5.1160     6.6680     7.9350   105.8240     0.0730     2.5710
 1681.5000   -55.4300     5.1840     6.8470     7.9990   102.5590     0.0720     2.5650
 1682.0000   -55.4030     5.3860     7.2720     8.0050    98.2580     0.0700     2.5580
 1682.5000   -55.3750     5.5230     7.2630     7.9990    99.7350     0.0680     2.5520
 1683.0000   -55.3470     5.5230     7.2450     8.0150   103.2930     0.0650     2.5480
 1683.5000   -55.3190     5.5230     7.2270     8.0190   106.9650     0.0630     2.5440
 1684.0000   -55.2910     5.5230     7.2090     8.0290   106.5940     0.0630     2.5390
 1684.5000   -55.2630     5.5230     7.1910     8.0360   105.6370     0.0630     2.5350
 1685.0000   -55.2360     5.5230     7.1730     8.0440   105.1170     0.0620     2.5300
 1685.5000   -55.2070     5.5230     7.1550     8.0520   106.5480     0.0620     2.5270
 1686.0000   -55.1780     5.5230     7.1020     8.0590   107.5510     0.0610     2.5170
 1686.5000   -55.1110     5.4950     6.9920     8.0640   105.7750     0.0600     2.5070
 1687.0000   -55.0430     5.3670     6.8810     8.0760   104.0930     0.0600     2.4960
 1687.5000   -54.9730     5.2260     6.7600     8.0840   102.3550     0.0590     2.4830
 1688.0000   -54.9040     4.8530     6.5040     8.1160   100.4280     0.0590     2.4520
 1688.5000   -54.8350     4.4290     6.2210     8.1580    98.8240     0.0610     2.3980
 1689.0000   -54.7810     4.2690     5.9370     8.2260    92.7620     0.0600     2.3430
 1689.5000   -54.7810     4.1910     5.6540     8.3750    90.5360     0.0620     2.2920
 1690.0000   -54.7800     4.0950     5.3700     8.2340    86.9620     0.0690     2.2410
 1690.5000   -54.7810     3.9990     5.0870    12.6250    82.1690     0.1440     2.1830
 1691.0000   -54.7810     3.9020     4.6800    10.6000    77.8630     0.1950     2.3210
 1691.5000   -54.7810     3.8240     4.6880     8.1800    78.8200     0.1120     2.4700
 1692.0000   -54.7810     3.8240     4.7030     8.4740    79.7430     0.0910     2.4420
 1692.5000   -54.7810     3.8240     4.7170     8.5410    80.7670     0.0970     2.4150
 1693.0000   -54.7810     3.8240     4.7310     9.4890    81.9180     0.1150     2.3820
 1693.5000   -54.7810     3.8240     4.7450    11.1790    81.2560     0.1810     2.4660
 1694.0000   -54.7810     3.8240     4.7670     8.1340    80.3210     0.1580     2.4590
 1694.5000   -54.7810     3.8400     4.6820     8.5990    79.4720     0.1010     2.4220
 1695.0000   -54.7810     3.8600     4.4290     8.7590    78.5870     0.0860     2.3850
 1695.5000   -54.7810     3.8810     4.4840     8.1280    80.4010     0.1310     2.3310
 1696.0000   -54.7810     3.9010     4.5490    12.1090    82.7210     0.1670     2.3610
 1696.5000   -54.7810     3.9220     4.6140     8.4120    85.2110     0.1350     2.4480
 1697.0000   -54.7810     3.9430     4.6800     8.5550    94.1860     0.1040     2.5240
 1697.5000   -54.7810     3.9670     4.9780     8.4380    97.9680     0.1040     2.4990
 1698.0000   -54.7810     4.1900     5.2800     8.3540    97.8090     0.1050     2.4780
