~VERSION INFORMATION
 VERS.                2.0:   CWLS LOG ASCII STANDARD - VERSION 2.0
 WRAP.                 NO:   ONE LINE PER DEPTH STEP
~WELL INFORMATION
#MNEM.UNIT      DATA TYPE    INFORMATION
#----------   ------------   ------------------------------
 STRT.F           10.5000:   START DEPTH
 STOP.F         5650.0000:   STOP DEPTH
 STEP.F            0.5000:   STEP LENGTH
 NULL.          -999.2500:   NO VALUE
 COMP.    FENIX & SCISSON:   COMPANY
 WELL. FENIX NPR 3 "LX" #56-3:   WELL
 FLD .              N P R:   FIELD
 LOC .       S3 T38N R78W:   LOCATION
 CNTY.            NATRONA:   COUNTY
 STAT.            WYOMING:   STATE
 CTRY. UNITED STATES OF AMERICA:   COUNTRY
 SRVC.              WELEX:   SERVICE COMPANY
 DATE.        13-JUN-1978:   LOGDATE
 API .     49025109250000:   API NUMBER
~CURVE INFORMATION
#MNEM.UNIT       API CODE    CURVE DESCRIPTION
#----------   ------------   ------------------------------
 DEPT.F                  :   
 NPHI.DEC    42 890 03 00:   NEUTRON POROSITY SANDSTONE
 SPR .MV     07 010 01 00:   SPONTANEOUS POTENTIAL
 ILD .OHMM   07 120 46 00:   DEEP INDUCTION RESISTIVITY
 ILM .OHMM   07 120 44 00:   INDUCTION LOG MEDIUM RESISTIVITY
 SFL .OHMM   07 220 01 00:   SHALLOW FOCUSED LOG RESISTIVITY
 GRD .GAPI   45 310 01 00:   GAMMA RAY FROM DENSITY LOG
 CALD.IN     45 280 60 00:   CALIPER FROM DENSITY LOG
 RHOB.G/C3   45 350 01 00:   BULK DENSITY
 CORR.G/C3   45 356 01 00:   DENSITY CORRECTION
~PARAMETER INFORMATION
#MNEM.UNIT          VALUE    DESCRIPTION
#----------   ------------   ------------------------------
 EKB .F         5181.0000:   Kelly bushing
 EGL .F         5171.0000:   Ground level
 EDF .F         5180.0000:   Drilling floor
 TD  .F         5644.0000:   Total depth
 DATE.        13-JUN-1978:   Date logged
 CLNT.            A2DTECH:   Client Code
 SL  . 1980' FSL & 2080' FEL:   Surface Location
 PD  .                 GL:   Permanent Datum
 EPD .F              5171:   Elevation Permanent Datum
 LMF .                 KB:   Log Measured From
 DMF .                 KB:   Drilling Measured From
 DD  .F              5640:   Depth driller
 DL  .F              5644:   Depth logger
 BLI .F              5638:   Bottom log interval
 TLI .F              3093:   Top log interval
 CS1 .IN            8.625:   Casing size
 CBD1.      8.625" @ 545':   Casing driller 1
 BS1 .IN            7.875:   Bit size
 DFT .                FGM:   Type fluid in hole
 DFD .                9.2:   Density
 DFV .                 52:   Viscosity
 DFPH.                 11:   pH
 DFL .                5.2:   Fluid loss
 MSS .           MUD/TANK:   Source of sample
 RMS .OHMM           0.59:   Rm
 MST .F                80:   Rm Meas. temp.
 RMF .OHMM           0.48:   Rmf
 MFST.F                80:   Rmf Meas. temp.
 MFSS.               MEAS:   Source Rmf.
 RMB .OHMM           0.29:   Rm. at BHT
 BHT .F               162:   BHT.
 TCS .HRS            1200:   Time Circ. stopped
 MRT .F               162:   Maximum recorded temp.
 LUN .               7675:   Logging unit number
 LUL .               CODY:   Logging unit location
 ENGI.               BOND:   Recorded By
 ORIG.           5" PRINT:   Origin of data
 UWI .     49025109250000:   Unique Well ID
 DICO. A2D TECHNOLOGIES, INC.:   Digitizing Company
 DAPD.F                10:   Feet Above Permanent Datum
 BSD1.F              5640:   Depth drilled with bit1
 TLAB.HRS            1630:   Time logger at bottom
~OTHER INFORMATION
~A  DEPTH     NPHI        SPR        ILD        ILM        SFL        GRD       CALD       RHOB       CORR
# ...
 5266.5000     0.0630   -76.9980    61.2630    58.6880   208.2400    36.9910     9.1040     2.8610     0.0460
 5267.0000     0.0790   -77.8090    50.9120    47.9980   199.3070    39.6490     9.1040     2.8370     0.0640
 5267.5000     0.0900   -78.6180    48.3640    38.8680   156.6160    34.0230     9.1040     2.8590     0.0620
 5268.0000     0.0740   -79.4280    45.7330    31.3040    90.2340    30.4770     9.1040     2.8700     0.0400
 5268.5000     0.0570   -80.2380    43.5580    35.4170    48.1840    28.3790     9.1040     2.8790     0.0260
 5269.0000     0.0470   -81.0480    38.5920    37.2780    74.6870    36.3590     9.1040     2.8660     0.0320
 5269.5000     0.0720   -81.8570    33.3810    33.9580   131.0050    45.2930     9.1040     2.8330     0.0370
 5270.0000     0.0920   -82.6670    32.0040    31.3020   125.5840    54.2440     9.1040     2.8000     0.0420
 5270.5000     0.1130   -83.4140    30.5950    28.6460   102.0650    63.2980     9.1040     2.7280     0.0470
 5271.0000     0.1330   -84.0560    29.1870    25.9900    78.5470    68.2120     9.1040     2.7170     0.0430
 5271.5000     0.1450   -84.3570    27.5850    23.9100    55.0290    70.4960     9.1040     2.7310     0.0340
 5272.0000     0.1550   -84.5540    25.1300    22.2400    35.9240    72.7690     9.1040     2.7220     0.0480
 5272.5000     0.1650   -84.7450    22.6760    20.4270    40.1570    76.3280     9.1040     2.7050     0.0410
 5273.0000     0.1750   -84.9370    20.2220    18.5760    42.7660    81.6480     9.1040     2.6760     0.0370
 5273.5000     0.1880   -85.1280    17.7680    16.1580    35.9370    86.9080     9.1040     2.6570     0.0440
 5274.0000     0.1840   -85.3200    16.3880    13.5820    27.8120    87.6260     9.1040     2.6860     0.0620
 5274.5000     0.1800   -85.4470    15.8030    13.6350    21.2930    87.6330     9.1040     2.7120     0.0740
 5275.0000     0.1750   -85.5090    15.2170    13.7250    22.4910    87.6090     9.1010     2.7070     0.0700
 5275.5000     0.1750   -85.5720    14.6320    13.8330    23.9900    88.4660     9.0980     2.7000     0.0620
 5276.0000     0.1850   -85.6340    14.0460    13.3010    24.2110    89.6250     9.0950     2.6770     0.0530
 5276.5000     0.1970   -85.6960    13.4600    12.6380    23.3380    90.1500     9.0920     2.6620     0.0420
 5277.0000     0.2080   -85.7580    12.8750    11.9740    21.1830    88.3970     9.0900     2.6660     0.0550
 5277.5000     0.2080   -85.8200    12.2890    11.3110    19.0280    84.3880     9.0870     2.6550     0.0450
 5278.0000     0.2050   -85.8820    11.9440    10.6470    16.8720    82.4910     9.0840     2.6510     0.0350
 5278.5000     0.2010   -85.9440    11.4580    10.0200    15.9940    80.4690     9.0810     2.6530     0.0250
 5279.0000     0.2090   -86.0060    10.9770     9.5260    15.4100    77.4680     9.0780     2.6500     0.0160
 5279.5000     0.2150   -86.0680    10.5040     9.2380    14.2120    70.2780     9.0750     2.6690     0.0120
 5280.0000     0.1860   -86.1300    10.5040     9.2680    12.8770    63.1020     9.0720     2.7180     0.0200
 5280.5000     0.1630   -86.1900    11.2590     9.5730    11.5420    53.4040     9.0690     2.7650     0.0250
 5281.0000     0.1390   -86.3650    12.1620    10.7030    10.6990    55.6650     9.0660     2.7800     0.0920
 5281.5000     0.1160   -86.6020    13.0650    11.8330    19.4820    61.2050     9.0630     2.7720     0.0520
 5282.0000     0.1250   -87.2320    13.9680    12.9630    33.5410    66.5820     9.0600     2.7310     0.0230
 5282.5000     0.1350   -87.9260    14.8710    14.1600    49.9860    60.2930     9.0580     2.6920     0.0490
 5283.0000     0.1460   -88.6270    18.0260    15.5830    43.5220    50.9920     9.0550     2.7050     0.0380
 5283.5000     0.1270   -89.3550    21.6410    17.0060    29.5870    41.3520     9.0520     2.7490     0.0330
 5284.0000     0.0990   -89.6980    25.2550    22.3350    27.2790    40.2430     9.0490     2.7730     0.0290
 5284.5000     0.0820   -90.0360    29.9000    28.4400    59.0190    42.4020     9.0460     2.7910     0.0400
 5285.0000     0.0860   -90.3770    29.7680    37.9570    89.6590    52.5830     9.0430     2.7820     0.0420
 5285.5000     0.0970   -90.7190    29.3890    36.8620   125.1300    64.1790     9.0400     2.7480     0.0340
 5286.0000     0.1080   -91.0610    29.7490    34.3790   121.7320    75.8380     9.0370     2.7040     0.0300
 5286.5000     0.1280   -91.3700    30.3580    31.8960    98.9720    87.3510     9.0340     2.6590     0.0280
 5287.0000     0.1520   -91.4500    31.3040    28.9450    57.9640    89.0380     9.0310     2.6490     0.0260
 5287.5000     0.1600   -91.5230    30.7110    26.5380    35.9240    87.4940     9.0280     2.6420     0.0220
 5288.0000     0.1630   -91.5970    29.3890    26.1910    36.0070    85.7460     9.0250     2.6330     0.0180
 5288.5000     0.1580   -91.6700    28.0670    25.8600    36.1340    82.1550     9.0230     2.6300     0.0140
 5289.0000     0.1590   -91.7500    26.7450    25.5290    36.2550    77.3340     9.0200     2.6460     0.0170
 5289.5000     0.1640   -91.5910    25.4240    25.1980    33.7810    72.8910     9.0170     2.6930     0.0380
 5290.0000     0.1660   -91.3460    24.1020    24.6600    30.1760    70.9670     9.0140     2.7340     0.0380
 5290.5000     0.1500   -91.0950    22.9140    25.3730    30.4540    70.4880     9.0110     2.7400     0.0430
 5291.0000     0.1380   -90.8630    22.5070    26.4520    40.8280    73.4240     9.0080     2.7090     0.0430
 5291.5000     0.1340   -90.4410    22.2920    27.0300    50.5980    86.9060     9.0050     2.6760     0.0370
 5292.0000     0.1480   -90.0320    22.2920    25.2760    55.8040    94.5910     9.0020     2.6480     0.0300
 5292.5000     0.1590   -89.6240    23.2350    23.5540    47.1830    93.2000     8.9990     2.6570     0.0540
 5293.0000     0.1660   -89.2160    24.3220    24.7480    35.9240    87.8530     8.9960     2.6710     0.0730
 5293.5000     0.1550   -88.8070    25.4080    26.5290    35.9240    81.6060     8.9930     2.6730     0.0820
 5294.0000     0.1450   -88.3990    26.4940    28.3100    41.0510    66.8490     8.9900     2.6910     0.0970
 5294.5000     0.1210   -87.9960    27.9190    30.0910    44.0220    51.1640     8.9880     2.6460     0.0040
 5295.0000     0.0960   -87.5990    30.2260    32.0400    44.2480    35.5580     8.9850     2.7230    -0.0010
 5295.5000     0.0710   -87.2020    32.9530    33.9990    44.7740    25.4270     8.9870     2.8130     0.0030
 5296.0000     0.0460   -86.8070    36.7520    40.4740    83.9770    29.7820     8.9910     2.8630     0.0080
 5296.5000     0.0300   -86.4110    40.5510    46.4590   127.9450    37.2390     8.9940     2.8890     0.0140
 5297.0000     0.0400   -86.2680    44.3490    51.7960   171.9120    43.8840     8.9980     2.8540     0.0230
 5297.5000     0.0560   -86.3740    45.1870    57.8910   196.1710    66.2550     9.0020     2.8210     0.0400
 5298.0000     0.0900   -86.6780    44.7740    52.9080   184.2170    91.1540     9.0050     2.7900     0.0620
 5298.5000     0.1240   -87.0600    42.5900    45.6940   161.4770   104.6040     9.0090     2.7090     0.0340
 5299.0000     0.1580   -87.4440    37.9220    38.4800    94.7050   113.5200     9.0120     2.6670     0.0310
 5299.5000     0.1890   -87.8270    33.2540    31.2660    46.5660   114.3220     9.0160     2.6520     0.0280
 5300.0000     0.1880   -88.2100    28.5860    23.3390    36.8770   112.8330     9.0200     2.6530     0.0310
 5300.5000     0.1780   -88.5940    24.3490    22.7330    30.1760   110.2140     9.0230     2.6560     0.0340
 5301.0000     0.1690   -88.9800    23.5720    22.0610    31.9510   105.1710     9.0270     2.6470     0.0370
 5301.5000     0.1600   -89.3720    22.7960    21.3890    33.3080   102.7840     9.0310     2.6600     0.0490
 5302.0000     0.1560   -89.5270    22.0190    20.7180    35.2700   101.9820     9.0340     2.6810     0.0690
 5302.5000     0.1560   -89.6730    21.2430    20.1390    35.0770    99.5520     9.0380     2.6900     0.0860
