~VERSION INFORMATION
 VERS.                2.0:   CWLS LOG ASCII STANDARD - VERSION 2.0
 WRAP.                 NO:   ONE LINE PER DEPTH STEP
~WELL INFORMATION
#MNEM.UNIT      DATA TYPE    INFORMATION
#----------   ------------   ------------------------------
 STRT.F          794.0000:   START DEPTH
 STOP.F         2828.0000:   STOP DEPTH
 STEP.F            0.5000:   STEP LENGTH
 NULL.          -999.2500:   NO VALUE
 COMP.           U S NAVY:   COMPANY
 WELL. U S NAVY NPR 3 "A" #10-33:   WELL
 FLD .        TEAPOT DOME:   FIELD
 LOC .      S33 T39N R78W:   LOCATION
 CNTY.            NATRONA:   COUNTY
 STAT.            WYOMING:   STATE
 CTRY. UNITED STATES OF AMERICA:   COUNTRY
 SRVC.         MCCULLOUGH:   SERVICE COMPANY
 DATE.        25-JUL-1968:   LOGDATE
 API .     49025102180000:   API NUMBER
~CURVE INFORMATION
#MNEM.UNIT       API CODE    CURVE DESCRIPTION
#----------   ------------   ------------------------------
 DEPT.F                  :   
 GRN .GAPI   35 310 01 00:   GAMMA RAY
 NEUT.NAPI   35 330 01 00:   NEUTRON
 TEMP.DEG    99 000 00 00:   TEMPERATURE AT TOOL
~PARAMETER INFORMATION
#MNEM.UNIT          VALUE    DESCRIPTION
#----------   ------------   ------------------------------
 EKB .F            0.0000:   Kelly bushing
 EGL .F            0.0000:   Ground level
 EDF .F            0.0000:   Drilling floor
 EPD .F            0.0000:   Permanent datum
 TD  .F         2829.0000:   Total depth
 DATE.        25-JUL-1968:   Date logged
 CLNT.            A2DTECH:   Client Code
 DL  .F              2829:   Depth logger
 BLI .F              2825:   Bottom log interval
 TLI .F               800:   Top log interval
 DFT .                DRY:   Type fluid in hole
 TCS .HRS               2:   Time Circ. stopped
 ENGI.           KIMBERRY:   Recorded By
 ORIG.        2" 5" PRINT:   Origin of data
 UWI .     49025102180000:   Unique Well ID
 DICO. A2D TECHNOLOGIES, INC.:   Digitizing Company
~OTHER INFORMATION
~A   DEPT       GRN      NEUT       TEMP   
# ...
 1340.0000    57.2750   499.7330  -999.2500
 1340.5000    61.0820   490.0450  -999.2500
 1341.0000    63.0150   505.0560  -999.2500
 1341.5000    62.6660   508.5690  -999.2500
 1342.0000    62.3600   511.8000  -999.2500
 1342.5000    60.7420   515.0310  -999.2500
 1343.0000    60.0630   518.2810  -999.2500
 1343.5000    59.3020   521.5770  -999.2500
 1344.0000    59.0070   523.1780  -999.2500
 1344.5000    58.8760   516.1690  -999.2500
 1345.0000    59.8310   513.2140  -999.2500
 1345.5000    60.7600   514.5580  -999.2500
 1346.0000    60.8940   496.3430  -999.2500
 1346.5000    61.8230   483.6860  -999.2500
 1347.0000    63.1800   483.6990  -999.2500
 1347.5000    64.1170   484.1470  -999.2500
 1348.0000    63.9510   487.4400  -999.2500
 1348.5000    63.5500   494.1690  -999.2500
 1349.0000    62.1350   495.7960  -999.2500
 1349.5000    61.0140   494.9840  -999.2500
 1350.0000    60.1020   474.5250  -999.2500
 1350.5000    60.5790   495.4580  -999.2500
 1351.0000    61.1930   483.1860  -999.2500
 1351.5000    60.9230   480.4580  -999.2500
 1352.0000    59.9300   476.6490  -999.2500
 1352.5000    58.8590   463.5090  -999.2500
 1353.0000    58.1280   453.8860  -999.2500
 1353.5000    58.6850   456.2120  -999.2500
 1354.0000    59.8020   471.1340  -999.2500
 1354.5000    60.6020   464.9450  -999.2500
 1355.0000    61.4440   465.0660  -999.2500
 1355.5000    62.7750   477.3740  -999.2500
 1356.0000    63.9080   479.4080  -999.2500
 1356.5000    66.5250   482.1940  -999.2500
 1357.0000    66.9660   485.4080  -999.2500
 1357.5000    67.5380   486.0140  -999.2500
 1358.0000    68.3580   485.8710  -999.2500
 1358.5000    69.6140   483.4640  -999.2500
 1359.0000    70.4620   476.8370  -999.2500
 1359.5000    70.4910   479.3600  -999.2500
 1360.0000    71.9910   481.7870  -999.2500
 1360.5000    74.1020   497.7710  -999.2500
 1361.0000    77.8210   522.2380  -999.2500
 1361.5000    81.7240   537.1230  -999.2500
 1362.0000    84.2270   539.7750  -999.2500
 1362.5000    85.0190   550.4810  -999.2500
 1363.0000    82.1960   561.3460  -999.2500
 1363.5000    82.2720   569.6590  -999.2500
 1364.0000    81.6940   554.1510  -999.2500
 1364.5000    70.9620   550.1440  -999.2500
 1365.0000    66.2240   546.1890  -999.2500
 1365.5000    64.5320   550.6720  -999.2500
 1366.0000    64.9790   554.9370  -999.2500
 1366.5000    65.1520   571.2560  -999.2500
 1367.0000    63.7520   592.6070  -999.2500
 1367.5000    64.4560   628.8710  -999.2500
 1368.0000    64.7950   664.6060  -999.2500
 1368.5000    63.6410   688.4440  -999.2500
 1369.0000    63.5470   688.9810  -999.2500
 1369.5000    64.8520   690.0640  -999.2500
 1370.0000    65.2140   691.8940  -999.2500
 1370.5000    65.9400   575.5890  -999.2500
 1371.0000    64.0370   502.4380  -999.2500
 1371.5000    64.8050   514.2840  -999.2500
 1372.0000    64.5460   525.9860  -999.2500
 1372.5000    62.7680   512.5780  -999.2500
 1373.0000    61.1880   512.4470  -999.2500
 1373.5000    61.3270   512.8460  -999.2500
 1374.0000    62.0360   495.7710  -999.2500
 1374.5000    61.4350   496.1680  -999.2500
 1375.0000    61.2030   490.9460  -999.2500
 1375.5000    62.7080   496.6920  -999.2500
 1376.0000    62.8840   503.9020  -999.2500
 1376.5000    60.9090   509.3670  -999.2500
 1377.0000    59.5950   509.2100  -999.2500
 1377.5000    59.0110   497.8180  -999.2500
 1378.0000    58.2100   485.3480  -999.2500
 1378.5000    57.1450   463.3310  -999.2500
 1379.0000    57.5340   472.0710  -999.2500
 1379.5000    57.1880   479.0910  -999.2500
 1380.0000    57.0320   463.6400  -999.2500
 1380.5000    57.6510   468.8270  -999.2500
 1381.0000    59.5540   470.3090  -999.2500
 1381.5000    61.0140   477.1700  -999.2500
 1382.0000    59.7960   483.2720  -999.2500
 1382.5000    59.4060   488.2910  -999.2500
 1383.0000    62.1300   491.1490  -999.2500
 1383.5000    63.7880   493.9970  -999.2500
 1384.0000    64.1390   490.7160  -999.2500
 1384.5000    66.0980   489.4150  -999.2500
 1385.0000    66.4580   496.2060  -999.2500
 1385.5000    66.3090   503.1660  -999.2500
 1386.0000    64.4200   490.6920  -999.2500
 1386.5000    64.7420   476.7050  -999.2500
 1387.0000    64.6430   481.7160  -999.2500
 1387.5000    62.5060   499.8820  -999.2500
 1388.0000    60.9000   520.0700  -999.2500
 1388.5000    62.0550   524.2630  -999.2500
 1389.0000    63.1710   523.2910  -999.2500
 1389.5000    64.4030   525.2500  -999.2500
 1390.0000    66.1280   510.8380  -999.2500
 1390.5000    67.8930   486.4450  -999.2500
 1391.0000    68.0920   491.3390  -999.2500
 1391.5000    67.2590   491.9820  -999.2500
 1392.0000    65.1710   490.0360  -999.2500
 1392.5000    64.3420   493.3140  -999.2500
 1393.0000    61.4590   497.2240  -999.2500
 1393.5000    60.4220   500.2440  -999.2500
 1394.0000    60.4660   494.9050  -999.2500
 1394.5000    60.0120   501.9100  -999.2500
 1395.0000    60.7390   505.7630  -999.2500
 1395.5000    61.5840   495.2030  -999.2500
 1396.0000    62.7080   479.6890  -999.2500
 1396.5000    64.8620   480.9150  -999.2500
 1397.0000    66.5830   492.0520  -999.2500
 1397.5000    67.3380   504.2180  -999.2500
 1398.0000    67.7000   496.7540  -999.2500
 1398.5000    68.1650   515.5480  -999.2500
 1399.0000    68.8730   524.6200  -999.2500
 1399.5000    69.1370   527.8000  -999.2500
 1400.0000    68.2540   511.2460  -999.2500
 1400.5000    68.1460   514.0210  -999.2500
 1401.0000    68.8300   513.3390  -999.2500
 1401.5000    68.3190   510.8250  -999.2500
 1402.0000    67.3770   499.3340  -999.2500
 1402.5000    65.7870   496.8060  -999.2500
 1403.0000    64.5390   505.9360  -999.2500
 1403.5000    64.4300   515.8980  -999.2500
 1404.0000    64.4970   509.4520  -999.2500
 1404.5000    64.4330   493.3840  -999.2500
 1405.0000    63.7840   495.5110  -999.2500
 1405.5000    63.6950   496.4580  -999.2500
 1406.0000    62.1200   492.3290  -999.2500
 1406.5000    60.7930   503.3880  -999.2500
 1407.0000    61.9810   508.8550  -999.2500
 1407.5000    61.6980   510.1460  -999.2500
 1408.0000    60.8040   490.4230  -999.2500
 1408.5000    60.9350   489.7530  -999.2500
 1409.0000    62.4890   488.1030  -999.2500
 1409.5000    64.4400   479.8780  -999.2500
 1410.0000    64.4220   468.8280  -999.2500
 1410.5000    64.1240   474.4890  -999.2500
 1411.0000    64.1810   480.9220  -999.2500
 1411.5000    63.9340   490.6760  -999.2500
 1412.0000    62.9860   488.1210  -999.2500
 1412.5000    61.4970   485.1850  -999.2500
 1413.0000    58.7320   482.3190  -999.2500
 1413.5000    57.1420   473.0870  -999.2500
 1414.0000    57.3730   465.1080  -999.2500
 1414.5000    57.8660   472.6160  -999.2500
 1415.0000    57.1540   482.2950  -999.2500
 1415.5000    57.8880   479.0810  -999.2500
 1416.0000    60.5820   466.7510  -999.2500
 1416.5000    62.3770   448.0100  -999.2500
 1417.0000    58.3610   441.1240  -999.2500
 1417.5000    57.3150   453.6330  -999.2500
 1418.0000    56.8510   464.6890  -999.2500
 1418.5000    57.6450   476.5560  -999.2500
 1419.0000    58.6390   487.8080  -999.2500
 1419.5000    60.2850   487.4290  -999.2500
 1420.0000    59.9140   464.5160  -999.2500
 1420.5000    60.0600   464.4460  -999.2500
 1421.0000    60.3990   470.0570  -999.2500
 1421.5000    59.9960   471.1720  -999.2500
 1422.0000    58.5190   472.3320  -999.2500
 1422.5000    57.8310   480.0190  -999.2500
 1423.0000    58.1700   490.4990  -999.2500
 1423.5000    59.2060   489.7720  -999.2500
 1424.0000    61.3230   472.6910  -999.2500
 1424.5000    61.6300   477.1950  -999.2500
 1425.0000    63.2640   496.7830  -999.2500
 1425.5000    64.5330   499.5110  -999.2500
 1426.0000    65.4110   494.5820  -999.2500
 1426.5000    61.6080   497.1770  -999.2500
 1427.0000    61.5850   500.2380  -999.2500
 1427.5000    61.9490   504.5820  -999.2500
 1428.0000    62.2830   508.9050  -999.2500
 1428.5000    61.7170   512.9670  -999.2500
 1429.0000    61.1920   503.1820  -999.2500
 1429.5000    60.8710   490.0820  -999.2500
 1430.0000    62.4080   480.6880  -999.2500
 1430.5000    62.0630   486.9910  -999.2500
