~VERSION INFORMATION
 VERS.                2.0:   CWLS LOG ASCII STANDARD - VERSION 2.0
 WRAP.                 NO:   ONE LINE PER DEPTH STEP
~WELL INFORMATION
#MNEM.UNIT      DATA TYPE    INFORMATION
#----------   ------------   ------------------------------
 STRT.F          514.0000:   START DEPTH
 STOP.F         4154.0000:   STOP DEPTH
 STEP.F            0.5000:   STEP LENGTH
 NULL.          -999.2500:   NO VALUE
 COMP.    FENIX & SCISSON:   COMPANY
 WELL.  FENIX "MX" #86-10:   WELL
 FLD .        TEAPOT DOME:   FIELD
 LOC .      S10 T38N R78W:   LOCATION
 CNTY.            NATRONA:   COUNTY
 STAT.            WYOMING:   STATE
 CTRY. UNITED STATES OF AMERICA:   COUNTRY
 SRVC.       SCHLUMBERGER:   SERVICE COMPANY
 DATE.        30-SEP-1978:   LOGDATE
 API .     49025107290000:   API NUMBER
~CURVE INFORMATION
#MNEM.UNIT       API CODE    CURVE DESCRIPTION
#----------   ------------   ------------------------------
 DEPT.F                  :   
 SPR .MV     07 010 01 00:   SPONTANEOUS POTENTIAL
 TENR.LBS    07 635 01 00:   TENSION FROM RESISTIVITY
 SFL .OHMM   07 220 01 00:   SHALLOW FOCUSED LOG RESISTIVITY
 ILM .OHMM   07 120 44 00:   INDUCTION LOG MEDIUM RESISTIVITY
 ILD .OHMM   07 120 46 00:   INDUCTION LOG DEEP RESISTIVITY
 CALD.IN     45 280 60 00:   CALIPER FROM DENSITY LOG
 GRD .GAPI   45 310 01 00:   GAMMA RAY FROM DENSITY LOG
 TEND.LBS    45 635 01 00:   TENSION FROM DENSITY LOG
 CORR.G/C3   45 356 01 00:   DENSITY CORRECTION
 RHOB.G/C3   45 350 01 00:   BULK DENSITY
 NPHI.DEC    42 890 03 00:   NEUTRON POROSITY SANDSTONE
~PARAMETER INFORMATION
#MNEM.UNIT          VALUE    DESCRIPTION
#----------   ------------   ------------------------------
 EKB .F         5233.0000:   Kelly bushing
 EGL .F         5222.0000:   Ground level
 EDF .F            0.0000:   Drilling floor
 TD  .F         4150.0000:   Total depth
 DATE.        30-SEP-1978:   Date logged
 CLNT.            A2DTECH:   Client Code
 SL  . 1450' FSL & 600' FEL:   Surface Location
 PD  .                 GL:   Permanent Datum
 LMF .                 KB:   Log Measured From
 DMF .                 KB:   Drilling Measured From
 DAPD.F                11:   Feet Above Permanent Datum
 DD  .F              4150:   Depth driller
 DL  .F              4141:   Depth logger
 BLI .F              4135:   Bottom log interval
 TLI .F               520:   Top log interval
 CS1 .IN            9.625:   Casing size
 CBD1.      9.625" @ 529':   Casing driller 1
 CBL1.F               529:   Casing logger 1
 BS1 .IN             8.75:   Bit size
 BSD1.F              4150:   Depth drilled with bit1
 DFT .                FGM:   Type fluid in hole
 DFD .                9.5:   Density
 DFV .                 36:   Viscosity
 DFPH.                 11:   pH
 DFL .                 60:   Fluid loss
 MSS .           MUD TANK:   Source of sample
 RMS .OHMM            .57:   Rm
 MST .F                68:   Rm Meas. temp.
 RMF .OHMM           .449:   Rmf
 MFST.F                68:   Rmf Meas. temp.
 MFSS.               MEAS:   Source Rmf.
 RMB .OHMM            .27:   Rm. at BHT
 BHT .F               142:   BHT.
 TCS .HRS            1500:   Time Circ. stopped
 TLAB.HRS            0700:   Time logger at bottom
 MRT .F               142:   Maximum recorded temp.
 LUN .               8043:   Logging unit number
 LUL .               CSPR:   Logging unit location
 ENGI.             LARSON:   Recorded By
 WITN.           DINSMORE:   Witnessed by
 ORIG.           5" PRINT:   Origin of data
 UWI .     49025107290000:   Unique Well ID
 DICO. A2D TECHNOLOGIES, INC.:   Digitizing Company
 EPD .               5222:   Elevation Permanent Datum
~OTHER INFORMATION
~A   DEPT      SPR       TENR        SFL        ILM        ILD       CALD         GRD      TEND       CORR       RHOB         NPHI 
# ...
 1002.0000   -37.5730   384.4930     7.0400     6.8560     8.2620    14.5010    79.8570   640.7480     0.1950     2.4600     0.4220
 1002.5000   -37.2870   383.9220     7.0850     6.7820     8.2260    14.5720    79.2920   641.6470     0.1870     2.4430     0.4180
 1003.0000   -37.0270   383.3510     7.1300     6.7070     8.1900    14.6580    78.6960   642.5460     0.1750     2.4270     0.4130
 1003.5000   -36.7740   382.7810     7.0510     6.6320     8.1540    14.5010    78.2710   643.4450     0.1720     2.4110     0.4180
 1004.0000   -36.5050   382.2100     6.9180     6.5570     8.1240    14.2610    78.6880   644.3440     0.2150     2.3840     0.4280
 1004.5000   -36.2370   381.6390     6.7850     6.4810     8.0830    14.4120    79.1520   645.2430     0.2110     2.3460     0.4370
 1005.0000   -36.1410   381.0680     6.6370     6.3980     8.0490    14.7630    79.1080   646.1420     0.1930     2.3040     0.4430
 1005.5000   -36.4540   380.4970     6.6610     6.3300     8.0140    14.9650    79.0930   647.0410     0.1760     2.3090     0.4370
 1006.0000   -36.7610   379.9260     6.6880     6.2340     7.9790    14.7650    79.4420   647.9400     0.1660     2.3300     0.4230
 1006.5000   -37.0930   379.3550     6.7150     6.1030     7.9440    14.6670    80.5150   648.8390     0.1630     2.3780     0.4090
 1007.0000   -37.2660   378.7840     6.7550     5.9710     7.9090    14.8480    81.9740   649.7380     0.1630     2.3830     0.4060
 1007.5000   -37.2490   378.2130     6.6900     5.8400     7.8740    15.0050    83.1020   650.6370     0.1630     2.3780     0.4200
 1008.0000   -37.2510   377.7340     6.4590     5.7290     7.8390    14.9480    83.1200   651.5360     0.1630     2.3660     0.4470
 1008.5000   -37.2540   377.7340     6.2270     5.7570     7.7290    14.9490    81.6220   652.4350     0.2150     2.3560     0.4960
 1009.0000   -37.2520   377.7340     6.0790     5.7810     7.5960    15.2290    79.9210   653.3340     0.2310     2.3520     0.5070
 1009.5000   -37.2510   377.7340     6.1780     5.8040     7.4640    15.5380    77.9390   654.2330     0.2410     2.3490     0.5170
 1010.0000   -37.2510   377.7340     6.2810     5.8280     7.3320    15.7910    78.8240   655.1310     0.2470     2.3380     0.5260
 1010.5000   -37.2530   377.7340     6.1290     5.8510     7.2760    15.9750    81.2880   656.0300     0.2460     2.3220     0.5120
 1011.0000   -37.2460   377.7340     6.0640     5.8750     7.2390    15.9550    83.5860   656.9290     0.2460     2.2880     0.4940
 1011.5000   -37.2430   377.7340     5.9990     5.8990     7.1530    15.9680    85.9640   657.3710     0.2450     2.2510     0.4750
 1012.0000   -36.9760   377.7340     5.9440     5.9220     7.0140    15.8130    87.2780   657.3710     0.2220     2.2180     0.4670
 1012.5000   -36.6750   377.7340     6.0560     5.9460     7.0370    15.8750    87.1100   657.3710     0.1810     2.2280     0.4660
 1013.0000   -36.5790   377.7340     6.1550     5.9700     7.1000    15.9550    87.1340   657.3710     0.1600     2.2600     0.4550
 1013.5000   -37.1140   377.7340     6.2530     5.9930     7.1630    15.9870    85.6250   657.3710     0.1520     2.2850     0.4430
 1014.0000   -37.6180   377.7340     6.2810     6.0170     7.2250    15.9450    83.4360   657.3710     0.1490     2.2820     0.4400
 1014.5000   -38.0190   377.7340     6.2810     6.0410     7.2760    15.7860    81.4050   657.3710     0.1350     2.2520     0.4410
 1015.0000   -37.7500   377.7340     6.2810     6.2100     7.7110    15.6270    79.3650   657.3710     0.1060     2.2630     0.4410
 1015.5000   -37.5300   377.7340     6.5860     6.5810     8.0510    15.4960    80.9370   657.3710     0.1080     2.3460     0.4300
 1016.0000   -37.2780   377.7340     6.8790     6.9520     8.3190    15.2060    83.5020   657.3710     0.1350     2.4730     0.4200
 1016.5000   -37.0350   377.7340     7.1730     7.3230     8.5880    14.8220    86.1400   657.3710     0.1610     2.5030     0.4100
 1017.0000   -36.9220   377.7340     7.4660     7.6940     8.8570    14.4360    86.2850   657.3710     0.1390     2.4900     0.4090
 1017.5000   -37.2040   377.7340     7.7590     8.0650     9.1250    14.2460    86.5410   657.3710     0.1130     2.4720     0.4080
 1018.0000   -37.4890   377.7340     8.0530     8.4360     9.3940    14.1460    84.7190   657.3710     0.0990     2.4780     0.3960
 1018.5000   -37.7630   377.7340     8.3460     8.7450     9.6630    14.0500    81.3930   657.3710     0.0940     2.4920     0.3810
 1019.0000   -38.0230   377.7340     8.6400     8.8700     9.9310    14.0300    79.1470   657.3710     0.0900     2.4980     0.3750
 1019.5000   -37.7940   377.7340     8.7660     8.9770    10.1300    14.0010    80.5840   657.3710     0.0860     2.4990     0.3790
 1020.0000   -37.5680   377.7340     8.7990     9.0720    10.1300    13.9780    81.9710   657.3710     0.0880     2.5010     0.3830
 1020.5000   -37.3140   377.7340     8.8320     9.0720    10.1730    13.9540    83.7680   657.3710     0.1000     2.5020     0.3850
 1021.0000   -37.0810   377.7340     8.8650     9.2480    10.2110    13.9290    82.8620   657.3710     0.1060     2.5020     0.3780
 1021.5000   -36.8700   377.7340     8.8980     9.4290    10.2490    13.9040    81.6710   657.3710     0.1060     2.5000     0.3710
 1022.0000   -37.0150   377.7340     8.9310     9.6110    10.2880    13.8820    81.7940   657.3710     0.1060     2.4990     0.3640
 1022.5000   -37.1540   377.7340     8.9640     9.7650    10.3260    13.8490    82.0720   657.3710     0.0970     2.4990     0.3420
 1023.0000   -37.3080   377.7340     8.9970     9.7650    10.3640    13.8180    82.3170   657.3710     0.0820     2.4900     0.3250
 1023.5000   -37.4590   377.7340     9.0300     9.7650    10.4020    13.7940    81.4400   657.3710     0.0610     2.4810     0.3280
 1024.0000   -37.6070   377.7340     9.0630     9.7650    10.4400    13.7770    80.4820   657.3710     0.0440     2.4870     0.3330
 1024.5000   -37.8140   377.7340     9.1030     9.7650    10.4790    13.7590    79.1510   657.3710     0.0380     2.5090     0.3290
 1025.0000   -38.0520   377.7340     9.1450     9.7650    10.5100    13.7420    79.8780   657.3710     0.0440     2.5320     0.3220
 1025.5000   -38.2820   377.7340     9.1870     9.7680    10.6320    13.7230    82.1260   657.3710     0.0720     2.5530     0.3190
 1026.0000   -38.4390   377.7340     9.2300     9.7640    10.7360    13.7270    83.4300   657.3710     0.1000     2.5690     0.3300
 1026.5000   -38.1640   377.7340     9.2720     9.7700    10.9030    13.7330    83.7790   657.3710     0.0820     2.5570     0.3410
 1027.0000   -37.8520   377.7340     9.3150     9.7810    10.8680    13.7390    81.5790   657.3710     0.0660     2.5340     0.3490
 1027.5000   -37.5390   377.7340     9.3570     9.5710    10.7740    13.7460    79.2400   657.3710     0.0570     2.5020     0.3560
 1028.0000   -37.2610   377.7340     9.4060     9.5980    10.6810    13.7520    78.4100   657.3710     0.0730     2.5120     0.3690
 1028.5000   -37.2550   377.7340     9.3900     9.5700    10.5870    13.7560    77.6810   657.3710     0.1220     2.5590     0.3670
 1029.0000   -37.2470   377.7340     9.3580     9.5130    10.5100    13.7920    77.0350   657.3710     0.1180     2.5730     0.3610
 1029.5000   -37.2500   377.7340     9.3260     9.4610    10.4480    13.8740    76.2340   657.3710     0.1050     2.5590     0.3510
 1030.0000   -37.2490   377.7340     9.2930     9.4070    10.3960    13.9550    75.3610   657.3710     0.0920     2.5380     0.3400
 1030.5000   -37.2490   377.7340     9.2610     9.3540    10.3440    13.8510    74.5610   657.3710     0.1120     2.5310     0.3270
 1031.0000   -37.2500   377.7340     9.2020     9.3000    10.2910    13.7500    73.7010   657.3710     0.1450     2.5510     0.3330
 1031.5000   -37.2480   377.7340     9.0940     9.2460    10.2390    13.6460    74.8170   657.3710     0.1960     2.5700     0.3390
 1032.0000   -37.2540   377.7340     8.9850     9.1920    10.1870    13.5710    76.6800   657.3710     0.2280     2.5710     0.3400
