~VERSION INFORMATION
 VERS.                2.0:   CWLS LOG ASCII STANDARD - VERSION 2.0
 WRAP.                 NO:   ONE LINE PER DEPTH STEP
~WELL INFORMATION
#MNEM.UNIT      DATA TYPE    INFORMATION
#----------   ------------   ------------------------------
 STRT.F           16.0000:   START DEPTH
 STOP.F         4208.0000:   STOP DEPTH
 STEP.F            0.5000:   STEP LENGTH
 NULL.          -999.2500:   NO VALUE
 COMP.    FENIX & SCISSON:   COMPANY
 WELL. FENIX NPR 3 "MX" #41-10:   WELL
 FLD .                NPR:   FIELD
 LOC .      S10 T38N R78W:   LOCATION
 CNTY.            NATRONA:   COUNTY
 STAT.            WYOMING:   STATE
 CTRY. UNITED STATES OF AMERICA:   COUNTRY
 SRVC.       SCHLUMBERGER:   SERVICE COMPANY
 DATE.        04-NOV-1978:   LOGDATE
 API .     49025107260000:   API NUMBER
~CURVE INFORMATION
#MNEM.UNIT       API CODE    CURVE DESCRIPTION
#----------   ------------   ------------------------------
 DEPT.F                  :   
 TENR.LBS    07 635 01 00:   TENSION FROM RESISTIVITY
 SPR .MV     07 010 01 00:   SPONTANEOUS POTENTIAL
 SFL .OHMM   07 220 01 00:   SHALLOW FOCUSED LOG RESISTIVITY
 ILD .OHMM   07 120 46 00:   DEEP INDUCTION RESISTIVITY
 ILM .OHMM   07 120 44 00:   INDUCTION LOG MEDIUM RESISTIVITY
 CALD.IN     45 280 60 00:   CALIPER FROM DENSITY LOG
 GRD .GAPI   45 310 01 00:   GAMMA RAY FROM DENSITY LOG
 TEND.LBS    45 635 01 00:   TENSION FROM DENSITY LOG
 RHOB.G/C3   45 350 01 00:   BULK DENSITY
 CORR.G/C3   45 356 01 00:   DENSITY CORRECTION
 NPHI.DEC    42 890 03 00:   NEUTRON POROSITY SANDSTONE
~PARAMETER INFORMATION
#MNEM.UNIT          VALUE    DESCRIPTION
#----------   ------------   ------------------------------
 EKB .F         5237.0000:   Kelly bushing
 EGL .F         5227.0000:   Ground level
 EDF .F            0.0000:   Drilling floor
 TD  .F         4200.0000:   Total depth
 DATE.        04-NOV-1978:   Date logged
 CLNT.            A2DTECH:   Client Code
 SL  . 70' FNL & 2370' FWL:   Surface Location
 PD  .                 GL:   Permanent Datum
 EPD .F              5227:   Elevation Permanent Datum
 LMF .                 KB:   Log Measured From
 DMF .                 KB:   Drilling Measured From
 DAPD.F                10:   Feet Above Permanent Datum
 DD  .F              4200:   Depth driller
 DL  .F              4191:   Depth logger
 BLI .F              4185:   Bottom log interval
 TLI .F               506:   Top log interval
 CS1 .IN            9.625:   Casing size
 CBD1.      9.625" @ 500':   Casing driller 1
 CBL1.F               506:   Casing logger 1
 BS1 .IN             8.75:   Bit size
 BSD1.F              4200:   Depth drilled with bit1
 DFT .                FGM:   Type fluid in hole
 DFD .                9.3:   Density
 DFV .                 42:   Viscosity
 DFPH.               11.5:   pH
 DFL .                6.4:   Fluid loss
 MSS .               TANK:   Source of sample
 RMS .OHMM           1.08:   Rm
 MST .F                67:   Rm Meas. temp.
 RMF .OHMM           0.83:   Rmf
 MFST.F                67:   Rmf Meas. temp.
 MFSS.               MEAS:   Source Rmf.
 RMB .OHMM           0.58:   Rm. at BHT
 BHT .F               125:   BHT.
 TCS .HRS            0430:   Time Circ. stopped
 TLAB.HRS            0830:   Time logger at bottom
 MRT .F               125:   Maximum recorded temp.
 LUN .               8039:   Logging unit number
 LUL .               CSPR:   Logging unit location
 ENGI.          STADULLIS:   Recorded By
 WITN.              AMEND:   Witnessed by
 ORIG.           5" PRINT:   Origin of data
 UWI .     49025107260000:   Unique Well ID
 DICO. A2D TECHNOLOGIES, INC.:   Digitizing Company
~OTHER INFORMATION
~A   DEPT     TENR        SPR        SFL        ILD        ILM       CALD         GRD      TEND       RHOB       CORR       NPHI   
# ...
  504.0000   400.8350  -999.2500     0.2090  -999.2500  -999.2500  -999.2500    56.3010  -999.2500  -999.2500  -999.2500     0.4420
  504.5000   396.7230  -999.2500     0.2090  -999.2500  -999.2500  -999.2500    59.1020   707.7350  -999.2500  -999.2500     0.4340
  505.0000   392.6100  -999.2500     1.2270  -999.2500  -999.2500  -999.2500    62.1020   712.2050  -999.2500  -999.2500     0.4290
  505.5000   388.4980  -999.2500     3.5940  -999.2500  -999.2500  -999.2500    70.1430   716.6750  -999.2500  -999.2500     0.4560
  506.0000   384.3860  -999.2500     5.9610  -999.2500  -999.2500  -999.2500    74.6560   721.1450  -999.2500  -999.2500     0.4360
  506.5000   381.5260  -999.2500     9.4560  -999.2500  -999.2500    10.4960    75.0350   725.6160  -999.2500     0.1660     0.4030
  507.0000   381.5260  -999.2500     9.3380  -999.2500  -999.2500    10.7800    75.8180   730.0860  -999.2500     0.1400     0.3700
  507.5000   381.5260  -999.2500     9.1130  -999.2500  -999.2500    10.9510    78.1850   734.5560     2.4580     0.1230     0.3520
  508.0000   381.5260   -96.9250     8.8870  -999.2500     5.0580    11.0930    80.2750   737.9220     2.4640     0.1370     0.3540
  508.5000   381.5260   -87.0670     8.6620  -999.2500     6.8050    11.2350    82.6030   741.2610     2.5340     0.1620     0.3570
  509.0000   381.5260   -75.4960     8.4360  -999.2500     8.5520    11.7580    84.7890   742.9720     2.5260     0.1830     0.3480
  509.5000   395.2610   -67.9740     8.2110  -999.2500    11.3780    12.4810    86.8020   736.4310     2.5120     0.1690     0.3530
  510.0000   426.1040   -64.9920     7.9850  -999.2500    10.9910    12.8450    88.3210   721.7440     2.4990     0.1540     0.3650
  510.5000   456.9480   -63.4680     7.7590  -999.2500     9.9820    13.5740    91.0700   707.0570     2.4860     0.1270     0.3750
  511.0000   487.7910   -62.0040     7.5340  -999.2500     8.4680    13.9240    92.0720   704.8420     2.4880     0.0980     0.3710
  511.5000   502.0080   -61.7990     7.1660  -999.2500     8.5260    13.9460    92.3220   707.6970     2.4940     0.0860     0.3610
  512.0000   493.8650   -61.0480     7.4550     7.4310     7.4360    13.9950    92.7410   710.5530     2.4890     0.0880     0.3640
  512.5000   486.7750   -60.4270     8.2450     7.0340     7.4360    13.9830    94.7170   713.4090     2.4840     0.0900     0.3700
  513.0000   479.6840   -59.8300     9.0350     7.0340     7.4360    13.9660    95.7910   716.2650     2.4820     0.0920     0.3580
  513.5000   472.5940   -59.2360     9.6330     7.0340     7.4360    13.9560    94.0870   719.1210     2.4800     0.0920     0.3480
  514.0000   465.5030   -58.6180     9.1020     6.7750     7.0980    14.0080    91.9930   721.9770     2.4730     0.0930     0.3510
  514.5000   458.4130   -58.4150     7.9500     6.5040     6.3650    14.0770    89.7740   724.8330     2.4680     0.1050     0.3620
  515.0000   451.3230   -58.4300     6.7980     6.3110     5.6320    14.1560    88.8700   727.6890     2.4550     0.1110     0.3750
  515.5000   444.2320   -58.4330     5.6460     6.3490     4.8590    14.1590    89.8870   730.5440     2.4210     0.1710     0.4030
  516.0000   437.1420   -58.4300     4.6830     6.4170     5.2180    14.1420    90.7220   733.4000     2.3560     0.1510     0.4280
  516.5000   430.0510   -58.4310     4.9330     6.4880     5.7000    14.0830    91.5600   736.2560     2.3020     0.1030     0.4540
  517.0000   421.6870   -58.4320     5.5880     6.5590     6.1820    14.0220    92.4120   739.1120     2.3410     0.0460     0.4370
  517.5000   421.6870   -58.4350     6.2420     6.6300     6.6640    13.7290    93.1000   741.9680     2.4000     0.0600     0.4110
  518.0000   421.6870   -58.3610     6.8970     7.1200     7.1470    13.4740    93.7520   742.9720     2.4320     0.0790     0.3860
  518.5000   421.6870   -58.0770     7.5510     7.8370     7.6290    12.6010    94.3990   742.9720     2.4180     0.0930     0.3600
  519.0000   421.6870   -57.8030     8.0540     8.5540     8.1110    12.0190    94.9970   742.9720     2.4260     0.0260     0.3360
  519.5000   421.6870   -57.5380     8.2120     9.2720     8.5940    11.9610    96.9650   742.9720     2.4520     0.0050     0.3220
  520.0000   421.6870   -57.2230     8.3690     9.6540     9.0760    11.9110    99.2780   742.9720     2.4770     0.0080     0.3160
  520.5000   421.6870   -57.5810     8.5270     9.9190     9.2830    11.8840   101.4820   742.9720     2.5020     0.0240     0.3090
  521.0000   421.6870   -58.2660     8.6840    10.1830     9.3210    11.8910   100.7900   742.9720     2.5260     0.0400     0.2980
  521.5000   421.6870   -58.9250     8.8410    10.1250     9.3520    11.8890   100.1110   742.9720     2.5230     0.0420     0.2910
  522.0000   421.6870   -59.5690     8.9990    10.0320     9.3840    11.8890    99.2260   742.9720     2.5170     0.0360     0.2870
  522.5000   421.6870   -60.2300     9.0810     9.9390     9.4160    11.8910    98.7350   742.9720     2.5170     0.0360     0.2860
  523.0000   421.6870   -60.8310     8.9620     9.8460     9.4470    11.8910    97.8720   742.9720     2.5270     0.0420     0.2900
  523.5000   421.6870   -61.0170     8.8430     9.7530     9.3070    11.8910    96.3480   742.9720     2.5380     0.0490     0.2890
  524.0000   421.6870   -60.9680     8.7240     9.6600     9.0970    11.8910    94.7510   742.9720     2.5380     0.0520     0.2870
  524.5000   421.6870   -60.9350     8.6050     9.5680     8.8870    11.8910    93.5670   742.9720     2.5300     0.0480     0.2920
  525.0000   421.6870   -60.9030     8.4630     9.4560     8.6770    11.8910    93.7390   742.9720     2.5210     0.0440     0.2960
  525.5000   421.6870   -60.8670     8.3080     9.4560     8.4670    11.8910    96.8330   742.9720     2.5180     0.0400     0.2930
  526.0000   421.6870   -60.8330     8.3290     9.4560     8.3080    11.8910    99.8290   742.9720     2.5130     0.0370     0.2860
  526.5000   421.6870   -60.7910     8.3630     9.4560     8.4070    11.8910   100.2770   742.9720     2.5090     0.0330     0.2770
  527.0000   421.6870   -60.7410     8.3960     9.4560     8.5240    11.8910   100.5270   742.9720     2.5040     0.0300     0.2760
  527.5000   421.6870   -60.6910     8.4290     9.4560     8.6410    11.8910   100.7190   742.9720     2.4990     0.0270     0.2760
  528.0000   421.6870   -60.6410     8.4630     9.4560     8.7570    11.8910    98.9300   742.9720     2.4930     0.0240     0.2780
  528.5000   421.6870   -60.6020     8.4960     9.4560     8.8740    11.8910    96.9090   742.9720     2.4920     0.0210     0.2800
  529.0000   421.6870   -60.5320     8.5300     9.4560     8.9460    11.8910    94.8450   742.9720     2.4980     0.0190     0.2870
  529.5000   421.6870   -60.5090     8.5630     9.4560     8.9460    11.8900    92.6060   742.9720     2.5040     0.0210     0.3000
  530.0000   421.6870   -60.5010     8.6130     9.4560     8.7820    11.8910    92.8340   742.9720     2.5110     0.0240     0.2980
  530.5000   421.6870   -59.7140     8.4890     9.2380     8.6210    11.8920    94.8920   742.9720     2.5180     0.0270     0.2930
  531.0000   421.6870   -58.8240     7.9750     9.0280     8.6210    11.9130    96.7790   742.9720     2.5180     0.0290     0.2870
  531.5000   421.6870   -56.7820     7.4610     8.8180     8.1500    11.9340    98.6500   742.9720     2.5160     0.0290     0.2890
  532.0000   421.6870   -53.8340     6.9470     8.6080     7.7170    11.9560    99.9520   742.9720     2.5110     0.0280     0.2950
  532.5000   421.6870   -51.0820     6.4130     8.3980     7.2990    11.9770    98.5550   742.9720     2.5040     0.0260     0.3040
  533.0000   421.6870   -46.6770     6.2950     8.0290     6.9050    12.0000    97.5570   742.9720     2.4980     0.0230     0.3070
  533.5000   421.6870   -38.8680     6.1440     7.5400     6.2790    12.0200   100.1680   742.9720     2.4910     0.0220     0.3080
  534.0000   421.6870   -39.3170     5.9530     7.0500     5.7480    12.0390   100.0550   742.9720     2.4920     0.0220     0.3030
