~VERSION INFORMATION
 VERS.                2.0:   CWLS LOG ASCII STANDARD - VERSION 2.0
 WRAP.                 NO:   ONE LINE PER DEPTH STEP
~WELL INFORMATION
#MNEM.UNIT      DATA TYPE    INFORMATION
#----------   ------------   ------------------------------
 STRT.F            0.0000:   START DEPTH
 STOP.F         1064.0000:   STOP DEPTH
 STEP.F            0.5000:   STEP LENGTH
 NULL.          -999.2500:   NO VALUE
 COMP.  JOHN BROWN E. & C:   COMPANY
 WELL. JOHN BROWN NPR 3-1 "X" #68-2:   WELL
 FLD .                NPR:   FIELD
 LOC .       S2 T38N R78W:   LOCATION
 CNTY.            NATRONA:   COUNTY
 STAT.            WYOMING:   STATE
 CTRY. UNITED STATES OF AMERICA:   COUNTRY
 SRVC.     ATLAS WIRELINE:   SERVICE COMPANY
 DATE.        25-JAN-1992:   LOGDATE
 API .     49025224850000:   API NUMBER
~CURVE INFORMATION
#MNEM.UNIT       API CODE    CURVE DESCRIPTION
#----------   ------------   ------------------------------
 DEPT.F                  :   
 GRR .GAPI   07 310 01 00:   GAMMA RAY FROM RESISTIVITY
 TENR.LBS    07 635 01 00:   TENSION
 RILD.OHMM   07 120 46 00:   INDUCTION LOG DEEP RESISTIVITY
 RILM.OHMM   07 120 44 00:   INDUCTION LOG MEDIUM RESISTIVITY
~PARAMETER INFORMATION
#MNEM.UNIT          VALUE    DESCRIPTION
#----------   ------------   ------------------------------
 EKB .F         5197.0000:   Kelly bushing
 EGL .F         5187.0000:   Ground level
 TD  .F         1060.0000:   Total depth
 DATE.        25-JAN-1992:   Date logged
 CLNT.            A2DTECH:   Client Code
 PD  .                 GL:   Permanent Datum
 EPD .F               518:   Elevation Permanent Datum
 LMF .                 KB:   Log Measured From
 DMF .                 KB:   Drilling Measured From
 DAPD.F                10:   Feet Above Permanent Datum
 DD  .F              1060:   Depth driller
 DL  .F              1057:   Depth logger
 BLI .F              1055:   Bottom log interval
 CS1 .IN            10.75:   Casing size
 CBD1.       10.75" @ 50':   Casing driller 1
 CBL1.F                50:   Casing logger 1
 BS1 .IN             8.75:   Bit size
 BSD1.F              1060:   Depth drilled with bit1
 DFT .                AIR:   Type fluid in hole
 LUN .            HL-6307:   Logging unit number
 LUL .             CASPER:   Logging unit location
 ENGI.             ZIEGER:   Recorded By
 WITN.             STRONG:   Witnessed by
 ORIG.           5" PRINT:   Origin of data
 UWI .     49025224850000:   Unique Well ID
 DICO. A2D TECHNOLOGIES, INC.:   Digitizing Company
~OTHER INFORMATION
~A    DEPT      GRR      TENR       RILD       RILM   
    0.0000    39.4740  -999.2500  -999.2500  -999.2500
    0.5000    39.7040  -999.2500  -999.2500  -999.2500
    1.0000    39.7870  -999.2500  -999.2500  -999.2500
    1.5000    40.2710  -999.2500  -999.2500  -999.2500
    2.0000    40.2030  -999.2500  -999.2500  -999.2500
    2.5000    40.1130  -999.2500  -999.2500  -999.2500
    3.0000    40.0280  -999.2500  -999.2500  -999.2500
    3.5000    39.9400  -999.2500  -999.2500  -999.2500
    4.0000    40.8250  -999.2500  -999.2500  -999.2500
    4.5000    42.8330  -999.2500  -999.2500  -999.2500
    5.0000    44.3800  -999.2500  -999.2500  -999.2500
    5.5000    43.3350  -999.2500  -999.2500  -999.2500
    6.0000    38.5930  -999.2500  -999.2500  -999.2500
    6.5000    34.3070  -999.2500  -999.2500  -999.2500
    7.0000    32.1790  -999.2500  -999.2500  -999.2500
    7.5000    33.5480  -999.2500  -999.2500  -999.2500
    8.0000    39.6150  -999.2500  -999.2500  -999.2500
    8.5000    43.6280  -999.2500  -999.2500  -999.2500
    9.0000    46.5170  -999.2500  -999.2500  -999.2500
    9.5000    46.8590  -999.2500  -999.2500  -999.2500
   10.0000    47.6400  -999.2500  -999.2500  -999.2500
   10.5000    50.0920  -999.2500  -999.2500  -999.2500
   11.0000    54.9840  -999.2500  -999.2500  -999.2500
   11.5000    57.6530  -999.2500  -999.2500  -999.2500
   12.0000    58.4980  -999.2500  -999.2500  -999.2500
   12.5000    59.3110  -999.2500  -999.2500  -999.2500
   13.0000    60.1900  -999.2500  -999.2500  -999.2500
   13.5000    61.0760  -999.2500  -999.2500  -999.2500
   14.0000    61.9840  -999.2500  -999.2500  -999.2500
   14.5000    61.5790  -999.2500  -999.2500  -999.2500
   15.0000    60.8870  -999.2500  -999.2500  -999.2500
   15.5000    60.1780  -999.2500  -999.2500  -999.2500
   16.0000    59.4500  -999.2500  -999.2500  -999.2500
   16.5000    59.5720  -999.2500  -999.2500  -999.2500
   17.0000    59.2420  -999.2500  -999.2500  -999.2500
   17.5000    58.3260  -999.2500  -999.2500  -999.2500
   18.0000    57.3370  -999.2500  -999.2500  -999.2500
   18.5000    56.4560  -999.2500  -999.2500  -999.2500
   19.0000    56.7760  -999.2500  -999.2500  -999.2500
   19.5000    57.0950  -999.2500  -999.2500  -999.2500
   20.0000    57.4090  -999.2500  -999.2500  -999.2500
   20.5000    57.7260  -999.2500  -999.2500  -999.2500
   21.0000    58.0520  -999.2500  -999.2500  -999.2500
   21.5000    58.3660  -999.2500  -999.2500  -999.2500
   22.0000    60.0770  -999.2500  -999.2500  -999.2500
   22.5000    63.0330  -999.2500  -999.2500  -999.2500
   23.0000    66.0460  -999.2500  -999.2500  -999.2500
   23.5000    66.1990  -999.2500  -999.2500  -999.2500
   24.0000    65.3470  -999.2500  -999.2500  -999.2500
   24.5000    63.7130  -999.2500  -999.2500  -999.2500
   25.0000    62.6900  -999.2500  -999.2500  -999.2500
   25.5000    63.3380  -999.2500  -999.2500  -999.2500
   26.0000    63.8570  -999.2500  -999.2500  -999.2500
   26.5000    64.1280  -999.2500  -999.2500  -999.2500
   27.0000    63.3420  -999.2500  -999.2500  -999.2500
   27.5000    62.4150  -999.2500  -999.2500  -999.2500
   28.0000    61.5700  -999.2500  -999.2500  -999.2500
   28.5000    60.9580  -999.2500  -999.2500  -999.2500
   29.0000    60.3460  -999.2500  -999.2500  -999.2500
   29.5000    59.7300  -999.2500  -999.2500  -999.2500
   30.0000    59.0900  -999.2500  -999.2500  -999.2500
   30.5000    58.9180  -999.2500  -999.2500  -999.2500
   31.0000    58.9540  -999.2500  -999.2500  -999.2500
   31.5000    57.5580  -999.2500  -999.2500  -999.2500
   32.0000    56.1000  -999.2500  -999.2500  -999.2500
   32.5000    56.9210  -999.2500  -999.2500  -999.2500
   33.0000    58.2260  -999.2500  -999.2500  -999.2500
   33.5000    59.5320  -999.2500  -999.2500  -999.2500
   34.0000    60.8520  -999.2500  -999.2500  -999.2500
   34.5000    61.3350  -999.2500  -999.2500  -999.2500
   35.0000    60.4870  -999.2500  -999.2500  -999.2500
   35.5000    59.1670  -999.2500  -999.2500  -999.2500
   36.0000    58.1680  -999.2500  -999.2500  -999.2500
   36.5000    59.1150  -999.2500  -999.2500  -999.2500
   37.0000    60.6590  -999.2500  -999.2500  -999.2500
   37.5000    60.6900  -999.2500  -999.2500  -999.2500
   38.0000    60.4050  -999.2500  -999.2500  -999.2500
   38.5000    60.1820  -999.2500  -999.2500  -999.2500
   39.0000    61.8490  -999.2500  -999.2500  -999.2500
   39.5000    63.6110  -999.2500  -999.2500  -999.2500
   40.0000    65.3110  -999.2500  -999.2500  -999.2500
   40.5000    64.9610  -999.2500  -999.2500  -999.2500
   41.0000    64.7590  -999.2500  -999.2500  -999.2500
   41.5000    65.9360  -999.2500  -999.2500  -999.2500
   42.0000    66.4120  -999.2500  -999.2500  -999.2500
   42.5000    66.7040   -44.1140  -999.2500     7.4040
   43.0000    67.0140   -43.9100     7.8670     7.8670
   43.5000    67.8560   -43.7060     7.4510     7.2840
   44.0000    68.9080   -43.5530     6.9990     6.8520
   44.5000    70.6490   -43.3490     6.5560     6.4800
   45.0000    71.5690   -43.1450     8.0260   284.6550
   45.5000    71.7800   -42.9410  1245.7090  1278.5740
   46.0000    72.9600   -42.7370  1972.4771  1990.7830
   46.5000    75.2140   -42.5330  9933.8652  1990.7830
   47.0000    80.4250   -42.3290  9933.8652  1990.7830
   47.5000    87.8850   -42.1250  9933.8652  1990.7830
   48.0000   100.0270   -41.9210  9933.8652  1990.7830
   48.5000   112.2630   -41.7170  9933.8652  1990.7830
   49.0000   118.0830   -41.5130    28.8140     9.8200
   49.5000   117.4500   -41.3090     1.5480     1.7940
   50.0000   115.2780   -41.1050     1.6550     1.8450
   50.5000   115.9610   -40.9010     1.8690     3.3440
   51.0000   116.8660   -40.6970     3.4230     3.4570
   51.5000   117.8040   -40.4930     5.5290     4.2970
   52.0000   117.1570   -40.2890     7.9400     5.4280
   52.5000   116.0160   -40.0850     6.8350     6.1300
   53.0000   115.4700   -39.8820     4.6040     5.5930
   53.5000   117.7980   -39.6780     4.3490     5.0140
   54.0000   121.2660   -39.4740     4.0760     4.7330
   54.5000   121.7360   -39.2700     3.9570     5.0580
   55.0000   121.3120   -39.0660     3.9350     5.3870
   55.5000   122.9540   -38.8620     4.0450     5.1850
   56.0000   124.9320   -38.6580     4.6210     4.8270
   56.5000   122.5690   -38.4540     5.3370     4.6040
   57.0000   123.9210   -38.2500     5.2910     4.7440
   57.5000   124.2350   -38.0460     5.1710     4.8880
   58.0000   122.7060   -37.8420     5.0030     5.1440
   58.5000   115.3930   -37.6380     5.0200     5.1260
   59.0000   111.4900   -37.4340     5.0490     5.0960
   59.5000   108.3320   -37.2300     5.2110     5.1940
   60.0000   106.9990   -37.0260     5.3430     5.2920
   60.5000   109.9130   -36.8220     5.3680     5.3870
   61.0000   112.8470   -36.6180     5.3870     5.3310
   61.5000   117.2290   -36.4140     5.3040     5.2000
   62.0000   120.7830   -36.2100     5.2390     5.0700
   62.5000   122.6170   -36.0060     5.2320     5.0490
   63.0000   124.4200   -35.8020     5.2250     5.0790
   63.5000   124.3070   -35.5980     5.2180     5.1030
   64.0000   119.7930   -35.3940     5.2110     5.1260
   64.5000   114.3190   -35.1900     5.2050     5.1440
   65.0000   115.7190   -34.9860     5.1980     5.0960
   65.5000   120.2600   -34.7820     5.1900     5.0590
   66.0000   124.0030   -34.5780     5.1380     5.0220
   66.5000   123.9050   -34.3530     5.0890     4.9920
   67.0000   121.3000   -34.4660     5.0400     4.9680
   67.5000   118.9220   -34.5920     4.9910     4.9450
   68.0000   119.8480   -34.7180     4.9570     4.9220
   68.5000   122.4480   -34.8440     5.0180     4.9110
   69.0000   123.4110   -34.9700     5.1030     5.0110
   69.5000   127.1740   -35.0960     5.1970     5.1180
   70.0000   131.3350   -35.2220     5.2980     5.2260
   70.5000   132.7880   -35.3480     5.4000     5.3340
   71.0000   129.0850   -35.4740     5.5010     5.4420
   71.5000   125.4060   -35.6000     5.6020     5.5490
   72.0000   126.1800   -35.7260     5.7030     5.6570
   72.5000   128.1320   -35.8510     5.8040     5.7650
