~VERSION INFORMATION
 VERS.                2.0:   CWLS LOG ASCII STANDARD - VERSION 2.0
 WRAP.                 NO:   ONE LINE PER DEPTH STEP
~WELL INFORMATION
#MNEM.UNIT      DATA TYPE    INFORMATION
#----------   ------------   ------------------------------
 STRT.F          218.0000:   START DEPTH
 STOP.F         2860.0000:   STOP DEPTH
 STEP.F            0.5000:   STEP LENGTH
 NULL.          -999.2500:   NO VALUE
 COMP.    FENIX & SCISSON:   COMPANY
 WELL.  FENIX "AX" #76-20:   WELL
 FLD . TEAPOT DOME NPR -3:   FIELD
 LOC .      S20 T39N R78W:   LOCATION
 CNTY.            NATRONA:   COUNTY
 STAT.            WYOMING:   STATE
 CTRY. UNITED STATES OF AMERICA:   COUNTRY
 SRVC.           BIRDWELL:   SERVICE COMPANY
 DATE.        21-AUG-1978:   LOGDATE
 API .     49025106920000:   API NUMBER
~CURVE INFORMATION
#MNEM.UNIT       API CODE    CURVE DESCRIPTION
#----------   ------------   ------------------------------
 DEPT.F                  :   
 SPR .MV     05 010 01 00:   SPONTANEOUS POTENTIAL FROM RES.
 ILD .OHMM   05 120 46 00:   INDUCTION LOG DEEP
 SN  .OHMM   05 040 16 00:   SHORT NORMAL 16"
 RHOB.G/C3   45 350 01 00:   BULK DENSITY
 CALD.IN     45 280 60 00:   CALIPER FROM DENSITY LOG
 DCOR.G/C3   45 356 01 00:   DENSITY CORRECTION
 GRD .GAPI   45 310 01 00:   GAMMA RAY FROM DENSITY LOG
~PARAMETER INFORMATION
#MNEM.UNIT          VALUE    DESCRIPTION
#----------   ------------   ------------------------------
 EKB .F         5062.0000:   Kelly bushing
 EGL .F         5052.0000:   Ground level
 EDF .F            0.0000:   Drilling floor
 EPD .F            0.0000:   Permanent datum
 TD  .F         2854.0000:   Total depth
 DATE.        21-AUG-1978:   Date logged
 CLNT.            A2DTECH:   Client Code
 SL  . 1500' FNL & 1200' FEL:   Surface Location
 PD  .                 GL:   Permanent Datum
 DD  .F              2850:   Depth driller
 DL  .F              2854:   Depth logger
 BLI .F              2848:   Bottom log interval
 CS1 .IN            8.625:   Casing size
 CBD1.      8.625" @ 200':   Casing driller 1
 CBL1.F               235:   Casing logger 1
 BS1 .IN            7.875:   Bit size
 DFT .                KCL:   Type fluid in hole
 DFD .                9.2:   Density
 DFV .                 30:   Viscosity
 DFL .                8.4:   Fluid loss
 MSS .           FLOWLINE:   Source of sample
 RMS .OHMM            1.2:   Rm
 MST .F                86:   Rm Meas. temp.
 RMF .OHMM            0.8:   Rmf
 MFST.F                68:   Rmf Meas. temp.
 RMC .OHMM            1.6:   Rmc
 MCST.F                70:   Rmc Meas. temp.
 MFSS.              PRESS:   Source Rmf.
 BHT .F               102:   BHT.
 TCS .HRS               3:   Time Circ. stopped
 MRT .F               102:   Maximum recorded temp.
 LUN .               2968:   Logging unit number
 LUL .             CASPER:   Logging unit location
 ENGI.           REYNOLDS:   Recorded By
 ORIG.           5" PRINT:   Origin of data
 UWI .     49025106920000:   Unique Well ID
 DICO. A2D TECHNOLOGIES, INC.:   Digitizing Company
 DAPD.                 12:   Feet Above Permanent Datum
 BSD1.               2850:   Depth drilled with bit1
 MCSS.               MEAS:   Source Rmc.
 TLI .                230:   Top log interval
~OTHER INFORMATION
~A   DEPT      SPR        ILD         SN       RHOB       CALD       DCOR          GRD 
# ...
 1446.5000   -77.4680     5.8970     7.0770     2.5510     8.6310     0.0480   107.6210
 1447.0000   -77.5730     5.8830     7.0540     2.5500     8.6300     0.0480   107.0780
 1447.5000   -77.6780     5.8810     7.0310     2.5490     8.6290     0.0480   108.5270
 1448.0000   -77.7840     5.8810     7.0080     2.5500     8.6280     0.0490   108.9690
 1448.5000   -77.8910     5.8810     6.9850     2.5520     8.6270     0.0500   106.6450
 1449.0000   -77.9970     5.8810     6.9620     2.5550     8.6260     0.0490   106.7250
 1449.5000   -78.1040     5.8750     6.9390     2.5580     8.6250     0.0440   109.4100
 1450.0000   -78.2110     5.8680     6.9160     2.5590     8.6240     0.0400   107.4580
 1450.5000   -78.3170     5.8600     6.8930     2.5510     8.6230     0.0410   104.9370
 1451.0000   -78.4250     5.8520     6.8700     2.5430     8.6220     0.0450   104.1770
 1451.5000   -78.5400     5.8450     6.8470     2.5350     8.6210     0.0490   103.6900
 1452.0000   -78.7780     5.8370     6.8040     2.5370     8.6200     0.0520   103.7060
 1452.5000   -78.7890     5.8300     6.7060     2.5420     8.6190     0.0510   105.7820
 1453.0000   -78.7520     5.8220     6.7270     2.5430     8.6180     0.0480   107.8420
 1453.5000   -78.7150     5.8140     6.7610     2.5450     8.6170     0.0460   109.8390
 1454.0000   -78.6790     5.8070     6.7700     2.5530     8.6160     0.0440   111.0490
 1454.5000   -78.6440     5.7990     6.7700     2.5580     8.6150     0.0440   105.3400
 1455.0000   -78.6080     5.7910     6.7700     2.5510     8.6140     0.0440   100.8920
 1455.5000   -78.5720     5.7840     6.7740     2.5440     8.6130     0.0520    97.7640
 1456.0000   -78.5360     5.7720     6.7790     2.5360     8.6120     0.0590   102.8680
 1456.5000   -78.5010     5.7750     6.7830     2.5380     8.6110     0.0590   102.7500
 1457.0000   -78.4650     5.7830     6.7880     2.5420     8.6100     0.0570   103.4970
 1457.5000   -78.4290     5.7900     6.7920     2.5420     8.6090     0.0550   108.2800
 1458.0000   -78.4140     5.7980     6.7970     2.5390     8.6090     0.0540   111.0810
 1458.5000   -78.4140     5.8050     6.8010     2.5360     8.6080     0.0580   106.1620
 1459.0000   -78.3920     5.8130     6.8060     2.5360     8.6090     0.0630   102.0470
 1459.5000   -78.3630     5.8200     6.8100     2.5450     8.6160     0.0680   101.5390
 1460.0000   -78.3340     5.8280     6.8150     2.5530     8.6230     0.0660   102.5660
 1460.5000   -78.3050     5.8350     6.8190     2.5620     8.6300     0.0620   103.4060
 1461.0000   -78.2750     5.8420     6.8240     2.5570     8.6370     0.0580   102.8190
 1461.5000   -78.2460     5.8500     6.8280     2.5600     8.6440     0.0550   101.4370
 1462.0000   -78.2170     5.8570     6.8330     2.5670     8.6510     0.0520   100.0330
 1462.5000   -78.1870     5.8650     6.8330     2.5730     8.6580     0.0520   102.4770
 1463.0000   -78.1580     5.8720     6.8330     2.5800     8.6650     0.0630   105.1970
 1463.5000   -78.1290     5.8800     6.8340     2.5810     8.6720     0.0750   104.7840
 1464.0000   -78.0990     5.8870     6.8010     2.5720     8.6800     0.0870   103.9620
 1464.5000   -78.0700     5.8950     6.7570     2.5630     8.6870     0.0900   103.1120
 1465.0000   -78.0420     5.9020     6.7140     2.5640     8.7090     0.0900   102.0570
 1465.5000   -78.0070     5.9100     6.6700     2.5680     8.7020     0.0890   100.2970
 1466.0000   -77.8440     5.9170     6.6270     2.5710     8.4710     0.0870    99.4910
 1466.5000   -77.8120     5.9240     6.5830     2.5750     8.8110     0.0850   103.2310
 1467.0000   -77.8120     5.9320     6.5400     2.5740     8.6260     0.0840   106.8820
 1467.5000   -77.8190     5.9370     6.4970     2.5680     8.6060     0.0820   109.2610
 1468.0000   -77.8460     5.9930     6.4530     2.5470     8.6070     0.0810   103.5290
 1468.5000   -77.8720     5.9930     6.4100     2.5420     8.6070     0.0810    98.2870
 1469.0000   -77.8970     5.9920     6.3990     2.5430     8.6070     0.0940    98.8360
 1469.5000   -77.9230     5.9930     6.3990     2.5360     8.6070     0.1170    99.7670
 1470.0000   -77.9490     5.9930     6.3990     2.5290     8.6130     0.1330   100.6500
 1470.5000   -77.9750     5.9940     6.4260     2.5730     8.6200     0.1240    99.3560
 1471.0000   -78.0010     5.9980     6.4820     2.5650     8.6270     0.1130    96.8760
 1471.5000   -78.0270     6.0010     6.5370     2.5600     8.6100     0.1020    94.4130
 1472.0000   -78.0530     6.0050     6.5930     2.5700     8.5870     0.0910    92.7430
 1472.5000   -78.0780     6.0080     6.6480     2.5690     8.5650     0.0810    93.3990
 1473.0000   -78.1040     6.0120     6.7040     2.5670     8.5430     0.0810    98.7010
 1473.5000   -78.1300     6.0150     6.7600     2.5660     8.5260     0.0810   101.8640
 1474.0000   -78.1560     6.0190     6.8150     2.5640     8.5260     0.0810   101.4690
 1474.5000   -78.1820     6.0220     6.8710     2.5610     8.5260     0.0810   101.2560
 1475.0000   -78.2080     6.0260     6.8980     2.5570     8.5250     0.0810   102.3720
 1475.5000   -78.2070     6.0290     6.9020     2.5570     8.5250     0.0780   103.7550
 1476.0000   -78.0210     6.0330     6.9150     2.5590     8.5240     0.0650   103.5170
 1476.5000   -77.8240     6.0360     6.9280     2.5610     8.5240     0.0520   103.2640
 1477.0000   -77.6270     6.0400     6.9410     2.5480     8.5240     0.0440   103.2480
 1477.5000   -77.4350     6.0430     6.9540     2.5340     8.5230     0.0440   108.3870
 1478.0000   -77.2560     6.0470     6.9680     2.5220     8.5230     0.0440   111.6160
 1478.5000   -77.0100     6.0510     6.9810     2.5280     8.5230     0.0440   108.8070
 1479.0000   -77.0920     6.0540     6.9940     2.5350     8.5220     0.0440   106.7910
 1479.5000   -77.1680     6.0580     7.0070     2.5420     8.5220     0.0440   106.1080
 1480.0000   -77.2440     6.0610     7.0200     2.5470     8.5210     0.0440   105.6000
 1480.5000   -77.3220     6.0650     7.0340     2.5490     8.5210     0.0440   109.4000
 1481.0000   -77.3990     6.0680     7.0470     2.5510     8.5210     0.0430   110.9210
 1481.5000   -77.4770     6.0720     7.0600     2.5520     8.5200     0.0430   111.6140
 1482.0000   -77.5540     6.0750     7.0730     2.5540     8.5200     0.0420   117.9240
 1482.5000   -77.6320     6.0790     7.0870     2.5530     8.5190     0.0420   113.9500
 1483.0000   -77.7090     6.0820     7.1160     2.5460     8.5190     0.0420   107.8970
 1483.5000   -77.7870     6.0860     7.1710     2.5370     8.5190     0.0440   104.3200
 1484.0000   -77.8640     6.0890     7.2260     2.5290     8.5180     0.0460   105.0070
 1484.5000   -77.9420     6.0930     7.2800     2.5280     8.5180     0.0480   117.6410
 1485.0000   -78.0190     6.0960     7.3350     2.5380     8.5170     0.0500   121.5040
 1485.5000   -78.0970     6.1000     7.3900     2.5500     8.5170     0.0520   117.9090
 1486.0000   -78.1740     6.1030     7.4450     2.5500     8.5170     0.0540   111.2270
 1486.5000   -78.2140     6.1060     7.5000     2.5490     8.5160     0.0510   112.2300
 1487.0000   -78.2160     6.1060     7.5680     2.5480     8.5160     0.0460   113.6670
 1487.5000   -78.1720     6.1060     7.5260     2.5500     8.5150     0.0400   114.7870
 1488.0000   -78.0210     6.0860     7.4460     2.5590     8.5150     0.0350   112.1220
 1488.5000   -77.9790     6.0330     7.3650     2.5590     8.5150     0.0300   109.5650
 1489.0000   -77.8980     5.9800     7.2840     2.5500     8.5140     0.0290   107.8540
 1489.5000   -77.8180     5.9270     7.2030     2.5370     8.5140     0.0410   105.7990
 1490.0000   -77.7380     5.8750     7.1220     2.5280     8.5140     0.0530   104.0680
 1490.5000   -77.6580     5.8220     7.0410     2.5420     8.5130     0.0560   104.7950
 1491.0000   -77.5780     5.7690     6.9600     2.5560     8.5130     0.0540   105.4140
 1491.5000   -77.4980     5.7160     6.8790     2.5630     8.5120     0.0510   105.6730
