~VERSION INFORMATION
 VERS.                2.0:   CWLS LOG ASCII STANDARD - VERSION 2.0
 WRAP.                 NO:   ONE LINE PER DEPTH STEP
~WELL INFORMATION
#MNEM.UNIT      DATA TYPE    INFORMATION
#----------   ------------   ------------------------------
 STRT.F          204.0000:   START DEPTH
 STOP.F         3104.0000:   STOP DEPTH
 STEP.F            0.5000:   STEP LENGTH
 NULL.          -999.2500:   NO VALUE
 COMP.    FENIX & SCISSON:   COMPANY
 WELL. FENIX NPR 83 "AX" #3-10:   WELL
 FLD .                NPR:   FIELD
 LOC .      S10 T38N R78W:   LOCATION
 CNTY.            NATRONA:   COUNTY
 STAT.            WYOMING:   STATE
 CTRY. UNITED STATES OF AMERICA:   COUNTRY
 SRVC.              WELEX:   SERVICE COMPANY
 DATE.        14-JUL-1977:   LOGDATE
 API .     49025103980000:   API NUMBER
~CURVE INFORMATION
#MNEM.UNIT       API CODE    CURVE DESCRIPTION
#----------   ------------   ------------------------------
 DEPT.F                  :   
 ILD .OHMM   07 120 46 00:   DEEP INDUCTION RESISTIVITY
 GURD.OHMM   07 220 05 00:   GUARD LOG RESISTIVITY
 ILM .OHMM   07 120 44 00:   INDUCTION LOG MEDIUM RESISTIVITY
 SPR .MV     07 010 01 00:   SPONTANEOUS POTENTIAL
 CALD.IN     45 280 60 00:   CALIPER FROM DENSITY LOG
 GRD .GAPI   45 310 01 00:   GAMMA RAY FROM DENSITY LOG
 RHOB.G/C3   45 350 01 00:   BULK DENSITY
 CORR.G/C3   45 356 01 00:   DENSITY CORRECTION
 NPHI.DEC    42 890 03 00:   NEUTRON POROSITY SANDSTONE
~PARAMETER INFORMATION
#MNEM.UNIT          VALUE    DESCRIPTION
#----------   ------------   ------------------------------
 EKB .F         5176.0000:   Kelly bushing
 EGL .F         5166.0000:   Ground level
 TD  .F         3105.0000:   Total depth
 DATE.        14-JUL-1977:   Date logged
 CLNT.            A2DTECH:   Client Code
 SL  . 1650' FNL & 100' FEL:   Surface Location
 PD  .                 GL:   Permanent Datum
 DD  .F              3094:   Depth driller
 DL  .F              3105:   Depth logger
 BLI .F              3103:   Bottom log interval
 CS1 .IN            8.625:   Casing size
 CBD1.      8.625" @ 218':   Casing driller 1
 CBL1.F               220:   Casing logger 1
 BS1 .IN            7.875:   Bit size
 DFT .            KCL/GEL:   Type fluid in hole
 DFD .                9.4:   Density
 DFV .                 36:   Viscosity
 DFPH.                  8:   pH
 DFL .                 12:   Fluid loss
 MSS .           FLOWLINE:   Source of sample
 RMS .OHMM           1.54:   Rm
 MST .F               100:   Rm Meas. temp.
 RMF .OHMM            1.5:   Rmf
 MFST.F               100:   Rmf Meas. temp.
 RMC .OHMM           3.47:   Rmc
 MCST.F               100:   Rmc Meas. temp.
 MFSS.               FANN:   Source Rmf.
 RMB .OHMM           1.36:   Rm. at BHT
 BHT .F               113:   BHT.
 TCS .HRS             2.5:   Time Circ. stopped
 MRT .F               113:   Maximum recorded temp.
 LUN .               8766:   Logging unit number
 LUL .             CASPER:   Logging unit location
 ENGI. G. BENTSEN/T. JOYNER:   Recorded By
 WITN.      B. HARRINGTON:   Witnessed by
 ORIG.           5" PRINT:   Origin of data
 UWI .     49025103980000:   Unique Well ID
 DICO. A2D TECHNOLOGIES, INC.:   Digitizing Company
 DAPD.F                10:   Feet Above Permanent Datum
 BSD1.F              3094:   Depth drilled with bit1
 MCSS.                KIT:   Source Rmc.
 TLI .F               210:   Top log interval
 EPD .F              5166:   Elevation Permanent Datum
 LMF .                 KB:   Log Measured From
 DMF .                 KB:   Drilling Measured From
~OTHER INFORMATION
~A   DEPT      ILD       GURD        ILM        SPR       CALD        GRD       RHOB       CORR       NPHI   
  204.0000  -999.2500  -999.2500  -999.2500   -30.0000  -999.2500  -999.2500  -999.2500  -999.2500  -999.2500
  204.5000  -999.2500  -999.2500  -999.2500   -30.0000  -999.2500  -999.2500  -999.2500  -999.2500  -999.2500
  205.0000  -999.2500  -999.2500  -999.2500   -30.0000  -999.2500  -999.2500  -999.2500  -999.2500  -999.2500
  205.5000  -999.2500  -999.2500  -999.2500   -30.0000  -999.2500  -999.2500  -999.2500  -999.2500  -999.2500
  206.0000  -999.2500  -999.2500  -999.2500   -30.0000  -999.2500  -999.2500  -999.2500  -999.2500  -999.2500
  206.5000  -999.2500  -999.2500  -999.2500   -30.0000  -999.2500  -999.2500  -999.2500  -999.2500  -999.2500
  207.0000  -999.2500  -999.2500  -999.2500   -30.0000  -999.2500  -999.2500  -999.2500  -999.2500  -999.2500
  207.5000  -999.2500  -999.2500  -999.2500   -30.0000  -999.2500  -999.2500  -999.2500  -999.2500  -999.2500
  208.0000  -999.2500  -999.2500  -999.2500   -30.0000  -999.2500  -999.2500  -999.2500  -999.2500  -999.2500
  208.5000  -999.2500  -999.2500  -999.2500   -30.0000  -999.2500  -999.2500  -999.2500  -999.2500  -999.2500
  209.0000  -999.2500  -999.2500  -999.2500   -29.9990  -999.2500  -999.2500  -999.2500  -999.2500  -999.2500
  209.5000  -999.2500  -999.2500  -999.2500   -29.9990  -999.2500  -999.2500  -999.2500  -999.2500  -999.2500
  210.0000  -999.2500  -999.2500  -999.2500   -30.0090  -999.2500  -999.2500  -999.2500  -999.2500  -999.2500
  210.5000  -999.2500  -999.2500  -999.2500   -30.1830  -999.2500  -999.2500  -999.2500  -999.2500  -999.2500
  211.0000  -999.2500  -999.2500  -999.2500   -30.4040  -999.2500  -999.2500  -999.2500  -999.2500  -999.2500
  211.5000  -999.2500  -999.2500  -999.2500   -30.5820  -999.2500  -999.2500  -999.2500  -999.2500  -999.2500
  212.0000  -999.2500  -999.2500  -999.2500   -30.7600  -999.2500  -999.2500  -999.2500  -999.2500  -999.2500
  212.5000  -999.2500  -999.2500  -999.2500   -30.9380  -999.2500  -999.2500  -999.2500  -999.2500  -999.2500
  213.0000  -999.2500  -999.2500  -999.2500   -31.1120  -999.2500  -999.2500  -999.2500  -999.2500  -999.2500
  213.5000  -999.2500  -999.2500  -999.2500   -31.2100  -999.2500  -999.2500  -999.2500  -999.2500  -999.2500
  214.0000  -999.2500  -999.2500  -999.2500   -31.7720  -999.2500  -999.2500  -999.2500  -999.2500  -999.2500
  214.5000  -999.2500  -999.2500  -999.2500   -32.4110  -999.2500  -999.2500  -999.2500  -999.2500  -999.2500
  215.0000  -999.2500  -999.2500  -999.2500   -33.3850  -999.2500  -999.2500  -999.2500  -999.2500  -999.2500
  215.5000  -999.2500  -999.2500  -999.2500   -34.0780  -999.2500  -999.2500  -999.2500  -999.2500  -999.2500
  216.0000  -999.2500  -999.2500  -999.2500   -35.2380  -999.2500  -999.2500  -999.2500     0.0540     0.3380
  216.5000  -999.2500  -999.2500  -999.2500   -37.3540  -999.2500  -999.2500  -999.2500     0.0540     0.3380
  217.0000  -999.2500  -999.2500  -999.2500   -39.5970  -999.2500  -999.2500  -999.2500     0.0540     0.3380
  217.5000  -999.2500  -999.2500  -999.2500   -41.8610  -999.2500  -999.2500  -999.2500     0.0540     0.3350
  218.0000  -999.2500  -999.2500  -999.2500   -44.1300     8.6960   105.6860  -999.2500     0.0540     0.3340
  218.5000  -999.2500  -999.2500  -999.2500   -46.3980     8.8810   104.0390  -999.2500     0.0520     0.3320
  219.0000  -999.2500  -999.2500  -999.2500   -48.6110     9.1010   102.1570  -999.2500     0.0520     0.3300
  219.5000  -999.2500  -999.2500  -999.2500   -50.3190     9.5130   101.7960  -999.2500     0.0530     0.3300
  220.0000  -999.2500     2.1700  -999.2500   -52.2940    10.0280   102.4000  -999.2500     0.0540     0.3290
  220.5000  -999.2500     2.7700  -999.2500   -53.8130    10.3690   103.0440  -999.2500     0.0550     0.3270
  221.0000     0.9990     3.1180     4.6970   -55.0980    10.6870   103.7070     2.3620     0.0550     0.3260
  221.5000     0.7390     3.5000     2.9550   -56.0850    11.0220   104.0280     2.4280     0.0530     0.3260
  222.0000     0.4660     3.7860     3.3620   -56.9490    11.3550   104.1340     2.4540     0.0580     0.3270
  222.5000     0.4270     4.1680     3.7770   -57.7610    11.6710   103.8920     2.4640     0.0630     0.3290
  223.0000     0.3980     4.4550     4.2000   -58.3680    11.6660   103.6080     2.4700     0.0680     0.3310
  223.5000     0.3870     4.6510     4.5640   -58.9650    11.5680   103.3250     2.4510     0.0700     0.3330
  224.0000     1.0130     4.8210     4.9290   -59.5640    11.4410   103.0420     2.4360     0.0670     0.3350
  224.5000     1.8650     4.9110     5.8800   -60.1630    11.2630   102.7590     2.4190     0.0640     0.3350
  225.0000     2.7160     5.0070     7.8940   -60.7630    11.0850   102.4760     2.4140     0.0570     0.3370
  225.5000     3.5670     5.1030    10.7700   -61.3610    10.8570   102.1910     2.4090     0.0490     0.3390
  226.0000     4.4370     5.3930    10.5850   -61.9590    10.6300   102.1570     2.4050     0.0400     0.3440
  226.5000     4.9790     5.7740     9.3840   -62.3970    10.4030   102.4740     2.4050     0.0350     0.3460
  227.0000     5.5330     5.9220     7.6760   -62.6550    10.1750   102.8300     2.4050     0.0350     0.3470
  227.5000     6.0880     6.0700     6.4170   -62.9140     9.9530   103.1850     2.4050     0.0350     0.3480
  228.0000     6.6420     6.2180     5.8150   -63.1710     9.8280   103.5380     2.4050     0.0340     0.3490
  228.5000     7.2480     6.3030     5.3640   -63.4280     9.7730   103.7270     2.4020     0.0320     0.3500
  229.0000     7.3070     6.1260     5.0040   -63.6850     9.7790   103.3120     2.3990     0.0310     0.3480
  229.5000     7.1340     5.8490     4.6440   -63.9420     9.7970   102.5020     2.3970     0.0290     0.3470
  230.0000     6.7510     5.5720     4.2530   -64.1990     9.8160   101.6740     2.3960     0.0280     0.3470
  230.5000     6.3680     5.2950     4.3630   -64.4560     9.8340   102.0810     2.4010     0.0260     0.3480
  231.0000     6.1370     5.0960     4.5080   -64.7660     9.8530   103.2070     2.4070     0.0260     0.3480
  231.5000     5.9630     5.0490     4.6540   -65.2910     9.8720   102.6730     2.4130     0.0270     0.3480
  232.0000     5.6730     5.3780     4.8000   -66.1400     9.8900   101.7330     2.4190     0.0270     0.3480
  232.5000     5.2580     5.6930     4.9570   -66.5600     9.9090   100.7390     2.4250     0.0270     0.3470
  233.0000     5.1260     6.1300     4.9570   -66.7040     9.9280   101.7960     2.4250     0.0270     0.3460
  233.5000     5.0740     6.1300     4.9110   -66.8400     9.9460   102.6130     2.4240     0.0270     0.3440
  234.0000     5.0220     5.9630     4.8620   -66.9800     9.9650   101.3620     2.4240     0.0270     0.3450
  234.5000     4.9570     6.0160     4.7770   -67.1210     9.9950   100.5820     2.4220     0.0280     0.3460
  235.0000     5.1080     6.0870     4.6810   -67.2620    10.0290   101.0380     2.4200     0.0290     0.3460
  235.5000     5.3060     6.1870     4.5890   -67.4020    10.0620   101.5150     2.4170     0.0300     0.3460
  236.0000     5.3930     6.1450     4.4970   -67.5420    10.0960   102.0020     2.4140     0.0310     0.3480
  236.5000     5.4350     6.0740     4.4060   -67.7390    10.1300   102.1580     2.4120     0.0320     0.3490
  237.0000     5.4250     6.0530     4.3160   -68.0180    10.1640   102.0550     2.4090     0.0330     0.3510
  237.5000     5.4060     6.0320     4.3230   -68.2950    10.1980   101.2440     2.4070     0.0340     0.3510
  238.0000     5.3860     6.0110     4.3320   -68.5720    10.2320   100.8320     2.4070     0.0350     0.3530
  238.5000     5.3670     5.9910     4.3410   -68.8490    10.2660   102.3680     2.4070     0.0360     0.3550
  239.0000     5.3470     5.9700     4.3510   -69.1260    10.3000   103.8520     2.4070     0.0360     0.3560
  239.5000     5.2960     5.8820     4.3740   -69.4020    10.3100   104.5990     2.4070     0.0370     0.3560
  240.0000     5.2090     5.7610     4.3960   -69.6800    10.3170   103.4280     2.4070     0.0360     0.3540
