~VERSION INFORMATION
 VERS.                2.0:   CWLS LOG ASCII STANDARD - VERSION 2.0
 WRAP.                 NO:   ONE LINE PER DEPTH STEP
~WELL INFORMATION
#MNEM.UNIT      DATA TYPE    INFORMATION
#----------   ------------   ------------------------------
 STRT.F          230.0000:   START DEPTH
 STOP.F         3480.0000:   STOP DEPTH
 STEP.F            0.5000:   STEP LENGTH
 NULL.          -999.2500:   NO VALUE
 COMP.    FENIX & SCISSON:   COMPANY
 WELL. FENIX NPR 3 "AX" #33-15:   WELL
 FLD .                NPR:   FIELD
 LOC .      S15 T38N R78W:   LOCATION
 CNTY.            NATRONA:   COUNTY
 STAT.            WYOMING:   STATE
 CTRY. UNITED STATES OF AMERICA:   COUNTRY
 SRVC.       SCHLUMBERGER:   SERVICE COMPANY
 DATE.        19-MAR-1981:   LOGDATE
 API .     49025108760000:   API NUMBER
~CURVE INFORMATION
#MNEM.UNIT       API CODE    CURVE DESCRIPTION
#----------   ------------   ------------------------------
 DEPT.F                  :   
 TENR.LBS    07 635 01 00:   TENSION
 SFL .OHMM   07 220 01 00:   SHALLOW FOCUSED LOG RESISTIVITY
 ILM .OHMM   07 120 44 00:   INDUCTION LOG MEDIUM RESISTIVITY
 ILD .OHMM   07 120 46 00:   INDUCTION LOG DEEP RESISTIVITY
 SPR .MV     07 010 01 00:   SPONTANEOUS POTENTIAL
 CALD.IN     45 280 60 00:   CALIPER FROM DENSITY LOG
 GRD .GAPI   45 310 01 00:   GAMMA RAY FROM DENSITY LOG
 CORR.G/C3   45 356 01 00:   DENSITY CORRECTION
 RHOB.G/C3   45 350 01 00:   BULK DENSITY
~PARAMETER INFORMATION
#MNEM.UNIT          VALUE    DESCRIPTION
#----------   ------------   ------------------------------
 EKB .F         5286.0000:   Kelly bushing
 EGL .F         5276.0000:   Ground level
 EDF .F            0.0000:   Drilling floor
 TD  .F         3500.0000:   Total depth
 DATE.        19-MAR-1981:   Date logged
 CLNT.            A2DTECH:   Client Code
 SL  . 1545' FNL & 1467' FWL:   Surface Location
 PD  .                 GL:   Permanent Datum
 EPD .F              5276:   Elevation Permanent Datum
 LMF .                 KB:   Log Measured From
 DMF .                 KB:   Drilling Measured From
 DAPD.F                10:   Feet Above Permanent Datum
 DD  .F              3500:   Depth driller
 DL  .F              3476:   Depth logger
 BLI .F              3470:   Bottom log interval
 TLI .F               234:   Top log interval
 CS1 .IN            8.625:   Casing size
 CBD1.      8.625" @ 250':   Casing driller 1
 CBL1.F               234:   Casing logger 1
 BS1 .IN            7.875:   Bit size
 BSD1.F              3500:   Depth drilled with bit1
 DFT .                FGM:   Type fluid in hole
 DFD .                8.9:   Density
 DFV .                 39:   Viscosity
 DFPH.                9.5:   pH
 DFL .                 10:   Fluid loss
 MSS .               TANK:   Source of sample
 RMS .OHMM           2.26:   Rm
 MST .F                54:   Rm Meas. temp.
 RMF .OHMM           1.60:   Rmf
 MFST.F                54:   Rmf Meas. temp.
 MFSS.               MEAS:   Source Rmf.
 RMB .OHMM            .87:   Rm. at BHT
 BHT .F               140:   BHT.
 TCS .HRS            1030:   Time Circ. stopped
 TLAB.HRS            1300:   Time logger at bottom
 MRT .F               140:   Maximum recorded temp.
 LUN .               8039:   Logging unit number
 LUL .               CSPR:   Logging unit location
 ENGI.           C. PFARR:   Recorded By
 WITN.           R. SCOTT:   Witnessed by
 ORIG.     2.5", 5" PRINT:   Origin of data
 UWI .     49025108760000:   Unique Well ID
 DICO. A2D TECHNOLOGIES, INC.:   Digitizing Company
~OTHER INFORMATION
~A   DEPT     TENR          SFL      ILM        ILD        SPR         CALD       GRD      CORR         RHOB 
# ...
 1288.5000   951.7010    10.6260     7.9170     9.0230   -49.5770     8.9860   100.7470     0.0550     2.5420
 1289.0000   952.0230    10.5650     8.0610     9.1470   -49.6680     8.9860    97.5180     0.0460     2.5370
 1289.5000   952.3450    10.4720     8.2170     9.2720   -49.7600     8.9870    94.6560     0.0360     2.5320
 1290.0000   952.6670    10.5110     8.2170     9.3960   -49.8050     8.9490    93.5240     0.0280     2.5180
 1290.5000   952.9890    10.4550     8.2170     9.5300   -49.7010     8.9070    96.2690     0.0250     2.5070
 1291.0000   953.3110    10.5120     8.1800     9.5300   -49.5570     8.9080    97.8290     0.0220     2.5080
 1291.5000   953.6330    10.5730     8.1400     9.3450   -49.4140     8.9120    98.6300     0.0210     2.5090
 1292.0000   953.9550    10.8500     8.1000     9.3150   -49.2730     8.9170    97.9570     0.0200     2.5170
 1292.5000   954.2770    10.7420     8.0610     9.2840   -49.1290     8.9210    97.3350     0.0210     2.5230
 1293.0000   954.5990    10.4240     8.0210     9.2540   -48.9870     8.9250    98.7370     0.0250     2.5290
 1293.5000   954.9210    10.1050     7.9810     9.2230   -48.8480     8.9290   101.4500     0.0300     2.5300
 1294.0000   955.2430     9.7870     7.9410     9.1920   -48.6920     8.9340   104.1530     0.0330     2.5300
 1294.5000   955.5650     9.7080     7.9010     9.1620   -48.5960     8.9380   106.3500     0.0360     2.5300
 1295.0000   955.8870     9.8290     7.8620     9.1310   -48.4660     8.9420   107.0360     0.0370     2.5260
 1295.5000   956.2100     9.9560     7.8220     9.1010   -48.3120     8.9470   107.5300     0.0310     2.5210
 1296.0000   956.5320    10.0830     7.7810     9.0710   -48.1560     8.9510   106.1840     0.0260     2.5110
 1296.5000   956.8540    10.2630     7.7720     9.0400   -48.0070     8.9550   103.4390     0.0200     2.5020
 1297.0000   957.1760    10.1640     7.7380     9.0150   -47.8510     8.9600   100.7350     0.0170     2.5020
 1297.5000   957.4980     9.9890     7.7030     9.0000   -47.8180     8.9640    99.9480     0.0170     2.5070
 1298.0000   957.8200     9.7080     7.6680     8.9590   -47.8200     8.9680    99.2180     0.0210     2.5180
 1298.5000   958.1420     9.7520     7.6330     8.9180   -48.0400     8.9730    99.8060     0.0290     2.5330
 1299.0000   958.4640    10.0750     7.5980     8.8770   -48.3210     8.9770   102.8460     0.0360     2.5460
 1299.5000   958.7860     9.9490     7.5630     8.8360   -48.6130     8.9810   105.8910     0.0440     2.5510
 1300.0000   959.1080     9.6290     7.5270     8.7950   -48.9050     8.9860   108.9930     0.0520     2.5550
 1300.5000   959.4300     9.3090     7.4920     8.7550   -49.1440     8.9860   109.6710     0.0560     2.5520
 1301.0000   959.7520     9.1830     7.4570     8.7140   -49.7950     8.9820   108.5400     0.0500     2.5480
 1301.5000   960.0740     9.1830     7.4220     8.6730   -50.2460     8.9780   107.4140     0.0440     2.5440
 1302.0000   960.3960     9.1220     7.3870     8.6320   -50.0960     8.9730   106.5130     0.0340     2.5440
 1302.5000   960.7180     9.0620     7.3520     8.5900   -49.9150     8.9690   106.8870     0.0520     2.5460
 1303.0000   961.0400     9.0150     7.4150     8.5280   -49.7520     8.9650   106.4500     0.0400     2.5520
 1303.5000   961.3620     9.1830     7.4770     8.5560   -49.5750     8.9600   107.2340     0.0450     2.5570
 1304.0000   961.6840     9.3840     7.5390     8.6280   -49.4060     8.9560   106.8940     0.0540     2.5550
 1304.5000   962.0060     9.5110     7.6000     8.7000   -49.2340     8.9520   106.4210     0.0490     2.5500
 1305.0000   962.3290     9.6380     7.6620     8.7720   -49.0620     8.9470   106.5640     0.0440     2.5450
 1305.5000   962.6510     9.7080     7.7240     8.8440   -48.8910     8.9430   107.0620     0.0480     2.5430
 1306.0000   962.9730     9.8900     7.7860     8.9160   -48.7190     8.9390   108.0590     0.0670     2.5510
 1306.5000   963.2950     9.9250     7.8470     8.9870   -48.5470     8.9340   105.9140     0.0800     2.5530
 1307.0000   963.6170     9.9650     7.9180     9.0590   -48.3780     8.9300   101.9520     0.0550     2.5430
 1307.5000   963.9390    10.0060     7.8980     9.1310   -48.2030     8.9260    98.8110     0.0600     2.5210
 1308.0000   964.2610    10.0470     7.8760     9.1760   -48.0350     8.9250    99.8920     0.0380     2.4980
 1308.5000   964.5830    10.0880     7.8530     9.1500   -47.8680     8.9250   102.4970     0.0190     2.4880
 1309.0000   964.9050    10.1280     7.8300     9.1240   -47.7980     8.9250   102.9250     0.0250     2.5130
 1309.5000   965.2270    10.1690     7.8070     9.0970   -47.9960     8.9240   101.3760     0.0290     2.5300
 1310.0000   965.5490    10.2100     7.7830     9.0700   -48.3910     8.9240    99.9770     0.0340     2.5370
 1310.5000   965.8710    10.2630     7.7750     9.0450   -48.7340     8.9230    98.9030     0.0370     2.5340
 1311.0000   966.1930    10.1560     7.7840     9.0160   -49.1120     8.9230   100.8280     0.0300     2.5180
 1311.5000   966.5150    10.0000     7.7930     9.0150   -49.4730     8.9220   102.4020     0.0220     2.5050
 1312.0000   966.8370     9.8900     7.8000     9.0150   -49.8190     8.9220   101.2110     0.0140     2.5000
 1312.5000   967.1590     9.9110     7.8080     9.0150   -49.4540     8.9220    99.2100     0.0130     2.5030
 1313.0000   967.4810     9.9530     7.8160     9.0150   -49.1470     8.9210    98.3050     0.0200     2.5140
 1313.5000   967.8030     9.9950     7.8240     9.0150   -48.7870     8.9210    97.3810     0.0270     2.5280
 1314.0000   968.1260    10.0370     7.8320     9.0150   -48.5990     8.9200    96.4320     0.0330     2.5350
 1314.5000   968.4480    10.0740     7.8400     9.0150   -48.7500     8.9200    97.5200     0.0250     2.5250
 1315.0000   968.7700    10.0350     7.8480     9.0150   -48.8590     8.9190    98.9150     0.0130     2.5060
 1315.5000   969.0920     9.9990     7.8560     9.0150   -48.9940     8.9190    98.8050     0.0080     2.4870
 1316.0000   969.4140     9.9640     7.8640     9.0150   -49.0160     8.9180    96.6090     0.0100     2.4830
 1316.5000   969.7360     9.9280     7.8720     9.0140   -48.9250     8.9180    96.4830     0.0250     2.5040
 1317.0000   970.0580     9.8910     7.8800     9.0170   -48.7680     8.9170    97.5740     0.0410     2.5210
 1317.5000   970.3800     9.8900     7.8870     8.9870   -48.6290     8.9170    97.5210     0.0530     2.5380
 1318.0000   970.7020     9.8900     7.8950     8.9270   -48.4850     8.9160    95.4450     0.0700     2.5500
 1318.5000   971.0240     9.8900     7.9040     8.8680   -48.3420     8.9160    90.9530     0.0690     2.5520
 1319.0000   971.3460     9.9770     7.9190     8.8100   -48.2200     8.9150    94.1770     0.0570     2.5390
 1319.5000   971.6680    10.1470     7.9120     8.7530   -48.2160     8.9150    97.5580     0.0500     2.5240
 1320.0000   971.9900     9.9210     7.8310     8.6950   -48.2130     8.9140   100.9930     0.0300     2.5080
 1320.5000   972.3120     9.1830     7.7670     8.6370   -48.2150     8.9140   103.3580     0.0100     2.4970
 1321.0000   972.6340     9.2030     7.6850     8.5800   -48.2140     8.9140   103.0340     0.0080     2.5030
 1321.5000   972.9560     9.2580     7.6300     8.5220   -48.2140     8.9130   101.3380     0.0150     2.5110
 1322.0000   973.2780     9.3120     7.4900     8.4640   -48.2140     8.9130    99.6760     0.0220     2.5190
 1322.5000   973.6000     9.3660     7.4660     8.4060   -48.2140     8.9120   100.0260     0.0230     2.5110
 1323.0000   973.9230     9.4210     7.4410     8.3710   -48.2140     8.9120   101.8740     0.0190     2.5010
 1323.5000   974.2450     9.4750     7.4160     8.3920   -48.2140     8.9110   103.7270     0.0140     2.4980
 1324.0000   974.5670     9.5300     7.3920     8.4270   -48.2140     8.9110   105.4180     0.0100     2.5030
 1324.5000   974.8890     9.4130     7.3670     8.4630   -48.2140     8.9100   102.2940     0.0190     2.5090
