~VERSION INFORMATION
 VERS.                2.0:   CWLS LOG ASCII STANDARD - VERSION 2.0
 WRAP.                 NO:   ONE LINE PER DEPTH STEP
~WELL INFORMATION
#MNEM.UNIT      DATA TYPE    INFORMATION
#----------   ------------   ------------------------------
 STRT.F          208.0000:   START DEPTH
 STOP.F         2950.0000:   STOP DEPTH
 STEP.F            0.5000:   STEP LENGTH
 NULL.          -999.2500:   NO VALUE
 COMP.    FENIX & SCISSON:   COMPANY
 WELL.     FENIX A #56-28:   WELL
 FLD .                NPR:   FIELD
 LOC .      S28 T39N R78W:   LOCATION
 CNTY.            NATRONA:   COUNTY
 STAT.            WYOMING:   STATE
 CTRY. UNITED STATES OF AMERICA:   COUNTRY
 SRVC.              WELEX:   SERVICE COMPANY
 DATE.        20-AUG-1977:   LOGDATE
 API .     49025104140000:   API NUMBER
~CURVE INFORMATION
#MNEM.UNIT       API CODE    CURVE DESCRIPTION
#----------   ------------   ------------------------------
 DEPT.F                  :   
 SPR .MV     07 010 01 00:   SPONTANEOUS POTENTIAL
 RILM.OHMM   07 120 44 00:   INDUCTION LOG MEDIUM RESISTIVITY
 RILD.OHMM   07 120 46 00:   INDUCTION LOG DEEP RESISTIVITY
 SGRD.OHMM   07 220 05 00:   SHALLOW GUARD LOG RESISTIVITY
 CALD.IN     45 280 60 00:   CALIPER FROM DENSITY LOG
 DCOR.G/C3   45 356 01 00:   DENSITY CORRECTION
 GRD .GAPI   45 310 01 00:   GAMMA RAY FROM DENSITY LOG
 RHOB.G/C3   45 350 01 00:   BULK DENSITY
~PARAMETER INFORMATION
#MNEM.UNIT          VALUE    DESCRIPTION
#----------   ------------   ------------------------------
 EKB .F         5088.0000:   Kelly bushing
 EGL .F         5078.0000:   Ground level
 EDF .F            0.0000:   Drilling floor
 EPD .F         5078.0000:   Permanent datum
 TD  .F         2960.0000:   Total depth
 DATE.        20-AUG-1977:   Date logged
 CLNT.            A2DTECH:   Client Code
 SL  . 1650' FSL & 2310' FEL:   Surface Location
 PD  .                 GL:   Permanent Datum
 LMF .                 KB:   Log Measured From
 DMF .                 KB:   Drilling Measured From
 DAPD.F                10:   Feet Above Permanent Datum
 DD  .F              2960:   Depth driller
 DL  .F              2952:   Depth logger
 BLI .F              2950:   Bottom log interval
 TLI .F               210:   Top log interval
 CS1 .IN            8.625:   Casing size
 CBD1.      8.625" @ 215':   Casing driller 1
 CBL1.F               218:   Casing logger 1
 BS1 .IN            7.875:   Bit size
 BSD1.F              2960:   Depth drilled with bit1
 DFT .            KCL MUD:   Type fluid in hole
 DFD .                8.9:   Density
 DFV .                 60:   Viscosity
 DFPH.                 11:   pH
 DFL .                7.2:   Fluid loss
 MSS .           FLOWLINE:   Source of sample
 RMS .OHMM            .78:   Rm
 MST .F                81:   Rm Meas. temp.
 RMF .OHMM            .46:   Rmf
 MFST.F                81:   Rmf Meas. temp.
 RMC .OHMM           1.66:   Rmc
 MCST.F                81:   Rmc Meas. temp.
 MFSS.               CALC:   Source Rmf.
 MCSS.               CALC:   Source Rmc.
 RMB .OHMM            .56:   Rm. at BHT
 BHT .F               112:   BHT.
 TCS .HRS             2.5:   Time Circ. stopped
 MRT .F               112:   Maximum recorded temp.
 LUN .               8611:   Logging unit number
 LUL .             CASPER:   Logging unit location
 ENGI.             C DOAK:   Recorded By
 WITN.       B HARRINGTON:   Witnessed by
 ORIG.           5" PRINT:   Origin of data
 UWI .     49025104140000:   Unique Well ID
 DICO. A2D TECHNOLOGIES, INC.:   Digitizing Company
~OTHER INFORMATION
~A   DEPT      SPR       RILM       RILD       SGRD         CALD     DCOR        GRD       RHOB   
# ...
 1828.0000   -79.8540     8.0630     6.9430    11.2940     9.4540    -0.0080   146.5170     2.4530
 1828.5000   -79.9360     8.1170     7.0100    12.3680     9.4540    -0.0040   147.4750     2.4600
 1829.0000   -80.0180     8.1170     7.0750    12.1860     9.4520    -0.0010   148.5060     2.4670
 1829.5000   -80.0950     8.1170     7.1110    11.4940     9.4500     0.0030   149.5430     2.4750
 1830.0000   -80.0530     8.3690     7.1540    11.6980     9.4480     0.0070   150.5810     2.4790
 1830.5000   -80.0080     8.6760     7.1980    12.3500     9.4470     0.0090   151.6170     2.4820
 1831.0000   -79.9630     8.9770     7.2410    12.2550     9.4450     0.0080   152.6500     2.4740
 1831.5000   -79.9180     8.9440     7.2850    12.4110     9.4430     0.0070   153.6920     2.4650
 1832.0000   -79.9280     8.8950     7.3280    12.5960     9.4410     0.0060   153.8820     2.4610
 1832.5000   -79.9670     8.9550     7.3720    12.1820     9.4390     0.0050   153.4680     2.4580
 1833.0000   -80.0070     9.0950     7.4150    12.4140     9.4370     0.0040   153.0510     2.4620
 1833.5000   -80.0470     9.2350     7.4700    12.8290     9.4350     0.0030   152.6290     2.4660
 1834.0000   -80.0870     9.3970     7.4460    12.8290     9.4380     0.0020   152.2030     2.4640
 1834.5000   -80.1280     9.3180     7.4020    12.8290     9.4420     0.0010   151.7980     2.4560
 1835.0000   -80.1680     9.1940     7.3570    12.8290     9.4460     0.0000   152.3180     2.4470
 1835.5000   -80.2080     9.0700     7.3120    12.8290     9.4500    -0.0010   152.8950     2.4390
 1836.0000   -80.2480     8.9290     7.2680    12.8290     9.4540     0.0000   153.4730     2.4320
 1836.5000   -80.2890     8.7330     7.2230    12.4910     9.4580     0.0010   154.0370     2.4280
 1837.0000   -80.2710     8.5370     7.1780    12.1660     9.4620     0.0010   154.3720     2.4350
 1837.5000   -80.2440     8.3410     7.1330    11.8420     9.4660     0.0020   153.2100     2.4410
 1838.0000   -80.2160     8.1460     7.0890     9.9280     9.4700     0.0030   152.0600     2.4350
 1838.5000   -80.1890     8.3720     7.0440    10.6800     9.4740     0.0040   150.9160     2.4330
 1839.0000   -80.1620     8.6720     7.0110    12.5590     9.4690     0.0050   149.7680     2.4410
 1839.5000   -80.1350     8.8950     7.0620    13.0660     9.4620     0.0060   148.7840     2.4490
 1840.0000   -80.1060     8.7340     7.1030    12.7740     9.4560     0.0070   148.0580     2.4570
 1840.5000   -80.0880     8.8090     7.1430    11.9230     9.4500     0.0090   147.4800     2.4660
 1841.0000   -80.0720     8.9720     7.1840    12.2240     9.4440     0.0100   147.7310     2.4730
 1841.5000   -80.0560     9.0590     7.2390    12.8290     9.4380     0.0120   149.1210     2.4780
 1842.0000   -80.0400     8.9100     7.3090    12.2670     9.4320     0.0130   150.8490     2.4810
 1842.5000   -80.0240     9.2410     7.3800    11.3890     9.4260     0.0110   152.5880     2.4750
 1843.0000   -80.0080     9.6390     7.4500    12.7690     9.4200     0.0100   154.3280     2.4780
 1843.5000   -79.9930     9.9280     7.5210    13.8390     9.4150     0.0090   156.0680     2.4810
 1844.0000   -79.9770     9.7850     7.5910    13.5530     9.4150     0.0080   157.7070     2.4750
 1844.5000   -79.9610     9.6720     7.6620    13.6480     9.4150     0.0070   159.2730     2.4670
 1845.0000   -79.9450     9.7500     7.7320    13.7870     9.4150     0.0060   159.5520     2.4590
 1845.5000   -79.9290     9.8540     7.8020    13.6390     9.4150     0.0050   156.8440     2.4520
 1846.0000   -79.9150     9.9380     7.8400    13.4450     9.4150     0.0030   154.7610     2.4490
 1846.5000   -79.8930     9.9750     7.8630    13.5300     9.4150     0.0030   153.3420     2.4510
 1847.0000   -79.6900    10.0120     7.8970    13.6780     9.4150     0.0030   152.5510     2.4520
 1847.5000   -79.5120    10.0490     7.8850    13.5350     9.4150     0.0030   151.7590     2.4490
 1848.0000   -79.5090    10.0850     7.8610    13.4300     9.4150     0.0030   150.6390     2.4500
 1848.5000   -79.5100    10.1110     7.8380    14.0590     9.4150     0.0040   149.2080     2.4540
 1849.0000   -79.5100     9.3120     7.8140    13.9470     9.4150     0.0040   147.7740     2.4560
 1849.5000   -79.5100     9.4840     7.7900    13.0780     9.4150     0.0040   147.4340     2.4530
 1850.0000   -79.5100     9.2270     7.7660    12.0320     9.4150     0.0040   148.8300     2.4540
 1850.5000   -79.5100    10.2040     7.7420    12.8520     9.4150     0.0040   150.3500     2.4570
 1851.0000   -79.5100     9.8370     7.7190    13.5280     9.4150     0.0040   151.8550     2.4540
 1851.5000   -79.5100     9.7480     7.6830    13.9680     9.4150     0.0040   152.5940     2.4550
 1852.0000   -79.5470    10.0190     7.6970    14.1880     9.4150     0.0040   151.0840     2.4660
 1852.5000   -79.5870     9.6590     7.7260    13.9310     9.4150     0.0050   149.6520     2.4680
 1853.0000   -79.6280     9.8370     7.7550    13.9310     9.4150     0.0050   148.6370     2.4620
 1853.5000   -79.6700     9.5680     7.7840    13.4770     9.4150     0.0050   148.8170     2.4530
 1854.0000   -79.7030     9.3970     7.8130    11.8140     9.4150     0.0050   148.9850     2.4440
 1854.5000   -79.6370     9.8830     7.8420    13.0050     9.4150     0.0050   148.4750     2.4370
 1855.0000   -79.5730     9.9390     7.8710    13.9720     9.4150     0.0040   147.6950     2.4370
 1855.5000   -79.5100     9.9770     7.8970    14.1110     9.4150     0.0040   146.8700     2.4370
 1856.0000   -79.4460    10.0190     7.8680    14.3190     9.4180     0.0030   147.1790     2.4380
 1856.5000   -79.3820    10.0650     7.8420    14.2330     9.4290     0.0030   147.9250     2.4320
 1857.0000   -79.3180    10.1110     7.8160    14.0610     9.4400     0.0020   148.6850     2.4280
 1857.5000   -79.4230    10.0650     7.7900    13.8900     9.4510     0.0020   149.4450     2.4260
 1858.0000   -79.5460    10.0190     7.7640    13.8040     9.4620     0.0020   150.2040     2.4330
 1858.5000   -79.6740     9.7300     7.7380    13.8040     9.4730     0.0010   150.9630     2.4410
 1859.0000   -79.6320     9.3120     7.7120    12.7690     9.4660     0.0010   151.7220     2.4490
 1859.5000   -79.5310     9.4770     7.6830    11.9230     9.4550     0.0000   152.4850     2.4500
 1860.0000   -79.4260     9.7150     7.7010    12.9190     9.4450     0.0000   153.2390     2.4440
 1860.5000   -79.3200     9.9280     7.7210    13.5910     9.4350    -0.0010   152.6210     2.4380
 1861.0000   -79.4490     9.9600     7.7420    13.7180     9.4250    -0.0010   151.7850     2.4400
 1861.5000   -79.5990     9.9900     7.7620    13.8440     9.4140     0.0000   150.9410     2.4520
 1862.0000   -79.7020    10.0200     7.7820    13.9700     9.4040     0.0010   150.0460     2.4630
 1862.5000   -79.6740    10.0490     7.8030    14.0590     9.3940     0.0020   150.8840     2.4700
 1863.0000   -79.6490    10.0790     7.8250    13.8820     9.3840     0.0030   152.7900     2.4590
 1863.5000   -79.6250    10.1110     7.8250    13.6780     9.3770     0.0030   154.9820     2.4530
 1864.0000   -79.6000    10.0910     7.8250    13.7410     9.3830     0.0040   157.1720     2.4600
 1864.5000   -79.5760    10.0680     7.8250    13.9310     9.3880     0.0050   159.2230     2.4590
 1865.0000   -79.5510    10.0440     7.8250    13.8730     9.3940     0.0060   159.1850     2.4610
 1865.5000   -79.5280    10.0190     7.7910    13.7580     9.3870     0.0070   157.0730     2.4650
 1866.0000   -79.5340     9.7720     7.7240    13.6090     9.3740     0.0080   154.9790     2.4710
 1866.5000   -79.6290     9.4980     7.6560    13.3810     9.3610     0.0080   153.6700     2.4690
 1867.0000   -79.7210     9.2240     7.5890    13.1520     9.3480     0.0090   155.4510     2.4630
 1867.5000   -79.8130     8.9770     7.5210    12.9470     9.3350     0.0080   157.1450     2.4650
 1868.0000   -79.9050     9.0590     7.4540    13.0140     9.3220     0.0070   158.4690     2.4670
