~VERSION INFORMATION
 VERS.                2.0:   CWLS LOG ASCII STANDARD - VERSION 2.0
 WRAP.                 NO:   ONE LINE PER DEPTH STEP
~WELL INFORMATION
#MNEM.UNIT      DATA TYPE    INFORMATION
#----------   ------------   ------------------------------
 STRT.F            0.0000:   START DEPTH
 STOP.F         2775.5000:   STOP DEPTH
 STEP.F            0.5000:   STEP LENGTH
 NULL.          -999.2500:   NO VALUE
 COMP.          U.S. NAVY:   COMPANY
 WELL.   U.S. "A" #107-29:   WELL
 FLD .        TEAPOT DOME:   FIELD
 LOC .      S29 T39N R78W:   LOCATION
 CNTY.            NATRONA:   COUNTY
 STAT.            WYOMING:   STATE
 CTRY. UNITED STATES OF AMERICA:   COUNTRY
 SRVC.         MCCULLOUGH:   SERVICE COMPANY
 DATE.        07-SEP-1966:   LOGDATE
 API .     49025095920000:   API NUMBER
~CURVE INFORMATION
#MNEM.UNIT       API CODE    CURVE DESCRIPTION
#----------   ------------   ------------------------------
 DEPT.F                  :   
 GR  .GAPI   30 310 01 00:   GAMMA RAY
 CALI.IN     70 280 01 00:   CALIPER
~PARAMETER INFORMATION
#MNEM.UNIT          VALUE    DESCRIPTION
#----------   ------------   ------------------------------
 EKB .F            0.0000:   Kelly bushing
 EGL .F            0.0000:   Ground level
 EDF .F            0.0000:   Drilling floor
 EPD .F            0.0000:   Permanent datum
 TD  .F         2777.5000:   Total depth
 DATE.        07-SEP-1966:   Date logged
 CLNT.            A2DTECH:   Client Code
 PD  .                 GL:   Permanent Datum
 LMF .                 GL:   Log Measured From
 DMF .                 GL:   Drilling Measured From
 DL  .F            2777.5:   Depth logger
 BLI .F              2776:   Bottom log interval
 TLI .F              2200:   Top log interval
 CS1 .IN                5:   Casing size
 CBD1.         5" @ 2722':   Casing driller 1
 DFT .              WATER:   Type fluid in hole
 RMB .OHMM           .053:   Rm. at BHT
 TCS .HRS             1.5:   Time Circ. stopped
 LUN .               1460:   Logging unit number
 ENGI.        FITZSIMMONS:   Recorded By
 WITN.             TUTTLE:   Witnessed by
 ORIG.           5" PRINT:   Origin of data
 UWI .     49025095920000:   Unique Well ID
 DICO. A2D TECHNOLOGIES, INC.:   Digitizing Company
~OTHER INFORMATION
~A    DEPT      GR         CALI 
# ...
 1458.0000  -999.2500     6.7970
 1458.5000  -999.2500     6.8090
 1459.0000  -999.2500     6.8210
 1459.5000  -999.2500     6.8330
 1460.0000  -999.2500     6.8440
 1460.5000  -999.2500     6.8550
 1461.0000  -999.2500     6.8550
 1461.5000  -999.2500     6.8550
 1462.0000  -999.2500     6.8550
 1462.5000  -999.2500     6.8550
 1463.0000  -999.2500     6.8620
 1463.5000  -999.2500     6.8990
 1464.0000  -999.2500     6.9430
 1464.5000  -999.2500     6.9510
 1465.0000  -999.2500     6.9570
 1465.5000  -999.2500     6.9640
 1466.0000  -999.2500     6.9790
 1466.5000  -999.2500     6.9930
 1467.0000  -999.2500     6.9820
 1467.5000  -999.2500     6.9360
 1468.0000  -999.2500     6.8900
 1468.5000  -999.2500     6.8430
 1469.0000  -999.2500     6.8260
 1469.5000  -999.2500     6.8260
 1470.0000  -999.2500     6.8270
 1470.5000  -999.2500     6.8270
 1471.0000  -999.2500     6.8280
 1471.5000  -999.2500     6.8290
 1472.0000  -999.2500     6.8290
 1472.5000  -999.2500     6.8300
 1473.0000  -999.2500     6.8310
 1473.5000  -999.2500     6.8310
 1474.0000  -999.2500     6.8320
 1474.5000  -999.2500     6.8330
 1475.0000  -999.2500     6.8330
 1475.5000  -999.2500     6.8340
 1476.0000  -999.2500     6.8350
 1476.5000  -999.2500     6.8350
 1477.0000  -999.2500     6.8360
 1477.5000  -999.2500     6.8370
 1478.0000  -999.2500     6.8370
 1478.5000  -999.2500     6.8380
 1479.0000  -999.2500     6.8390
 1479.5000  -999.2500     6.8390
 1480.0000  -999.2500     6.8400
 1480.5000  -999.2500     6.8410
 1481.0000  -999.2500     6.8410
 1481.5000  -999.2500     6.8420
 1482.0000  -999.2500     6.8420
 1482.5000  -999.2500     6.8430
 1483.0000  -999.2500     6.8440
 1483.5000  -999.2500     6.8440
 1484.0000  -999.2500     6.8460
 1484.5000  -999.2500     6.8520
 1485.0000  -999.2500     6.8670
 1485.5000  -999.2500     6.9090
 1486.0000  -999.2500     6.9440
 1486.5000  -999.2500     6.9510
 1487.0000  -999.2500     6.9570
 1487.5000  -999.2500     6.9630
 1488.0000  -999.2500     6.9690
 1488.5000  -999.2500     6.9610
 1489.0000  -999.2500     6.9100
 1489.5000  -999.2500     6.8610
 1490.0000  -999.2500     6.8250
 1490.5000  -999.2500     6.8320
 1491.0000  -999.2500     6.8380
 1491.5000  -999.2500     6.8430
 1492.0000  -999.2500     6.8730
 1492.5000  -999.2500     6.9170
 1493.0000  -999.2500     6.9340
 1493.5000  -999.2500     6.9340
 1494.0000  -999.2500     6.9340
 1494.5000  -999.2500     6.9340
 1495.0000  -999.2500     6.9340
 1495.5000  -999.2500     6.9230
 1496.0000  -999.2500     6.8910
 1496.5000  -999.2500     6.8810
 1497.0000  -999.2500     6.8760
 1497.5000  -999.2500     6.8700
 1498.0000  -999.2500     6.8650
 1498.5000  -999.2500     6.8600
 1499.0000  -999.2500     6.8540
 1499.5000  -999.2500     6.8490
 1500.0000  -999.2500     6.8470
 1500.5000  -999.2500     6.8570
 1501.0000  -999.2500     6.8660
 1501.5000  -999.2500     6.8760
 1502.0000  -999.2500     6.8850
 1502.5000  -999.2500     6.8900
 1503.0000  -999.2500     6.8950
 1503.5000  -999.2500     6.8970
 1504.0000  -999.2500     6.8990
 1504.5000  -999.2500     6.9000
 1505.0000  -999.2500     6.9020
 1505.5000  -999.2500     6.9060
 1506.0000  -999.2500     6.9530
 1506.5000  -999.2500     6.9800
 1507.0000  -999.2500     6.9930
 1507.5000  -999.2500     6.9700
 1508.0000  -999.2500     6.9370
 1508.5000  -999.2500     6.9030
 1509.0000  -999.2500     6.8700
 1509.5000  -999.2500     6.8420
 1510.0000  -999.2500     6.8340
 1510.5000  -999.2500     6.8250
 1511.0000  -999.2500     6.8160
 1511.5000  -999.2500     6.8070
 1512.0000  -999.2500     6.7950
 1512.5000  -999.2500     6.7950
 1513.0000  -999.2500     6.7950
 1513.5000  -999.2500     6.7950
 1514.0000  -999.2500     6.7960
 1514.5000  -999.2500     6.8040
 1515.0000  -999.2500     6.8120
 1515.5000  -999.2500     6.8120
 1516.0000  -999.2500     6.8070
 1516.5000  -999.2500     6.8010
 1517.0000  -999.2500     6.7960
 1517.5000  -999.2500     6.7910
 1518.0000  -999.2500     6.7860
 1518.5000  -999.2500     6.7880
 1519.0000  -999.2500     6.7910
 1519.5000  -999.2500     6.7930
 1520.0000  -999.2500     6.7950
 1520.5000  -999.2500     6.7950
 1521.0000  -999.2500     6.7950
 1521.5000  -999.2500     6.7950
 1522.0000  -999.2500     6.7960
 1522.5000  -999.2500     6.7950
 1523.0000  -999.2500     6.7680
 1523.5000  -999.2500     6.7450
 1524.0000  -999.2500     6.7430
 1524.5000  -999.2500     6.7410
 1525.0000  -999.2500     6.7390
 1525.5000  -999.2500     6.7370
 1526.0000  -999.2500     6.7360
 1526.5000  -999.2500     6.7330
 1527.0000  -999.2500     6.7300
 1527.5000  -999.2500     6.7280
 1528.0000  -999.2500     6.7340
 1528.5000  -999.2500     6.7470
 1529.0000  -999.2500     6.7600
 1529.5000  -999.2500     6.7730
 1530.0000  -999.2500     6.7800
 1530.5000  -999.2500     6.7870
 1531.0000  -999.2500     6.7930
 1531.5000  -999.2500     6.7990
 1532.0000  -999.2500     6.8050
 1532.5000  -999.2500     6.8050
 1533.0000  -999.2500     6.8040
 1533.5000  -999.2500     6.8030
 1534.0000  -999.2500     6.8020
 1534.5000  -999.2500     6.8010
 1535.0000  -999.2500     6.8000
 1535.5000  -999.2500     6.7990
 1536.0000  -999.2500     6.7980
 1536.5000  -999.2500     6.7980
 1537.0000  -999.2500     6.7970
 1537.5000  -999.2500     6.7960
 1538.0000  -999.2500     6.7880
 1538.5000  -999.2500     6.7750
 1539.0000  -999.2500     6.7620
 1539.5000  -999.2500     6.7480
 1540.0000  -999.2500     6.7350
 1540.5000  -999.2500     6.7260
 1541.0000  -999.2500     6.7240
 1541.5000  -999.2500     6.7230
 1542.0000  -999.2500     6.7210
 1542.5000  -999.2500     6.7190
 1543.0000  -999.2500     6.7180
 1543.5000  -999.2500     6.7160
 1544.0000  -999.2500     6.7150
 1544.5000  -999.2500     6.7130
 1545.0000  -999.2500     6.7120
 1545.5000  -999.2500     6.7100
 1546.0000  -999.2500     6.7080
 1546.5000  -999.2500     6.7070
 1547.0000  -999.2500     6.7050
 1547.5000  -999.2500     6.7040
 1548.0000  -999.2500     6.7020
 1548.5000  -999.2500     6.7010
 1549.0000  -999.2500     6.6990
 1549.5000  -999.2500     6.6970
 1550.0000  -999.2500     6.7010
 1550.5000  -999.2500     6.7110
 1551.0000  -999.2500     6.7370
 1551.5000  -999.2500     6.7800
 1552.0000  -999.2500     6.7890
 1552.5000  -999.2500     6.7970
 1553.0000  -999.2500     6.8060
 1553.5000  -999.2500     6.8150
 1554.0000  -999.2500     6.8130
 1554.5000  -999.2500     6.8100
 1555.0000  -999.2500     6.8070
 1555.5000  -999.2500     6.8050
 1556.0000  -999.2500     6.8020
 1556.5000  -999.2500     6.7990
 1557.0000  -999.2500     6.7970
 1557.5000  -999.2500     6.7940
 1558.0000  -999.2500     6.7910
 1558.5000  -999.2500     6.7890
 1559.0000  -999.2500     6.7860
 1559.5000  -999.2500     6.7800
 1560.0000  -999.2500     6.7760
 1560.5000  -999.2500     6.7760
 1561.0000  -999.2500     6.7760
 1561.5000  -999.2500     6.7760
 1562.0000  -999.2500     6.7760
 1562.5000  -999.2500     6.7770
 1563.0000  -999.2500     6.7790
 1563.5000  -999.2500     6.7820
 1564.0000  -999.2500     6.7840
 1564.5000  -999.2500     6.7870
 1565.0000  -999.2500     6.7900
 1565.5000  -999.2500     6.7920
 1566.0000  -999.2500     6.7950
 1566.5000  -999.2500     6.7970
 1567.0000  -999.2500     6.8000
 1567.5000  -999.2500     6.8020
 1568.0000  -999.2500     6.8050
 1568.5000  -999.2500     6.8070
 1569.0000  -999.2500     6.8100
 1569.5000  -999.2500     6.8130
 1570.0000  -999.2500     6.8140
 1570.5000  -999.2500     6.7560
 1571.0000  -999.2500     6.7250
 1571.5000  -999.2500     6.6940
 1572.0000  -999.2500     6.6830
 1572.5000  -999.2500     6.6770
 1573.0000  -999.2500     6.6710
 1573.5000  -999.2500     6.6650
 1574.0000  -999.2500     6.6590
 1574.5000  -999.2500     6.6570
 1575.0000  -999.2500     6.6580
 1575.5000  -999.2500     6.6580
 1576.0000  -999.2500     6.6590
 1576.5000  -999.2500     6.6590
 1577.0000  -999.2500     6.6600
 1577.5000  -999.2500     6.6600
 1578.0000  -999.2500     6.6610
 1578.5000  -999.2500     6.6610
 1579.0000  -999.2500     6.6620
