~VERSION INFORMATION
 VERS.                2.0:   CWLS LOG ASCII STANDARD - VERSION 2.0
 WRAP.                 NO:   ONE LINE PER DEPTH STEP
~WELL INFORMATION
#MNEM.UNIT      DATA TYPE    INFORMATION
#----------   ------------   ------------------------------
 STRT.F          199.0000:   START DEPTH
 STOP.F         2951.0000:   STOP DEPTH
 STEP.F            0.5000:   STEP LENGTH
 NULL.          -999.2500:   NO VALUE
 COMP.    FENIX & SCISSON:   COMPANY
 WELL. FENIX & SCISSON "A" #3-21:   WELL
 FLD .              XPR-3:   FIELD
 LOC .      S21 T39N R78W:   LOCATION
 CNTY.            NATRONA:   COUNTY
 STAT.            WYOMING:   STATE
 CTRY. UNITED STATES OF AMERICA:   COUNTRY
 SRVC.              WELEX:   SERVICE COMPANY
 DATE.        27-JUN-1977:   LOGDATE
 API .     49025103880000:   API NUMBER
~CURVE INFORMATION
#MNEM.UNIT       API CODE    CURVE DESCRIPTION
#----------   ------------   ------------------------------
 DEPT.F                  :   
 CALD.IN     45 280 60 00:   CALIPER FROM DENSITY LOG
 GRD .GAPI   45 310 01 00:   GAMMA RAY FROM DENSITY LOG
 CORR.G/C3   45 356 01 00:   DENSITY CORRECTION
 RHOB.G/C3   45 350 01 00:   BULK DENSITY
 SPR .MV     07 010 01 00:   SPONTANEOUS POTENTIAL
 ILD .OHMM   07 120 46 00:   DEEP INDUCTION RESISTIVITY
 ILM .OHMM   07 120 44 00:   INDUCTION LOG MEDIUM RESISTIVITY
 SGRD.OHMM   07 220 05 00:   SHALLOW SHORT GUARD RESISTIVITY
~PARAMETER INFORMATION
#MNEM.UNIT          VALUE    DESCRIPTION
#----------   ------------   ------------------------------
 EKB .F         4981.0000:   Kelly bushing
 EGL .F         4971.0000:   Ground level
 TD  .F         2953.0000:   Total depth
 CLNT.            A2DTECH:   Client Code
 SL  . 330' FSL & 1650' FWL:   Surface Location
 DATE.        27-JUN-1977:   Date Logged [DD-MMM-YYYY]
 DD  .F              2930:   Depth driller
 DL  .F              2953:   Depth logger
 BLI .F              2951:   Bottom log interval
 TLI .F               200:   Top log interval
 CS1 .              8.625:   Casing size
 CBD1.      8.625" @ 217':   Casing driller 1
 BS1 .IN            7.875:   Bit size
 BSD1.F              2930:   Depth drilled with bit1
 DFT .            KCL MUD:   Type fluid in hole
 DFD .                9.4:   Density
 DFV .                 37:   Viscosity
 DFPH.                9.0:   pH
 DFL .               16.0:   Fluid loss
 MSS .           FLOWLINE:   Source of sample
 RMS .OHMM           1.10:   Rm
 MST .F                92:   Rm Meas. temp.
 RMF .OHMM           0.85:   Rmf
 MFST.F                92:   Rmf Meas. temp.
 MFSS.           FANN KIT:   Source Rmf.
 RMC .OHMM           1.44:   Rmc
 MCST.F                92:   Rmc Meas. temp.
 MCSS.           FANN KIT:   Source Rmc.
 RMB .OHMM           0.93:   Rm. at BHT
 BHT .F               109:   BHT.
 TCS .HRS            0230:   Time Circ. stopped
 MRT .F               109:   Maximum recorded temp.
 LUN .               8611:   Logging unit number
 LUL .             CASPER:   Logging unit location
 ENGI.         G. BENTSEN:   Recorded By
 WITN.  MR. W. PETTINGILL:   Witnessed by
 ORIG.      2.5" 5" PRINT:   Origin of data
 UWI .     49025103880000:   Unique Well ID
 DICO. A2D TECHNOLOGIES, INC.:   Digitizing Company
 PD  .                 GL:   Permanent Datum
 EPD .               4971:   Elevation Permanent Datum
 LMF .                 KB:   Log Measured From
 DMF .                 KB:   Drilling Measured From
 DAPD.                 10:   Feet Above Permanent Datum
~OTHER INFORMATION
~A   DEPT       CALD       GRD       CORR        RHOB      SPR        ILD        ILM       SGRD   
# ...
 2548.0000     8.9585   104.6154     0.0094     2.5055   -34.9737     4.2692     5.1211     6.2441
 2548.5000     8.9581   104.6154     0.0063     2.5008   -34.9574     4.2418     5.0186     6.6012
 2549.0000     8.9576   105.2308     0.0048     2.4962   -34.9411     4.1871     4.8176     6.7887
 2549.5000     8.9723   105.2308     0.0031     2.4915   -35.0768     4.1603     4.7544     6.3826
 2550.0000     8.9876   105.2308     0.0000     2.4884   -34.9114     4.1343     4.7560     6.1681
 2550.5000     8.9871   105.3363    -0.0016     2.4853   -34.8965     4.1180     4.7577     6.5237
 2551.0000     8.9557   105.9552    -0.0079     2.4837   -34.8817     4.1379     4.8923     6.9887
 2551.5000     8.9390   106.5735    -0.0094     2.4822   -34.7179     4.2260     4.9278     6.8479
 2552.0000     8.9238   107.0769    -0.0094     2.4806   -34.5552     4.2864     5.0341     7.4041
 2552.5000     8.9066   107.6923    -0.0063     2.4806   -34.5404     4.3746     5.1414     7.1753
 2553.0000     8.8919   107.6923    -0.0063     2.4806   -34.5257     4.4060     5.3237     7.0955
 2553.5000     8.8742   107.5683    -0.0045     2.4821   -34.3630     4.4727     5.4747     7.2470
 2554.0000     8.8601   106.4615    -0.0032     2.4867   -34.3483     4.5366     5.5913     7.6609
 2554.5000     8.8286   105.1006    -0.0033     2.4944   -34.3335     4.6331     5.5936     8.7369
 2555.0000     8.8282   103.8665    -0.0002     2.5037   -34.4704     4.7581     5.5188     8.8605
 2555.5000     8.8094   104.2724    -0.0002     2.5006   -34.5999     4.8587     5.4832     7.5636
 2556.0000     8.7962   107.2166    -0.0002     2.4990   -34.7337     4.9274     5.6783     7.4106
 2556.5000     8.8268   108.4504     0.0029     2.4975   -34.7183     4.9971     5.9203     7.9433
 2557.0000     8.8262   109.5385     0.0029     2.5036   -34.7036     5.0330     6.0049     8.8734
 2557.5000     8.8258   109.6872     0.0029     2.5098   -34.8373     5.0344     6.0489     9.8443
 2558.0000     8.8253   110.1538     0.0029     2.5160   -34.8220     5.0012     6.0099     9.2548
 2558.5000     8.8559   110.1538     0.0028     2.5129   -34.8073     4.9004     5.9301     9.3220
 2559.0000     8.8553   110.1538     0.0028     2.5113   -34.6446     4.8012     5.7316    10.0605
 2559.5000     8.8549   108.7622     0.0028     2.5098   -34.6299     4.6403     5.5018     9.2643
 2560.0000     8.8544   107.3635     0.0028     2.5066   -34.6151     4.4232     5.1377     7.1796
 2560.5000     8.8539   105.2308     0.0028     2.4989   -34.6004     4.2454     4.9317     6.4759
 2561.0000     8.8535   110.6650     0.0028     2.4958   -34.5856     4.0748     4.7015     6.3888
 2561.5000     8.8530   114.1934    -0.0004     2.4989   -34.5709     3.9380     4.6072     6.1319
 2562.0000     8.8526   116.6597    -0.0004     2.5004   -34.5562     3.8321     4.5148     6.2197
 2562.5000     8.8521   117.7181    -0.0004     2.5050   -34.3935     3.7545     4.3637     6.3959
 2563.0000     8.8827   118.9518    -0.0004     2.5066   -34.2308     3.6538     4.3054     6.4424
 2563.5000     8.8821   119.3846    -0.0004     2.5112   -34.0680     3.6295     4.2776     6.4003
 2564.0000     8.8817   118.7692    -0.0004     2.5142   -33.9054     3.5811     4.3391     6.2714
 2564.5000     8.8812   119.3846    -0.0005     2.5081   -33.5947     3.6068     4.4622     6.1450
 2565.0000     8.8807   119.3846    -0.0005     2.4988   -33.5799     3.6078     4.3427     6.1048
 2565.5000     8.8493   119.1869    -0.0005     2.4864   -33.4172     3.7096     4.3445     5.9804
 2566.0000     8.8179   118.7692    -0.0005     2.4864   -33.2545     3.8405     4.4066     5.9019
 2566.5000     8.7865   118.7692    -0.0005     2.4894   -33.2239     4.0590     4.5944     5.9040
 2567.0000     8.7860   118.7692    -0.0005     2.4910   -32.9290     4.3197     4.9241     6.0277
 2567.5000     8.7856   116.0817     0.0026     2.4831   -32.6183     4.7580     5.7323     7.4556
 2568.0000     8.7541   108.8736     0.0026     2.4755   -32.6036     5.1336     6.6730    12.5376
 2568.5000     8.7537   103.1338     0.0057     2.4756   -32.5887     5.5010     7.1028    12.4556
 2569.0000     8.7222    99.0341     0.0056     2.4834   -32.7225     5.8140     7.4056    11.2349
 2569.5000     8.6908    97.2308     0.0087     2.4926   -32.7071     6.1873     7.9918    11.0076
 2570.0000     8.6904    99.5290     0.0118     2.5004   -32.8373     6.4945     8.4481    12.5547
 2570.5000     8.6899   101.1515     0.0118     2.5065   -32.8225     6.7238     8.4516    11.7218
 2571.0000     8.6585   102.3856     0.0149     2.5126   -33.1073     6.9134     8.1688    12.3060
 2571.5000     8.6580   103.0043     0.0211     2.5172   -33.2405     7.0596     8.1722    11.8928
 2572.0000     8.6576   104.0000     0.0211     2.5204   -33.2221     7.0130     8.0083    10.5802
 2572.5000     8.6571   104.6154     0.0242     2.5233   -33.3590     6.9190     7.9566    10.1538
 2573.0000     8.6566   104.6154     0.0242     2.5248   -33.6364     6.8263     7.9052    11.9874
 2573.5000     8.6252   104.6154     0.0242     2.5248   -33.6217     6.5972     7.7942    11.3476
 2574.0000     8.6247   104.0000     0.0240     2.5248   -33.7585     6.3320     7.5845    11.2725
 2574.5000     8.6243   104.0000     0.0179     2.5229   -34.0396     6.0358     7.3300    11.3544
 2575.0000     8.6238   104.0000     0.0145     2.5196   -34.1728     5.7931     6.8757    10.6754
 2575.5000     8.6234   104.2592     0.0117     2.5149   -34.1544     5.4827     6.5157     9.6291
 2576.0000     8.6229   105.4933     0.0085     2.5102   -33.9917     5.3338     6.1848     7.2592
 2576.5000     8.6224   106.9931     0.0120     2.5132   -33.9770     5.1932     6.1021     7.0634
 2577.0000     8.5910   109.4602     0.0218     2.5226   -33.8143     5.1236     6.1474     7.0665
 2577.5000     8.5905   111.9283     0.0303     2.5341   -33.7996     5.1250     6.2353     7.7322
 2578.0000     8.5901   113.5714     0.0298     2.5494   -33.7848     5.1264     6.4121    10.2023
 2578.5000     8.5587   112.0590     0.0230     2.5459   -33.7701     5.1279     6.4148     9.3863
 2579.0000     8.5582   110.2075     0.0142     2.5412   -33.7553     5.1293     6.4174     9.3895
 2579.5000     8.5577   108.3553     0.0084     2.5370   -33.7406     5.1308     6.4644     9.3927
 2580.0000     8.5573   107.4048     0.0053     2.5350   -33.7258     5.1324     6.4671     9.4610
 2580.5000     8.5568   108.8519     0.0022     2.5334   -33.7111     5.2050     6.5595     9.3281
 2581.0000     8.5564   112.8797     0.0022     2.5323   -33.8443     5.2786     6.6532     8.4006
 2581.5000     8.5559   116.5819     0.0021     2.5323   -33.9812     5.3902     6.7483     8.0255
 2582.0000     8.5564   122.1117     0.0060     2.5338   -33.9627     5.5042     6.8447     9.4739
 2582.5000     8.5859   118.4872     0.0083     2.5353   -33.8001     5.6594     6.7999     8.8966
 2583.0000     8.5855   113.5448     0.0114     2.5353   -33.7853     5.8190     6.8504     9.0342
 2583.5000     8.5850   110.7668     0.0114     2.5353   -33.7706     6.0244     6.9483     8.6709
 2584.0000     8.5845   108.2999     0.0096     2.5311   -33.9074     6.1943     7.2445     9.8887
 2584.5000     8.5841   105.2163     0.0020     2.5249   -33.8890     6.4129     7.7110    12.0831
 2585.0000     8.5836   101.8145    -0.0011     2.5187   -33.8743     6.5938     7.9845    12.6853
 2585.5000     8.6141    95.8940     0.0020     2.5136   -33.7116     6.7797     8.3249    11.2853
 2586.0000     8.6136    87.5785     0.0031     2.5268   -33.8485     6.8756     8.5610    11.4460
 2586.5000     8.6132    80.8643     0.0062     2.5337   -33.8300     6.7834     8.5645    11.7703
 2587.0000     8.6127    80.3306     0.0082     2.5299   -33.6674     6.7387     8.5092    10.9139
 2587.5000     8.6432    80.6154     0.0070     2.5252   -33.6526     6.6939     8.2245     9.9124
 2588.0000     8.6428    81.5671     0.0019     2.5199   -33.7895     6.6042     7.8947     9.1279
