~VERSION INFORMATION
 VERS.                2.0:   CWLS LOG ASCII STANDARD - VERSION 2.0
 WRAP.                 NO:   ONE LINE PER DEPTH STEP
~WELL INFORMATION
#MNEM.UNIT      DATA TYPE    INFORMATION
#----------   ------------   ------------------------------
 STRT.F            0.0000:   START DEPTH
 STOP.F         1165.5000:   STOP DEPTH
 STEP.F            0.5000:   STEP LENGTH
 NULL.          -999.2500:   NO VALUE
 COMP.   JOHN BROWN E & C:   COMPANY
 WELL. BROWN NPR 3 "X" 1 #63-14:   WELL
 FLD .                NPR:   FIELD
 LOC .      S14 T38N R78W:   LOCATION
 CNTY.            NATRONA:   COUNTY
 STAT.            WYOMING:   STATE
 CTRY. UNITED STATES OF AMERICA:   COUNTRY
 SRVC.     ATLAS WIRELINE:   SERVICE COMPANY
 DATE.        15-JAN-1992:   LOGDATE
 API .     49025224960000:   API NUMBER
~CURVE INFORMATION
#MNEM.UNIT       API CODE    CURVE DESCRIPTION
#----------   ------------   ------------------------------
 DEPT.F                  :   
 GRR .GAPI   07 310 01 00:   GAMMA RAY FROM RESISTIVITY
 RILD.OHMM   07 120 46 00:   INDUCTION LOG DEEP RESISTIVITY
 RILM.OHMM   07 120 44 00:   INDUCTION LOG MEDIUM RESISTIVITY
 TENR.LBS    07 635 01 00:   TENSION
~PARAMETER INFORMATION
#MNEM.UNIT          VALUE    DESCRIPTION
#----------   ------------   ------------------------------
 EKB .F         5270.0000:   Kelly bushing
 EGL .F         5260.0000:   Ground level
 EDF .F         5269.0000:   Drilling floor
 TD  .F         1160.0000:   Total depth
 DATE.        15-JAN-1992:   Date logged
 CLNT.            A2DTECH:   Client Code
 SL  . 1893' FNL & 1971' FEL:   Surface Location
 PD  .                 GL:   Permanent Datum
 EPD .F              5260:   Elevation Permanent Datum
 LMF .                 KB:   Log Measured From
 DMF .                 KB:   Drilling Measured From
 DAPD.F                10:   Feet Above Permanent Datum
 DD  .F              1160:   Depth driller
 DL  .F              1158:   Depth logger
 BLI .F              1150:   Bottom log interval
 CS1 .IN            9.625:   Casing size
 CBD1.       9.625" @ 50':   Casing driller 1
 CBL1.F                48:   Casing logger 1
 BS1 .IN             8.75:   Bit size
 BSD1.F              1160:   Depth drilled with bit1
 DFT .                AIR:   Type fluid in hole
 MRT .F                90:   Maximum recorded temp.
 LUN .            HL-6274:   Logging unit number
 LUL .             CASPER:   Logging unit location
 ENGI.             RAUTIO:   Recorded By
 WITN.        GARY STRONG:   Witnessed by
 ORIG.           5" PRINT:   Origin of data
 UWI .     49025224960000:   Unique Well ID
 DICO. A2D TECHNOLOGIES, INC.:   Digitizing Company
 TLI .F                 0:   Top log interval
~OTHER INFORMATION
~A    DEPT      GRR      RILD       RILM       TENR   
# ...
  657.0000   144.9670     6.8630     6.9440    13.4150
  657.5000   147.3350     6.9240     7.0150    13.6430
  658.0000   146.0780     6.9840     7.0850    13.8710
  658.5000   141.5960     7.0450     7.1560    14.0990
  659.0000   137.2730     7.1050     7.2270    14.3260
  659.5000   138.7570     7.1650     7.2980    14.5540
  660.0000   141.5050     7.2260     7.3450    14.7820
  660.5000   143.8370     7.2770     7.3390    15.0100
  661.0000   141.5810     7.2590     7.3350    15.2380
  661.5000   139.2420     7.2390     7.3310    15.4660
  662.0000   138.0590     7.2200     7.3270    15.6940
  662.5000   140.4100     7.2010     7.3230    15.9220
  663.0000   142.1550     7.1810     7.3190    16.1500
  663.5000   139.7700     7.1620     7.3150    16.3780
  664.0000   137.3720     7.1440     7.3110    16.6060
  664.5000   138.3600     7.1360     7.3070    16.8340
  665.0000   141.8960     7.1280     7.3030    16.8680
  665.5000   145.1680     7.1200     7.2990    16.8680
  666.0000   146.9380     7.1110     7.2950    16.8680
  666.5000   147.9070     7.1030     7.2910    16.8680
  667.0000   147.6900     7.0950     7.2870    16.8680
  667.5000   146.6240     7.0860     7.2830    16.8680
  668.0000   144.5930     7.0770     7.2770    16.8680
  668.5000   140.7940     7.1870     7.3630    16.8680
  669.0000   140.7580     7.3350     7.5220    16.8680
  669.5000   140.7250     7.4840     7.6820    16.8680
  670.0000   138.0930     7.6320     7.8420    16.8680
  670.5000   135.3140     7.7800     8.0010    16.8680
  671.0000   138.1540     7.9290     8.1610    16.8680
  671.5000   141.3940     8.0770     8.2860    16.8680
  672.0000   144.7280     8.2820     8.5130    16.8680
  672.5000   141.3750     8.5210     8.7900    16.8680
  673.0000   134.5760     8.7610     9.0670    16.8680
  673.5000   128.9530     9.0000     9.3440    16.8680
  674.0000   126.9680     9.2390     9.6210    16.8680
  674.5000   126.7070     9.4780     9.8970    16.8680
  675.0000   126.4370     9.7180    10.1740    16.8680
  675.5000   126.1680     9.8930    10.2660    16.8680
  676.0000   125.8950     9.9810    10.3470    16.8680
  676.5000   125.6310    10.0690    10.4280    16.8680
  677.0000   124.2830    10.1620    10.5460    16.8680
  677.5000   122.0920    10.2570    10.5090    16.8680
  678.0000   119.8160    10.1830    10.4420    16.8680
  678.5000   121.7980    10.1190    10.3740    16.8680
  679.0000   124.6530    10.0550    10.3070    16.8680
  679.5000   125.3690     9.9910    10.2400    16.8680
  680.0000   120.7500     9.9270    10.1730    16.8680
  680.5000   117.2080     9.8630    10.1060    16.8680
  681.0000   116.4620     9.7990    10.0390    16.8680
  681.5000   119.1590     9.7360     9.9750    16.8680
  682.0000   122.6300     9.6670     9.8700    16.8680
  682.5000   126.1500     9.5390     9.7710    16.8680
  683.0000   124.1850     9.4100     9.6720    16.8680
  683.5000   121.9850     9.2820     9.5730    16.8680
  684.0000   122.8930     9.1530     9.4740    16.8680
  684.5000   126.5660     9.0910     9.3750    16.8680
  685.0000   129.3720     9.1080     9.3480    16.8680
  685.5000   130.0830     9.1230     9.4040    16.8680
  686.0000   130.2720     9.1380     9.4460    16.8680
  686.5000   129.0950     9.1520     9.4890    16.8680
  687.0000   127.9120     9.1670     9.5290    16.8680
  687.5000   126.7110     9.1760     9.5640    16.8680
  688.0000   123.6040     9.2700     9.5990    16.8680
  688.5000   115.6360     9.3870     9.6340    16.8680
  689.0000   111.9750     9.5230     9.6680    16.8680
  689.5000   111.4420     9.4130     9.7010    16.8680
  690.0000   112.4610     9.3210     9.5620    16.8680
  690.5000   115.3000     9.2300     9.4290    16.8680
  691.0000   118.1060     9.1380     9.2970    16.8680
  691.5000   120.9180     9.0080     9.1640    16.8680
  692.0000   123.7180     8.8480     9.0310    16.8680
  692.5000   124.8840     8.7030     8.8980    16.8680
  693.0000   123.8250     8.5570     8.7650    16.8680
  693.5000   123.3000     8.4120     8.6320    16.8680
  694.0000   124.2620     8.2660     8.5000    16.8680
  694.5000   124.2720     8.1210     8.4000    16.8680
  695.0000   123.0310     8.0360     8.2860    16.8680
  695.5000   121.3980     7.9770     8.1720    16.8680
  696.0000   119.7390     7.9180     8.0590    16.8680
  696.5000   119.9440     7.8580     8.0590    16.8680
  697.0000   123.1210     7.7990     8.0590    16.8680
  697.5000   125.1370     7.7650     8.0590    16.8680
  698.0000   123.1470     7.7690     8.0590    16.8680
  698.5000   120.3240     7.7780     8.0590    16.8680
  699.0000   119.9070     7.7880     8.0590    16.8680
  699.5000   119.6090     7.7970     8.0590    16.8680
  700.0000   117.5620     7.8060     8.0590    16.8680
  700.5000   114.6610     7.8150     8.0590    16.8680
  701.0000   116.3060     7.8240     8.0590    16.8680
  701.5000   119.1370     7.8380     8.0590    16.8680
  702.0000   121.2020     7.8140     8.0590    16.8680
  702.5000   121.4930     7.7450     7.9840    16.8680
  703.0000   122.7660     7.6760     7.8910    16.8680
  703.5000   124.1280     7.6060     7.7930    16.8680
  704.0000   124.2570     7.5370     7.6950    16.8680
  704.5000   123.5690     7.4820     7.5970    16.8680
  705.0000   124.7450     7.3200     7.5000    16.8680
  705.5000   129.0240     7.1190     7.3290    16.8680
  706.0000   132.7330     6.9180     7.1430    16.8680
  706.5000   133.4160     6.7180     6.9560    16.8680
  707.0000   134.6600     6.5170     6.7700    16.8680
  707.5000   135.9690     6.3320     6.5830    16.8680
  708.0000   132.7240     6.2730     6.4500    16.8680
  708.5000   127.9000     6.3100     6.4770    16.8680
  709.0000   122.9640     6.3350     6.5160    16.8680
  709.5000   121.7630     6.3600     6.5550    16.8680
  710.0000   123.6610     6.3850     6.5940    16.8680
  710.5000   127.3200     6.4200     6.6320    16.8680
  711.0000   133.3940     6.4730     6.6710    16.8680
  711.5000   137.9010     6.5260     6.7100    16.8680
  712.0000   138.8390     6.5790     6.7490    16.8680
  712.5000   136.3660     6.6320     6.7940    16.8680
  713.0000   131.9670     6.6860     6.8570    16.8680
  713.5000   127.2560     6.7520     6.9200    16.8680
  714.0000   125.4470     6.8180     6.9830    16.8680
  714.5000   124.2290     6.8840     7.0470    16.8680
  715.0000   120.8450     6.9510     7.1100    16.8680
  715.5000   119.4130     7.0120     7.2020    16.8680
  716.0000   125.1990     7.0960     7.3290    16.8680
  716.5000   133.7130     7.1740     7.4550    16.8680
  717.0000   135.4850     7.2520     7.5820    16.8680
  717.5000   132.5330     7.3300     7.7650    16.8680
  718.0000   126.1080     7.4130     7.7230    16.8680
  718.5000   121.7900     7.3350     7.6430    16.8680
  719.0000   125.7570     7.2510     7.5620    16.8680
  719.5000   132.2050     7.1660     7.4820    16.8680
  720.0000   136.5600     7.0820     7.4020    16.8680
  720.5000   135.3480     6.9980     7.3220    16.8680
  721.0000   134.2730     6.9470     7.2410    16.8680
  721.5000   133.5250     6.9470     7.2100    16.8680
  722.0000   133.7580     6.9470     7.2100    16.8680
  722.5000   134.9760     6.9470     7.2100    16.8680
  723.0000   133.5880     6.9470     7.2100    16.8680
  723.5000   133.2580     6.9470     7.2100    16.8680
  724.0000   131.7550     6.9470     7.2100    16.8680
  724.5000   129.4080     6.9470     7.2100    16.8680
  725.0000   127.5650     6.9470     7.2100    16.8680
  725.5000   129.8090     6.9340     7.2100    16.8680
  726.0000   132.9280     6.9190     7.1860    16.8680
  726.5000   135.8920     6.9050     7.1610    16.8680
  727.0000   134.8460     6.8900     7.1350    16.8680
  727.5000   133.1100     6.8750     7.1090    16.8680
  728.0000   131.3840     6.8610     7.0830    16.8680
  728.5000   130.7860     6.8460     7.0550    16.8680
  729.0000   130.8570     6.8310     7.0260    16.8680
  729.5000   130.9380     6.7570     6.9970    16.8680
