~VERSION INFORMATION
 VERS.                2.0:   CWLS LOG ASCII STANDARD - VERSION 2.0
 WRAP.                 NO:   ONE LINE PER DEPTH STEP
~WELL INFORMATION
#MNEM.UNIT      DATA TYPE    INFORMATION
#----------   ------------   ------------------------------
 STRT.F         2299.0000:   START DEPTH
 STOP.F         3387.5000:   STOP DEPTH
 STEP.F            0.5000:   STEP LENGTH
 NULL.          -999.2500:   NO VALUE
 COMP. LAWRENCE ALLISON AND ASSOCIATES:   COMPANY
 WELL. 		  62-AX-3:   WELL
 FLD .                NPR:   FIELD
 LOC .       S3 T38N R78W:   LOCATION
 CNTY.            NATRONA:   COUNTY
 STAT.            WYOMING:   STATE
 CTRY. UNITED STATES OF AMERICA:   COUNTRY
 SRVC.      DRESSER ATLAS:   SERVICE COMPANY
 DATE.        14-JUN-1985:   LOGDATE
 API .     49025110330000:   API NUMBER
~CURVE INFORMATION
#MNEM.UNIT       API CODE    CURVE DESCRIPTION
#----------   ------------   ------------------------------
 DEPT.F                  :   
 NPHI.DEC    42 890 01 00:   NEUTRON POROSITY
 TEND.LBS    45 635 01 00:   TENSION
 RHOB.G/C3   45 350 01 00:   BULK DENSITY
 CORR.DEC    45 356 01 00:   CORRECTION
~PARAMETER INFORMATION
#MNEM.UNIT          VALUE    DESCRIPTION
#----------   ------------   ------------------------------
 EKB .F         5160.0000:   Kelly bushing
 EGL .F         5148.0000:   Ground level
 EDF .F            0.0000:   Drilling floor
 EPD .F         5148.0000:   Permanent datum
 TD  .F         3380.0000:   Total depth
 DATE.        14-JUN-1985:   Date logged
 CLNT.            A2DTECH:   Client Code
 PD  .                 GL:   Permanent Datum
 LMF .                 KB:   Log Measured From
 DMF .                 KB:   Drilling Measured From
 DL  .F              3380:   Depth logger
 BLI .F              3378:   Bottom log interval
 CS1 .IN            8.625:   Casing size
 CBD1.      8.625" @ 603':   Casing driller 1
 DFT .        KCL POLYMER:   Type fluid in hole
 ENGI.               MACK:   Recorded By
 WITN.             STRONG:   Witnessed by
 ORIG.       2.5"5" PRINT:   Origin of data
 UWI .     49025110330000:   Unique Well ID
 DICO. A2D TECHNOLOGIES, INC.:   Digitizing Company
 DAPD.F                12:   Feet Above Permanent Datum
 BS1 .IN            7.875:   Bit size
 DFD .                8.9:   Density
 DFV .                 46:   Viscosity
 DFPH.                8.5:   pH
 DFL .                9.6:   Fluid loss
 MSS .           FLOWLINE:   Source of sample
 RMS .OHMM           0.38:   Rm
 MST .F                74:   Rm Meas. temp.
 RMF .OHMM           0.29:   Rmf
 MFST.F                74:   Rmf Meas. temp.
 MFSS.               MEAS:   Source Rmf.
 RMC .OHMM           0.23:   Rmc
 MCST.F               120:   Rmc Meas. temp.
 MCSS.               MEAS:   Source Rmc.
 RMB .OHMM           0.23:   Rm. at BHT
 BHT .F               120:   BHT.
 TCS .                  8:   Time Circ. stopped
 MRT .                122:   Maximum recorded temp.
 LUN .            HL-6274:   Logging unit number
 LUL .               GLTE:   Logging unit location
~OTHER INFORMATION
~A     DEPTH         CORR         NPHI         RHOB         TEND
# ...
   3167.0000       0.0020       0.2109       2.4920       0.2139
   3167.5000       0.0210       0.2098       2.5000       0.2144
   3168.0000       0.0270       0.2123       2.5090       0.2149
   3168.5000       0.0130       0.2125       2.5090       0.2154
   3169.0000      -0.0020       0.2127       2.5050       0.2159
   3169.5000      -0.0170       0.2174       2.4970       0.2164
   3170.0000      -0.0210       0.2281       2.4920       0.2169
   3170.5000      -0.0130       0.2310       2.4860       0.2174
   3171.0000      -0.0050       0.2303       2.4810       0.2179
   3171.5000       0.0020       0.2246       2.4750       0.2184
   3172.0000      -0.0020       0.2158       2.4710       0.2188
   3172.5000      -0.0050       0.2068       2.4700       0.2193
   3173.0000      -0.0050       0.2031       2.4790       0.2198
   3173.5000      -0.0030       0.2037       2.4910       0.2203
   3174.0000      -0.0010       0.2101       2.5070       0.2208
   3174.5000      -0.0010       0.2238       2.5180       0.2213
   3175.0000      -0.0040       0.2402       2.5160       0.2218
   3175.5000      -0.0050       0.2550       2.5030       0.2223
   3176.0000      -0.0080       0.2613       2.4850       0.2228
   3176.5000      -0.0060       0.2595       2.4730       0.2233
   3177.0000      -0.0040       0.2516       2.4720       0.2229
   3177.5000      -0.0020       0.2491       2.4720       0.2220
   3178.0000       0.0000       0.2478       2.4710       0.2210
   3178.5000       0.0060       0.2424       2.4720       0.2201
   3179.0000       0.0130       0.2405       2.4770       0.2192
   3179.5000       0.0050       0.2452       2.4820       0.2183
   3180.0000      -0.0050       0.2493       2.4810       0.2174
   3180.5000      -0.0140       0.2534       2.4760       0.2165
   3181.0000      -0.0180       0.2591       2.4750       0.2155
   3181.5000      -0.0040       0.2617       2.4750       0.2146
   3182.0000       0.0050       0.2610       2.4730       0.2137
   3182.5000       0.0010       0.2615       2.4670       0.2128
   3183.0000       0.0070       0.2615       2.4590       0.2119
   3183.5000      -0.0010       0.2596       2.4500       0.2110
   3184.0000      -0.0100       0.2553       2.4360       0.2100
   3184.5000      -0.0180       0.2504       2.4310       0.2091
   3185.0000      -0.0120       0.2498       2.4350       0.2082
   3185.5000      -0.0050       0.2611       2.4390       0.2073
   3186.0000       0.0010       0.2664       2.4440       0.2064
   3186.5000      -0.0060       0.2675       2.4430       0.2055
   3187.0000      -0.0140       0.2654       2.4380       0.2045
   3187.5000      -0.0210       0.2556       2.4310       0.2036
   3188.0000      -0.0240       0.2547       2.4240       0.2036
   3188.5000      -0.0280       0.2552       2.4230       0.2036
   3189.0000      -0.0290       0.2554       2.4250       0.2036
   3189.5000      -0.0170       0.2514       2.4330       0.2036
   3190.0000      -0.0060       0.2364       2.4470       0.2036
   3190.5000       0.0010       0.2243       2.4610       0.2036
   3191.0000      -0.0040       0.2158       2.4720       0.2036
   3191.5000      -0.0090       0.2134       2.4820       0.2036
   3192.0000      -0.0020       0.2140       2.4900       0.2036
   3192.5000       0.0060       0.2162       2.4960       0.2036
   3193.0000       0.0150       0.2170       2.5000       0.2036
   3193.5000       0.0120       0.2220       2.5020       0.2036
   3194.0000       0.0060       0.2298       2.5020       0.2059
   3194.5000       0.0000       0.2381       2.5000       0.2086
   3195.0000      -0.0040       0.2452       2.4970       0.2114
   3195.5000      -0.0080       0.2460       2.4860       0.2172
   3196.0000      -0.0120       0.2426       2.4740       0.2322
   3196.5000      -0.0150       0.2393       2.4700       0.2415
   3197.0000      -0.0100       0.2365       2.4730       0.2343
   3197.5000      -0.0050       0.2361       2.4720       0.2272
   3198.0000       0.0000       0.2360       2.4650       0.2302
   3198.5000       0.0020       0.2357       2.4540       0.2433
   3199.0000      -0.0060       0.2404       2.4440       0.2286
   3199.5000      -0.0130       0.2403       2.4440       0.2149
   3200.0000      -0.0190       0.2363       2.4490       0.2532
   3200.5000      -0.0250       0.2294       2.4530       0.2256
   3201.0000      -0.0220       0.2224       2.4510       0.2200
   3201.5000      -0.0190       0.2244       2.4450       0.2326
   3202.0000      -0.0220       0.2315       2.4380       0.2451
   3202.5000      -0.0280       0.2415       2.4380       0.2488
   3203.0000      -0.0300       0.2487       2.4380       0.2362
   3203.5000      -0.0290       0.2564       2.4360       0.2234
   3204.0000      -0.0280       0.2557       2.4350       0.2234
   3204.5000      -0.0270       0.2544       2.4340       0.2234
   3205.0000      -0.0250       0.2528       2.4360       0.2234
   3205.5000      -0.0220       0.2506       2.4410       0.2234
   3206.0000      -0.0070       0.2421       2.4490       0.2234
   3206.5000       0.0080       0.2411       2.4740       0.2234
   3207.0000       0.0150       0.2405       2.4980       0.2234
   3207.5000       0.0080       0.2383       2.5080       0.2234
   3208.0000      -0.0030       0.2280       2.5090       0.2234
   3208.5000      -0.0110       0.2273       2.5070       0.2234
   3209.0000      -0.0060       0.2281       2.5070       0.2234
   3209.5000       0.0040       0.2274       2.5070       0.2234
   3210.0000       0.0150       0.2258       2.5070       0.2234
   3210.5000       0.0240       0.2264       2.5090       0.2234
   3211.0000       0.0240       0.2266       2.5100       0.2234
   3211.5000       0.0140       0.2262       2.5100       0.2234
   3212.0000       0.0020       0.2240       2.5060       0.2234
   3212.5000      -0.0090       0.2167       2.5030       0.2249
   3213.0000      -0.0150       0.2085       2.5050       0.2273
   3213.5000      -0.0160       0.2039       2.5070       0.2298
   3214.0000      -0.0170       0.2029       2.5060       0.2322
   3214.5000      -0.0090       0.2081       2.5040       0.2347
   3215.0000       0.0040       0.2173       2.5020       0.2371
   3215.5000       0.0060       0.2274       2.4980       0.2396
   3216.0000       0.0040       0.2390       2.4920       0.2420
   3216.5000       0.0010       0.2421       2.4850       0.2428
   3217.0000      -0.0090       0.2413       2.4790       0.2419
   3217.5000      -0.0160       0.2394       2.4750       0.2409
   3218.0000      -0.0160       0.2388       2.4730       0.2400
   3218.5000      -0.0200       0.2441       2.4680       0.2390
   3219.0000      -0.0250       0.2473       2.4570       0.2380
   3219.5000      -0.0270       0.2541       2.4450       0.2371
   3220.0000      -0.0250       0.2594       2.4400       0.2361
   3220.5000      -0.0220       0.2599       2.4430       0.2352
   3221.0000      -0.0110       0.2538       2.4540       0.2342
   3221.5000       0.0000       0.2489       2.4660       0.2333
   3222.0000       0.0130       0.2665       2.4770       0.2323
   3222.5000       0.0050       0.2868       2.4770       0.2313
   3223.0000      -0.0060       0.2906       2.4690       0.2304
   3223.5000      -0.0170       0.2791       2.4570       0.2294
   3224.0000      -0.0130       0.2773       2.4530       0.2285
   3224.5000      -0.0060       0.2796       2.4510       0.2275
   3225.0000      -0.0050       0.2807       2.4440       0.2266
   3225.5000      -0.0080       0.2740       2.4350       0.2256
   3226.0000      -0.0110       0.2610       2.4340       0.2246
   3226.5000      -0.0100       0.2522       2.4440       0.2237
   3227.0000      -0.0120       0.2461       2.4550       0.2227
   3227.5000      -0.0150       0.2419       2.4660       0.2216
   3228.0000      -0.0180       0.2421       2.4730       0.2206
   3228.5000      -0.0170       0.2441       2.4780       0.2195
