~VERSION INFORMATION
 VERS.                2.0:   CWLS LOG ASCII STANDARD - VERSION 2.0
 WRAP.                 NO:   ONE LINE PER DEPTH STEP
~WELL INFORMATION
#MNEM.UNIT      DATA TYPE    INFORMATION
#----------   ------------   ------------------------------
 STRT.F          250.5000:   START DEPTH
 STOP.F         2849.5000:   STOP DEPTH
 STEP.F            0.5000:   STEP LENGTH
 NULL.          -999.2500:   NO VALUE
 COMP. FENIX & SCISSON U.S. NAVY:   COMPANY
 WELL.   FENIX "A" #25-21:   WELL
 FLD .           N P R #3:   FIELD
 LOC .      S21 T39N R78W:   LOCATION
 CNTY.            NATRONA:   COUNTY
 STAT.            WYOMING:   STATE
 CTRY. UNITED STATES OF AMERICA:   COUNTRY
 SRVC.       SCHLUMBERGER:   SERVICE COMPANY
 DATE.        14-MAR-1977:   LOGDATE
 API .     49025103140000:   API NUMBER
~CURVE INFORMATION
#MNEM.UNIT       API CODE    CURVE DESCRIPTION
#----------   ------------   ------------------------------
 DEPT.F                  :   
 CALD.IN     45 280 60 00:   CALIPER FROM DENSITY LOG
 GRD .GAPI   45 310 01 00:   GAMMA RAY FROM DENSITY LOG
 RHOB.G/C3   45 350 01 00:   BULK DENSITY
 CORR.G/C3   45 356 01 00:   DENSITY CORRECTION
 SPR .MV     07 010 01 00:   SPONTANEOUS POTENTIAL
 LL8 .OHMM   07 220 08 00:   LATEROLOG-8 RES.
 ILM .OHMM   07 120 44 00:   INDUCTION LOG MEDIUM RESISTIVITY
 ILD .OHMM   07 120 46 00:   DEEP INDUCTION RESISTIVITY
~PARAMETER INFORMATION
#MNEM.UNIT          VALUE    DESCRIPTION
#----------   ------------   ------------------------------
 EKB .F         4963.0000:   Kelly bushing
 EGL .F         4953.0000:   Ground level
 EDF .F            0.0000:   Drilling floor
 TD  .F         2848.0000:   Total depth
 DATE.        14-MAR-1977:   Date logged
 CLNT.            A2DTECH:   Client Code
 SL  . 990' FWL & 2310' FSL:   Surface Location
 PD  .                 GL:   Permanent Datum
 DD  .F              2847:   Depth driller
 DL  .F              2848:   Depth logger
 BLI .F              2842:   Bottom log interval
 CS1 .IN            8.625:   Casing size
 CBD1.      8.625" @ 259':   Casing driller 1
 CBL1.F               261:   Casing logger 1
 BS1 .IN            7.875:   Bit size
 DFT .                KCL:   Type fluid in hole
 DFD .                9.2:   Density
 DFV .                 37:   Viscosity
 DFPH.                8.5:   pH
 DFL .                8.6:   Fluid loss
 MSS .           FLOWLINE:   Source of sample
 RMS .OHMM          0.226:   Rm
 MST .F                72:   Rm Meas. temp.
 RMF .OHMM          0.190:   Rmf
 MFST.F                72:   Rmf Meas. temp.
 MFSS.               MEAS:   Source Rmf.
 RMB .OHMM           .139:   Rm. at BHT
 BHT .F               117:   BHT.
 TCS .HRS            1800:   Time Circ. stopped
 MRT .F               117:   Maximum recorded temp.
 LUN .               5642:   Logging unit number
 LUL .               CSPR:   Logging unit location
 ENGI.         JIM MARTIN:   Recorded By
 WITN.               JAPP:   Witnessed by
 ORIG.           5" PRINT:   Origin of data
 UWI .     49025103140000:   Unique Well ID
 DICO. A2D TECHNOLOGIES, INC.:   Digitizing Company
 DAPD.                 10:   Feet Above Permanent Datum
 BSD1.               2847:   Depth drilled with bit1
 EPD .               4953:   Elevation Permanent Datum
 LMF .                 KB:   Log Measured From
 DMF .                 KB:   Drilling Measured From
 TLI .                261:   Top log interval
 TLAB.               2400:   Time logger at bottom
~OTHER INFORMATION
~A   DEPT     CALD         GRD      RHOB       CORR        SPR        LL8        ILM        ILD   
# ...
 1101.0000     9.7320   105.2610     2.5170     0.0160   -62.3010     7.4640     7.7540     8.1450
 1101.5000     9.7370   108.5110     2.5240     0.0250   -62.4000     7.3980     7.6740     8.0630
 1102.0000     9.7680   108.4050     2.5310     0.0170   -62.4930     7.3320     7.5940     7.9810
 1102.5000     9.7780   106.5450     2.5200     0.0160   -62.5840     7.2660     7.5140     7.8990
 1103.0000     9.7880   104.7760     2.5000     0.0050   -62.6990     7.2000     7.4340     7.8170
 1103.5000     9.7980   103.7970     2.4940    -0.0040   -63.2620     7.1350     7.3540     7.7350
 1104.0000     9.8080   105.0690     2.5250     0.0140   -63.4210     7.0690     7.2740     7.6540
 1104.5000     9.8190   106.1250     2.5300     0.0250   -63.5600     7.0030     7.1940     7.6110
 1105.0000     9.8290   104.9950     2.5160     0.0160   -63.6330     6.9420     7.1360     7.6110
 1105.5000     9.8400   103.8460     2.4890     0.0100   -63.4970     6.9420     7.1680     7.6110
 1106.0000     9.8500   103.2250     2.5000     0.0180   -63.3670     6.9550     7.2020     7.6110
 1106.5000     9.8520   103.8500     2.5150     0.0250   -63.2370     6.9660     7.2060     7.6110
 1107.0000     9.8510   107.9330     2.5160     0.0150   -63.1070     6.9760     7.2220     7.6810
 1107.5000     9.8450   111.9000     2.5170     0.0210   -62.9770     6.9860     7.2370     7.6810
 1108.0000     9.8380   115.6030     2.5070     0.0140   -62.8470     6.9970     7.2520     7.7520
 1108.5000     9.8310   115.2240     2.5120     0.0210   -62.7120     7.0060     7.2690     7.7140
 1109.0000     9.8250   111.8000     2.5210     0.0350   -62.6920     6.9610     7.2510     7.6840
 1109.5000     9.8180   107.0900     2.5270     0.0320   -62.7160     6.9180     7.2250     7.6540
 1110.0000     9.8120   104.5190     2.5200     0.0280   -62.7420     6.8780     7.1980     7.6240
 1110.5000     9.8050   105.3150     2.5170     0.0150   -62.7690     6.8930     7.1720     7.5940
 1111.0000     9.7990   106.1980     2.5220     0.0120   -62.7950     6.9060     7.1360     7.5640
 1111.5000     9.7890   107.1080     2.5240     0.0240   -62.8200     6.9190     7.2020     7.5410
 1112.0000     9.7610   108.2600     2.5120     0.0190   -62.8450     6.9320     7.2380     7.6200
 1112.5000     9.7460   109.4760     2.5180     0.0150   -62.8830     6.9420     7.2800     7.6330
 1113.0000     9.7320   108.5290     2.5290     0.0200   -63.2140     6.9840     7.3220     7.6460
 1113.5000     9.7170   106.3770     2.5180     0.0250   -63.5510     7.0490     7.3650     7.6590
 1114.0000     9.7030   107.9750     2.5040     0.0130   -63.5840     7.1140     7.4070     7.6720
 1114.5000     9.6880   110.0340     2.5070     0.0110   -63.4670     7.1790     7.4720     7.6810
 1115.0000     9.6740   111.2560     2.5040     0.0140   -63.3480     7.2020     7.3970     7.6820
 1115.5000     9.6830   109.7540     2.5110     0.0060   -63.2290     7.1770     7.3660     7.6410
 1116.0000     9.6930   107.8440     2.5170     0.0050   -63.1090     7.1380     7.3360     7.6030
 1116.5000     9.7030   105.8880     2.5190     0.0240   -62.9900     7.0980     7.3060     7.5650
 1117.0000     9.7130   108.4400     2.5320     0.0210   -62.8710     7.0590     7.2750     7.5270
 1117.5000     9.7230   111.6970     2.5500     0.0420   -62.7520     7.0200     7.2450     7.4880
 1118.0000     9.7330   111.2940     2.5440     0.0560   -62.6320     6.9800     7.2150     7.4500
 1118.5000     9.7430   110.0080     2.5300     0.0440   -62.5130     6.9420     7.1840     7.4120
 1119.0000     9.7530   107.2490     2.5160     0.0260   -62.3930     6.9420     7.1540     7.3740
 1119.5000     9.7630   104.9280     2.5080     0.0180   -62.2800     6.8780     7.1360     7.3360
 1120.0000     9.7730   105.9000     2.5030     0.0130   -62.2760     6.9090     7.1770     7.3670
 1120.5000     9.7830   104.4910     2.5080     0.0150   -62.2720     6.9380     7.2170     7.4040
 1121.0000     9.7920   102.6030     2.4990     0.0140   -62.4400     6.9680     7.2560     7.4410
 1121.5000     9.7950   100.7190     2.5060     0.0060   -62.6360     6.9970     7.2960     7.4780
 1122.0000     9.7970    99.3320     2.5270     0.0270   -62.8340     7.0270     7.3350     7.5150
 1122.5000     9.8000   101.1830     2.5180     0.0170   -63.0310     7.0560     7.3750     7.5520
 1123.0000     9.8020    97.4170     2.5050     0.0220   -63.2300     7.0860     7.4150     7.5890
 1123.5000     9.8040    98.6400     2.5010     0.0270   -63.4320     7.1150     7.4540     7.6260
 1124.0000     9.8070    97.9230     2.5100     0.0210   -63.3610     7.1450     7.4940     7.6630
 1124.5000     9.8090    94.0800     2.5180     0.0140   -63.2350     7.1740     7.5340     7.7010
 1125.0000     9.8120    90.4370     2.5270     0.0200   -63.1060     7.2040     7.5410     7.7380
 1125.5000     9.8140    92.8130     2.5290     0.0190   -62.9780     7.2330     7.5410     7.7520
 1126.0000     9.8160    96.1850     2.5220     0.0130   -62.8500     7.2630     7.5410     7.8240
 1126.5000     9.8190    99.5560     2.5050     0.0100   -62.7220     7.2690     7.5410     7.8240
 1127.0000     9.8210   102.9170     2.5010     0.0140   -62.5940     7.2690     7.5410     7.8130
 1127.5000     9.8240   104.4630     2.5070     0.0170   -62.4660     7.2690     7.5410     7.7860
 1128.0000     9.8260   102.3890     2.5160     0.0050   -62.3370     7.2690     7.5420     7.7590
 1128.5000     9.8290   103.9840     2.5060     0.0000   -62.2070     7.2700     7.5420     7.7310
 1129.0000     9.8310   105.5320     2.4900    -0.0010   -62.0890     7.2290     7.4890     7.7040
 1129.5000     9.8390   107.1060     2.4860    -0.0080   -62.3110     7.1880     7.4350     7.6760
 1130.0000     9.8540   108.7490     2.5020    -0.0040   -62.5490     7.1470     7.3820     7.6490
 1130.5000     9.8690   108.1480     2.5160     0.0050   -62.7870     7.1060     7.3290     7.6210
 1131.0000     9.8830   104.1920     2.5200     0.0140   -63.0260     7.0660     7.2750     7.5940
 1131.5000     9.8980   100.1240     2.5400     0.0250   -63.2570     7.0250     7.2220     7.5670
 1132.0000     9.9130    97.6230     2.5620     0.0700   -63.1750     6.9840     7.1690     7.5390
 1132.5000     9.9280    97.3140     2.5780     0.0620   -63.0760     6.9420     7.1150     7.5120
 1133.0000     9.9430    98.8430     2.5520     0.0470   -62.9780     6.9820     7.0710     7.4720
 1133.5000     9.9570    99.4260     2.5650     0.0590   -62.8810     7.0230     7.1500     7.4910
 1134.0000     9.9710    97.4300     2.5510     0.0520   -62.7840     7.0640     7.2170     7.5440
 1134.5000     9.9850    96.1330     2.5290     0.0350   -62.6870     7.1050     7.2840     7.5960
 1135.0000     9.9880    97.3550     2.5450     0.0260   -62.5900     7.1460     7.3520     7.6480
 1135.5000     9.9850    98.5140     2.5500     0.0290   -62.4920     7.1870     7.4190     7.7520
 1136.0000     9.9820    99.6770     2.5300     0.0170   -62.3950     7.2280     7.4870     7.7520
 1136.5000     9.9790   100.8170     2.5180     0.0150   -62.2980     7.2690     7.5540     7.7310
 1137.0000     9.9760   101.9120     2.5380     0.0230   -62.2010     7.3100     7.6110     7.7080
 1137.5000     9.9730   103.2990     2.5370     0.0290   -62.1020     7.3360     7.5560     7.6850
 1138.0000     9.9700   105.1400     2.5280     0.0130   -62.0800     7.1290     7.4980     7.6620
 1138.5000     9.9670   105.7380     2.5520     0.0200   -62.0790     6.9760     7.3770     7.6390
 1139.0000     9.9640   104.9820     2.5590     0.0330   -62.1000     6.8230     7.2030     7.6160
 1139.5000     9.9610   102.9050     2.5420     0.0320   -62.2400     6.6700     7.0280     7.5930
 1140.0000     9.9580   100.4060     2.5100     0.0210   -62.3820     6.5690     6.8830     7.5700
 1140.5000     9.9550    99.0270     2.5250     0.0400   -62.5230     6.5830     6.9190     7.5470
 1141.0000     9.9520    98.3610     2.5460     0.0510   -62.6640     6.5970     6.9540     7.4640
