~VERSION INFORMATION
 VERS.                2.0:   CWLS LOG ASCII STANDARD - VERSION 2.0
 WRAP.                 NO:   ONE LINE PER DEPTH STEP
~WELL INFORMATION
#MNEM.UNIT      DATA TYPE    INFORMATION
#----------   ------------   ------------------------------
 STRT.F         2676.0000:   START DEPTH
 STOP.F         3016.0000:   STOP DEPTH
 STEP.F            0.5000:   STEP LENGTH
 NULL.          -999.2500:   NO VALUE
 COMP.    FENIX & SCISSON:   COMPANY
 WELL.  FENIX "TX" #56-20:   WELL
 FLD .             NPR #3:   FIELD
 LOC .      S20 T39N R78W:   LOCATION
 CNTY.            NATRONA:   COUNTY
 STAT.            WYOMING:   STATE
 CTRY. UNITED STATES OF AMERICA:   COUNTRY
 SRVC.              WELEX:   SERVICE COMPANY
 DATE.        13-OCT-1980:   LOGDATE
 API .     49025108540000:   API NUMBER
~CURVE INFORMATION
#MNEM.UNIT       API CODE    CURVE DESCRIPTION
#----------   ------------   ------------------------------
 DEPT.F                  :   
 GRD .GAPI   45 310 01 00:   GAMMA RAY FROM DENSITY LOG
 CALD.IN     45 280 60 00:   CALIPER FROM DENSITY LOG
 RHOB.G/C3   45 350 01 00:   BULK DENSITY
 DRHO.G/C3   45 356 01 00:   DENSITY CORRECTION
 SPR .MV     07 010 01 00:   SPONTANEOUS POTENTIAL
 SGRD.OHMM   07 220 05 00:   SHALLOW GUARD
 ILM .OHMM   07 120 44 00:   INDUCTION LOG MEDIUM RESISTIVITY
 ILD .OHMM   07 120 46 00:   DEEP INDUCTION RESISTIVITY
~PARAMETER INFORMATION
#MNEM.UNIT          VALUE    DESCRIPTION
#----------   ------------   ------------------------------
 EKB .F         5035.0000:   Kelly bushing
 EGL .F         5030.0000:   Ground level
 EDF .F            0.0000:   Drilling floor
 TD  .F         3012.0000:   Total depth
 DATE.        13-OCT-1980:   Date logged
 CLNT.            A2DTECH:   Client Code
 PD  .                 GL:   Permanent Datum
 EPD .F              5030:   Elevation Permanent Datum
 LMF .                 KB:   Log Measured From
 DMF .                 KB:   Drilling Measured From
 DD  .F              3012:   Depth driller
 DL  .F              3010:   Depth logger
 BLI .F              3012:   Bottom log interval
 TLI .F              2688:   Top log interval
 CS1 .IN                7:   Casing size
 CBD1.         7" @ 2689':   Casing driller 1
 CBL1.F              2687:   Casing logger 1
 BS1 .IN             6.25:   Bit size
 BSD1.F              3012:   Depth drilled with bit1
 DFT .        FRESH WATER:   Type fluid in hole
 MSS .           FLOWLINE:   Source of sample
 RMS .OHMM           2.86:   Rm
 MST .F                50:   Rm Meas. temp.
 RMF .OHMM           2.29:   Rmf
 MFST.F                50:   Rmf Meas. temp.
 RMC .OHMM           3.43:   Rmc
 MCST.F                50:   Rmc Meas. temp.
 MFSS.               MEAS:   Source Rmf.
 MCSS.               MEAS:   Source Rmc.
 RMB .OHMM           1.21:   Rm. at BHT
 BHT .F               118:   BHT.
 TCS .HRS               5:   Time Circ. stopped
 MRT .F               118:   Maximum recorded temp.
 LUN .               1892:   Logging unit number
 LUL .             CASPER:   Logging unit location
 ENGI.           PERIMMER:   Recorded By
 WITN.              SCOTT:   Witnessed by
 ORIG.           5" PRINT:   Origin of data
 UWI .     49025108540000:   Unique Well ID
 DICO. A2D TECHNOLOGIES, INC.:   Digitizing Company
~OTHER INFORMATION
~A  DEPT        GRD        CALD       RHOB       DRHO      SPR       SGRD        ILM        ILD   
# ...
 2959.5000   101.8420     6.4120     2.5080     0.0790   -26.4940     6.2600     5.1850     3.0060
 2960.0000   101.3140     6.3920     2.5130     0.0800   -26.2930     6.7680     5.1850     2.9010
 2960.5000   101.6880     6.3770     2.5180     0.0930   -26.7010     6.2310     5.0450     2.7770
 2961.0000   102.0440     6.3780     2.5220     0.0930   -26.6400     6.1740     5.0910     2.7320
 2961.5000   101.8840     6.3520     2.5270     0.0910   -26.1250     6.8300     4.8180     2.6770
 2962.0000    99.8830     6.3300     2.5290     0.0980   -26.4920     5.1850     5.0450     2.6530
 2962.5000    97.6260     6.3080     2.5310     0.0840   -26.4540     6.4710     4.9980     2.6770
 2963.0000    95.3670     6.2760     2.5330     0.0820   -26.5260     5.9510     4.9530     2.7140
 2963.5000    93.1150     6.2160     2.5350     0.0830   -26.7390     6.4640     5.0450     2.7450
 2964.0000    91.2440     6.1760     2.5490     0.0820   -26.8620     4.7310     5.3450     2.8550
 2964.5000    89.4880     6.1630     2.5630     0.0880   -26.6600     5.8540     5.6760     3.0370
 2965.0000    88.2270     6.1450     2.5770     0.1030   -26.8760    12.6370     6.0060     3.2200
 2965.5000    88.1810     6.1280     2.5890     0.1080   -26.8110    10.1560     6.1170     3.3680
 2966.0000    89.8270     6.0950     2.5810     0.1110   -26.5230     7.6260     6.4640     3.7080
 2966.5000    89.0550     6.0990     2.5710     0.1040   -26.8800     9.0920     6.4050     3.9680
 2967.0000    88.4540     6.1630     2.5590     0.0850   -27.0870    10.3250     6.7680     4.0470
 2967.5000    88.6450     6.2410     2.5480     0.0720   -26.8610     9.4830     6.6450     4.0100
 2968.0000    89.1810     6.2450     2.5370     0.0640   -26.8680     7.9670     6.0620     4.2570
 2968.5000    91.2280     6.2240     2.5410     0.0630   -27.0260     6.9570     6.1870     4.4360
 2969.0000    92.3030     6.1960     2.5480     0.0720   -26.8050    13.1090     6.4640     4.2490
 2969.5000    92.9520     6.1750     2.5550     0.0840   -26.6750     7.9110     6.2880     4.0480
 2970.0000    93.5090     6.2280     2.5580     0.0970   -26.6700    11.0110     6.0340     3.8470
 2970.5000    94.5990     6.3020     2.5480     0.1010   -27.1460     8.3130     5.6840     3.6460
 2971.0000    96.2000     6.3500     2.5380     0.1020   -26.9870     6.6160     5.5300     3.4440
 2971.5000    97.8040     6.3770     2.5290     0.1020   -26.7630     6.0780     5.3300     3.2430
 2972.0000    98.1400     6.3390     2.5260     0.1010   -26.8600     5.6840     5.1380     3.0770
 2972.5000    97.9390     6.3210     2.5420     0.1000   -27.0530     6.3460     4.9980     2.9160
 2973.0000    98.5740     6.2910     2.5510     0.0970   -26.6860     5.9880     4.8630     2.7550
 2973.5000    97.9210     6.2700     2.5380     0.0850   -27.1130     5.0450     4.6870     2.5940
 2974.0000    97.0220     6.3000     2.5250     0.0740   -27.0150     5.2330     4.5600     2.5340
 2974.5000    96.1110     6.2290     2.5120     0.0580   -27.0670     5.4290     4.8620     2.5800
 2975.0000    95.2820     6.1930     2.5050     0.0610   -27.0820     4.7740     5.0230     2.5800
 2975.5000    94.6100     6.1700     2.5210     0.0650   -27.2440     6.2280     5.1850     2.7010
 2976.0000    94.4180     6.1310     2.5310     0.0710   -26.8290     7.4670     5.6840     2.9030
 2976.5000    93.0900     6.0910     2.5250     0.0650   -26.6660     8.8430     5.9510     3.1050
 2977.0000    91.1330     6.0770     2.5170     0.0560   -26.5920     9.2480     6.1170     3.3070
 2977.5000    91.0530     6.0750     2.5110     0.0480   -26.6140     9.8620     6.1740     3.5100
 2978.0000    91.6430     6.0730     2.5060     0.0410   -26.6500     9.6090     6.2310     3.7120
 2978.5000    92.2220     6.0710     2.5240     0.0410   -26.4050     9.1370     6.2170     4.0100
 2979.0000    92.4900     6.0690     2.5240     0.0410   -26.6880     8.6650     6.1980     3.9730
 2979.5000    92.5670     6.0670     2.5270     0.0460   -26.4600     8.2830     6.1800     3.9730
 2980.0000    92.3320     6.0660     2.5290     0.0490   -26.4140     7.9840     6.1610     3.9730
 2980.5000    93.6980     6.0640     2.5340     0.0540   -26.2940     7.4870     6.1420     3.9730
 2981.0000    93.1120     6.0620     2.5470     0.0590   -26.5510     7.7670     6.1170     3.9730
 2981.5000    91.3070     6.0600     2.5620     0.0740   -26.8250     7.4190     6.2310     4.0100
 2982.0000    89.5970     6.0580     2.5790     0.0880   -25.8300     8.2060     6.4640     4.1140
 2982.5000    87.8680     6.0510     2.5750     0.0970   -26.9550    10.0440     6.7680     4.3390
 2983.0000    86.6550     6.0290     2.5680     0.0910   -26.9040     8.5930     6.9570     4.5640
 2983.5000    85.8850     6.0070     2.5680     0.0850   -26.9550    11.6340     7.0210     4.7890
 2984.0000    85.8860     5.9860     2.5780     0.0960   -26.6800    10.5100     7.0530     5.0140
 2984.5000    86.0700     5.9640     2.5860     0.1060   -27.1770     7.3510     7.0830     5.2390
 2985.0000    86.2660     5.9430     2.5830     0.1100   -26.3140    16.7980     7.1140     5.4640
 2985.5000    85.8330     5.9160     2.5750     0.1030   -27.7050     8.7520     7.1450     5.6890
 2986.0000    85.0130     5.9160     2.5650     0.0960   -27.1000    12.7530     7.1510     5.9140
 2986.5000    84.5310     5.9370     2.5730     0.1030   -26.8960    10.0440     7.2170     6.1390
 2987.0000    84.3690     5.9590     2.5640     0.0930   -27.9780    10.3250     7.6960     6.3640
 2987.5000    83.5440     5.9580     2.5540     0.0790   -28.9800    11.1860     7.9800     6.8620
 2988.0000    82.6460     5.9580     2.5450     0.0650   -26.9030    12.8050     8.2760     7.5800
 2988.5000    81.9370     5.9580     2.5370     0.0550   -26.7100    54.4160     8.5730     8.2050
 2989.0000    83.7440     5.9570     2.5340     0.0540   -28.4940    47.4140     8.8330     8.6750
 2989.5000    85.0670     5.9560     2.5320     0.0500   -28.6260    16.9530     9.0000     9.3500
 2990.0000    84.9970     5.9550     2.5330     0.0470   -26.6830    19.1400     9.1630    10.0260
 2990.5000    88.3190     5.9550     2.5450     0.0550   -27.7240    21.3280     9.0790    10.4200
 2991.0000    91.5330     5.9540     2.5420     0.0610   -27.1590    12.5210     8.8330    10.6130
 2991.5000    94.7710     5.9530     2.5400     0.0640   -27.4160    14.9080     8.5930    10.3120
 2992.0000    96.9110     5.9520     2.5480     0.0680   -26.9840    11.5280     8.3590     9.5640
 2992.5000    98.7400     5.9510     2.5520     0.0700   -28.2760    14.7720     8.0580     8.8150
 2993.0000    99.6670     5.9500     2.5480     0.0670   -28.9090    12.9850     7.7670     8.0660
 2993.5000   100.3950     5.9500     2.5520     0.0630   -26.4600    10.1110     7.4190     7.3170
 2994.0000   100.6510     5.9490     2.5590     0.0740   -27.4590     9.0790     7.2170     6.5840
 2994.5000   100.2670     5.9480     2.5530     0.0770   -27.3850    10.4200     7.2840     6.0110
 2995.0000   100.1450     5.9470     2.5480     0.0730   -27.2650    10.0440     6.7060     5.4500
 2995.5000   100.1370     5.9460     2.5510     0.0790   -27.2740    10.3250     6.4640     4.8880
 2996.0000   102.1110     5.9450     2.5590     0.0940   -27.0490    10.4200     6.1740     4.3150
 2996.5000   101.6450     5.9440     2.5480     0.1060   -27.0470     6.5840     5.8650     3.9910
 2997.0000   101.3630     5.9440     2.5430     0.1030   -27.6480     6.8930     5.5490     3.6610
 2997.5000    90.6390     5.9430     2.5530     0.1000   -26.9570     5.9510     5.2330     3.3300
 2998.0000  -999.2500     5.9420     2.5680     0.1070   -26.0570     5.7900     5.0450     3.1090
 2998.5000  -999.2500     5.9410     2.5740     0.1240   -26.8940     6.2310     4.9530     2.9670
 2999.0000  -999.2500     5.9400     2.5680     0.1240   -26.4850     5.9510     4.9980     2.8240
 2999.5000  -999.2500     5.9390     2.5620     0.1150   -26.6380     6.0620     5.0450     2.7270
