~VERSION INFORMATION
 VERS.                2.0:   CWLS LOG ASCII STANDARD - VERSION 2.0
 WRAP.                 NO:   ONE LINE PER DEPTH STEP
~WELL INFORMATION
#MNEM.UNIT      DATA TYPE    INFORMATION
#----------   ------------   ------------------------------
 STRT.F          450.0000:   START DEPTH
 STOP.F         3098.0000:   STOP DEPTH
 STEP.F            0.5000:   STEP LENGTH
 NULL.          -999.2500:   NO VALUE
 COMP. FENIX & SCISSON - U.S NAVY:   COMPANY
 WELL. FENIX NPR 3 "AX" #11-33:   WELL
 FLD .              N P R:   FIELD
 LOC .      S33 T39N R78W:   LOCATION
 CNTY.            NATRONA:   COUNTY
 STAT.            WYOMING:   STATE
 CTRY. UNITED STATES OF AMERICA:   COUNTRY
 SRVC.              WELEX:   SERVICE COMPANY
 DATE.        12-MAR-1977:   LOGDATE
 API .     49025103210000:   API NUMBER
~CURVE INFORMATION
#MNEM.UNIT       API CODE    CURVE DESCRIPTION
#----------   ------------   ------------------------------
 DEPT.F                  :   
 CALD.IN     45 280 60 00:   CALIPER FROM DENSITY LOG
 GRD .GAPI   45 310 01 00:   GAMMA RAY FROM DENSITY LOG
 RHOB.G/C3   45 350 01 00:   BULK DENSITY
 CORR.G/C3   45 356 01 00:   DENSITY CORRECTION
 SPR .MV     07 010 01 00:   SPONTANEOUS POTENTIAL
 SGRD.MV     07 010 01 00:   SHALLOW GUARD RESISTIVITY
 ILD .OHMM   07 120 46 00:   DEEP INDUCTION RESISTIVITY
 ILM .OHMM   07 120 44 00:   INDUCTION LOG MEDIUM RESISTIVITY
~PARAMETER INFORMATION
#MNEM.UNIT          VALUE    DESCRIPTION
#----------   ------------   ------------------------------
 EKB .F         5133.0000:   Kelly bushing
 EGL .F         5122.0000:   Ground level
 TD  .F         3130.0000:   Total depth
 DATE.        12-MAR-1977:   Date logged
 CLNT.            A2DTECH:   Client Code
 SL  . 331' FNL & 430' FWL:   Surface Location
 PD  .                 GL:   Permanent Datum
 DD  .F              3130:   Depth driller
 DL  .F              3102:   Depth logger
 BLI .F              3100:   Bottom log interval
 CS1 .IN            8.625:   Casing size
 CBD1.      8.625" @ 459':   Casing driller 1
 CBL1.F               455:   Casing logger 1
 BS1 .IN            7.875:   Bit size
 DFT .                KCL:   Type fluid in hole
 DFD .                9.3:   Density
 DFV .                 36:   Viscosity
 DFL .               16.2:   Fluid loss
 MSS .           FLOWLINE:   Source of sample
 RMS .OHMM           0.37:   Rm
 MST .F                50:   Rm Meas. temp.
 RMF .OHMM           0.32:   Rmf
 MFST.F                55:   Rmf Meas. temp.
 RMC .OHMM           0.58:   Rmc
 MCST.F                55:   Rmc Meas. temp.
 MFSS.               MEAS:   Source Rmf.
 RMB .OHMM           .168:   Rm. at BHT
 BHT .F               110:   BHT.
 TCS .HRS               4:   Time Circ. stopped
 MRT .F               110:   Maximum recorded temp.
 LUN .               0716:   Logging unit number
 LUL .             VERNAT:   Logging unit location
 ENGI.        E. CALLAHAN:   Recorded By
 WITN.            K. JAPP:   Witnessed by
 ORIG.           5" PRINT:   Origin of data
 UWI .     49025103210000:   Unique Well ID
 DICO. A2D TECHNOLOGIES, INC.:   Digitizing Company
 DAPD.F                11:   Feet Above Permanent Datum
 BSD1.               3950:   Depth drilled with bit1
 MCSS.               CALC:   Source Rmc.
 EPD .F              5122:   Elevation Permanent Datum
 LMF .                 KB:   Log Measured From
 DMF .                 KB:   Drilling Measured From
 TLI .F               455:   Top log interval
~OTHER INFORMATION
~A   DEPT       CALD       GRD        RHOB      CORR       SPR       SGRD        ILD        ILM   
  450.0000     8.6091    61.0410     1.8030    -0.7318  -999.2500  -999.2500  -999.2500  -999.2500
  450.5000     8.6092    62.2304     1.8040    -0.7219  -999.2500  -999.2500  -999.2500  -999.2500
  451.0000     8.6094    65.7984     1.7772    -0.6778  -999.2500  -999.2500  -999.2500  -999.2500
  451.5000     8.6095    63.6221     1.8299    -0.6338  -999.2500  -999.2500  -999.2500  -999.2500
  452.0000     8.5900    65.8024     1.8299    -0.5944  -999.2500  -999.2500  -999.2500  -999.2500
  452.5000     8.5901    66.0016     1.8200    -0.6084  -999.2500  -999.2500  -999.2500  -999.2500
  453.0000     8.5904    66.5973     1.8161    -0.5765  -999.2500  -999.2500  -999.2500  -999.2500
  453.5000     8.5906    67.9855     1.8300    -0.5661  -999.2500  -999.2500  -999.2500  -999.2500
  454.0000     8.5710    71.7375     1.8649    -0.5327  -999.2500  -999.2500  -999.2500  -999.2500
  454.5000     8.5712    73.9298     1.8649    -0.4888  -999.2500  -999.2500  -999.2500  -999.2500
  455.0000     8.5714    76.5062     1.8759    -0.4311  -999.2500  -999.2500  -999.2500  -999.2500
  455.5000     8.5716    78.8844     1.8779    -0.3952  -999.2500  -999.2500  -999.2500  -999.2500
  456.0000     8.5718    82.2525     1.9217    -0.3105  -999.2500  -999.2500  -999.2500  -999.2500
  456.5000     8.5719    85.8189     1.9307    -0.2220  -999.2500  -999.2500  -999.2500  -999.2500
  457.0000     8.5919    88.3953     2.0024    -0.0288  -999.2500  -999.2500  -999.2500  -999.2500
  457.5000     8.6120    90.9716     2.0033     0.2122  -999.2500  -999.2500  -999.2500  -999.2500
  458.0000     8.6122    91.3696     2.1069     0.2142  -999.2500  -999.2500  -999.2500  -999.2500
  458.5000     9.1527    92.6872     2.0212     0.1625  -999.2500  -999.2500  -999.2500  -999.2500
  459.0000     9.6027    94.1460     2.0083     0.1772  -999.2500  -999.2500  -999.2500  -999.2500
  459.5000    10.0866    94.3468     2.0302     0.1925  -999.2500  -999.2500  -999.2500  -999.2500
  460.0000    10.3753    95.5361     1.9946     0.2160   -52.1713     6.7621  -999.2500  -999.2500
  460.5000    10.5627    96.9239     1.9946     0.2404   -52.7691     7.2102     0.2683     6.3981
  461.0000    10.7500    97.9172     2.0013     0.2230   -53.7645     7.1432     0.2658     6.2232
  461.5000    10.8314    95.5421     2.0570     0.2055   -53.9683     7.0762     0.4418     5.8340
  462.0000    11.4164    95.5437     2.2413     0.1947   -54.1720     6.4533     0.7343     5.4694
  462.5000    12.2775    98.3184     2.2842     0.1927   -54.1782     5.7251     2.1803     5.1271
  463.0000    12.3568    96.3397     2.3170     0.1530   -54.3807     4.8504     4.5065     4.8957
  463.5000    12.5747    95.9441     2.2975     0.1470   -54.5844     4.0349     5.5665     4.8948
  464.0000    12.7928    94.3368     2.2772     0.1391   -54.7881     4.1472     5.2668     4.8934
  464.5000    12.9910    92.7295     2.2856     0.1391   -54.7942     7.6762     5.0755     5.3633
  465.0000    12.9912    91.1994     2.3045     0.1232   -54.9979     8.2600     5.3130     6.4443
  465.5000    12.9716    91.1998     2.3141     0.1092   -54.8065     8.5678     6.6229     7.7434
  466.0000    13.0114    94.1121     2.3260     0.1074   -54.4175     8.8049     8.5654     8.4870
  466.5000    12.9325    96.3536     2.2890     0.1194   -54.2261     9.1325     9.3024     8.8841
  467.0000    12.9523    97.3089     2.2520     0.1075   -54.2323     9.3003    10.1952     9.1308
  467.5000    12.9724    98.3383     2.2150     0.1055   -54.2384    10.2823    10.6722     9.6468
  468.0000    12.8142    98.5375     2.1780     0.1056   -54.0470     9.2910    11.8056    10.2846
  468.5000    12.2599    98.7367     2.1546     0.1136   -54.0532     9.7305    14.4482    10.3786
  469.0000    11.7849   100.3249     2.1376     0.1316   -53.6643    10.1867    15.1243    10.5677
  469.5000    11.4089   100.5237     2.2846     0.1336   -53.6692    11.0622    14.3094    10.5652
  470.0000    11.3693   101.1202     2.5293     0.0978   -54.0704    11.7936    10.4652    10.5633
  470.5000    10.9162   100.9225     2.5373     0.1357   -54.2741    11.6840    10.1777    10.5603
  471.0000    10.3600    98.5494     2.5198     0.0979   -54.4777    12.0079    10.1772    10.5579
  471.5000    10.3601    98.5510     2.4940     0.0939   -54.6814    12.1154    10.3631    10.8511
  472.0000    10.3603    98.9494     2.4880     0.0880   -54.6875    12.3368    10.6504    11.3583
  472.5000    10.3605    99.5974     2.4820     0.0930   -54.8911    12.4490    10.9457    11.8903
  473.0000    10.4201    99.5479     2.4666     0.0871   -54.8973    12.7941    11.1462    12.2199
  473.5000    10.4203    98.1645     2.4656     0.0811   -55.1009    12.7917    11.1441    12.3293
  474.0000    10.4205    96.9775     2.5045     0.0921   -55.1070    12.7887    11.2444    12.3270
  474.5000    10.4207    96.1870     2.4965     0.0852   -54.9157    13.1432    11.2418    12.3241
  475.0000    10.4210    95.5953     2.4885     0.0852   -55.1193    13.1402    11.2397    12.0957
  475.5000    10.4211    95.2008     2.4786     0.0753   -55.5203    13.3809    11.2366    11.8732
  476.0000    10.4213    95.2032     2.4776     0.1013   -55.3290    13.6260    11.2339    11.7623
  476.5000    10.4215    95.2052     2.5105     0.0774   -55.3351    13.2523    11.2329    11.7601
  477.0000    10.4415    95.2072     2.4986     0.0964   -55.3412    13.1280    11.4307    11.8654
  477.5000    10.4417    95.2084     2.4770     0.0994   -55.5447    13.2461    11.4292    12.3070
  478.0000    10.4419    95.6068     2.4555     0.0656   -55.9445    13.4888    11.4275    12.4177
  478.5000    10.4421    96.2033     2.4397     0.0656   -55.9506    13.8627    11.4243    12.4148
  479.0000    10.4423    97.3926     2.4301     0.0617   -56.1541    13.7327    11.4217    11.9644
  479.5000    10.4425    99.1776     2.4178     0.0537   -56.3577    13.4794    11.4190    11.7437
  480.0000    10.4229    99.7737     2.4168     0.0717   -56.3638    13.3529    11.2136    11.7410
  480.5000    10.4033   100.3698     2.4428     0.0777   -56.3698    13.1066    11.4190    11.7377
  481.0000    10.3639   100.7678     2.4687     0.0898   -56.1785    13.2246    11.9533    11.9528
  481.5000    10.3443   101.3635     2.4687     0.0718   -55.9872    13.2215    12.2852    12.1717
  482.0000    10.3247   103.7418     2.4458     0.0799   -56.1907    13.3335    12.5097    12.3952
  482.5000    10.3051   103.7438     2.4762     0.0839   -56.3942    13.3323    12.5068    12.5068
  483.0000    10.2657   104.1418     2.4897     0.0780   -56.4003    13.0864    12.5033    12.5033
  483.5000    10.2263   105.3319     2.4687     0.0740   -56.4064    12.9692    12.5010    12.5004
  484.0000    10.1473   107.1161     2.4668     0.0701   -56.4125    12.9662    12.1576    12.2698
  484.5000    10.0484   108.7023     2.4491     0.0462   -56.4186    12.9632    11.5025    12.0446
  485.0000    10.0684   109.1004     2.4368     0.0422   -56.4247    12.9602    11.8225    11.3946
  485.5000    10.1677   109.4984     2.4518     0.0562   -56.4295    12.8386    12.1502    10.9807
  486.0000    10.0887   109.5004     2.4418     0.0603   -56.4381    12.6024    13.0737    10.7797
  486.5000    10.0888   109.5024     2.4628     0.0623   -56.6391    12.2562    13.8119    10.5803
  487.0000    10.0890   109.9004     2.4778     0.0603   -56.6451    11.9200    12.1412    10.2902
  487.5000    10.0892   110.1004     2.4628     0.0584   -56.8486    11.5931    10.2873    10.4739
  488.0000    10.0894   110.4985     2.4608     0.0584   -56.6573    11.3798     9.8229    10.7493
  488.5000    10.1094   110.8965     2.4598     0.0585   -56.4661    11.3766     9.8211    10.9614
  489.0000    10.1096   112.2843     2.4758     0.0575   -56.4721    11.3745     9.8183    11.0600
  489.5000    10.0307   112.6823     2.4439     0.0456   -56.2797    11.3719     9.3742    10.7567
  490.0000    10.0308   110.7044     2.4449     0.0566   -56.2858    11.2652     8.2411    10.3660
