~VERSION INFORMATION
 VERS.                2.0:   CWLS LOG ASCII STANDARD - VERSION 2.0
 WRAP.                 NO:   ONE LINE PER DEPTH STEP
~WELL INFORMATION
#MNEM.UNIT      DATA TYPE    INFORMATION
#----------   ------------   ------------------------------
 STRT.F           30.0000:   START DEPTH
 STOP.F         5698.0000:   STOP DEPTH
 STEP.F            0.5000:   STEP LENGTH
 NULL.          -999.2500:   NO VALUE
 COMP. LAWRRENCE-ALLISON & ASSOCIATES:   COMPANY
 WELL. LAWERNCE "X" #41-3:   WELL
 FLD .           N P R #3:   FIELD
 LOC .       S3 T38N R78W:   LOCATION
 CNTY.            NATRONA:   COUNTY
 STAT.            WYOMING:   STATE
 CTRY. UNITED STATES OF AMERICA:   COUNTRY
 SRVC.      DRESSER ATLAS:   SERVICE COMPANY
 DATE.        04-JUN-1983:   LOGDATE
 API .     49025109200000:   API NUMBER
~CURVE INFORMATION
#MNEM.UNIT       API CODE    CURVE DESCRIPTION
#----------   ------------   ------------------------------
 DEPT.F                  :   
 TENS.LBS    60 635 01 00:   TENSION FROM SONIC
 DT  .US/F   60 520 00 00:   DELTA TIME
 SPR .MV     11 010 01 00:   SPONTANEOUS POTENTIAL FROM RES.
 TENR.LBS    11 635 01 00:   TENSION FROM RES. LOG
 GRR .GAPI   11 310 01 00:   GAMMA RAY FROM RES.
 CALR.IN     11 280 01 00:   CALIPER FROM RES.
 RMLL.OHMM   11 270 04 00:   MICRO LATEROLOG
 RD  .OHMM   11 220 10 00:   RESISTIVITY DEEP
 RS  .OHMM   11 220 09 00:   RESISTIVITY SHALLOW
 TEND.LBS    45 635 01 00:   TENSION FROM DENSITY LOG
 CORR.G/C3   45 356 01 00:   DENSITY CORRECTION
 RHOB.G/C3   45 350 01 00:   BULK DENSITY
 NPHI.DEC    42 890 03 00:   NEUTRON POROSITY SANDSTONE
~PARAMETER INFORMATION
#MNEM.UNIT          VALUE    DESCRIPTION
#----------   ------------   ------------------------------
 EKB .F         5157.5000:   Kelly bushing
 EGL .F         5147.5000:   Ground level
 EDF .F            0.0000:   Drilling floor
 TD  .F         5690.0000:   Total depth
 DATE.        04-JUN-1983:   Date logged
 CLNT.            A2DTECH:   Client Code
 SL  . 2218' FWL & 287' FNL:   Surface Location
 PD  .                 GL:   Permanent Datum
 EPD .F            5147.5:   Elevation Permanent Datum
 LMF .                 KB:   Log Measured From
 DMF .                 KB:   Drilling Measured From
 DD  .F              5690:   Depth driller
 DL  .F              5685:   Depth logger
 BLI .F              5682:   Bottom log interval
 CS1 .IN            9.625:   Casing size
 CBD1.       9.625 @ 568':   Casing driller 1
 CBL1.F               568:   Casing logger 1
 BS1 .IN             8.75:   Bit size
 DFT .        KCL-DRISPAC:   Type fluid in hole
 DFD .                9.1:   Density
 DFV .                 37:   Viscosity
 DFPH.                  8:   pH
 DFL .                3.8:   Fluid loss
 MSS .               TANK:   Source of sample
 RMS .OHMM           0.41:   Rm
 MST .F                75:   Rm Meas. temp.
 RMF .OHMM           0.28:   Rmf
 MFST.F                70:   Rmf Meas. temp.
 RMC .OHMM           0.53:   Rmc
 MCST.F                75:   Rmc Meas. temp.
 MFSS.               MEAS:   Source Rmf.
 RMB .OHMM           0.18:   Rm. at BHT
 BHT .F               160:   BHT.
 TCS .HRS               5:   Time Circ. stopped
 MRT .F               166:   Maximum recorded temp.
 LUN .               6274:   Logging unit number
 LUL .               GLTE:   Logging unit location
 ENGI.             RAUTIO:   Recorded By
 WITN.             STRONG:   Witnessed by
 ORIG.     2.5", 5" PRINT:   Origin of data
 UWI .     49025109200000:   Unique Well ID
 DICO. A2D TECHNOLOGIES, INC.:   Digitizing Company
 MCSS.               CALC:   Source Rmc.
 DAPD.                 10:   Feet Above Permanent Datum
 BSD1.               5690:   Depth drilled with bit1
~OTHER INFORMATION
~A   DEPT     TENS         DT        SPR       TENR         GRR      CALR       RMLL         RD         RS       TEND       CORR       RHOB       NPHI   
# ...
 4294.0000  -999.2500  -999.2500   -85.3900   -41.2760    50.0540     9.8400    12.7930    15.0940    13.8410   -22.7840     0.0560     2.5800     0.1310
 4294.5000  -999.2500  -999.2500   -85.7710   -45.9600    51.9490     9.8390    11.9570    14.0510    12.5960   -21.1310     0.0530     2.5720     0.1340
 4295.0000  -999.2500  -999.2500   -85.7950   -50.9980    55.4560     9.8380    11.5050    13.0090    12.0270   -19.6080     0.0490     2.5710     0.1380
 4295.5000  -999.2500  -999.2500   -85.7980   -55.8920    58.9660     9.8370    11.2510    11.9290    11.4320   -32.9900     0.0450     2.5700     0.1520
 4296.0000  -999.2500  -999.2500   -85.8600   -60.9230    62.8130     9.8360    11.0330    11.6170    10.5080   -45.3920     0.0430     2.5720     0.1590
 4296.5000  -999.2500  -999.2500   -86.0090   -65.8790    65.1910     9.8350    10.8960    11.2920    10.7000   -58.8240     0.0360     2.5750     0.1540
 4297.0000  -999.2500  -999.2500   -86.1550   -67.3400    65.0030     9.8330    11.1480    10.9680    11.0850   -57.9520     0.0300     2.5760     0.1460
 4297.5000  -999.2500  -999.2500   -86.1140   -57.9700    63.7210     9.8330    11.5890    11.3660    11.4820   -57.0020     0.0080     2.5750     0.1380
 4298.0000  -999.2500  -999.2500   -85.8770   -50.2210    59.6970     9.8360    12.0300    11.9720    11.8790   -56.0520     0.0000     2.5750     0.1300
 4298.5000  -999.2500  -999.2500   -85.6470   -41.5170    55.7280     9.8380    12.4700    12.5780    12.2750   -55.1010     0.0070     2.5710     0.1300
 4299.0000  -999.2500  -999.2500   -85.4190   -38.1710    52.6660     9.8410    12.8270    12.8270    12.5960   -54.1510     0.0160     2.5650     0.1330
 4299.5000  -999.2500  -999.2500   -85.1850   -38.2590    52.6760     9.8430    12.5100    11.8700    12.1590   -53.2010     0.0140     2.5540     0.1400
 4300.0000  -999.2500  -999.2500   -84.9500   -40.4210    55.2920     9.8460    12.1110    11.0670    11.0510   -52.2510     0.0110     2.5330     0.1450
 4300.5000  -999.2500  -999.2500   -84.7440   -44.5070    57.8910     9.8480    11.7150     9.9510     9.7730   -51.3000     0.0090     2.5120     0.1540
 4301.0000  -999.2500  -999.2500   -84.3460   -48.3050    58.3570     9.8500    12.0570     9.9840     9.9110   -50.3500     0.0200     2.4910     0.1520
 4301.5000  -999.2500  -999.2500   -83.8020   -52.0380    52.0910     9.8530    12.3960    10.1330    10.1330   -49.4000     0.0310     2.4670     0.1490
 4302.0000  -999.2500  -999.2500   -83.2900   -56.1360    47.1430     9.8550    12.7360     9.5940     9.8030   -39.2160     0.0430     2.4720     0.1510
 4302.5000  -999.2500  -999.2500   -82.7830   -58.2520    41.8930     9.8580    13.0610     9.0890     9.2770   -31.5900     0.0540     2.4760     0.1510
 4303.0000  -999.2500  -999.2500   -82.2480   -58.0250    41.4210     9.8600    13.0200     9.1330     9.0890   -37.0370     0.0650     2.4790     0.1480
 4303.5000  -999.2500  -999.2500   -81.7660   -58.0770    40.9290     9.8620    12.8530     9.3150     9.1730   -42.4840     0.0570     2.4750     0.1460
 4304.0000  -999.2500  -999.2500   -81.1730   -58.0890    41.6270     9.8650    12.6850     9.4960     9.2710   -49.0200     0.0470     2.4710     0.1440
 4304.5000  -999.2500  -999.2500   -81.1170   -58.0630    42.7990     9.8670    12.2830     9.6770     9.3690   -45.7520     0.0380     2.4680     0.1470
 4305.0000  -999.2500  -999.2500   -80.8210   -58.0780    44.2980     9.8700    11.9710     9.8580     9.4680   -41.6670     0.0310     2.4710     0.1520
 4305.5000  -999.2500  -999.2500   -80.5440   -58.0720    48.5000     9.8720    11.3370    10.3190     9.5660   -42.0170     0.0220     2.4730     0.1580
 4306.0000  -999.2500  -999.2500   -80.2370   -58.0710    51.9150     9.8740    10.7020    10.3190     9.8580   -49.0200    -0.0060     2.4790     0.1670
 4306.5000  -999.2500  -999.2500   -79.9440   -58.0710    55.9210     9.8770    10.1330    10.4910    10.1500   -56.0220    -0.0380     2.4860     0.1620
 4307.0000  -999.2500  -999.2500   -79.6480   -58.0710    56.3550     9.8790    10.2160    10.7000    10.4420   -59.9130    -0.0290     2.4960     0.1530
 4307.5000  -999.2500  -999.2500   -79.3540   -58.0710    52.5850     9.8820    10.3190    11.1810    10.7000   -61.7280     0.0120     2.4960     0.1450
 4308.0000  -999.2500  -999.2500   -79.0490   -58.0710    47.6930     9.8840     9.8350    11.7070    11.5020   -63.5440     0.0400     2.4960     0.1370
 4308.5000  -999.2500  -999.2500   -78.7680   -58.0710    42.6940     9.8860     9.2550    12.2340    12.2180   -65.3590     0.0560     2.4920     0.1400
 4309.0000  -999.2500  -999.2500   -78.4340   -58.0720    41.0560     9.8890     9.2550    12.7610    12.9350   -67.1750     0.0550     2.4880     0.1450
 4309.5000  -999.2500  -999.2500   -78.3980   -58.0710    42.1110     9.8910     9.2550    13.2870    13.5440   -68.9910     0.0470     2.4850     0.1510
 4310.0000  -999.2500  -999.2500   -78.4920   -58.0720    42.7930     9.8940     9.4640    13.8140    13.4510   -70.8060     0.0240     2.4830     0.1500
 4310.5000  -999.2500  -999.2500   -78.6830   -58.0760    42.2630     9.8960     9.9510    14.0440    13.3290   -72.6220     0.0020     2.4810     0.1460
 4311.0000  -999.2500  -999.2500   -78.8510   -58.0600    38.7700     9.8980     9.9940    14.2210    13.3000   -74.4370    -0.0140     2.4780     0.1420
 4311.5000  -999.2500  -999.2500   -79.0180   -58.0940    40.9300     9.9010    10.1090    14.3740    13.5290   -76.2530     0.0090     2.4800     0.1390
 4312.0000  -999.2500  -999.2500   -79.1990   -58.0590    42.9240     9.9030    10.4020    14.5260    13.7630   -78.4310     0.0130     2.4840     0.1360
 4312.5000  -999.2500  -999.2500   -79.3630   -57.9520    43.1400     9.9060    11.0930    14.6780    14.0440   -73.0840     0.0070     2.4880     0.1360
 4313.0000  -999.2500  -999.2500   -79.5410   -56.4680    42.7930     9.9080    11.5050    14.8290    14.0440   -66.3990     0.0020     2.4920     0.1360
 4313.5000  -999.2500  -999.2500   -79.7460   -55.2270    42.6650     9.9100    11.7150    14.5800    13.8900   -59.7150    -0.0030     2.4970     0.1360
 4314.0000  -999.2500  -999.2500   -80.2330   -53.8870    42.7050     9.9100    11.0180    14.3320    13.6380   -53.0300    -0.0090     2.5050     0.1340
 4314.5000  -999.2500  -999.2500   -80.6900   -52.5900    47.0090     9.9080    10.7000    14.0440    13.5440   -49.0200    -0.0060     2.5170     0.1320
 4315.0000  -999.2500  -999.2500   -81.1590   -51.2820    45.8590     9.9060    10.8960    14.2790    13.9290   -45.1500     0.0090     2.5280     0.1290
 4315.5000  -999.2500  -999.2500   -81.6280   -49.9970    45.2800     9.9040    12.8170    14.5620    14.3920   -41.2800     0.0240     2.5400     0.1290
 4316.0000  -999.2500  -999.2500   -82.0920   -48.6570    45.4650     9.9030    14.5620    14.8290    14.8290   -37.4100     0.0350     2.5470     0.1380
 4316.5000  -999.2500  -999.2500   -82.5630   -48.2060    54.8710     9.9010    12.6940    13.3830    13.1100   -33.5400     0.0410     2.5520     0.1520
 4317.0000  -999.2500  -999.2500   -83.0260   -48.2420    62.6310     9.8990    10.2550    11.1890    10.5010   -29.6700     0.0460     2.5550     0.1650
 4317.5000  -999.2500  -999.2500   -83.4920   -48.1740    71.2060     9.8970     7.8160     8.9940     7.5820   -25.8000     0.0510     2.5540     0.1720
 4318.0000  -999.2500  -999.2500   -83.9860   -48.3320    74.4620     9.8960     6.2110     7.8620     7.3120   -21.9300     0.0470     2.5450     0.1660
 4318.5000  -999.2500  -999.2500   -84.2670   -48.0770    68.6190     9.8940     8.5570     8.9720     9.0460   -20.3430     0.0390     2.5360     0.1480
 4319.0000  -999.2500  -999.2500   -84.2540   -47.7360    61.5120     9.8920    11.9550    12.2610    11.1650   -22.1810     0.0310     2.5280     0.1310
 4319.5000  -999.2500  -999.2500   -84.4790   -37.3980    54.2970     9.8910    14.3010    15.5510    13.2850   -24.0200     0.0240     2.5260     0.1220
