~VERSION INFORMATION
 VERS.                2.0:   CWLS LOG ASCII STANDARD - VERSION 2.0
 WRAP.                 NO:   ONE LINE PER DEPTH STEP
~WELL INFORMATION
#MNEM.UNIT      DATA TYPE    INFORMATION
#----------   ------------   ------------------------------
 STRT.F          208.0000:   START DEPTH
 STOP.F         2950.0000:   STOP DEPTH
 STEP.F            0.5000:   STEP LENGTH
 NULL.          -999.2500:   NO VALUE
 COMP.    FENIX & SCISSON:   COMPANY
 WELL.     FENIX A #56-28:   WELL
 FLD .                NPR:   FIELD
 LOC .      S28 T39N R78W:   LOCATION
 CNTY.            NATRONA:   COUNTY
 STAT.            WYOMING:   STATE
 CTRY. UNITED STATES OF AMERICA:   COUNTRY
 SRVC.              WELEX:   SERVICE COMPANY
 DATE.        20-AUG-1977:   LOGDATE
 API .     49025104140000:   API NUMBER
~CURVE INFORMATION
#MNEM.UNIT       API CODE    CURVE DESCRIPTION
#----------   ------------   ------------------------------
 DEPT.F                  :   
 SPR .MV     07 010 01 00:   SPONTANEOUS POTENTIAL
 RILM.OHMM   07 120 44 00:   INDUCTION LOG MEDIUM RESISTIVITY
 RILD.OHMM   07 120 46 00:   INDUCTION LOG DEEP RESISTIVITY
 SGRD.OHMM   07 220 05 00:   SHALLOW GUARD LOG RESISTIVITY
 CALD.IN     45 280 60 00:   CALIPER FROM DENSITY LOG
 DCOR.G/C3   45 356 01 00:   DENSITY CORRECTION
 GRD .GAPI   45 310 01 00:   GAMMA RAY FROM DENSITY LOG
 RHOB.G/C3   45 350 01 00:   BULK DENSITY
~PARAMETER INFORMATION
#MNEM.UNIT          VALUE    DESCRIPTION
#----------   ------------   ------------------------------
 EKB .F         5088.0000:   Kelly bushing
 EGL .F         5078.0000:   Ground level
 EDF .F            0.0000:   Drilling floor
 EPD .F         5078.0000:   Permanent datum
 TD  .F         2960.0000:   Total depth
 DATE.        20-AUG-1977:   Date logged
 CLNT.            A2DTECH:   Client Code
 SL  . 1650' FSL & 2310' FEL:   Surface Location
 PD  .                 GL:   Permanent Datum
 LMF .                 KB:   Log Measured From
 DMF .                 KB:   Drilling Measured From
 DAPD.F                10:   Feet Above Permanent Datum
 DD  .F              2960:   Depth driller
 DL  .F              2952:   Depth logger
 BLI .F              2950:   Bottom log interval
 TLI .F               210:   Top log interval
 CS1 .IN            8.625:   Casing size
 CBD1.      8.625" @ 215':   Casing driller 1
 CBL1.F               218:   Casing logger 1
 BS1 .IN            7.875:   Bit size
 BSD1.F              2960:   Depth drilled with bit1
 DFT .            KCL MUD:   Type fluid in hole
 DFD .                8.9:   Density
 DFV .                 60:   Viscosity
 DFPH.                 11:   pH
 DFL .                7.2:   Fluid loss
 MSS .           FLOWLINE:   Source of sample
 RMS .OHMM            .78:   Rm
 MST .F                81:   Rm Meas. temp.
 RMF .OHMM            .46:   Rmf
 MFST.F                81:   Rmf Meas. temp.
 RMC .OHMM           1.66:   Rmc
 MCST.F                81:   Rmc Meas. temp.
 MFSS.               CALC:   Source Rmf.
 MCSS.               CALC:   Source Rmc.
 RMB .OHMM            .56:   Rm. at BHT
 BHT .F               112:   BHT.
 TCS .HRS             2.5:   Time Circ. stopped
 MRT .F               112:   Maximum recorded temp.
 LUN .               8611:   Logging unit number
 LUL .             CASPER:   Logging unit location
 ENGI.             C DOAK:   Recorded By
 WITN.       B HARRINGTON:   Witnessed by
 ORIG.           5" PRINT:   Origin of data
 UWI .     49025104140000:   Unique Well ID
 DICO. A2D TECHNOLOGIES, INC.:   Digitizing Company
~OTHER INFORMATION
~A   DEPT      SPR       RILM       RILD       SGRD         CALD     DCOR        GRD       RHOB   
# ...
 2921.5000   -69.1530     6.0070     4.1720     6.3970     8.0350     0.0150   260.0390     2.4120
 2922.0000   -69.1700     6.0870     4.1770     6.7040     8.0270     0.0080   238.7800     2.4030
 2922.5000   -69.1860     6.1680     4.1810     6.9470     8.0190     0.0120   198.8350     2.3980
 2923.0000   -69.2030     6.2240     4.1860     7.4070     8.0080     0.0170   153.4090     2.4060
 2923.5000   -69.2190     6.1710     4.1910     7.2720     7.9940     0.0210   118.5500     2.4170
 2924.0000   -69.2360     6.1300     4.1950     6.0000     7.9810     0.0260   107.4650     2.4280
 2924.5000   -69.2520     6.0890     4.1990     6.1110     7.9670     0.0300   106.1380     2.4390
 2925.0000   -69.2690     6.0480     4.1770     7.8250     7.9530     0.0350   105.7090     2.4390
 2925.5000   -69.2850     6.0070     4.1610     7.4320     7.9390     0.0340   103.5180     2.4380
 2926.0000   -69.3020     5.9460     4.1440     6.6480     7.9390     0.0340   101.3270     2.4330
 2926.5000   -69.3360     5.9680     4.1280     5.7840     7.9390     0.0340    99.0160     2.4270
 2927.0000   -69.4220     6.0140     4.1120     6.2380     7.9390     0.0330    99.4060     2.4210
 2927.5000   -69.5050     6.0550     4.0950     7.1400     7.9390     0.0330    99.6030     2.4160
 2928.0000   -69.5890     5.9960     4.0790     6.8110     7.9390     0.0330    97.9950     2.4130
 2928.5000   -69.6730     5.9410     4.0620     6.3580     7.9390     0.0340    96.3580     2.4140
 2929.0000   -69.7570     5.8870     4.0480     5.6800     7.9390     0.0340    95.1240     2.4190
 2929.5000   -69.8400     5.8380     4.0550     5.9790     7.9380     0.0350    94.3780     2.4280
 2930.0000   -69.9040     5.8800     4.0630     6.3970     7.9200     0.0350    93.8920     2.4370
 2930.5000   -69.9020     5.9190     4.0720     5.8960     7.9020     0.0360    91.3930     2.4450
 2931.0000   -69.9020     5.9580     4.0800     5.5760     7.8830     0.0360    88.1420     2.4540
 2931.5000   -69.9020     6.0000     4.0880     6.5510     7.8630     0.0360    67.2760     2.4620
 2932.0000   -69.9070     5.9690     4.0970     7.3000     7.9070     0.0370  -999.2500     2.4670
 2932.5000   -69.7470     5.9460     4.1050     7.8250     7.9680     0.0350  -999.2500     2.4620
 2933.0000   -69.5660     5.9920     4.1130     6.5070     8.0000     0.0330  -999.2500     2.4570
 2933.5000   -69.3780     6.0280     4.1220     5.8970     8.0040     0.0310  -999.2500     2.4550
 2934.0000   -69.4310     6.0640     4.0970     5.6280     8.0090     0.0290  -999.2500     2.4520
 2934.5000   -69.6120     6.1110     4.0690     6.0240     8.0130     0.0300  -999.2500     2.4500
 2935.0000   -69.7960     6.0560     4.0410     6.7590     8.0170     0.0310  -999.2500     2.4540
 2935.5000   -70.1230     5.9780     4.0110     6.2810     8.0130     0.0350  -999.2500     2.4590
 2936.0000   -70.6550     5.8910     3.9160     6.5750     8.0050     0.0380  -999.2500     2.4660
 2936.5000   -71.0700     5.9140     3.8100     5.7320     7.9980     0.0420  -999.2500     2.4820
 2937.0000   -70.9450     5.9380     3.6930     5.7580     7.9900     0.0450  -999.2500     2.4880
 2937.5000   -70.4980     6.0270     3.6560     5.7840     7.9820     0.0430  -999.2500     2.4780
 2938.0000   -69.5120     6.1430     3.6260     5.8940     7.9750     0.0420  -999.2500     2.4700
 2938.5000   -68.1780     6.2590     3.7130     6.0510     7.9670     0.0400  -999.2500     2.4610
 2939.0000   -65.3610     6.3750     3.7800     6.2240     7.9590     0.0390  -999.2500     2.4530
 2939.5000   -62.5660     6.5470     3.8460     5.9470     7.9410     0.0370  -999.2500     2.4460
 2940.0000   -59.6130     6.8260     4.0120     5.7320     7.9220     0.0360  -999.2500     2.4430
 2940.5000   -52.6200     7.0490     4.1990     6.6650     7.9030     0.0350  -999.2500     2.4400
 2941.0000   -44.2970     7.3390     4.7160     7.4640     7.8830     0.0340  -999.2500     2.4430
 2941.5000   -32.0190     7.1400     5.5410     8.3430     7.8640     0.0330  -999.2500     2.4460
 2942.0000   -19.6120     7.3770     6.7210     7.9720     7.8550     0.0330  -999.2500     2.4500
 2942.5000    -7.2050     7.7980    10.3930     7.6830     7.8490     0.0360  -999.2500     2.4530
 2943.0000    -1.8650     8.1680     7.7540     8.0130     7.8420     0.0390  -999.2500     2.4570
 2943.5000    -1.8580     8.5750     8.7480     8.3430     7.8360     0.0420  -999.2500     2.4530
 2944.0000    -1.8940     8.0430    10.1690     7.7540     7.8290     0.0450  -999.2500     2.4420
 2944.5000    -1.9080     8.1240    10.9420     7.8770     7.8230     0.0440  -999.2500     2.4300
 2945.0000    -1.9220     8.2860     7.8970     8.1250     7.8160     0.0430  -999.2500     2.4190
 2945.5000    -1.9370     8.4970     8.3810     8.4970     7.8100     0.0450  -999.2500     2.4180
 2946.0000    -1.9510     6.0550     8.6540     7.6220     7.8040     0.0490  -999.2500     2.4170
 2946.5000    -1.9660     6.2190     6.2810     6.3970     7.7390     0.0530  -999.2500     2.4170
 2947.0000    -1.9800     6.4540     6.4430     6.5740     7.6250     0.0560  -999.2500     2.4180
 2947.5000    -1.9940     6.7590     6.5750     6.7700     7.4430     0.0600  -999.2500     2.4180
 2948.0000    -2.0090     6.4030     6.6360     6.9470     7.2800     0.0630  -999.2500     2.4190
 2948.5000    -2.0230     5.9460     6.1390     6.0000     7.2420     0.0650  -999.2500     2.4200
 2949.0000    -2.0370     6.1860     6.0550     6.2510     7.2300     0.0670  -999.2500     2.4100
 2949.5000    -2.0520     6.2660     6.3390     6.4560     7.1790     0.0680  -999.2500     2.4160
 2950.0000    -2.0590     6.0000     6.1390     6.1110     7.1520     0.0690  -999.2500     2.4250
