~VERSION INFORMATION
 VERS.                2.0:   CWLS LOG ASCII STANDARD - VERSION 2.0
 WRAP.                 NO:   ONE LINE PER DEPTH STEP
~WELL INFORMATION
#MNEM.UNIT      DATA TYPE    INFORMATION
#----------   ------------   ------------------------------
 STRT.F           36.0000:   START DEPTH
 STOP.F         4960.0000:   STOP DEPTH
 STEP.F            0.5000:   STEP LENGTH
 NULL.          -999.2500:   NO VALUE
 COMP.   TESORO PETROLEUM:   COMPANY
 WELL. TESORO NPR 3 "DX" #55-23:   WELL
 FLD .        TEAPOT DOME:   FIELD
 LOC .      S23 T38N R78W:   LOCATION
 CNTY.            NATRONA:   COUNTY
 STAT.            WYOMING:   STATE
 CTRY. UNITED STATES OF AMERICA:   COUNTRY
 SRVC.           BIRDWELL:   SERVICE COMPANY
 DATE.        17-AUG-1975:   LOGDATE
 API .     49025102510000:   API NUMBER
~CURVE INFORMATION
#MNEM.UNIT       API CODE    CURVE DESCRIPTION
#----------   ------------   ------------------------------
 DEPT.F                  :   
 TEND.LBS    45 635 01 00:   TENSION FROM DENSITY LOG
 CALD.IN     45 280 60 00:   CALIPER FROM DENSITY LOG
 CORR.G/C3   45 356 01 00:   DENSITY CORRECTION
 GRD .GAPI   45 310 01 00:   GAMMA RAY FROM DENSITY LOG
 RHOB.G/C3   45 350 01 00:   BULK DENSITY
 SPR .MV     07 010 01 00:   SPONTANEOUS POTENTIAL
 ILM .OHMM   07 120 44 00:   INDUCTION LOG MEDIUM RESISTIVITY
 ILD .OHMM   07 120 46 00:   DEEP INDUCTION RESISTIVITY
 SFL .OHMM   07 220 01 00:   SHALLOW FOCUSED LOG RESISTIVITY
~PARAMETER INFORMATION
#MNEM.UNIT          VALUE    DESCRIPTION
#----------   ------------   ------------------------------
 EKB .F         5371.0000:   Kelly bushing
 EGL .F         5360.0000:   Ground level
 EDF .F            0.0000:   Drilling floor
 TD  .F         4955.0000:   Total depth
 DATE.        17-AUG-1975:   Date logged
 CLNT.            A2DTECH:   Client Code
 SL  . 1980' FSL & 2030' FEL:   Surface Location
 PD  .                 GL:   Permanent Datum
 DD  .F              4955:   Depth driller
 DL  .F              4945:   Depth logger
 BLI .F              4943:   Bottom log interval
 CS1 .IN            8.625:   Casing size
 CBD1.     8.625" @ 1450':   Casing driller 1
 CBL1.F              1457:   Casing logger 1
 BS1 .IN            7.875:   Bit size
 DFT .            KCL/GEL:   Type fluid in hole
 DFD .                9.5:   Density
 DFV .                 53:   Viscosity
 DFPH.                8.5:   pH
 DFL .                7.4:   Fluid loss
 MSS .           FLOWLINE:   Source of sample
 RMS .OHMM            1.2:   Rm
 MST .F                72:   Rm Meas. temp.
 RMF .OHMM            .94:   Rmf
 MFST.F                74:   Rmf Meas. temp.
 MFSS.               MEAS:   Source Rmf.
 RMB .OHMM            .71:   Rm. at BHT
 BHT .F               121:   BHT.
 TCS .HRS               4:   Time Circ. stopped
 MRT .F               121:   Maximum recorded temp.
 LUN .               6078:   Logging unit number
 LUL .              GLTTE:   Logging unit location
 ENGI.      NORDEN/SUTTON:   Recorded By
 WITN.          UNDERWOOD:   Witnessed by
 ORIG.           5" PRINT:   Origin of data
 UWI .     49025102510000:   Unique Well ID
 DICO. A2D TECHNOLOGIES, INC.:   Digitizing Company
 DAPD.F                11:   Feet Above Permanent Datum
 BSD1.F              5360:   Depth drilled with bit1
 EPD .F              5360:   Elevation Permanent Datum
 LMF .                 KB:   Log Measured From
 DMF .                 KB:   Drilling Measured From
 TLI .F              1457:   Top log interval
~OTHER INFORMATION
~A   DEPT     TEND       CALD       CORR        GRD       RHOB        SPR        ILM        ILD          SFL 
# ...
 4671.5000  2062.7781     9.3060     0.1190    46.9020     2.2260   -33.9500     2.6330     2.7690     3.7130
 4672.0000  2124.8030     9.4160     0.1370    47.2800     2.3330   -33.9020     2.5030     2.6650     3.5040
 4672.5000  2165.3501     9.5120     0.1550    47.6980     2.4180   -33.7320     2.3880     2.5700     3.3250
 4673.0000  2196.5791     9.4700     0.1730    48.1210     2.4540   -33.5620     2.3920     2.4980     3.3740
 4673.5000  2220.2109     9.4280     0.1740    48.5430     2.4440   -33.3930     2.3990     2.4910     3.5320
 4674.0000  2198.4619     9.3850     0.1680    48.9470     2.4330   -33.2240     2.4050     2.4850     3.6910
 4674.5000  2176.7129     9.3430     0.1700    49.0570     2.4170   -33.0550     2.4290     2.4770     3.8530
 4675.0000  2177.7520     9.3320     0.1630    47.7120     2.4010   -32.9710     2.5420     2.5230     3.8310
 4675.5000  2214.0010     9.3720     0.1590    46.3260     2.3890   -33.0240     2.6550     2.5820     3.8030
 4676.0000  2250.2490     9.4140     0.1580    45.4680     2.3710   -33.0740     2.7690     2.6420     3.7480
 4676.5000  2212.4961     9.3180     0.1500    44.6420     2.3520   -33.1260     2.8820     2.7010     4.1020
 4677.0000  2133.5549     9.2060     0.1410    43.7990     2.2970   -33.2500     2.8960     2.7600     4.4420
 4677.5000  2054.6140     9.0920     0.1060    44.2900     2.1390   -33.7250     2.7900     2.7660     4.7810
 4678.0000  1984.0480     9.1160     0.0650    46.4580     1.9940   -34.1960     2.6920     2.7220     5.0770
 4678.5000  2149.8501     9.2660     0.0410    48.5850     2.0030   -34.5740     2.5000     2.6880     4.6570
 4679.0000  2111.5850     9.2220     0.0660    50.8280     2.1470   -34.6160     2.5630     2.6540     4.0880
 4679.5000  2040.5380     9.1240     0.1430    50.7010     2.3530   -34.6670     2.6750     2.6200     3.2950
 4680.0000  2003.9880     9.4690     0.1620    50.2740     2.3500   -34.7200     2.7410     2.5850     3.5580
 4680.5000  2026.0990     9.5830     0.1690    50.7730     2.3070   -34.7720     2.5670     2.5430     4.1990
 4681.0000  2061.8149     9.5820     0.1710    51.3310     2.3180   -34.8240     2.3980     2.5020     4.6740
 4681.5000  2146.3940     9.6450     0.1880    51.8910     2.3360   -34.8760     2.3530     2.4600     4.1360
 4682.0000  2230.9741     9.6360     0.2030    52.3850     2.3380   -34.9280     2.3080     2.4190     3.6300
 4682.5000  2199.8999     9.5570     0.1830    52.2000     2.1970   -34.9110     2.2590     2.3770     3.3870
 4683.0000  2149.1531     9.4790     0.1600    50.3900     2.1280   -34.7830     2.2590     2.3360     3.4780
 4683.5000  2103.6890     9.4010     0.1420    48.6270     2.1030   -34.6570     2.3070     2.3010     3.5140
 4684.0000  2135.7070     9.3250     0.1280    47.4180     2.1420   -34.5580     2.3490     2.2920     3.4190
 4684.5000  2091.7849     9.2740     0.1220    47.5180     2.2400   -34.5350     2.3900     2.2820     3.3560
 4685.0000  2020.7380     9.2200     0.1220    48.1440     2.2260   -34.5090     2.4320     2.2720     3.4110
 4685.5000  2064.9341     9.3520     0.1340    50.3300     2.2130   -34.4830     2.4540     2.2630     3.4640
 4686.0000  2144.6799     9.5060     0.1490    52.7460     2.4020   -34.4570     2.4110     2.2460     3.5140
 4686.5000  2223.3301     9.6660     0.1610    52.3880     2.3970   -34.4320     2.3460     2.2270     3.8170
 4687.0000  2223.3301     9.6490     0.1570    51.9540     2.3840   -34.4060     2.3010     2.2070     3.4860
 4687.5000  2201.5200     9.5760     0.1630    52.0610     2.3730   -34.3800     2.2680     2.1880     3.1760
 4688.0000  2112.7119     9.4660     0.1690    51.2420     2.2960   -34.3540     2.2450     2.1680     3.1120
 4688.5000  2023.9030     9.3590     0.1500    50.4550     2.1830   -34.3290     2.2230     2.1490     3.0670
 4689.0000  1944.1670     9.3150     0.1190    50.1880     2.1080   -34.3030     2.2000     2.1290     3.0210
 4689.5000  2016.1520     9.3940     0.1000    50.6100     2.0430   -34.2770     2.1780     2.1100     2.9780
 4690.0000  2117.6470     9.7170     0.0940    51.8450     2.0280   -34.2520     2.1550     2.0900     3.0610
 4690.5000  2160.3589     9.7010     0.1050    52.2110     2.1670   -34.2260     2.1330     2.0610     3.0170
 4691.0000  2132.4031     9.5650     0.1170    51.5870     2.1800   -34.1980     2.0990     2.0680     2.9250
 4691.5000  2067.8149     9.4280     0.1130    51.9050     2.1830   -34.1720     2.1360     2.0820     2.8440
 4692.0000  2003.9880     9.4250     0.1020    53.0900     2.1670   -33.8660     2.2070     2.0960     2.9390
 4692.5000  2098.1221     9.4750     0.1240    54.1520     2.3320   -33.3780     2.2790     2.1980     3.0410
 4693.0000  2191.1599     9.5250     0.1010    51.3240     2.3810   -33.3110     2.4010     2.3290     3.1430
 4693.5000  2195.6631     9.5010     0.0850    48.2580     2.4790   -33.1850     2.6060     2.4610     3.2460
 4694.0000  2153.3730     9.3630     0.0780    44.0690     2.6170   -33.0640     2.8100     2.5920     3.4730
 4694.5000  2140.8350     9.2710     0.0950    45.0390     2.4990   -33.1640     2.9230     2.7230     4.3960
 4695.0000  2203.3899     9.3550     0.1330    46.9820     2.4380   -34.0210     2.9230     2.8550     5.7750
 4695.5000  2164.4231     9.3200     0.1610    49.0000     2.4190   -35.1570     3.0810     3.0440     4.8320
 4696.0000  2122.1340     9.1620     0.1510    49.4520     2.4310   -37.7320     3.3120     3.2420     3.3560
 4696.5000  2115.1350     9.0540     0.1380    49.0630     2.5550   -40.6700     3.5420     3.4500     3.6210
 4697.0000  2135.4341     9.0530     0.1170    48.8600     2.5680   -42.0810     3.7720     3.6260     4.2260
 4697.5000  2155.7329     9.0500     0.1130    49.8830     2.5620   -43.4490     4.0030     3.9240     5.0860
 4698.0000  2137.4209     9.0460     0.1290    50.9050     2.5350   -43.9500     4.1850     3.9200     5.9370
 4698.5000  2095.1311     9.0430     0.1480    51.9270     2.5230   -44.0010     4.0900     3.9100     5.5250
 4699.0000  2057.9590     9.0390     0.1670    52.8550     2.5010   -44.0500     3.9380     3.9000     5.1180
 4699.5000  2035.4050     9.0360     0.1660    53.3930     2.4510   -44.0980     3.7850     3.8890     4.7100
 4700.0000  2023.9280     9.0320     0.1580    53.8760     2.3790   -44.0130     3.6320     3.7480     4.3420
 4700.5000  2052.8311     9.0290     0.1720    54.3610     2.3250   -43.7780     3.4790     3.5880     4.1970
 4701.0000  2084.8821     9.0250     0.1730    54.3680     2.3230   -43.8950     3.3260     3.4290     4.0810
 4701.5000  2116.9331     9.0210     0.1650    53.5820     2.3050   -44.1230     3.1730     3.2690     3.9650
 4702.0000  2130.7080     9.0150     0.1470    53.0940     2.2650   -44.3240     3.0210     3.1100     3.8880
 4702.5000  2054.5859     9.1210     0.1280    54.4960     2.2240   -44.2550     2.8680     2.9500     3.9300
 4703.0000  2008.7740     9.2500     0.1170    54.8610     2.1930   -44.1650     2.7160     2.8180     3.9600
 4703.5000  2078.8540     9.3810     0.1100    52.6140     2.2000   -44.0750     2.9900     2.9040     3.6600
 4704.0000  2171.1230     9.3980     0.0960    50.3820     2.2200   -43.9850     3.3450     2.9780     3.3560
 4704.5000  2176.9890     9.2590     0.0620    48.1570     2.3250   -43.8950     3.6990     3.3800     3.4520
 4705.0000  2136.3911     9.1230     0.0720    45.9410     2.5350   -43.8050     4.0530     3.7840     3.8840
 4705.5000  2095.7930     8.9860     0.0670    43.9290     2.6150   -43.7150     4.4080     4.1880     4.4880
 4706.0000  2055.1941     8.9180     0.0440    44.2210     2.5950   -43.6250     4.7620     4.5920     8.1930
 4706.5000  2043.8680     8.9200     0.0510    46.0790     2.5650   -43.5350     5.1160     5.0210     7.8780
 4707.0000  2035.5380     8.9260     0.0520    47.1760     2.5610   -43.4450     5.4710     5.5260     7.3920
 4707.5000  2023.9280     8.9310     0.0480    47.4960     2.5570   -43.3530     5.8250     6.0310     6.9070
