~VERSION INFORMATION
 VERS.                2.0:   CWLS LOG ASCII STANDARD - VERSION 2.0
 WRAP.                 NO:   ONE LINE PER DEPTH STEP
~WELL INFORMATION
#MNEM.UNIT      DATA TYPE    INFORMATION
#----------   ------------   ------------------------------
 STRT.F          705.5000:   START DEPTH
 STOP.F         3212.0000:   STOP DEPTH
 STEP.F            0.5000:   STEP LENGTH
 NULL.          -999.2500:   NO VALUE
 COMP.    FENIX & SCISSON:   COMPANY
 WELL. FENIX 41 "AX" #1-15:   WELL
 FLD .             NPR #3:   FIELD
 LOC .      S15 T38N R78W:   LOCATION
 CNTY.            NATRONA:   COUNTY
 STAT.            WYOMING:   STATE
 CTRY. UNITED STATES OF AMERICA:   COUNTRY
 SRVC.              WELEX:   SERVICE COMPANY
 DATE.        18-NOV-1980:   LOGDATE
 API .     49025108530000:   API NUMBER
~CURVE INFORMATION
#MNEM.UNIT       API CODE    CURVE DESCRIPTION
#----------   ------------   ------------------------------
 DEPT.F                  :   
 SPR .MV     07 010 01 00:   SPONTANEOUS POTENTIAL
 ILD .OHMM   07 120 46 00:   INDUCTION LOG DEEP RESISTIVITY
 ILM .OHMM   07 120 44 00:   INDUCTION LOG MEDIUM RESISTIVITY
 SGRD.OHMM   07 220 05 00:   SHORT GUARD RESISTIVITY
 GRD .GAPI   45 310 01 00:   GAMMA RAY FROM DENSITY LOG
 CALD.IN     45 280 60 00:   CALIPER FROM DENSITY LOG
 RHOB.G/C3   45 350 01 00:   BULK DENSITY
 NPHI.DEC    42 890 03 00:   NEUTRON POROSITY SANDSTONE
~PARAMETER INFORMATION
#MNEM.UNIT          VALUE    DESCRIPTION
#----------   ------------   ------------------------------
 EKB .F         5252.0000:   Kelly bushing
 EGL .F         5242.0000:   Ground level
 EDF .F            0.0000:   Drilling floor
 TD  .F         3214.0000:   Total depth
 CLNT.            A2DTECH:   Client Code
 SL  . 2150' FWL & 550' FNL:   Surface Location
 PD  .                 GL:   Permanent Datum
 EPD .F              5242:   Elevation Permanent Datum
 LMF .                 KB:   Log Measured From
 DMF .                 KB:   Drilling Measured From
 DATE.        18-NOV-1980:   Date Logged [DD-MMM-YYYY]
 DD  .F              3210:   Depth driller
 DL  .F              3214:   Depth logger
 BLI .F              3212:   Bottom log interval
 TLI .F               734:   Top log interval
 CS1 .IN            8.625:   Casing size
 CBD1.      8.625" @ 709':   Casing driller 1
 CBL1.F               734:   Casing logger 1
 BS1 .IN            7.875:   Bit size
 BSD1.F              3210:   Depth drilled with bit1
 DFT .          FRESH MUD:   Type fluid in hole
 DFD .                8.8:   Density
 DFV .                 45:   Viscosity
 DFPH.               10.5:   pH
 DFL .                 12:   Fluid loss
 MSS .           FLOWLINE:   Source of sample
 RMS .OHMM           1.25:   Rm
 MST .F                70:   Rm Meas. temp.
 RMF .OHMM           1.25:   Rmf
 MFST.F                70:   Rmf Meas. temp.
 MFSS.               MEAS:   Source Rmf.
 RMB .OHMM           0.78:   Rm. at BHT
 BHT .F               112:   BHT.
 TCS .HRS               7:   Time Circ. stopped
 MRT .F               112:   Maximum recorded temp.
 LUN .               1892:   Logging unit number
 LUL .             CASPER:   Logging unit location
 ENGI.               REIN:   Recorded By
 WITN.              SCOTT:   Witnessed by
 ORIG.      2.5" 5" PRINT:   Origin of data
 UWI .     49025108530000:   Unique Well ID
 DICO. A2D TECHNOLOGIES, INC.:   Digitizing Company
 DAPD.                 10:   Feet Above Permanent Datum
~OTHER INFORMATION
~A   DEPT      SPR        ILD        ILM       SGRD         GRD      CALD       RHOB       NPHI   
# ...
 1191.5000   -39.1427     7.3488     7.2436     6.9360    74.5151     9.6935     2.6043     0.2607
 1192.0000   -39.4353     7.3479     7.2416     6.9383    74.7083     9.6922     2.5944     0.2589
 1192.5000   -39.4335     7.2466     7.2396     6.9406    74.4658     9.6907     2.5935     0.2614
 1193.0000   -39.4321     7.1467     7.1381     6.8480    74.2093     9.6895     2.6033     0.2649
 1193.5000   -39.4307     7.0395     7.0385     6.8502    73.5343     9.6882     2.5971     0.2678
 1194.0000   -39.4293     6.9510     6.9403     6.7588    73.0712     9.7017     2.5857     0.2703
 1194.5000   -39.4279     6.8336     6.8434     6.7613    73.0493     9.7151     2.6061     0.2722
 1195.0000   -39.4264     6.7606     6.8416     6.6708    73.4686     9.7136     2.5961     0.2670
 1195.5000   -39.4250     6.6674     6.7455     6.6734    74.5442     9.7271     2.5831     0.2682
 1196.0000   -39.4509     6.5755     6.6446     6.6380    75.4047     9.7255     2.5655     0.2645
 1196.5000   -39.7163     6.5745     6.5590     6.5867    76.7064     9.7243     2.5541     0.2611
 1197.0000   -39.7147     6.5736     6.5572     6.5890    78.6959     9.7230     2.5547     0.2590
 1197.5000   -40.0076     6.5726     6.5554     6.6830    79.9660     9.7068     2.5569     0.2640
 1198.0000   -40.0059     6.5717     6.5536     6.6852    79.9441     9.7056     2.5173     0.2714
 1198.5000   -40.0044     6.5708     6.5518     6.7802    79.7016     9.7043     2.5294     0.2795
 1199.0000   -40.0029     6.5700     6.5973     6.7824    78.7919     9.7031     2.5567     0.2823
 1199.5000   -40.0012     6.5691     6.6391     6.7847    78.1083     9.7016     2.5733     0.2777
 1200.0000   -39.9998     6.5682     6.6370     6.7869    78.5314     9.7299     2.5686     0.2793
 1200.5000   -39.9983     6.5673     6.6352     6.7893    79.3840     9.7282     2.5518     0.2825
 1201.0000   -39.9969     6.5664     6.6334     6.7916    79.8014     9.7268     2.5487     0.2772
 1201.5000   -39.9955     6.5655     6.6317     6.7939    80.6718     9.7254     2.5623     0.2728
 1202.0000   -39.9941     6.5646     6.7220     6.7963    81.0774     9.7237     2.5776     0.2801
 1202.5000   -39.9926     6.5637     6.8135     6.7986    78.4006     9.7223     2.5925     0.2758
 1203.0000   -39.9912     6.6536     6.8115     6.8009    77.0533     9.7209     2.6015     0.2827
 1203.5000   -39.9897     6.6527     6.8267     6.8033    77.4889     9.7195     2.5893     0.2881
 1204.0000   -39.9882     6.6518     6.9025     6.8061    80.3146     9.7325     2.5736     0.2894
 1204.5000   -39.9868     6.6507     6.9004     6.7149    78.2995     9.7313     2.5625     0.2876
 1205.0000   -39.8725     6.7419     6.8985     6.8106    76.7316     9.7448     2.5564     0.2842
 1205.5000   -39.6897     6.7410     6.8966     6.7197    76.2667     9.7724     2.5554     0.2786
 1206.0000   -39.5334     6.7401     6.8003     6.8151    77.3399     9.7857     2.5873     0.2748
 1206.5000   -39.3924     6.7392     6.7981     6.8174    78.4191     9.8284     2.6047     0.2733
 1207.0000   -39.3909     6.7383     6.7963     6.8197    79.0630     9.8707     2.6160     0.2756
 1207.5000   -39.3895     6.7374     6.7944     6.8456    78.1509     9.9063     2.6038     0.2779
 1208.0000   -39.3881     6.7365     6.7926     6.8431    74.8124     9.9557     2.5885     0.2735
 1208.5000   -39.3867     6.7356     6.9012     6.7473    77.2150     9.9837     2.5861     0.2685
 1209.0000   -39.3853     6.7346     6.9961     6.7450    78.9560     9.9973     2.5982     0.2679
 1209.5000   -39.3755     6.7337     6.9951     6.7427    80.2557    10.0103     2.5726     0.2698
 1210.0000   -40.0000     6.7514     6.9942     6.7404    77.0168    10.0236     2.5881     0.2730
 1210.5000   -40.0000     6.8252     6.9933     6.7558    74.4669    10.0219     2.6032     0.2743
 1211.0000   -40.0000     6.9187     6.9923     6.8294    74.0020    10.0355     2.6138     0.2750
 1211.5000   -40.0000     6.9176     6.9914     6.9217    75.3017    10.0338     2.6190     0.2785
 1212.0000   -40.0000     6.9166     7.0875     6.9190    77.0426    10.0320     2.6121     0.2707
 1212.5000   -40.0000     7.0114     7.1029     6.9166    75.2482    10.0307     2.5930     0.2676
 1213.0000   -40.0000     7.0105     7.1840     7.0561    74.5627    10.0293     2.5731     0.2645
 1213.5000   -40.0000     7.0093     7.1829     7.1048    75.4212    10.0132     2.5776     0.2665
 1214.0000   -40.0000     7.0084     7.1819     7.1024    77.2062     9.9968     2.5851     0.2709
 1214.5000   -40.0000     7.0074     7.1809     7.0995    78.8971     9.9807     2.5874     0.2734
 1215.0000   -40.0000     7.1035     7.1799     7.0971    79.7617     9.9500     2.5477     0.2741
 1215.5000   -40.0000     7.1025     7.1789     7.0948    79.2908     9.9339     2.5354     0.2692
 1216.0000   -40.0000     7.1016     7.1779     7.1907    78.6050     9.9322     2.5505     0.2698
 1216.5000   -40.0000     7.1006     7.1768     7.1883    77.9137     9.9458     2.5580     0.2724
 1217.0000   -40.0000     7.0997     7.2756     7.1859    77.6693     9.9588     2.5686     0.2712
 1217.5000   -40.0000     7.1970     7.2745     7.0853    77.6456     9.9574     2.5776     0.2700
 1218.0000   -40.0000     7.2957     7.2735     7.0828    77.6218     9.9707     2.5912     0.2700
 1218.5000   -40.0000     7.2946     7.2725     7.0804    77.5921     9.9690     2.6048     0.2781
 1219.0000   -40.0000     7.2936     7.2716     7.0780    77.5683     9.9676     2.6290     0.2823
 1219.5000   -40.0000     7.2926     7.2706     7.0755    77.5445     9.9515     2.6448     0.2843
 1220.0000   -40.0000     7.2916     7.2696     7.0731    77.0796     9.9498     2.6326     0.2859
 1220.5000   -40.0000     7.2906     7.2686     7.0707    76.6086     9.9337     2.6181     0.2878
 1221.0000   -40.0000     7.2896     7.2676     7.0682    76.1437     9.9323     2.6073     0.2888
 1221.5000   -40.0000     7.2886     7.2666     7.0658    75.6787     9.9310     2.5996     0.2873
 1222.0000   -40.0000     7.1879     7.2656     7.0634    76.0961     9.9145     2.5980     0.2845
 1222.5000   -40.0000     7.0888     7.2646     7.1148    77.3899     9.9132     2.6155     0.2814
 1223.0000   -40.0000     7.0879     7.2636     7.1564    78.9103     9.9118     2.6328     0.2780
 1223.5000   -40.0000     7.0869     7.2626     7.1535    79.9954     9.9104     2.6129     0.2771
 1224.0000   -40.0000     7.0860     7.2616     7.1511    81.2892     9.9087     2.6015     0.2790
 1224.5000   -40.0000     7.0850     7.2604     7.1487    81.9272     9.9073     2.6175     0.2766
 1225.0000   -40.0000     7.0841     7.2594     7.1463    82.1240     9.9059     2.6286     0.2763
 1225.5000   -40.0000     7.0831     7.2584     7.1439    82.3208     9.8898     2.6148     0.2745
 1226.0000   -40.0000     7.0821     7.2575     7.2405    82.5176     9.8881     2.5729     0.2651
 1226.5000   -40.0000     7.0812     7.2565     7.2381    83.3871     9.8574     2.5614     0.2630
 1227.0000   -40.0000     7.0802     7.3563     7.2356    84.4434     9.8266     2.5522     0.2690
 1227.5000   -40.0000     7.0792     7.3553     7.2331    85.0874     9.8252     2.5392     0.2655
 1228.0000   -40.0000     7.0782     7.3543     7.2306    82.1900     9.8238     2.5209     0.2637
 1228.5000   -40.0000     7.0773     7.3532     7.2281    82.6161     9.8518     2.5147     0.2773
 1229.0000   -40.0844     7.0763     7.3375     7.1269    84.1218     9.8798     2.5496     0.2817
 1229.5000   -40.2941     7.0753     7.2506     7.0270    85.4215     9.8487     2.5252     0.2843
 1230.0000   -40.2941     6.9776     7.1503     7.0246    86.7213     9.7846     2.5099     0.2849
 1230.5000   -40.2941     6.8814     7.1493     6.8829    88.0215     9.7281     2.5052     0.2872
 1231.0000   -40.2941     6.7865     7.0131     6.8291    89.3148     9.7121     2.5082     0.2869
 1231.5000   -40.2941     6.6930     6.9104     6.6810    89.0705     9.7107     2.5172     0.2873
