~VERSION INFORMATION
 VERS.                2.0:   CWLS LOG ASCII STANDARD - VERSION 2.0
 WRAP.                 NO:   ONE LINE PER DEPTH STEP
~WELL INFORMATION
#MNEM.UNIT      DATA TYPE    INFORMATION
#----------   ------------   ------------------------------
 STRT.F          200.0000:   START DEPTH
 STOP.F         3135.5000:   STOP DEPTH
 STEP.F            0.5000:   STEP LENGTH
 NULL.          -999.2500:   NO VALUE
 COMP.    FENOX & SCISSON:   COMPANY
 WELL. FENIX NPR 23 "AX" #3-11:   WELL
 FLD .                NPR:   FIELD
 LOC .      S11 T38N R78W:   LOCATION
 CNTY.            NATRONA:   COUNTY
 STAT.            WYOMING:   STATE
 CTRY. UNITED STATES OF AMERICA:   COUNTRY
 SRVC.       SCHLUMBERGER:   SERVICE COMPANY
 DATE.        06-NOV-1977:   LOGDATE
 API .     49025104320000:   API NUMBER
~CURVE INFORMATION
#MNEM.UNIT       API CODE    CURVE DESCRIPTION
#----------   ------------   ------------------------------
 DEPT.F                  :   
 CALD.IN     45 280 60 00:   CALIPER FROM DENSITY LOG
 GRD .GAPI   45 310 01 00:   GAMMA RAY FROM DENSITY LOG
 RHOB.G/C3   45 350 01 00:   BULK DENSITY
 CORR.G/C3   45 356 01 00:   DENSITY CORRECTION
 SPR .MV     07 010 01 00:   SPONTANEOUS POTENTIAL
 LL8 .OHMM   07 220 08 00:   LATEROLOG-8 RES.
 ILD .OHMM   07 120 46 00:   DEEP INDUCTION RESISTIVITY
 ILM .OHMM   07 120 44 00:   INDUCTION LOG MEDIUM RESISTIVITY
~PARAMETER INFORMATION
#MNEM.UNIT          VALUE    DESCRIPTION
#----------   ------------   ------------------------------
 EKB .F         5176.0000:   Kelly bushing
 EGL .F         5171.0000:   Ground level
 TD  .F         3138.0000:   Total depth
 DATE.        06-NOV-1977:   Date logged
 CLNT.            A2DTECH:   Client Code
 SL  . 1650' FNL & 750' FWL:   Surface Location
 PD  .                 GL:   Permanent Datum
 EPD .F              5171:   Elevation Permanent Datum
 LMF .                 KB:   Log Measured From
 DMF .                 KB:   Drilling Measured From
 DAPD.F                 5:   Feet Above Permanent Datum
 DD  .F              3138:   Depth driller
 DL  .F              3135:   Depth logger
 BLI .F              3134:   Bottom log interval
 TLI .F               196:   Top log interval
 CS1 .IN            8.625:   Casing size
 CBD1.      8.625" @ 205':   Casing driller 1
 CBL1.F               205:   Casing logger 1
 BS1 .IN            7.875:   Bit size
 BSD1.F              3138:   Depth drilled with bit1
 DFT .            KCL/MUD:   Type fluid in hole
 DFD .                8.8:   Density
 DFV .                 34:   Viscosity
 DFPH.                 11:   pH
 DFL .                  6:   Fluid loss
 MSS .            MUD/PIT:   Source of sample
 RMS .OHMM           0.27:   Rm
 MST .F                48:   Rm Meas. temp.
 RMF .OHMM           0.29:   Rmf
 MFST.F                48:   Rmf Meas. temp.
 RMC .OHMM           0.39:   Rmc
 MCST.F                48:   Rmc Meas. temp.
 MFSS.               MEAS:   Source Rmf.
 MCSS.               CALC:   Source Rmc.
 RMB .OHMM           0.12:   Rm. at BHT
 BHT .F               104:   BHT.
 TCS .HRS            1500:   Time Circ. stopped
 TLAB.HRS            1930:   Time logger at bottom
 MRT .F               104:   Maximum recorded temp.
 LUN .               7711:   Logging unit number
 LUL .               CSPR:   Logging unit location
 ENGI.       CRAIG/SAYLER:   Recorded By
 WITN.         PETTINGILL:   Witnessed by
 ORIG.           5" PRINT:   Origin of data
 UWI .     49025104320000:   Unique Well ID
 DICO. A2D TECHNOLOGIES, INC.:   Digitizing Company
~OTHER INFORMATION
~A   DEPT     CALD        GRD       RHOB       CORR        SPR        LL8        ILD        ILM   
# ...
  564.5000     8.2148    78.0588     2.4311     0.0083   -69.6932    10.1865    12.6988    13.8769
  565.0000     8.2152    77.7479     2.4400     0.0132   -69.4888    10.1887    12.6992    13.8784
  565.5000     8.2155    77.7372     2.4440     0.0162   -70.0882    10.1906    12.7034    13.8819
  566.0000     8.2159    80.4464     2.4440     0.0182   -70.0853    10.1917    12.7052    13.7583
  566.5000     8.2162    81.9476     2.4400     0.0142   -70.0823    10.2883    12.5909    13.7608
  567.0000     8.2166    83.4489     2.4299     0.0082   -70.2801    10.2902    12.7103    13.7633
  567.5000     8.2169    83.7421     2.4389     0.0141   -70.2772    10.2913    12.7130    13.7658
  568.0000     8.2173    84.0353     2.4429     0.0131   -70.4750    10.2785    12.5987    13.7684
  568.5000     8.2177    84.0266     2.4399     0.0111   -70.4720    10.2657    12.6014    13.7709
  569.0000     8.2180    83.1116     2.4319     0.0071   -70.6699    10.2529    12.4885    13.7734
  569.5000     8.2184    82.1967     2.4278     0.0051   -70.6669    10.2401    12.4907    13.7759
  570.0000     8.2187    81.5838     2.4258     0.0050   -70.8647    10.2274    12.6069    13.7785
  570.5000     8.2191    81.2729     2.4258     0.0050   -70.8618    10.2102    12.4952    13.7810
  571.0000     8.2194    81.5661     2.4268     0.0040   -70.6580    10.1179    12.4975    13.7835
  571.5000     8.2198    81.8593     2.4297     0.0040   -71.0560     9.9356    12.3855    13.5356
  572.0000     8.2201    82.1526     2.4347     0.0059   -71.4547     9.8465    12.3869    13.6618
  572.5000     8.2205    82.4459     2.4427     0.0099   -71.6525     9.8483    12.2767    13.6638
  573.0000     8.2208    83.0412     2.4447     0.0109   -71.6495     9.8501    12.2790    13.6668
  573.5000     8.2212    83.3345     2.4437     0.0099   -71.8474     9.7618    12.1902    13.6692
  574.0000     8.2215    83.6261     2.4456     0.0129   -71.8444     9.9446    12.2834    13.6712
  574.5000     8.2219    83.9194     2.4606     0.0138   -71.8415     9.9464    12.1733    13.6742
  575.0000     8.2222    83.9106     2.4666     0.0148   -71.8385     9.9467    12.0629    13.6757
  575.5000     8.2226    84.5060     2.4696     0.0138   -72.0363     9.7689    12.2905    13.1849
  576.0000     8.2230    85.7057     2.4706     0.0088   -71.8326     9.7707    12.2510    13.1873
  576.5000     8.2233    86.3013     2.4625     0.0078   -72.2312     9.6831    12.2533    12.9485
  577.0000     8.2237    86.8968     2.4505     0.0037   -72.2282     9.5967    12.2555    12.9504
  577.5000     8.2240    86.8881     2.4415     0.0047   -72.4261     9.5984    12.2577    12.7172
  578.0000     8.2244    86.8793     2.4475     0.0097   -72.4225     9.4254    12.2600    12.7196
  578.5000     8.2247    86.2663     2.4574     0.0137   -72.6203     9.5141    12.2622    12.9584
  579.0000     8.2251    85.3511     2.4694     0.0197   -72.6174     9.5158    12.2644    12.9607
  579.5000     8.2246    85.3423     2.4814     0.0236   -72.8152     9.6940    12.2667    13.0821
  580.0000     8.2239    85.6357     2.4574     0.0176   -72.8122     9.8755    12.2689    13.2074
  580.5000     8.2233    85.3248     2.4613     0.0136   -72.8093     9.6975    12.2711    13.2089
  581.0000     8.2428    85.3160     2.4643     0.0126   -72.4047     9.7887    12.2734    13.2103
  581.5000     8.2221    85.3072     2.4633     0.0125   -72.8034     9.7907    12.2756    13.2132
  582.0000     8.2213    86.8095     2.4633     0.0125   -72.5984     9.7923    12.2779    13.0963
  582.5000     8.2207    88.3100     2.4633     0.0135   -72.7956     9.7941    12.0554    13.0046
  583.0000     8.2200    88.6036     2.4632     0.0145   -72.7945     9.6176    12.0572    12.9135
  583.5000     8.2194    87.3860     2.4692     0.0145   -72.9923     9.6193    12.0273    12.8230
  584.0000     8.2186    87.3772     2.4702     0.0154   -73.3909     9.4463    11.9975    12.7331
  584.5000     8.2179    88.8797     2.4632     0.0174   -73.3874     9.3616    11.9677    12.6337
  585.0000     8.2173    89.4759     2.4611     0.0174   -73.3844     9.2777    11.9380    12.6355
  585.5000     8.2368    87.0488     2.4591     0.0134   -73.3814     9.2794    11.9084    12.5219
  586.0000     8.2563    84.3198     2.4491     0.0033   -73.5793     9.1122    11.8789    12.5233
  586.5000     8.2559    84.0088     2.4491     0.0003   -73.5763     9.1979    11.8531    12.5265
  587.0000     8.2348    85.5113     2.4490     0.0003   -73.7741     9.0321    11.8552    12.5278
  587.5000     8.2543    87.9207     2.4570     0.0053   -73.7712     9.0331    11.8574    12.5306
  588.0000     8.2537    90.6324     2.4780     0.0153   -73.9690     8.9528    11.7504    12.5333
  588.5000     8.2737    91.2283     2.4860     0.0203   -73.9661     8.7915    11.4326    12.3140
  589.0000     8.2524    90.6151     2.4990     0.0312   -74.1639     8.7931    11.3299    12.0985
  589.5000     8.2517    89.3973     2.5100     0.0352   -74.3617     8.7143    11.2276    11.8867
  590.0000     8.2511    89.0863     2.5110     0.0322   -74.3588     8.4790    11.1275    11.6787
  590.5000     8.2504    89.3799     2.5119     0.0312   -74.7574     8.4030    11.2740    11.4743
  591.0000     8.2699    90.5805     2.5109     0.0242   -74.9546     8.1761    10.9696    11.2735
  591.5000     8.2693    91.4770     2.5069     0.0141   -75.1525     7.9563    10.9716    11.0762
  592.0000     8.2483    92.9800     2.4859     0.0121   -75.3503     7.8120    10.3853    10.9320
  592.5000     8.2477    93.8783     2.4788     0.0161   -75.5481     7.6721     9.3033    10.8341
  593.0000     8.2672    95.0791     2.4708     0.0161   -75.7460     7.4644     8.7256    10.6376
  593.5000     8.2670    96.2799     2.4648     0.0060   -75.9438     7.3299     8.8479    10.4461
  594.0000     8.2659    97.7831     2.4577    -0.0020   -76.1416     7.0668     9.3939    10.1629
  594.5000     8.2652    98.0769     2.4457     0.0000   -76.5402     6.9394     8.8922     9.6817
  595.0000     8.2648    98.3707     2.4427     0.0020   -76.5373     6.7523     8.6515     9.2724
  595.5000     8.2639    98.3622     2.4306    -0.0041   -76.7351     6.2749     8.0401     8.6150
  596.0000     8.3237    98.3537     2.3996    -0.0061   -77.3345     4.8978     7.9687     6.2427
  596.5000     8.2626    97.1357     2.4196     0.0069   -77.5324     4.2291     7.9701     5.6942
  597.0000     8.2619    95.9176     2.4596     0.0149   -77.3286     4.0881     7.9715     6.1310
  597.5000     8.2815    94.3971     2.4796     0.0109   -77.1249     5.6246     8.0465     6.9118
  598.0000     8.2606    92.8766     2.5096     0.0189   -76.5189     7.3418     8.1969     7.6498
  598.5000     8.2605    92.5655     2.5066     0.0188   -76.5160     7.8307     8.3503     8.5456
  599.0000     8.2795    93.4641     2.5045     0.0148   -76.3122     7.8330     8.8256     9.1164
  599.5000     8.2788    93.4579     2.4985     0.0148   -76.1084     7.7619     9.6763     9.2879
  600.0000     8.2781    94.0525     2.4945     0.0138   -76.1055     7.7636    10.2801     9.7454
  600.5000     8.2774    94.5534     2.4972     0.0129   -75.7347     7.8263    10.6665    10.2255
  601.0000     8.2771    94.6397     2.4964     0.0167   -75.6998     7.9815    11.0675    10.6669
  601.5000     8.2969    93.4184     2.4924     0.0167   -75.4970     8.0557    11.0682    10.9573
  602.0000     8.2963    92.1992     2.4934     0.0196   -75.4951     8.2055    11.1711    11.2555
  602.5000     8.2756    91.8848     2.5083     0.0256   -75.2923     8.3582    11.2752    11.6988
  603.0000     8.2751    93.0846     2.5103     0.0226   -75.0895     8.5136    11.2759    11.6989
  603.5000     8.2746    95.1912     2.5083     0.0155   -75.0875     8.5142    11.4862    11.8757
  604.0000     8.2943    95.7861     2.5062     0.0185   -74.8843     8.6725    11.3189    12.0551
  604.5000     8.2737    94.2647     2.5082     0.0205   -74.6816     8.8338    11.7431    12.2372
