~VERSION INFORMATION
 VERS.                2.0:   CWLS LOG ASCII STANDARD - VERSION 2.0
 WRAP.                 NO:   ONE LINE PER DEPTH STEP
~WELL INFORMATION
#MNEM.UNIT      DATA TYPE    INFORMATION
#----------   ------------   ------------------------------
 STRT.F          200.5000:   START DEPTH
 STOP.F         3118.5000:   STOP DEPTH
 STEP.F            0.5000:   STEP LENGTH
 NULL.          -999.2500:   NO VALUE
 COMP.    FENIX & SCISSON:   COMPANY
 WELL. FENIX SCISSON "A" #16-27:   WELL
 FLD .                NPR:   FIELD
 LOC .      S27 T39N R78W:   LOCATION
 CNTY.            NATRONA:   COUNTY
 STAT.            WYOMING:   STATE
 CTRY. UNITED STATES OF AMERICA:   COUNTRY
 SRVC.       SCHLUMBERGER:   SERVICE COMPANY
 DATE.        31-AUG-1977:   LOGDATE
 API .     49025104180000:   API NUMBER
~CURVE INFORMATION
#MNEM.UNIT       API CODE    CURVE DESCRIPTION
#----------   ------------   ------------------------------
 DEPT.F                  :   
 CALD.IN     45 280 60 00:   CALIPER FROM DENSITY LOG
 GRD .GAPI   45 310 01 00:   GAMMA RAY FROM DENSITY LOG
 DPHI.DEC    42 890 03 00:   DENSITY POROSITY SANDSTONE
 RHOB.G/C3   45 350 01 00:   BULK DENSITY
 CORR.G/C3   45 356 01 00:   DENSITY CORRECTION
 SPR .MV     07 010 01 00:   SPONTANEOUS POTENTIAL
 GURD.OHMM   07 220 05 00:   GUARD LOG RESISTIVITY
 ILD .OHMM   07 120 46 00:   DEEP INDUCTION RESISTIVITY
 ILM .OHMM   07 120 44 00:   INDUCTION LOG MEDIUM RESISTIVITY
~PARAMETER INFORMATION
#MNEM.UNIT          VALUE    DESCRIPTION
#----------   ------------   ------------------------------
 EKB .F         5095.0000:   Kelly bushing
 EGL .F         5085.0000:   Ground level
 EDF .F            0.0000:   Drilling floor
 TD  .F         3121.0000:   Total depth
 DATE.        31-AUG-1977:   Date logged
 CLNT.            A2DTECH:   Client Code
 SL  . 1430' FSL & 330' FNL:   Surface Location
 PD  .                 GL:   Permanent Datum
 EPD .F              5085:   Elevation Permanent Datum
 LMF .                 KB:   Log Measured From
 DMF .                 KB:   Drilling Measured From
 DAPD.F                10:   Feet Above Permanent Datum
 DD  .F              3120:   Depth driller
 DL  .F              3121:   Depth logger
 BLI .F              3119:   Bottom log interval
 TLI .F               200:   Top log interval
 CS1 .IN            8.625:   Casing size
 CBD1.      8.625" @ 206':   Casing driller 1
 CBL1.F               215:   Casing logger 1
 BS1 .IN            7.875:   Bit size
 BSD1.F              3120:   Depth drilled with bit1
 DFT .            KCL/MUD:   Type fluid in hole
 DFD .                  9:   Density
 DFV .                 36:   Viscosity
 DFPH.                 11:   pH
 DFL .                8.4:   Fluid loss
 MSS .           FLOWLINE:   Source of sample
 RMS .OHMM            2.5:   Rm
 MST .F                89:   Rm Meas. temp.
 RMF .OHMM           2.45:   Rmf
 MFST.F                89:   Rmf Meas. temp.
 RMC .OHMM           3.30:   Rmc
 MCST.F                89:   Rmc Meas. temp.
 MFSS.               FANN:   Source Rmf.
 MCSS.                KIT:   Source Rmc.
 RMB .OHMM           1.91:   Rm. at BHT
 BHT .F               116:   BHT.
 TCS .HRS              12:   Time Circ. stopped
 MRT .F               116:   Maximum recorded temp.
 LUN .               9585:   Logging unit number
 LUL .             CASPEN:   Logging unit location
 ENGI.         G. BENTSEN:   Recorded By
 WITN.      W. PETTINGILL:   Witnessed by
 ORIG.           5" PRINT:   Origin of data
 UWI .     49025104180000:   Unique Well ID
 DICO. A2D TECHNOLOGIES, INC.:   Digitizing Company
~OTHER INFORMATION
~A   DEPT     CALD         GRD      DPHI       RHOB        CORR       SPR       GURD        ILD        ILM   
# ...
 1149.5000     8.7270    59.6587     0.1004     2.4731     0.0339   -65.0970    11.4358     6.7254     7.1721
 1150.0000     8.7267    62.0161     0.0984     2.4851     0.0379   -65.0950    11.6491     6.7262     6.9151
 1150.5000     8.7462    59.2545     0.0964     2.4890     0.0378   -64.8952    11.6507     6.9153     7.1084
 1151.0000     8.7655    60.4284     0.0964     2.4860     0.0378   -64.8932    11.5459     6.9160     7.1092
 1151.5000     8.7652    60.4237     0.0980     2.4840     0.0378   -64.6934    11.6539     7.1101     7.3075
 1152.0000     8.7649    60.4190     0.0988     2.4820     0.0378   -64.4936    11.8713     7.1114     7.3089
 1152.5000     8.7646    60.4119     0.0988     2.4820     0.0378   -64.2938    11.9823     7.1122     7.3097
 1153.0000     8.7643    60.4060     0.1000     2.4830     0.0298   -64.2919    12.0944     7.1134     7.3109
 1153.5000     8.7837    60.0053     0.1032     2.4820     0.0278   -64.2899    12.0961     7.1140     7.3115
 1154.0000     8.7637    59.6033     0.1056     2.4760     0.0278   -64.4857    12.3217     7.1154     7.3130
 1154.5000     8.8225    60.3860     0.1076     2.4710     0.0278   -64.4837    12.2109     7.1158     7.3134
 1155.0000     8.8222    59.2014     0.1096     2.4660     0.0258   -64.6795    11.8811     7.1167     7.3144
 1155.5000     8.8219    58.8007     0.1108     2.4630     0.0218   -64.6775    11.6668     7.1175     7.3152
 1156.0000     8.8019    60.7631     0.1131     2.4610     0.0178   -64.6755    12.3285     7.1187     7.3164
 1156.5000     8.7819    61.1509     0.1148     2.4560     0.0158   -64.4757    12.5584     7.1197     7.3174
 1157.0000     8.7618    60.3589     0.1152     2.4540     0.0158   -64.4738    12.4455     7.1211     7.3188
 1157.5000     8.7616    60.7455     0.1148     2.4530     0.0158   -64.2740    12.3336     7.1223     7.3200
 1158.0000     8.7614    60.7396     0.1136     2.4560     0.0158   -64.2720    12.2227     7.1228     7.3206
 1158.5000     8.7612    60.7337     0.1116     2.4610     0.0158   -64.0722    12.1128     7.1238     7.3216
 1159.0000     8.7608    60.7290     0.1084     2.4650     0.0158   -64.0702    12.2257     7.1244     7.3222
 1159.5000     8.7605    60.7219     0.1053     2.4679     0.0178   -64.2660    12.3401     7.1262     7.3240
 1160.0000     8.7603    60.7172     0.1037     2.4709     0.0237   -64.2640    12.0068     7.1270     7.3248
 1160.5000     8.7599    60.7113     0.1025     2.4739     0.0277   -64.2620    12.2308     7.0632     7.2596
 1161.0000     8.7596    60.7042     0.1041     2.4769     0.0277   -64.2600    12.5737     7.0645     7.2610
 1161.5000     8.7593    60.6983     0.1057     2.4769     0.0277   -64.2581    12.3469     7.0649     7.2614
 1162.0000     8.7590    60.6936     0.1069     2.4759     0.0297   -64.2565    12.1241     7.0653     7.2618
 1162.5000     8.7587    60.2940     0.1081     2.4709     0.0297   -63.8589    12.4641     7.1321     7.3301
 1163.0000     8.7584    60.2881     0.1085     2.4659     0.0296   -63.6591    12.9316     7.2652     7.4660
 1163.5000     8.7581    60.2787     0.1109     2.4649     0.0296   -63.8549    12.6983     7.4692     7.6745
 1164.0000     8.7578    60.2752     0.1129     2.4649     0.0276   -63.8529    12.7001     7.5394     7.7462
 1164.5000     8.7773    60.2716     0.1137     2.4648     0.0256   -63.2575    12.9369     7.6800     7.8899
 1165.0000     8.7573    60.6582     0.1145     2.4628     0.0256   -63.2555    13.4222     7.7522     7.9637
 1165.5000     8.7570    60.6524     0.1153     2.4608     0.0256   -63.0557    13.9257     7.7528     7.9643
 1166.0000     8.7370    60.6453     0.1161     2.4588     0.0236   -63.2515    14.5811     7.8259     8.0389
 1166.5000     8.7170    60.6382     0.1173     2.4558     0.0216   -63.0517    14.8531     7.9721     8.1883
 1167.0000     8.7167    60.6323     0.1173     2.4528     0.0216   -63.0497    14.9920     8.1208     8.3402
 1167.5000     8.6968    60.6264     0.1177     2.4508     0.0236   -63.2455    15.1322     8.2725     8.4951
 1168.0000     8.6965    60.6205     0.1177     2.4528     0.0256   -63.2436    14.9962     8.4271     8.6530
 1168.5000     8.6961    60.6182     0.1173     2.4538     0.0256   -63.6372    14.8613     8.4285     8.9880
 1169.0000     8.6959    60.6087     0.1165     2.4548     0.0236   -63.6352    15.2780     8.3526     8.8259
 1169.5000     8.6955    60.2104     0.1157     2.4548     0.0215   -63.8310    15.4209     8.1262     8.7464
 1170.0000     8.6953    60.2033     0.1149     2.4557     0.0176   -64.0268    15.1427     8.0534     8.2714
 1170.5000     8.7146    60.1986     0.1145     2.4577     0.0175   -64.2227    14.8695     8.0546     8.2725
 1171.0000     8.7143    60.1939     0.1137     2.4597     0.0195   -64.2207    14.2050     7.9820     8.1984
 1171.5000     8.6550    60.5805     0.1121     2.4637     0.0215   -64.2187    13.9487     7.9831     8.1996
 1172.0000     8.6547    60.5757     0.1109     2.4657     0.0215   -64.2167    13.6971     7.9840     8.2005
 1172.5000     8.6938    60.5675     0.1101     2.4667     0.0235   -64.2147    13.4500     7.8397     8.0531
 1173.0000     8.7328    59.7742     0.1098     2.4666     0.0235   -64.2127    13.2074     7.8406     8.0540
 1173.5000     8.7325    59.7695     0.1082     2.4666     0.0235   -64.4086    13.0886     7.7704     7.9823
 1174.0000     8.7323    59.7625     0.1062     2.4696     0.0235   -64.6044    12.9709     7.6298     7.8386
 1174.5000     8.7318    60.1526     0.1042     2.4756     0.0254   -64.6024    12.9727     7.5607     7.8445
 1175.0000     8.7317    60.5392     0.1030     2.4806     0.0294   -64.6004    12.9745     7.4245     7.8452
 1175.5000     8.7313    60.9270     0.0990     2.4855     0.0394   -64.7962    12.9763     7.3576     7.8460
 1176.0000     8.7311    60.9199     0.0950     2.4885     0.0394   -64.7942    13.0976     7.3586     7.8473
 1176.5000     8.7308    60.9152     0.1014     2.4915     0.0394   -64.7922    13.0994     7.3594     7.8486
 1177.0000     8.7306    60.1208     0.1010     2.4865     0.0354   -64.5924    13.1013     7.3606     7.8495
 1177.5000     8.7302    59.7212     0.0986     2.4775     0.0334   -64.5905    13.1031     7.3612     7.7790
 1178.0000     8.7103    59.3216     0.1086     2.4745     0.0294   -64.3907    12.6328     7.3623     7.7085
 1178.5000     8.7099    59.3157     0.1098     2.4705     0.0274   -63.9930    12.2917     7.3637     7.7096
 1179.0000     8.7097    59.3098     0.1110     2.4655     0.0274   -63.9911    12.6363     7.3645     7.5013
 1179.5000     8.7094    59.6976     0.1122     2.4655     0.0273   -63.9891    12.7545     7.2984     7.7835
 1180.0000     8.7483    60.0866     0.1122     2.4655     0.0253   -64.1849    12.2968     7.2328     7.7840
 1180.5000     8.7481    60.4732     0.1118     2.4645     0.0233   -64.3807    12.2985     7.2336     7.7852
 1181.0000     8.7478    60.4673     0.1110     2.4645     0.0233   -64.3787    12.4135     7.1685     7.4362
 1181.5000     8.7475    60.4626     0.1086     2.4645     0.0233   -64.5746    11.9680     7.1037     7.4378
 1182.0000     8.7473    60.0595     0.1078     2.4685     0.0233   -64.5726    12.3036     7.1047     7.3020
 1182.5000     8.7470    60.4508     0.1066     2.4694     0.0253   -64.5706    12.5330     7.0409     7.2368
 1183.0000     8.7467    60.4449     0.1066     2.4704     0.0253   -64.5686    12.3070     7.0419     7.2378
 1183.5000     8.7463    60.4414     0.1074     2.4704     0.0273   -64.5666    12.5365     7.0425     7.2384
 1184.0000     8.7657    60.4355     0.1086     2.4694     0.0293   -64.5650    12.7703     7.0438     7.2398
 1184.5000     8.8246    60.4272     0.1106     2.4674     0.0292   -64.5630    12.4255     7.0446     7.2406
 1185.0000     8.8243    60.4202     0.1118     2.4644     0.0292   -64.5610    12.0899     7.0458     7.2418
 1185.5000     8.8436    60.8016     0.1136     2.4584     0.0292   -64.3612    12.0916     7.0463     7.2424
