~VERSION INFORMATION
 VERS.                2.0:   CWLS LOG ASCII STANDARD - VERSION 2.0
 WRAP.                 NO:   ONE LINE PER DEPTH STEP
~WELL INFORMATION
#MNEM.UNIT      DATA TYPE    INFORMATION
#----------   ------------   ------------------------------
 STRT.F           46.5000:   START DEPTH
 STOP.F         3160.0000:   STOP DEPTH
 STEP.F            0.5000:   STEP LENGTH
 NULL.          -999.2500:   NO VALUE
 COMP. LAWRENCE ALLISON & WEST:   COMPANY
 WELL. LAWRENCE NPR 3 "AX" #42-34:   WELL
 FLD .                NPR:   FIELD
 LOC .      S34 T39N R78W:   LOCATION
 CNTY.            NATRONA:   COUNTY
 STAT.            WYOMING:   STATE
 CTRY. UNITED STATES OF AMERICA:   COUNTRY
 SRVC.      WESTERN ATLAS:   SERVICE COMPANY
 DATE.        19-OCT-1987:   LOGDATE
 API .     49025111830000:   API NUMBER
~CURVE INFORMATION
#MNEM.UNIT       API CODE    CURVE DESCRIPTION
#----------   ------------   ------------------------------
 DEPT.F                  :   
 CALD.IN     45 280 60 00:   CALIPER FROM DENSITY LOG
 DEN .LBS    45 635 01 00:   BUCK DENSITY
 CORR.G/C3   45 356 01 00:   DENSITY CORRECTION
 NPOR.DEC    42 890 03 00:   ALPHA PROCESSED NEUTRON POROSITY
 SPR .MV     07 010 01 00:   SPONTANEOUS POTENTIAL
 GRR .GAPI   07 310 01 00:   GAMMA RAY FROM RESISTIVITY
 RFOC.OHMM   07 220 04 00:   RESISTIVITY FOCUSED LOG RES.
 RILD.OHMM   07 120 46 00:   DEEP INDUCTION RESISTIVITY
 RILM.OHMM   07 120 44 00:   INDUCTION LOG MEDIUM RESISTIVITY
 TENR.LBS    07 635 01 00:   TENSION FROM RESISTIVITY
~PARAMETER INFORMATION
#MNEM.UNIT          VALUE    DESCRIPTION
#----------   ------------   ------------------------------
 EKB .F         5088.0000:   Kelly bushing
 EGL .F         5077.0000:   Ground level
 EDF .F         5087.0000:   Drilling floor
 TD  .F         3151.0000:   Total depth
 DATE.        19-OCT-1987:   Date logged
 CLNT.            A2DTECH:   Client Code
 SL  . 1032' FNL & 2316' FWL:   Surface Location
 PD  .                 GL:   Permanent Datum
 EPD .F              5077:   Elevation Permanent Datum
 LMF .                 KB:   Log Measured From
 DMF .                 KB:   Drilling Measured From
 DAPD.F                11:   Feet Above Permanent Datum
 DD  .F              3151:   Depth driller
 DL  .F              3151:   Depth logger
 BLI .F              3149:   Bottom log interval
 TLI .F                50:   Top log interval
 CS1 .IN            8.625:   Casing size
 CBD1.      8.625" @ 693':   Casing driller 1
 CBL1.F               693:   Casing logger 1
 BS1 .IN            7.875:   Bit size
 BSD1.F              3151:   Depth drilled with bit1
 DFT .        KCL/POLYMER:   Type fluid in hole
 DFD .                9.2:   Density
 DFV .                 53:   Viscosity
 DFPH.                9.5:   pH
 DFL .               11.8:   Fluid loss
 MSS .            MUD/PIT:   Source of sample
 RMS .OHMM           .441:   Rm
 MST .F                66:   Rm Meas. temp.
 RMF .OHMM           .336:   Rmf
 MFST.F                66:   Rmf Meas. temp.
 RMC .OHMM           .711:   Rmc
 MCST.F                66:   Rmc Meas. temp.
 MFSS.               MEAS:   Source Rmf.
 MCSS.               MEAS:   Source Rmc.
 RMB .OHMM           .244:   Rm. at BHT
 BHT .F               119:   BHT.
 TCS .HRS               3:   Time Circ. stopped
 MRT .F               119:   Maximum recorded temp.
 LUN .            HL-6343:   Logging unit number
 LUL .               CODY:   Logging unit location
 ENGI.               JULL:   Recorded By
 WITN.             STRONG:   Witnessed by
 ORIG.           5" PRINT:   Origin of data
 UWI .     49025111830000:   Unique Well ID
 DICO. A2D TECHNOLOGIES, INC.:   Digitizing Company
~OTHER INFORMATION
~A   DEPT     CALD        DEN       CORR       NPOR        SPR         GRR      RFOC       RILD       RILM       TENR   
# ...
  716.5000  -999.2500  -999.2500  -999.2500  -999.2500   -23.5522   112.8700     8.9229     8.7584     7.9806  -111.8045
  717.0000  -999.2500  -999.2500  -999.2500  -999.2500   -23.9599   114.4749     8.8384     8.6755     7.9785  -101.5018
  717.5000  -999.2500  -999.2500  -999.2500  -999.2500   -23.9618   114.7973     8.7547     8.6736     7.9030   -91.1989
  718.0000  -999.2500  -999.2500  -999.2500  -999.2500   -23.9646   114.8684     8.6718     8.6718     7.9013   -90.9987
  718.5000  -999.2500  -999.2500  -999.2500  -999.2500   -24.3724   110.0072     8.6704     8.6700     7.9000   -80.6557
  719.0000  -999.2500  -999.2500  -999.2500  -999.2500   -24.9824   107.1691     8.5879     8.6682     7.8245   -90.5984
  719.5000  -999.2500  -999.2500  -999.2500  -999.2500   -25.1881   105.9482     8.5857     8.5857     7.8232  -100.5013
  720.0000  -999.2500  -999.2500  -999.2500  -999.2500   -25.1915   105.5360     8.5839     8.5839     7.8212  -100.3012
  720.5000  -999.2500  -999.2500  -999.2500  -999.2500   -25.1950   107.9543     8.5821     8.5825     7.8199  -100.1011
  721.0000  -999.2500  -999.2500  -999.2500  -999.2500   -24.9986   109.9729     8.6605     8.5796     7.8182   -99.9010
  721.5000  -999.2500  -999.2500  -999.2500  -999.2500   -25.0021   114.8177     8.8214     8.5783     7.8163   -99.6608
  722.0000  -999.2500  -999.2500  -999.2500  -999.2500   -24.8034   115.2144     8.9852     8.5767     7.8149   -89.3575
  722.5000  -999.2500  -999.2500  -999.2500  -999.2500   -24.8055   113.1847     8.7878     8.5749     7.8130   -89.1573
  723.0000  -999.2500  -999.2500  -999.2500  -999.2500   -24.0023   111.9638     8.8677     8.5731     7.8117   -88.9572
  723.5000  -999.2500  -999.2500  -999.2500  -999.2500   -23.8036   110.7429     8.9486     8.5713     7.8097   -88.7570
  724.0000  -999.2500  -999.2500  -999.2500  -999.2500   -23.4026   109.1128     9.0303     8.5695     7.8084   -88.5568
  724.5000  -999.2500  -999.2500  -999.2500  -999.2500   -23.0016   113.5537     9.0287     8.5681     7.8064   -88.3567
  725.0000  -999.2500  -999.2500  -999.2500  -999.2500   -22.8029   116.3786     9.0265     8.5659     7.8047   -88.1565
  725.5000  -999.2500  -999.2500  -999.2500  -999.2500   -23.2108   109.4923     9.0242     8.4844     7.8028   -98.0598
  726.0000  -999.2500  -999.2500  -999.2500  -999.2500   -23.4164   105.8444     8.9392     8.3262     7.8008   -97.8597
  726.5000  -999.2500  -999.2500  -999.2500  -999.2500   -23.6214   107.4544     8.7720     8.0953     7.4924  -107.7633
  727.0000  -999.2500  -999.2500  -999.2500  -999.2500   -24.0997   109.8734     8.4504     7.9443     7.3061  -107.5632
  727.5000  -999.2500  -999.2500  -999.2500  -999.2500   -24.0336   111.8880     8.0649     7.7962     7.1034  -107.3631
  728.0000  -999.2500  -999.2500  -999.2500  -999.2500   -24.8460   113.9027     7.7689     7.6508     6.8424   -97.0592
  728.5000  -999.2500  -999.2500  -999.2500  -999.2500   -25.4562   118.3444     7.7672     7.5078     6.5299  -106.9229
  729.0000  -999.2500  -999.2500  -999.2500  -999.2500   -26.0665   124.4043     7.6226     7.2323     6.3488  -106.7228
  729.5000  -999.2500  -999.2500  -999.2500  -999.2500   -26.4752   125.6104     7.4114     6.9020     6.1155   -96.4187
  730.0000  -999.2500  -999.2500  -999.2500  -999.2500   -26.6786   117.9155     7.2060     6.7733     6.0015   -96.2186
  730.5000  -999.2500  -999.2500  -999.2500  -999.2500   -27.0866   116.6958     7.0718     6.6470     6.0002   -85.9144
  731.0000  -999.2500  -999.2500  -999.2500  -999.2500   -27.4947   117.4972     7.0049     6.4626     5.9434   -95.8183
  731.5000  -999.2500  -999.2500  -999.2500  -999.2500   -27.7005   117.4896     7.0034     6.4014     5.8318   -95.6182
  732.0000  -999.2500  -999.2500  -999.2500  -999.2500   -27.9056   116.6762     7.0016     6.3405     5.7698   -95.4180
  732.5000  -999.2500  -999.2500  -999.2500  -999.2500   -28.1146   115.0503     7.0655     6.1075     5.6693   -95.2179
  733.0000  -999.2500  -999.2500  -999.2500  -999.2500   -28.1182   114.2335     7.0643     5.9939     5.5636   -84.9134
  733.5000  -999.2500  -999.2500  -999.2500  -999.2500   -28.1217   114.6304     6.9972     5.8273     5.3591   -94.8175
  734.0000  -999.2500  -999.2500  -999.2500  -999.2500   -28.1253   117.0502     6.9304     5.6657     5.2105   -84.5130
  734.5000  -999.2500  -999.2500  -999.2500  -999.2500   -27.7242   118.6561     6.6436     5.5600     5.0659   -94.4172
  735.0000  -999.2500  -999.2500  -999.2500  -999.2500   -27.1209   124.7175     6.3720     5.4563     4.9715   -94.2171
  735.5000  -999.2500  -999.2500  -999.2500  -999.2500   -26.9221   121.4731     6.0250     5.4046     4.9704   -94.0168
  736.0000  -999.2500  -999.2500  -999.2500  -999.2500   -26.5210   114.5889     5.9680     5.4035     5.0627   -93.7766
  736.5000  -999.2500  -999.2500  -999.2500  -999.2500   -26.3230   116.2028     5.9667     5.4024     5.1567   -93.5765
  737.0000  -999.2500  -999.2500  -999.2500  -999.2500   -26.1242   119.0226     6.0774     5.4012     5.2038   -93.3763
  737.5000  -999.2500  -999.2500  -999.2500  -999.2500   -25.9254   119.8243     6.3063     5.5015     5.3005  -103.2809
  738.0000  -999.2500  -999.2500  -999.2500  -999.2500   -26.3335   116.1748     6.7287     5.6034     5.3487   -92.9760
  738.5000  -999.2500  -999.2500  -999.2500  -999.2500   -26.3370   113.7392     6.7901     5.7075     5.4989   -92.7758
  739.0000  -999.2500  -999.2500  -999.2500  -999.2500   -26.7452   113.3269     6.8520     5.8679     5.5494   -92.5756
  739.5000  -999.2500  -999.2500  -999.2500  -999.2500   -26.7459   113.7223     6.8506     5.9768     5.6257  -102.4804
  740.0000  -999.2500  -999.2500  -999.2500  -999.2500   -26.5499   114.9286     6.9131     6.0879     5.7039  -102.2803
  740.5000  -999.2500  -999.2500  -999.2500  -999.2500   -26.3511   116.9474     6.9117     6.0868     5.7560   -91.9751
  741.0000  -999.2500  -999.2500  -999.2500  -999.2500   -26.1523   121.3884     6.9747     6.1424     5.8629  -111.8651
  741.5000  -999.2500  -999.2500  -999.2500  -999.2500   -25.9535   125.8327     7.0384     6.1983     5.8616  -111.7350
  742.0000  -999.2500  -999.2500  -999.2500  -999.2500   -26.1593   129.4742     7.1026     6.2549     5.8607  -111.5049
  742.5000  -999.2500  -999.2500  -999.2500  -999.2500   -25.9605   125.0083     7.1003     6.2536     5.8592   -91.1743
  743.0000  -999.2500  -999.2500  -999.2500  -999.2500   -25.5593   122.5724     7.0360     6.3107     5.8039  -101.0394
  743.5000  -999.2500  -999.2500  -999.2500  -999.2500   -25.3597   120.9459     7.0325     6.3684     5.8027  -110.9447
  744.0000  -999.2500  -999.2500  -999.2500  -999.2500   -24.9599   120.9383     7.0310     6.3671     5.8012  -100.6391
  744.5000  -999.2500  -999.2500  -999.2500  -999.2500   -24.9634   121.7403     7.0292     6.3654     5.7997  -100.4390
  745.0000  -999.2500  -999.2500  -999.2500  -999.2500   -24.9668   123.3518     7.0277     6.3057     5.7985  -100.2388
  745.5000  -999.2500  -999.2500  -999.2500  -999.2500   -24.7680   123.3442     7.0262     6.3914     5.8515  -100.0386
  746.0000  -999.2500  -999.2500  -999.2500  -999.2500   -24.5691   121.7176     7.0247     6.5415     5.8505   -89.7328
  746.5000  -999.2500  -999.2500  -999.2500  -999.2500   -24.1678   124.1388     7.2216     6.6630     5.8492   -99.6383
  747.0000  -999.2500  -999.2500  -999.2500  -999.2500   -23.9688   125.7505     7.2204     6.7868     5.8477   -99.4381
  747.5000  -999.2500  -999.2500  -999.2500  -999.2500   -23.9723   126.1463     7.4231     6.9128     5.8470   -99.2380
  748.0000  -999.2500  -999.2500  -999.2500  -999.2500   -23.7734   121.6859     7.6314     7.0412     5.9002   -99.0378
  748.5000  -999.2500  -999.2500  -999.2500  -999.2500   -23.7769   119.2494     7.6298     6.9608     5.9538   -98.8376
  749.0000  -999.2500  -999.2500  -999.2500  -999.2500   -23.3755   121.2659     7.7248     6.9085     5.9526   -98.6375
  749.5000  -999.2500  -999.2500  -999.2500  -999.2500   -22.7717   125.3052     7.5105     6.7168     5.9515   -98.4373
