~VERSION INFORMATION
 VERS.                2.0:   CWLS LOG ASCII STANDARD - VERSION 2.0
 WRAP.                 NO:   ONE LINE PER DEPTH STEP
~WELL INFORMATION
#MNEM.UNIT      DATA TYPE    INFORMATION
#----------   ------------   ------------------------------
 STRT.F          203.5000:   START DEPTH
 STOP.F         3126.0000:   STOP DEPTH
 STEP.F            0.5000:   STEP LENGTH
 NULL.          -999.2500:   NO VALUE
 COMP.    FENIX & SCISSON:   COMPANY
 WELL. FENIX NPR 3 "AX" #88-33:   WELL
 FLD .        TEAPOT DOME:   FIELD
 LOC .      S33 T39N R78W:   LOCATION
 CNTY.            NATRONA:   COUNTY
 STAT.            WYOMING:   STATE
 CTRY. UNITED STATES OF AMERICA:   COUNTRY
 SRVC.       SCHLUMBERGER:   SERVICE COMPANY
 DATE.        23-JAN-1978:   LOGDATE
 API .     49025105610000:   API NUMBER
~CURVE INFORMATION
#MNEM.UNIT       API CODE    CURVE DESCRIPTION
#----------   ------------   ------------------------------
 DEPT.F                  :   
 CALD.IN     45 280 60 00:   CALIPER FROM DENSITY LOG
 GRD .GAPI   45 310 01 00:   GAMMA RAY FROM DENSITY LOG
 RHOB.G/C3   45 350 01 00:   BULK DENSITY
 CORR.G/C3   45 356 01 00:   DENSITY CORRECTION
 SPR .MV     05 010 01 00:   SPONTANEOUS POTENTIAL
 SN  .OHMM   05 040 16 00:   SHORT NORMAL 16"
 ILD .OHMM   05 120 46 00:   DEEP INDUCTION RESISTIVITY
~PARAMETER INFORMATION
#MNEM.UNIT          VALUE    DESCRIPTION
#----------   ------------   ------------------------------
 EKB .F         5174.0000:   Kelly bushing
 EGL .F         5164.0000:   Ground level
 EDF .F            0.0000:   Drilling floor
 TD  .F         3115.0000:   Total depth
 DATE.        23-JAN-1978:   Date logged
 CLNT.            A2DTECH:   Client Code
 PD  .                 GL:   Permanent Datum
 EPD .F              5164:   Elevation Permanent Datum
 LMF .                 KB:   Log Measured From
 DMF .                 KB:   Drilling Measured From
 DD  .F              3115:   Depth driller
 DL  .F              3115:   Depth logger
 BLI .F              3115:   Bottom log interval
 TLI .F               210:   Top log interval
 CS1 .IN            8.625:   Casing size
 CBD1.      9.625" @ 219':   Casing driller 1
 CBL1.F               219:   Casing logger 1
 BS1 .IN            7.875:   Bit size
 BSD1.F              3115:   Depth drilled with bit1
 DFT .                GEL:   Type fluid in hole
 DFD .                8.9:   Density
 DFV .                 36:   Viscosity
 DFPH.                 10:   pH
 DFL .                7.8:   Fluid loss
 MSS .           FLOWLINE:   Source of sample
 RMS .OHMM            2.2:   Rm
 MST .F                62:   Rm Meas. temp.
 RMF .OHMM           1.94:   Rmf
 MFST.F                54:   Rmf Meas. temp.
 RMC .OHMM            3.4:   Rmc
 MCST.F                54:   Rmc Meas. temp.
 MFSS.               MEAS:   Source Rmf.
 MCSS.               MEAS:   Source Rmc.
 RMB .OHMM            1.1:   Rm. at BHT
 BHT .F               114:   BHT.
 TCS .HRS             4.5:   Time Circ. stopped
 MRT .F               114:   Maximum recorded temp.
 LUN .               2958:   Logging unit number
 LUL .             CASPER:   Logging unit location
 ENGI.           REYNOLDS:   Recorded By
 WITN.           MCGINLEY:   Witnessed by
 ORIG.           5" PRINT:   Origin of data
 UWI .     49025105610000:   Unique Well ID
 DICO. A2D TECHNOLOGIES, INC.:   Digitizing Company
 DAPD.F              5164:   Feet Above Permanent Datum
 SL  . 100' FSL & 550' FEL:   Surface Location
~OTHER INFORMATION
~A   DEPT     CALD        GRD       RHOB       CORR        SPR         SN        ILD   
# ...
 1341.0000    10.7534    90.9006     2.5090     0.1012   -43.6250     8.4089     9.4782
 1341.5000    10.7536    90.9026     2.5110     0.1032   -43.4235     8.4885     9.4786
 1342.0000    10.7538    90.3070     2.5070     0.1072   -43.2220     8.4898     9.4790
 1342.5000    10.7540    90.7075     2.5110     0.1192   -43.0205     8.2596     9.3063
 1343.0000    10.7542    92.1039     2.5110     0.1391   -42.8190     8.2608     9.1368
 1343.5000    10.7544    92.3051     2.5120     0.1491   -42.6175     8.2620     9.1372
 1344.0000    10.7546    92.7056     2.5110     0.1531   -42.6155     8.2633     9.1375
 1344.5000    10.7548    92.5080     2.5140     0.1611   -42.6131     8.1887     9.2384
 1345.0000    10.7550    92.3108     2.5190     0.1611   -42.6106     8.1148     9.1545
 1345.5000    10.7552    93.3088     2.5220     0.1611   -42.6082     8.1158     9.1559
 1346.0000    10.7555    93.7093     2.5260     0.1591   -42.6057     8.1170     9.1573
 1346.5000    10.7557    93.3129     2.5279     0.1531   -42.6033     8.0438     9.1587
 1347.0000    10.7559    91.1236     2.5279     0.1511   -42.6008     8.1195     9.1601
 1347.5000    10.7561    90.7272     2.5309     0.1511   -42.5984     8.1212     9.1615
 1348.0000    10.7562    91.5269     2.5349     0.1531   -42.5959     8.1219     9.1629
 1348.5000    10.7564    91.5277     2.5389     0.1511   -42.5935     8.1231     9.1643
 1349.0000    10.7566    89.3388     2.5399     0.1531   -42.9890     8.1243     9.1657
 1349.5000    10.7568    89.1416     2.5389     0.1531   -42.9880     8.1256     9.1671
 1350.0000    10.7570    88.9444     2.5429     0.1491   -42.7851     8.1268     9.1685
 1350.5000    10.7758    88.2930     2.5457     0.1420   -43.3797     8.1280     9.1699
 1351.0000    10.7564    88.8874     2.5439     0.1371   -43.5767     8.0546     9.1713
 1351.5000    10.7760    90.9294     2.5359     0.1332   -43.5742     8.0558     9.1724
 1352.0000    10.7557    92.1214     2.5299     0.1312   -43.7708     8.0568     9.1738
 1352.5000    10.7753    90.3271     2.5289     0.1312   -44.1663     8.0580     9.1752
 1353.0000    10.7749    89.9264     2.5299     0.1312   -44.1639     8.0592     9.1766
 1353.5000    10.7746    90.9200     2.5309     0.1292   -44.1614     8.0604     9.1780
 1354.0000    10.7742    91.1167     2.5219     0.1292   -44.1589     8.0616     9.0949
 1354.5000    10.7739    92.3087     2.5189     0.1292   -44.1565     8.0629     9.0963
 1355.0000    10.7735    92.3062     2.5169     0.1292   -43.9550     7.9901     8.9982
 1355.5000    10.7733    92.1046     2.5189     0.1272   -43.3556     7.9913     8.8363
 1356.0000    10.7729    92.8983     2.5339     0.1273   -42.7562     7.9925     8.7571
 1356.5000    10.7527    92.2985     2.5319     0.1293   -42.7537     7.9937     8.7576
 1357.0000    10.7722    92.8931     2.5259     0.1253   -42.3533     7.9215     8.7649
 1357.5000    10.7719    94.0852     2.5219     0.1193   -42.1524     7.9961     8.7723
 1358.0000    10.7516    89.5047     2.5149     0.1173   -42.1499     7.9973     8.7797
 1358.5000    10.7513    89.1043     2.5159     0.1173   -42.3464     7.9248     8.7871
 1359.0000    10.7708    89.3010     2.5179     0.1173   -42.3440     7.9260     8.7944
 1359.5000    10.7705    87.9058     2.5129     0.1153   -42.3416     7.9272     8.8018
 1360.0000    10.7701    88.1025     2.5099     0.1113   -42.9360     7.9284     8.8092
 1360.5000    10.7698    88.2991     2.5069     0.1173   -43.1325     7.9296     8.8166
 1361.0000    10.7694    89.2920     2.5019     0.1194   -43.1301     7.8580     8.8240
 1361.5000    10.7691    90.6821     2.5009     0.1313   -43.1276     7.9320     8.8314
 1362.0000    10.7687    92.2715     2.4939     0.1413   -43.1251     7.9331     8.8389
 1362.5000    10.7485    89.0860     2.5049     0.1533   -43.1227     7.9343     8.8463
 1363.0000    10.7482    89.4814     2.5139     0.1513   -43.1202     7.9355     8.8537
 1363.5000    10.7479    89.6779     2.5188     0.1494   -43.1178     7.9367     8.8612
 1364.0000    10.7475    89.4766     2.5208     0.1414   -43.1153     7.9379     8.8686
 1364.5000    10.7472    89.6731     2.5198     0.1114   -43.1134     7.9391     8.8786
 1365.0000    10.7468    88.8753     2.5068     0.1034   -43.1109     7.9400     8.9577
 1365.5000    10.7465    87.6800     2.5048     0.1014   -43.1085     7.9417     8.8766
 1366.0000    10.7461    86.4848     2.5058     0.1035   -43.3049     7.9422     8.8780
 1366.5000    10.7458    86.4826     2.5128     0.1150   -43.1035     8.0914     8.6365
 1367.0000    10.7455    87.6732     2.5228     0.1155   -43.1011     8.0927     8.4798
 1367.5000    10.7451    88.4661     2.5268     0.1155   -43.0986     8.0196     8.4803
 1368.0000    10.7448    89.2588     2.5248     0.1235   -42.8972     7.9472     8.4811
 1368.5000    10.7643    89.0581     2.5258     0.1315   -42.8948     7.7315     8.2513
 1369.0000    10.7639    89.0558     2.5268     0.1295   -42.8923     7.6617     8.2526
 1369.5000    10.7636    89.0534     2.5228     0.1295   -42.4920     7.5925     8.2538
 1370.0000    10.7831    89.2498     2.5188     0.1235   -42.0917     7.6640     8.1038
 1370.5000    10.7828    90.4397     2.5168     0.1195   -42.0893     7.6651     8.1050
 1371.0000    10.7825    90.6360     2.5138     0.1175   -42.0868     7.6663     8.0316
 1371.5000    10.7822    91.4283     2.5138     0.1175   -42.0849     7.5970     8.0321
 1372.0000    10.7818    93.0153     2.5138     0.1175   -42.4803     7.5498     8.0336
 1372.5000    10.7815    93.6087     2.5158     0.1175   -42.4778     7.4821     8.0355
 1373.0000    10.7811    96.1885     2.5158     0.1176   -42.6743     7.4154     8.0362
 1373.5000    10.7808    98.9673     2.5128     0.1176   -42.8707     7.2818     8.0374
 1374.0000    10.7804    99.7589     2.5078     0.1176   -43.2661     7.2837     7.9647
 1374.5000    10.7602    98.9614     2.5048     0.1176   -43.4626     7.2856     8.0399
 1375.0000    10.7599    98.7599     2.5037     0.1176   -43.4601     7.4232     8.0411
 1375.5000    10.7595    97.7639     2.5027     0.1256   -43.4577     7.4939     8.1170
 1376.0000    10.7592    97.1653     2.5017     0.1336   -43.6541     7.5653     8.1936
 1376.5000    10.7787    97.1625     2.5047     0.1456   -43.4527     7.6374     8.4254
 1377.0000    10.7585    96.7625     2.5097     0.1516   -43.2514     7.7816     8.3483
 1377.5000    10.7581    97.3553     2.5117     0.1516   -43.0500     7.8553     8.4262
 1378.0000    10.7776    97.7495     2.5217     0.1516   -42.6498     7.8574     8.5049
 1378.5000    10.7773    95.9600     2.5427     0.1516   -42.4489     7.8594     8.5842
 1379.0000    10.7770    94.5676     2.5467     0.1297   -42.4465     7.8615     8.6643
 1379.5000    10.7568    92.9769     2.5477     0.1057   -42.4440     7.9364     8.7452
 1380.0000    10.6969    91.5849     2.5337     0.1017   -42.4416     7.9385     8.9158
 1380.5000    10.7363    90.1931     2.5127     0.1097   -42.2402     7.9406     8.7884
 1381.0000    10.7359    88.6029     2.5137     0.1177   -42.2378     7.9427     8.7100
 1381.5000    10.7356    87.6083     2.5197     0.1213   -42.4342     8.0184     8.7118
 1382.0000    10.7352    87.2092     2.5207     0.1177   -42.8295     8.0948     8.7142
 1382.5000    10.7349    88.3975     2.5157     0.1177   -43.0260     7.9080     8.4402
 1383.0000    10.7345    89.5857     2.5097     0.1177   -43.0235     7.9092     8.4417
 1383.5000    10.7342    89.9806     2.5107     0.1217   -43.0211     7.6238     8.4430
 1384.0000    10.7339    89.7798     2.5127     0.1237   -43.0186     7.5550     8.4442
 1384.5000    10.7335    88.9839     2.5177     0.1238   -43.0161     7.5561     8.4453
 1385.0000    10.7332    87.3946     2.5147     0.1278   -43.0137     7.5570     8.4463
 1385.5000    10.7328    86.0038     2.5136     0.1338   -43.0117     7.5581     8.4478
 1386.0000    10.7325    85.4066     2.5146     0.1358   -43.0093     7.5592     8.4491
