~VERSION INFORMATION
 VERS.                2.0:   CWLS LOG ASCII STANDARD - VERSION 2.0
 WRAP.                 NO:   ONE LINE PER DEPTH STEP
~WELL INFORMATION
#MNEM.UNIT      DATA TYPE    INFORMATION
#----------   ------------   ------------------------------
 STRT.F          208.0000:   START DEPTH
 STOP.F         2980.0000:   STOP DEPTH
 STEP.F            0.5000:   STEP LENGTH
 NULL.          -999.2500:   NO VALUE
 COMP. FENIX & SCISSON INC:   COMPANY
 WELL. FENIX  32AX #28-28:   WELL
 FLD .        TEAPOT DOME:   FIELD
 LOC .      S28 T39N R78W:   LOCATION
 CNTY.            NATRONA:   COUNTY
 STAT.            WYOMING:   STATE
 CTRY. UNITED STATES OF AMERICA:   COUNTRY
 SRVC.           BIRDWELL:   SERVICE COMPANY
 DATE.        09-OCT-1977:   LOGDATE
 API .     49025104430000:   API NUMBER
~CURVE INFORMATION
#MNEM.UNIT       API CODE    CURVE DESCRIPTION
#----------   ------------   ------------------------------
 DEPT.F                  :   
 SPR .MV     05 010 01 00:   SPONTANEOUS POTENTIAL
 ILD .OHMM   05 120 46 00:   DEEP INDUCTION RESISTIVITY
 SN  .OHMM   05 040 16 00:   SHORT NORMAL
 GRD .GAPI   45 310 01 00:   GAMMA RAY FROM DENSITY LOG
 CALD.IN     45 280 60 00:   CALIPER FROM DENSITY LOG
 CORR.G/C3   45 356 01 00:   DENSITY CORRECTION
 DEN .G/C3   45 350 01 00:   BULK DENSITY
~PARAMETER INFORMATION
#MNEM.UNIT          VALUE    DESCRIPTION
#----------   ------------   ------------------------------
 EKB .F         5005.0000:   Kelly bushing
 EGL .F         4995.0000:   Ground level
 EDF .F            0.0000:   Drilling floor
 EPD .F         4995.0000:   Permanent datum
 TD  .F         2980.0000:   Total depth
 DATE.        09-OCT-1977:   Date logged
 CLNT.            A2DTECH:   Client Code
 SL  . 990' FNL & 1650' FWL:   Surface Location
 PD  .                 GL:   Permanent Datum
 DAPD.F                10:   Feet Above Permanent Datum
 DD  .F              2980:   Depth driller
 DL  .F              2979:   Depth logger
 BLI .F              2974:   Bottom log interval
 TLI .F               221:   Top log interval
 CS1 .IN            8.625:   Casing size
 CBD1.      8.625" @ 211':   Casing driller 1
 CBL1.F               221:   Casing logger 1
 BS1 .IN            7.875:   Bit size
 BSD1.F              2980:   Depth drilled with bit1
 DFT .            KCL GEL:   Type fluid in hole
 DFD .                8.8:   Density
 DFV .                 33:   Viscosity
 DFPH.                 11:   pH
 DFL .                6.4:   Fluid loss
 MSS .           FLOWLINE:   Source of sample
 RMS .OHMM            .52:   Rm
 MST .F                59:   Rm Meas. temp.
 RMF .OHMM            .67:   Rmf
 MFST.F                54:   Rmf Meas. temp.
 RMC .OHMM            .45:   Rmc
 MCST.F                56:   Rmc Meas. temp.
 MFSS.               MEAS:   Source Rmf.
 MCSS.               MEAS:   Source Rmc.
 RMB .OHMM            .35:   Rm. at BHT
 BHT .F                91:   BHT.
 TCS .HRS               3:   Time Circ. stopped
 MRT .F                91:   Maximum recorded temp.
 LUN .               2958:   Logging unit number
 LUL .             CASPER:   Logging unit location
 ENGI.                LAW:   Recorded By
 WITN.       W. PENINGELL:   Witnessed by
 ORIG.           5" PRINT:   Origin of data
 UWI .     49025104430000:   Unique Well ID
 DICO. A2D TECHNOLOGIES, INC.:   Digitizing Company
~OTHER INFORMATION
~A   DEPT      SPR        ILD         SN         GRD      CALD       CORR        DEN   
# ...
 1482.0000   -47.8390     8.4830     9.1630   125.3880     8.1650     0.0360     2.5480
 1482.5000   -47.5970     8.5140     8.9250   127.4380     8.1650     0.0370     2.5490
 1483.0000   -46.8690     8.6400     8.9710   123.0980     8.1650     0.0360     2.5460
 1483.5000   -46.8560     8.8450     9.1630   120.8220     8.1650     0.0370     2.5440
 1484.0000   -46.9310     9.0500     9.1290   117.9660     8.1650     0.0380     2.5460
 1484.5000   -46.9150     8.9670     9.0520   123.3790     8.1630     0.0370     2.5490
 1485.0000   -46.6440     8.8560     8.9740   118.5300     8.1550     0.0370     2.5520
 1485.5000   -46.7770     8.7450     8.8970   122.7080     8.1460     0.0460     2.5590
 1486.0000   -46.9820     8.6340     8.8200   120.4990     8.1380     0.0450     2.5640
 1486.5000   -46.9070     8.5230     8.7520   125.0200     8.1290     0.0480     2.5630
 1487.0000   -46.8430     8.4110     8.7520   121.9530     8.1210     0.0530     2.5650
 1487.5000   -46.8820     8.3000     8.7810   123.5840     8.1150     0.0520     2.5690
 1488.0000   -47.3860     8.2070     8.8130   123.5270     8.1080     0.0420     2.5530
 1488.5000   -47.7510     8.2530     8.8330   121.7430     8.1010     0.0380     2.5410
 1489.0000   -47.5910     8.3120     8.8330   119.6600     8.0940     0.0520     2.5560
 1489.5000   -47.9280     8.3590     8.8330   118.9560     8.0880     0.0580     2.5600
 1490.0000   -48.1700     8.3060     8.8330   121.5830     8.0850     0.0620     2.5650
 1490.5000   -47.7820     8.2620     8.8330   116.2840     8.0850     0.0570     2.5610
 1491.0000   -47.6510     8.2180     8.8330   118.1540     8.0850     0.0540     2.5560
 1491.5000   -47.8600     8.1740     8.8330   120.1350     8.0850     0.0580     2.5620
 1492.0000   -47.5910     8.1300     8.8330   120.4720     8.0850     0.0610     2.5700
 1492.5000   -47.6400     8.0860     8.8330   124.6080     8.0850     0.0530     2.5710
 1493.0000   -47.7230     8.0420     8.8170   125.7500     8.0850     0.0430     2.5530
 1493.5000   -47.6990     7.9980     8.6650   130.4780     8.0820     0.0440     2.5420
 1494.0000   -47.4150     7.9550     8.5930   134.5380     8.0790     0.0440     2.5410
 1494.5000   -47.1770     7.9110     8.6390   131.6310     8.0750     0.0400     2.5400
 1495.0000   -47.1850     7.8670     8.6740   126.1060     8.0710     0.0370     2.5360
 1495.5000   -47.1860     7.8390     8.7100   122.2440     8.0680     0.0320     2.5320
 1496.0000   -47.1850     7.8870     8.7450   124.1400     8.0640     0.0370     2.5300
 1496.5000   -47.1850     7.9280     8.7520   129.9810     8.0600     0.0440     2.5400
 1497.0000   -47.1860     7.9690     8.7520   129.3750     8.0560     0.0420     2.5520
 1497.5000   -47.2030     8.0030     8.7520   129.8970     8.0520     0.0490     2.5680
 1498.0000   -47.2830     8.0490     8.7520   130.3310     8.0480     0.0410     2.5610
 1498.5000   -47.3620     8.0940     8.7980   135.2090     8.0370     0.0490     2.5640
 1499.0000   -47.4400     8.1390     8.9010   127.2580     8.0160     0.0490     2.5500
 1499.5000   -47.5190     8.1840     9.0150   131.1610     7.9960     0.0450     2.5540
 1500.0000   -47.5980     8.2290     9.0530   124.6040     7.9760     0.0450     2.5580
 1500.5000   -47.6760     8.3040     9.1630   128.2040     7.9710     0.0400     2.5560
 1501.0000   -47.7550     8.3800     9.1860   124.8400     7.9800     0.0340     2.5530
 1501.5000   -47.8340     8.4550     9.2110   120.2990     7.9900     0.0270     2.5500
 1502.0000   -47.9120     8.5300     9.2360   117.1090     8.0000     0.0220     2.5520
 1502.5000   -47.9800     8.6050     9.2620   121.0740     8.0110     0.0230     2.5530
 1503.0000   -47.9810     8.6800     9.2870   119.4480     8.0260     0.0260     2.5520
 1503.5000   -47.9800     8.7550     9.3120   117.8910     8.0400     0.0230     2.5500
 1504.0000   -47.9800     8.8330     9.3330   117.9010     8.0550     0.0270     2.5570
 1504.5000   -47.9340     8.6110     9.1930   121.2410     8.0700     0.0310     2.5690
 1505.0000   -47.8050     8.4270     9.0730   123.0660     8.0850     0.0250     2.5550
 1505.5000   -47.5830     8.2430     8.9520   121.0200     8.1040     0.0210     2.5520
 1506.0000   -47.2480     8.0590     8.8320   122.5000     8.1240     0.0210     2.5520
 1506.5000   -47.2540     7.8750     8.7120   122.6530     8.1450     0.0130     2.5450
 1507.0000   -47.3630     7.7190     8.5930   125.4250     8.1650     0.0120     2.5420
 1507.5000   -47.2170     7.6400     8.6720   123.2610     8.1710     0.0120     2.5450
 1508.0000   -47.1990     7.6000     8.5000   124.8550     8.1770     0.0050     2.5430
 1508.5000   -47.5850     7.5680     8.4360   126.4570     8.1830     0.0000     2.5260
 1509.0000   -47.1350     7.5370     8.5580   126.1440     8.1830     0.0070     2.5340
 1509.5000   -46.9040     7.5050     8.6720   128.3590     8.1800     0.0150     2.5450
 1510.0000   -47.4790     7.4730     8.6260   129.2320     8.1770     0.0220     2.5510
 1510.5000   -47.7990     7.4420     8.5560   126.4770     8.1740     0.0260     2.5510
 1511.0000   -47.8410     7.4190     8.4870   129.2680     8.1710     0.0300     2.5540
 1511.5000   -47.8850     7.4500     8.4360   132.1180     8.1680     0.0340     2.5570
 1512.0000   -47.9260     7.4960     8.5110   129.8750     8.1650     0.0390     2.5650
 1512.5000   -47.9700     7.5420     8.5800   126.9700     8.1690     0.0450     2.5740
 1513.0000   -48.0200     7.5880     8.6500   126.4150     8.1800     0.0390     2.5820
 1513.5000   -48.1720     7.6340     8.7190   123.7670     8.2010     0.0250     2.5650
 1514.0000   -48.0630     7.6800     8.7520   117.9740     8.2350     0.0290     2.5630
 1514.5000   -47.8340     7.7260     8.5310   116.8310     8.2640     0.0260     2.5450
 1515.0000   -47.7140     7.7720     8.3340   117.2020     8.2710     0.0200     2.5360
 1515.5000   -47.5880     7.8390     8.2350   120.0440     8.2820     0.0200     2.5370
 1516.0000   -47.4640     7.8040     8.1480   124.4390     8.2840     0.0230     2.5380
 1516.5000   -47.3970     7.7060     8.0580   124.9560     8.2840     0.0260     2.5410
 1517.0000   -47.4910     7.6080     8.0760   126.9080     8.2840     0.0310     2.5510
 1517.5000   -47.5780     7.5100     8.0950   132.1780     8.2840     0.0360     2.5470
 1518.0000   -47.4950     7.4120     8.1130   129.7170     8.2840     0.0410     2.5620
 1518.5000   -47.4030     7.3150     8.1320   127.6560     8.2840     0.0460     2.5620
 1519.0000   -47.3120     7.2170     7.9110   128.0730     8.2840     0.0500     2.5640
 1519.5000   -47.2200     7.2460     7.9210   127.9070     8.2820     0.0510     2.5670
 1520.0000   -47.2370     7.2830     7.9330   129.5560     8.2790     0.0460     2.5560
 1520.5000   -47.3630     7.3190     7.9450   128.2170     8.2760     0.0420     2.5560
 1521.0000   -47.4880     7.3550     7.9560   132.8290     8.2730     0.0470     2.5600
 1521.5000   -47.6130     7.3920     7.9680   132.7600     8.2700     0.0480     2.5620
 1522.0000   -47.7430     7.4280     7.9800   136.7590     8.2680     0.0450     2.5530
 1522.5000   -47.8130     7.4640     7.9920   134.9460     8.2650     0.0470     2.5560
 1523.0000   -47.8650     7.5010     8.0040   132.4310     8.2620     0.0490     2.5610
 1523.5000   -47.9140     7.5560     8.0160   132.1230     8.2590     0.0400     2.5540
 1524.0000   -47.9660     7.5240     8.0280   134.7380     8.2570     0.0460     2.5490
 1524.5000   -47.9800     7.4560     8.0400   136.0760     8.2540     0.0540     2.5580
 1525.0000   -47.9800     7.3890     8.0580   134.8420     8.2510     0.0520     2.5600
 1525.5000   -47.9800     7.3210     8.0320   133.5680     8.2490     0.0520     2.5560
 1526.0000   -47.9800     7.2540     7.9820   138.4340     8.2460     0.0560     2.5540
 1526.5000   -47.9800     7.1870     7.9320   143.4010     8.2460     0.0580     2.5580
 1527.0000   -47.9580     7.1190     7.8820   139.7670     8.2480     0.0550     2.5600
