~VERSION INFORMATION
 VERS.                2.0:   CWLS LOG ASCII STANDARD - VERSION 2.0
 WRAP.                 NO:   ONE LINE PER DEPTH STEP
~WELL INFORMATION
#MNEM.UNIT      DATA TYPE    INFORMATION
#----------   ------------   ------------------------------
 STRT.F          213.5000:   START DEPTH
 STOP.F         3198.0000:   STOP DEPTH
 STEP.F            0.5000:   STEP LENGTH
 NULL.          -999.2500:   NO VALUE
 COMP.    FENIX & SCISSON:   COMPANY
 WELL.   FENIX "AX" #14-2:   WELL
 FLD .              NPR-3:   FIELD
 LOC .       S2 T38N R78W:   LOCATION
 CNTY.            NATRONA:   COUNTY
 STAT.            WYOMING:   STATE
 CTRY. UNITED STATES OF AMERICA:   COUNTRY
 SRVC.              WELEX:   SERVICE COMPANY
 DATE.        14-MAY-1977:   LOGDATE
 API .     49025103620000:   API NUMBER
~CURVE INFORMATION
#MNEM.UNIT       API CODE    CURVE DESCRIPTION
#----------   ------------   ------------------------------
 DEPT.F                  :   
 GRD .GAPI   45 310 01 00:   GAMMA RAY FROM DENSITY LOG
 CALD.IN     45 280 60 00:   CALIPER FROM DENSITY LOG
 CORR.G/C3   45 356 01 00:   DENSITY CORRECTION
 RHOB.G/C3   45 350 01 00:   BULK DENSITY
 SPR .MV     07 010 01 00:   SPONTANEOUS POTENTIAL FROM RES.
 ILD .OHMM   07 120 46 00:   DEEP INDUCTION RESISTIVITY
 ILM .OHMM   07 120 44 00:   INDUCTION LOG MEDIUM RESISTIVITY
 SGRD.OHMM   07 220 05 00:   SHALLOW SHORT GUARD RESISTIVITY
~PARAMETER INFORMATION
#MNEM.UNIT          VALUE    DESCRIPTION
#----------   ------------   ------------------------------
 EKB .F         5119.0000:   Kelly bushing
 EGL .F         5110.0000:   Ground level
 TD  .F         3200.0000:   Total depth
 CLNT.            A2DTECH:   Client Code
 SL  . 2400' FNL & 150' FWL:   Surface Location
 PD  .                 GL:   Permanent Datum
 EPD .F              5110:   Elevation Permanent Datum
 LMF .                 KB:   Log Measured From
 DMF .                 KB:   Drilling Measured From
 DAPD.F                 9:   Feet Above Permanent Datum
 DATE.        14-MAY-1977:   Date Logged [DD-MMM-YYYY]
 DD  .F              3200:   Depth driller
 DL  .F              3199:   Depth logger
 BLI .F              3197:   Bottom log interval
 TLI .F               217:   Top log interval
 CS1 .IN            8.625:   Casing size
 BS1 .IN            7.875:   Bit size
 BSD1.F              3200:   Depth drilled with bit1
 DFT .            KCL MUD:   Type fluid in hole
 DFD .                8.8:   Density
 TCS .HRS             2.5:   Time Circ. stopped
 MRT .F               130:   Maximum recorded temp.
 ENGI.          T. JOYNER:   Recorded By
 WITN.      W. PETTINGILL:   Witnessed by
 ORIG.           5" PRINT:   Origin of data
 UWI .     49025103620000:   Unique Well ID
 DICO. A2D TECHNOLOGIES, INC.:   Digitizing Company
 DFV .                 31:   Viscosity
 DFPH.                7.5:   pH
 DFL .                6.4:   Fluid loss
 MSS .          FLOW LINE:   Source of sample
 RMS .OHMM            .13:   Rm
 MST .F               62.:   Rm Meas. temp.
 RMF .OHMM            .12:   Rmf
 MFST.F                62:   Rmf Meas. temp.
 MFSS.           FANN KIT:   Source Rmf.
 RMC .OHMM            .28:   Rmc
 MCST.F                62:   Rmc Meas. temp.
 RMB .OHMM            .06:   Rm. at BHT
 BHT .F               130:   BHT.
~OTHER INFORMATION
~A   DEPT      GRD       CALD       CORR       RHOB        SPR        ILD        ILM       SGRD   
# ...
 1185.5000   124.4645     8.5178     0.0192     2.4935   -39.9887     7.8258     6.4194     8.0361
 1186.0000   128.0874     8.5199     0.0209     2.4897   -39.9704     7.8331     6.4246     8.0439
 1186.5000   128.7252     8.5066     0.0211     2.4832   -39.9474     7.8401     6.4302     8.0523
 1187.0000   129.9600     8.4943     0.0197     2.4788   -40.0740     7.8464     6.4353     8.0208
 1187.5000   131.7919     8.4815     0.0169     2.4758   -40.0540     7.8526     6.3958     8.0118
 1188.0000   129.7431     8.4524     0.0141     2.4774   -40.1775     7.8602     6.4022     8.0194
 1188.5000   131.5750     8.4263     0.0112     2.4753   -40.1553     7.8657     6.4074     7.9691
 1189.0000   128.9394     8.3987     0.0084     2.4723   -40.1301     7.9269     6.4122     7.9248
 1189.5000   126.2835     8.3859     0.0055     2.4732   -40.2618     7.9346     6.4182     7.9325
 1190.0000   128.4240     8.3731     0.0057     2.4733   -40.2331     7.9410     6.4228     7.9411
 1190.5000   130.2559     8.3756     0.0029     2.4704   -40.2115     7.9626     6.4282     8.0590
 1191.0000   132.9833     8.3776     0.0031     2.4682   -40.1900     8.0091     6.4335     8.0666
 1191.5000   129.7405     8.3796     0.0017     2.4675   -40.1701     8.2407     6.4399     8.1299
 1192.0000   125.9007     8.3816     0.0003     2.4691   -40.1479     8.4790     6.4447     8.1949
 1192.5000   124.7113     8.3847     0.0005     2.4692   -40.1253     8.7252     6.4051     8.3161
 1193.0000   125.6838     8.4006    -0.0008     2.4655   -40.1035     8.8533     6.4106     8.3833
 1193.5000   126.3451     8.4030    -0.0036     2.4596   -40.0786     8.9856     6.4149     8.3911
 1194.0000   127.6098     8.4199    -0.0065     2.4544   -40.0592     9.1817     6.3767     8.3980
 1194.5000   128.1943     8.4219    -0.0093     2.4530   -40.0370     9.5790     6.3699     8.4069
 1195.0000   124.9617     8.4086    -0.0122     2.4576   -40.0148     9.9934     6.3432     8.4143
 1195.5000   127.6891     8.4259    -0.0150     2.4622   -39.9905    10.1390     6.3485     8.3966
 1196.0000   133.6898     8.4279    -0.0148     2.4638   -39.9690     9.9405     6.3538     8.2574
 1196.5000   129.2632     8.4300    -0.0131     2.4541   -39.9482     9.6768     6.3591     8.1448
 1197.0000   128.9953     8.4320    -0.0130     2.4587   -39.9259     9.4855     6.3652     8.0184
 1197.5000   128.7478     8.4341    -0.0112     2.4655   -39.9038     9.3626     6.3703     7.9450
 1198.0000   126.6991     8.4365    -0.0079     2.4716   -39.8773     9.3721     6.3749     7.8977
 1198.5000   124.6245     8.4386    -0.0063     2.4672   -39.8558     9.8455     6.3807     7.9617
 1199.0000   122.2209     8.4406    -0.0047     2.4604   -39.8373    10.2006     6.3417     8.0244
 1199.5000   123.8466     8.4426    -0.0046     2.4614   -39.8127    10.4232     6.3369     8.2000
 1200.0000   128.3548     8.4446    -0.0045     2.4652   -39.7911     8.8957     6.3081     8.2646
 1200.5000   126.9031     8.4466    -0.0059     2.4690   -39.7695     7.9908     6.2698     8.2157
 1201.0000   129.9391     8.4487    -0.0073     2.4721   -39.7480     7.4953     6.2750     8.2251
 1201.5000   132.6665     8.4507    -0.0072     2.4722   -39.7263     7.3307     6.2811     8.1761
 1202.0000   130.0208     8.4527    -0.0071     2.4745   -39.6830     7.2029     6.2428     8.1256
 1202.5000   128.5588     8.4552    -0.0041     2.4813   -39.6200     7.1105     6.2478     8.1915
 1203.0000   129.6203     8.4572     0.0005     2.4882   -39.5570     7.0438     6.2529     8.1639
 1203.5000   130.1819     8.4525     0.0068     2.4937   -39.4940     6.9508     6.2147     8.1196
 1204.0000   127.9893     8.4468     0.0128     2.4992   -39.4310     6.8813     6.2077     8.0752
 1204.5000   125.3303     8.4410     0.0143     2.5079   -39.3680     6.7978     6.1556     8.0309
 1205.0000   124.1640     8.4344     0.0144     2.5042   -39.3050     6.7570     6.1035     7.9407
 1205.5000   122.3196     8.4511     0.0145     2.5028   -39.2420     6.7631     6.0514     7.9471
 1206.0000   124.2262     8.4377     0.0161     2.5059   -39.1790     6.7231     5.9993     7.9535
 1206.5000   126.3433     8.4400     0.0177     2.5082   -39.1161     6.7762     5.9472     8.0157
 1207.0000   126.0725     8.4419     0.0208     2.5098   -39.0531     6.7813     5.9301     8.1896
 1207.5000   124.0106     8.4438     0.0224     2.5121   -38.9901     6.7876     5.9789     8.2545
 1208.0000   121.9487     8.4457     0.0225     2.5032   -38.9271     6.7936     5.9984     8.2043
 1208.5000   120.7754     8.4476     0.0226     2.4950   -38.8641     6.7869     6.0324     8.1980
 1209.0000   120.8099     8.4495     0.0212     2.4861   -38.8011     6.7586     5.9972     8.0491
 1209.5000   121.7331     8.4666     0.0212     2.4795   -38.7432     6.7660     6.0043     7.9996
 1210.0000   122.0597     8.4685     0.0153     2.4765   -38.6873     6.7150     6.0094     8.0067
 1210.5000   122.0881     8.4703     0.0124     2.4774   -38.6315     6.6839     6.0161     7.9033
 1211.0000   121.5244     8.4722     0.0095     2.4805   -38.5757     6.6443     5.9919     7.7842
 1211.5000   121.2467     8.4741     0.0051     2.4858   -38.5198     6.6497     5.9375     7.6993
 1212.0000   122.1767     8.4759     0.0037     2.4867   -38.4640     6.6560     5.8700     7.6538
 1212.5000   124.5924     8.4779     0.0008     2.4830   -38.4081     6.6649     5.7691     7.6075
 1213.0000   123.4260     8.4945    -0.0022     2.4830   -38.3523     6.7141     5.6912     7.6665
 1213.5000   121.9612     8.4969    -0.0021     2.4854   -38.2965     6.7201     5.6090     7.7821
 1214.0000   119.8992     8.5280    -0.0035     2.4877   -38.2406     6.7262     5.5547     7.8950
 1214.5000   120.8224     8.5451    -0.0034     2.4908   -38.1848     6.7790     5.4955     8.0292
 1215.0000   122.3433     8.5618    -0.0033     2.4894   -38.1290     6.7950     5.4349     8.2422
 1215.5000   121.7801     8.5637    -0.0032     2.4865   -38.0731     6.8384     5.3658     8.3636
 1216.0000   119.7182     8.5503    -0.0016     2.4820   -38.0173     6.8927     5.2973     8.4867
 1216.5000   119.4404     8.5526     0.0000     2.4776   -37.9615     6.8983     5.1907     8.5525
 1217.0000   119.1696     8.5545     0.0031     2.4807   -37.9056     6.9528     5.1632     8.5596
 1217.5000   118.0101     8.5564     0.0047     2.4853   -37.8498     6.9785     5.1325     8.5858
 1218.0000   116.5452     8.5583     0.0050     2.4869   -37.7940     7.0306     5.1378     8.6941
 1218.5000   114.1848     8.5453     0.0064     2.4870   -37.7381     7.0686     5.0955     8.7605
 1219.0000   112.4214     8.5324     0.0049     2.4855   -37.6823     7.1252     5.0780     8.7685
 1219.5000   111.8520     8.5199     0.0035     2.4841   -37.6265     7.1315     5.1020     8.7147
 1220.0000   111.8806     8.5065     0.0036     2.4805   -37.5752     7.1369     5.1601     8.6605
 1220.5000   113.4068     8.5089     0.0052     2.4745   -37.5997     7.1440     5.2738     8.7293
 1221.0000   115.5240     8.4955     0.0083     2.4814   -37.6225     7.2005     5.3529     8.7969
 1221.5000   116.7387     8.4682     0.0114     2.4874   -37.6452     7.2672     5.3583     8.8652
 1222.0000   113.7882     8.4548     0.0160     2.4965   -37.6679     7.3408     5.2534     8.9961
 1222.5000   113.5104     8.4571     0.0191     2.5026   -37.6906     7.3705     5.1477     9.1285
 1223.0000   112.3510     8.4590     0.0207     2.5057   -37.7134     7.3771     5.1204     9.2636
 1223.5000   109.3935     8.4609     0.0208     2.5072   -37.7361     7.4348     5.2708     9.4012
 1224.0000   112.1077     8.4628     0.0209     2.5073   -37.7588     7.3899     5.4436     9.5002
 1224.5000   113.3294     8.4651     0.0209     2.5067   -37.7815     7.3981     5.6606     9.6795
 1225.0000   110.8204     8.4670     0.0210     2.5127   -37.8042     7.4046     5.7058     9.7280
 1225.5000   108.0185     8.4689     0.0226     2.5181   -37.8270     7.4933     5.7116     9.7623
