~VERSION INFORMATION
 VERS.                2.0:   CWLS LOG ASCII STANDARD - VERSION 2.0
 WRAP.                 NO:   ONE LINE PER DEPTH STEP
~WELL INFORMATION
#MNEM.UNIT      DATA TYPE    INFORMATION
#----------   ------------   ------------------------------
 STRT.F          204.0000:   START DEPTH
 STOP.F         3104.0000:   STOP DEPTH
 STEP.F            0.5000:   STEP LENGTH
 NULL.          -999.2500:   NO VALUE
 COMP.    FENIX & SCISSON:   COMPANY
 WELL. FENIX NPR 83 "AX" #3-10:   WELL
 FLD .                NPR:   FIELD
 LOC .      S10 T38N R78W:   LOCATION
 CNTY.            NATRONA:   COUNTY
 STAT.            WYOMING:   STATE
 CTRY. UNITED STATES OF AMERICA:   COUNTRY
 SRVC.              WELEX:   SERVICE COMPANY
 DATE.        14-JUL-1977:   LOGDATE
 API .     49025103980000:   API NUMBER
~CURVE INFORMATION
#MNEM.UNIT       API CODE    CURVE DESCRIPTION
#----------   ------------   ------------------------------
 DEPT.F                  :   
 ILD .OHMM   07 120 46 00:   DEEP INDUCTION RESISTIVITY
 GURD.OHMM   07 220 05 00:   GUARD LOG RESISTIVITY
 ILM .OHMM   07 120 44 00:   INDUCTION LOG MEDIUM RESISTIVITY
 SPR .MV     07 010 01 00:   SPONTANEOUS POTENTIAL
 CALD.IN     45 280 60 00:   CALIPER FROM DENSITY LOG
 GRD .GAPI   45 310 01 00:   GAMMA RAY FROM DENSITY LOG
 RHOB.G/C3   45 350 01 00:   BULK DENSITY
 CORR.G/C3   45 356 01 00:   DENSITY CORRECTION
 NPHI.DEC    42 890 03 00:   NEUTRON POROSITY SANDSTONE
~PARAMETER INFORMATION
#MNEM.UNIT          VALUE    DESCRIPTION
#----------   ------------   ------------------------------
 EKB .F         5176.0000:   Kelly bushing
 EGL .F         5166.0000:   Ground level
 TD  .F         3105.0000:   Total depth
 DATE.        14-JUL-1977:   Date logged
 CLNT.            A2DTECH:   Client Code
 SL  . 1650' FNL & 100' FEL:   Surface Location
 PD  .                 GL:   Permanent Datum
 DD  .F              3094:   Depth driller
 DL  .F              3105:   Depth logger
 BLI .F              3103:   Bottom log interval
 CS1 .IN            8.625:   Casing size
 CBD1.      8.625" @ 218':   Casing driller 1
 CBL1.F               220:   Casing logger 1
 BS1 .IN            7.875:   Bit size
 DFT .            KCL/GEL:   Type fluid in hole
 DFD .                9.4:   Density
 DFV .                 36:   Viscosity
 DFPH.                  8:   pH
 DFL .                 12:   Fluid loss
 MSS .           FLOWLINE:   Source of sample
 RMS .OHMM           1.54:   Rm
 MST .F               100:   Rm Meas. temp.
 RMF .OHMM            1.5:   Rmf
 MFST.F               100:   Rmf Meas. temp.
 RMC .OHMM           3.47:   Rmc
 MCST.F               100:   Rmc Meas. temp.
 MFSS.               FANN:   Source Rmf.
 RMB .OHMM           1.36:   Rm. at BHT
 BHT .F               113:   BHT.
 TCS .HRS             2.5:   Time Circ. stopped
 MRT .F               113:   Maximum recorded temp.
 LUN .               8766:   Logging unit number
 LUL .             CASPER:   Logging unit location
 ENGI. G. BENTSEN/T. JOYNER:   Recorded By
 WITN.      B. HARRINGTON:   Witnessed by
 ORIG.           5" PRINT:   Origin of data
 UWI .     49025103980000:   Unique Well ID
 DICO. A2D TECHNOLOGIES, INC.:   Digitizing Company
 DAPD.F                10:   Feet Above Permanent Datum
 BSD1.F              3094:   Depth drilled with bit1
 MCSS.                KIT:   Source Rmc.
 TLI .F               210:   Top log interval
 EPD .F              5166:   Elevation Permanent Datum
 LMF .                 KB:   Log Measured From
 DMF .                 KB:   Drilling Measured From
~OTHER INFORMATION
~A   DEPT      ILD       GURD        ILM        SPR       CALD        GRD       RHOB       CORR       NPHI   
# ...
 2686.0000    11.9670    13.5840    13.7370   -32.5890     9.0110    90.5060     2.4470     0.0460     0.1710
 2686.5000    12.2070    14.3130    14.9870   -32.7600     9.0310    89.2660     2.4400     0.0420     0.1720
 2687.0000    12.4260    14.7450    16.2370   -32.9310     9.0520    90.1220     2.4330     0.0380     0.1710
 2687.5000    12.6400    14.4060    17.4880   -33.1010     9.0690    90.9780     2.4310     0.0350     0.1700
 2688.0000    12.8530    14.0610    17.7370   -33.2720     9.0690    91.8300     2.4480     0.0420     0.1690
 2688.5000    13.0670    13.7160    16.4030   -33.4260     9.0690    92.7080     2.4700     0.0530     0.1680
 2689.0000    13.3200    13.4440    15.2940   -33.5580     9.0690    93.6500     2.4590     0.0470     0.1670
 2689.5000    13.2380    13.5580    14.1860   -33.6900     9.0690    94.6370     2.4420     0.0390     0.1660
 2690.0000    13.1040    12.8910    13.3200   -33.7900     9.0690    94.1180     2.4250     0.0320     0.1650
 2690.5000    12.9690    12.2570    13.9530   -33.8530     9.0690    93.1830     2.4170     0.0250     0.1630
 2691.0000    12.8350    12.8340    14.5750   -33.9150     9.0690    92.2420     2.4170     0.0250     0.1640
 2691.5000    12.7010    13.3060    15.3000   -33.9620     9.0690    91.3010     2.4190     0.0280     0.1650
 2692.0000    12.5670    13.8960    14.8620   -33.9600     9.0690    90.7290     2.4300     0.0320     0.1670
 2692.5000    12.4330    13.6960    14.4750   -33.9600     9.0690    92.4850     2.4420     0.0360     0.1680
 2693.0000    12.2990    13.2980    14.9000   -33.9600     9.0690    94.4370     2.4530     0.0400     0.1690
 2693.5000    12.1450    12.9000    15.3000   -33.9600     9.0690    96.3470     2.4460     0.0430     0.1700
 2694.0000    12.1890    12.6020    15.1500   -33.9600     9.0690    95.6810     2.4350     0.0410     0.1700
 2694.5000    12.2890    12.7320    15.0200   -33.9600     9.0690    91.6860     2.4240     0.0390     0.1710
 2695.0000    12.3880    12.8370    15.4560   -33.9610     9.0690    93.8400     2.4130     0.0370     0.1700
 2695.5000    12.4870    12.9420    16.3900   -33.9770     9.0690    96.9590     2.4090     0.0350     0.1690
 2696.0000    12.5870    13.2820    17.8180   -34.0110     9.0690    97.2120     2.4120     0.0350     0.1690
 2696.5000    12.7190    14.5030    18.7480   -34.0450     9.0690    96.2860     2.4140     0.0350     0.1700
 2697.0000    12.6590    15.7600    17.9090   -34.0790     9.0690    95.3340     2.4110     0.0350     0.1720
 2697.5000    12.5700    15.0760    16.9480   -34.1130     9.0690    94.3840     2.4060     0.0350     0.1730
 2698.0000    12.4800    13.6940    15.9870   -34.1490     9.0640    93.4350     2.4020     0.0350     0.1740
 2698.5000    12.3910    13.7570    15.2870   -34.1240     9.0530    92.4880     2.4030     0.0360     0.1770
 2699.0000    12.3020    13.9500    14.4270   -34.0570     9.0420    91.5290     2.4050     0.0380     0.1800
 2699.5000    12.1730    13.4850    13.6590   -33.9890     9.0320    91.2040     2.4080     0.0400     0.1820
 2700.0000    11.8890    12.5460    13.1070   -33.9220     9.0210    91.7820     2.4100     0.0410     0.1850
 2700.5000    11.6050    11.7070    12.5550   -33.8540     9.0100    92.3720     2.4110     0.0410     0.1870
 2701.0000    11.3200    11.7330    12.0030   -33.7860     8.9990    92.9590     2.4070     0.0400     0.1870
 2701.5000    11.0360    11.7590    11.4510   -33.7180     8.9890    93.5410     2.4030     0.0380     0.1870
 2702.0000    10.6710    11.7850    11.0730   -33.6500     8.9780    94.1470     2.3980     0.0370     0.1850
 2702.5000    11.3130    11.8130    11.2260   -33.5800     8.9670    93.4840     2.3960     0.0360     0.1840
 2703.0000    12.2090    12.1440    11.3420   -33.5970     8.9570    92.3130     2.3980     0.0360     0.1820
 2703.5000    13.1040    12.5040    11.4580   -33.6390     8.9460    91.5970     2.4100     0.0360     0.1780
 2704.0000    14.0000    13.0210    11.7280   -33.6830     8.9350    92.9600     2.4230     0.0360     0.1750
 2704.5000    14.8950    13.5960    12.0550   -33.7260     8.9250    94.3790     2.4360     0.0410     0.1720
 2705.0000    15.7910    14.1710    12.3820   -33.7690     8.9140    95.8190     2.4490     0.0450     0.1680
 2705.5000    17.0930    14.7460    12.7090   -33.8130     8.9030    94.3410     2.4490     0.0400     0.1670
 2706.0000    17.0420    15.3210    13.0360   -33.8560     8.8930    91.7220     2.4420     0.0360     0.1670
 2706.5000    16.9480    15.8960    13.3630   -33.8990     8.8820    93.8330     2.4390     0.0310     0.1700
 2707.0000    16.8540    16.4710    13.4960   -33.9420     8.8710    95.4050     2.4440     0.0300     0.1720
 2707.5000    16.7610    17.0460    13.5660   -33.9060     8.8600    92.9780     2.4490     0.0340     0.1750
 2708.0000    16.6670    17.6260    13.6360   -33.8160     8.8500    90.6370     2.4540     0.0370     0.1770
 2708.5000    16.3000    18.4040    13.6940   -33.7260     8.8390    89.0650     2.4590     0.0410     0.1790
 2709.0000    15.7220    16.9310    13.2910   -33.6360     8.8280    88.7330     2.4570     0.0440     0.1790
 2709.5000    15.1450    15.0160    13.0050   -33.5450     8.8180    88.4370     2.4470     0.0480     0.1770
 2710.0000    14.5680    13.4440    12.7190   -33.4540     8.8070    89.7640     2.4450     0.0490     0.1760
 2710.5000    13.9910    13.2750    12.4330   -33.3700     8.7960    91.2560     2.4460     0.0480     0.1740
 2711.0000    13.4140    13.1040    12.1470   -33.4290     8.7940    92.7450     2.4470     0.0470     0.1730
 2711.5000    12.8370    12.9320    11.8620   -33.4920     8.7940    94.2430     2.4360     0.0450     0.1730
 2712.0000    12.2570    12.7600    11.5760   -33.5510     8.7940    94.4460     2.4180     0.0420     0.1730
 2712.5000    12.3630    12.4860    11.2900   -33.6700     8.7940    93.9260     2.4120     0.0380     0.1750
 2713.0000    12.4960    12.5300    11.0870   -33.7940     8.7940    93.4000     2.4150     0.0340     0.1760
 2713.5000    12.6950    12.6400    11.1560   -33.9180     8.7940    92.8740     2.4250     0.0350     0.1770
 2714.0000    13.1430    12.7500    11.2940   -34.0430     8.7940    92.3490     2.4350     0.0380     0.1780
 2714.5000    13.5910    12.9480    11.4310   -34.1680     8.7940    91.8260     2.4360     0.0410     0.1780
 2715.0000    14.0400    13.4680    11.5690   -34.2920     8.7940    91.3230     2.4340     0.0440     0.1780
 2715.5000    14.9230    13.9880    11.7060   -34.4160     8.7940    89.5090     2.4470     0.0470     0.1780
 2716.0000    16.0720    15.0740    11.9220   -34.5420     8.7890    87.3560     2.4620     0.0500     0.1780
 2716.5000    17.4120    16.2800    11.9050   -34.7420     8.7620    85.1850     2.4760     0.0530     0.1760
 2717.0000    16.0950    17.4860    11.8640   -34.9530     8.7360    84.5920     2.4790     0.0520     0.1750
 2717.5000    14.5130    18.4040    11.8240   -35.1640     8.7100    85.4690     2.4640     0.0500     0.1740
 2718.0000    12.9320    14.2350    11.7830   -35.3750     8.6840    86.3690     2.4570     0.0480     0.1720
 2718.5000    12.3050    12.3480    11.7420   -35.5850     8.6580    87.2740     2.4650     0.0500     0.1710
 2719.0000    12.2040    12.2960    11.7040   -35.7960     8.6320    88.2140     2.4750     0.0520     0.1690
 2719.5000    12.1030    12.2570    11.6470   -36.0070     8.6060    88.2050     2.4840     0.0530     0.1700
 2720.0000    12.0010    13.9660    11.5940   -36.2170     8.5800    86.4430     2.4870     0.0530     0.1700
 2720.5000    11.9000    15.5850    11.5400   -36.4290     8.5540    84.6680     2.4820     0.0500     0.1710
 2721.0000    11.7980    14.4410    11.4900   -36.6400     8.5350    82.8860     2.4760     0.0480     0.1720
 2721.5000    11.7040    13.4440    10.9800   -36.8970     8.5170    81.0300     2.4710     0.0500     0.1710
 2722.0000    11.4750    12.8110    10.5030   -37.1890     8.4990    82.7820     2.4660     0.0520     0.1700
