~VERSION INFORMATION
 VERS.                2.0:   CWLS LOG ASCII STANDARD - VERSION 2.0
 WRAP.                 NO:   ONE LINE PER DEPTH STEP
~WELL INFORMATION
#MNEM.UNIT      DATA TYPE    INFORMATION
#----------   ------------   ------------------------------
 STRT.F            0.0000:   START DEPTH
 STOP.F         1064.0000:   STOP DEPTH
 STEP.F            0.5000:   STEP LENGTH
 NULL.          -999.2500:   NO VALUE
 COMP.  JOHN BROWN E. & C:   COMPANY
 WELL. JOHN BROWN NPR 3-1 "X" #68-2:   WELL
 FLD .                NPR:   FIELD
 LOC .       S2 T38N R78W:   LOCATION
 CNTY.            NATRONA:   COUNTY
 STAT.            WYOMING:   STATE
 CTRY. UNITED STATES OF AMERICA:   COUNTRY
 SRVC.     ATLAS WIRELINE:   SERVICE COMPANY
 DATE.        25-JAN-1992:   LOGDATE
 API .     49025224850000:   API NUMBER
~CURVE INFORMATION
#MNEM.UNIT       API CODE    CURVE DESCRIPTION
#----------   ------------   ------------------------------
 DEPT.F                  :   
 GRR .GAPI   07 310 01 00:   GAMMA RAY FROM RESISTIVITY
 TENR.LBS    07 635 01 00:   TENSION
 RILD.OHMM   07 120 46 00:   INDUCTION LOG DEEP RESISTIVITY
 RILM.OHMM   07 120 44 00:   INDUCTION LOG MEDIUM RESISTIVITY
~PARAMETER INFORMATION
#MNEM.UNIT          VALUE    DESCRIPTION
#----------   ------------   ------------------------------
 EKB .F         5197.0000:   Kelly bushing
 EGL .F         5187.0000:   Ground level
 TD  .F         1060.0000:   Total depth
 DATE.        25-JAN-1992:   Date logged
 CLNT.            A2DTECH:   Client Code
 PD  .                 GL:   Permanent Datum
 EPD .F               518:   Elevation Permanent Datum
 LMF .                 KB:   Log Measured From
 DMF .                 KB:   Drilling Measured From
 DAPD.F                10:   Feet Above Permanent Datum
 DD  .F              1060:   Depth driller
 DL  .F              1057:   Depth logger
 BLI .F              1055:   Bottom log interval
 CS1 .IN            10.75:   Casing size
 CBD1.       10.75" @ 50':   Casing driller 1
 CBL1.F                50:   Casing logger 1
 BS1 .IN             8.75:   Bit size
 BSD1.F              1060:   Depth drilled with bit1
 DFT .                AIR:   Type fluid in hole
 LUN .            HL-6307:   Logging unit number
 LUL .             CASPER:   Logging unit location
 ENGI.             ZIEGER:   Recorded By
 WITN.             STRONG:   Witnessed by
 ORIG.           5" PRINT:   Origin of data
 UWI .     49025224850000:   Unique Well ID
 DICO. A2D TECHNOLOGIES, INC.:   Digitizing Company
~OTHER INFORMATION
~A    DEPT      GRR      TENR       RILD       RILM   
# ...
  511.0000   132.6230   -36.3730     5.9080     5.7470
  511.5000   132.6280   -36.2210     5.9470     5.7830
  512.0000   133.8130   -36.0700     5.9870     5.8760
  512.5000   135.0480   -35.9190     6.0180     5.9690
  513.0000   135.3940   -35.7680     6.1470     6.0620
  513.5000   134.2510   -35.6170     6.2760     6.1560
  514.0000   131.7050   -35.4650     6.4040     6.2490
  514.5000   129.3240   -35.3140     6.4940     6.3420
  515.0000   127.7830   -35.1630     6.5270     6.4350
  515.5000   125.0510   -35.0120     6.6130     6.5280
  516.0000   122.9900   -34.8610     6.7300     6.6220
  516.5000   125.4830   -34.7100     6.8470     6.7150
  517.0000   128.7910   -34.5580     6.9130     6.7860
  517.5000   130.3990   -34.4070     6.9130     6.7860
  518.0000   129.5000   -35.8910     6.9130     6.7690
  518.5000   128.6810   -38.2890     6.9130     6.6990
  519.0000   127.8770   -40.6860     6.9130     6.6290
  519.5000   127.3260   -43.0840     6.8570     6.5590
  520.0000   127.6650   -42.0760     6.8040     6.4900
  520.5000   130.0260   -37.0410     6.6940     6.4000
  521.0000   132.4220   -35.4710     6.5790     6.3070
  521.5000   132.7910   -37.8680     6.4650     6.2150
  522.0000   130.9450   -40.2660     6.3500     6.1220
  522.5000   131.6220   -42.6640     6.2450     6.0290
  523.0000   134.9040   -45.4790     6.1680     6.0070
  523.5000   136.6830   -49.3520     6.1300     5.9840
  524.0000   131.9540   -53.2250     6.2260     5.9630
  524.5000   128.0670   -54.4130     6.3650     6.2750
  525.0000   130.1240   -54.4130     6.5030     6.4420
  525.5000   131.6780   -54.4130     6.6420     6.5590
  526.0000   131.6520   -47.3120     6.7800     6.6760
  526.5000   129.2090   -37.2420     6.9190     6.7920
  527.0000   128.8040   -37.7730     7.0420     6.8960
  527.5000   128.1310   -42.5680     7.0920     6.9750
  528.0000   127.1140   -47.3640     7.1070     6.9560
  528.5000   127.7620   -52.1590     7.0690     6.9370
  529.0000   130.6250   -53.7850     7.0280     6.9180
  529.5000   132.0600   -52.6010     6.9880     6.7950
  530.0000   127.8430   -51.4160     6.8350     6.6330
  530.5000   125.3460   -50.2310     6.6420     6.4720
  531.0000   126.0680   -49.0470     6.4500     6.3110
  531.5000   126.8270   -47.8620     6.2570     6.1500
  532.0000   128.0960   -46.6770     6.0180     5.9890
  532.5000   131.0400   -45.4920     6.0340     5.8540
  533.0000   131.3060   -44.3080     6.0620     5.9750
  533.5000   129.8240   -43.1230     6.1060     6.0790
  534.0000   128.2580   -41.9380     6.1630     6.1840
  534.5000   125.8080   -40.7530     6.2590     6.2880
  535.0000   125.0880   -39.5690     6.3850     6.3920
  535.5000   122.9130   -38.3840     6.5100     6.4970
  536.0000   119.2400   -37.1990     6.6350     6.5780
  536.5000   111.5940   -36.0150     6.7170     6.6420
  537.0000   111.6680   -34.8300     6.7860     6.7070
  537.5000   117.4960   -34.8900     6.8920     6.7720
  538.0000   121.7390   -35.7900     6.9180     6.8360
  538.5000   125.4870   -36.6890     6.9310     6.8680
  539.0000   129.2760   -37.5880     6.9440     6.8920
  539.5000   132.0040   -38.4870     6.9570     6.9150
  540.0000   133.3710   -39.3860     6.9690     6.9390
  540.5000   134.4050   -40.2850     6.9930     6.9620
  541.0000   134.6010   -41.1840     7.0310     6.9860
  541.5000   134.2180   -42.0830     7.0700     7.0090
  542.0000   133.0370   -42.9830     7.1070     7.0390
  542.5000   131.2470   -43.8820     7.0550     6.9830
  543.0000   130.8120   -43.9920     6.9880     6.8910
  543.5000   132.0090   -43.1080     6.9040     6.8000
  544.0000   132.9860   -42.2240     6.8200     6.7080
  544.5000   132.4360   -41.3400     6.7360     6.6160
  545.0000   131.1560   -40.4560     6.6520     6.5240
  545.5000   131.0140   -39.5720     6.5680     6.4330
  546.0000   132.5230   -38.6880     6.5310     6.4030
  546.5000   131.6840   -37.8040     6.5130     6.3830
  547.0000   127.9380   -36.9200     6.4950     6.3610
  547.5000   124.6210   -36.0360     6.4770     6.3700
  548.0000   126.0840   -35.1520     6.4590     6.3880
  548.5000   127.6080   -34.2680     6.4400     6.4070
  549.0000   129.1120   -33.3840     6.4200     6.4250
  549.5000   130.6120   -32.5000     6.4620     6.4430
  550.0000   131.6040   -31.6160     6.5230     6.4620
  550.5000   132.0790   -30.7320     6.5830     6.4800
  551.0000   132.5640   -29.8480     6.6010     6.4980
  551.5000   132.4080   -28.9640     6.6010     6.5170
  552.0000   132.2020   -28.0800     6.6010     6.5350
  552.5000   131.9950   -27.1960     6.6010     6.5500
  553.0000   131.7990   -26.3120     6.6170     6.5650
  553.5000   132.1910   -25.4280     6.6480     6.5790
  554.0000   132.1350   -24.5440     6.6790     6.5930
  554.5000   128.9730   -24.3230     6.7100     6.6070
  555.0000   125.8640   -24.3230     6.7240     6.6220
  555.5000   127.4680   -24.3230     6.7530     6.6360
  556.0000   131.3700   -28.6260     6.7830     6.6500
  556.5000   133.6100   -36.1940     6.8130     6.6760
  557.0000   134.0910   -43.7610     6.8430     6.7560
  557.5000   134.6300   -51.3290     6.9180     6.8360
  558.0000   136.2680   -50.4280     7.0060     6.9170
  558.5000   136.4030   -43.7010     7.0940     6.9970
  559.0000   135.9540   -36.9740     7.1820     7.0770
  559.5000   135.4940   -33.2530     7.2690     7.1570
  560.0000   134.9970   -31.4510     7.3570     7.2370
  560.5000   133.8850   -29.6500     7.4430     7.3170
  561.0000   134.9530   -27.8480     7.4330     7.3980
  561.5000   138.4480   -26.0460     7.4210     7.4640
  562.0000   142.0380   -24.3230     7.4090     7.5120
  562.5000   143.4130   -28.2240     7.3970     7.5590
  563.0000   143.2810   -31.9610     7.3860     7.6070
  563.5000   142.3480   -35.6980     7.3740     7.6520
  564.0000   139.0250   -39.4350     7.4800     7.6930
  564.5000   138.7190   -43.1720     7.5800     7.7320
  565.0000   140.6150   -44.0890     7.6860     7.7700
  565.5000   139.5560   -43.6540     7.8090     7.8090
  566.0000   137.3690   -43.2190     7.9310     7.8480
  566.5000   136.5090   -42.7840     8.0530     7.9330
  567.0000   137.0160   -42.3490     8.1630     8.0650
  567.5000   135.6730   -41.9150     8.3200     8.1980
  568.0000   130.7350   -41.4800     8.4620     8.3300
  568.5000   126.4030   -41.0450     8.6050     8.4630
  569.0000   126.5970   -40.6100     8.7470     8.5960
  569.5000   129.5330   -40.1750     8.8890     8.7280
  570.0000   133.0540   -39.7400     9.0310     8.8610
  570.5000   135.4100   -39.3050     9.1730     8.9930
  571.0000   132.4530   -38.8700     9.3150     9.1260
  571.5000   127.0490   -38.4350     9.4640     9.2900
  572.0000   121.5540   -38.0000     9.5020     9.2470
  572.5000   118.6000   -37.5650     9.5420     9.1900
  573.0000   121.8150   -37.1300     9.5510     9.1320
  573.5000   126.1260   -36.6950     9.4360     9.0750
  574.0000   130.4840   -36.2610     9.3370     9.0180
  574.5000   132.2420   -35.8260     9.2380     8.9610
  575.0000   133.3790   -35.3910     9.1400     8.9030
  575.5000   134.4930   -34.9560     9.1090     8.8460
  576.0000   135.5910   -34.5210     9.0950     8.7890
  576.5000   136.0090   -34.4740     9.0810     8.7090
  577.0000   135.6420   -34.6700     9.0670     8.7630
  577.5000   135.7790   -34.8660     9.0530     8.8080
  578.0000   138.0220   -35.0630     9.0390     8.8530
  578.5000   139.2500   -35.2590     9.0360     8.8980
  579.0000   137.7350   -35.4550     9.1480     8.9430
  579.5000   133.6270   -35.6520     9.2560     8.9880
  580.0000   131.4980   -35.8480     9.3630     9.0330
  580.5000   131.9530   -36.0440     9.4640     9.0780
  581.0000   131.7410   -36.2410     9.3900     9.1200
  581.5000   128.3330   -36.4370     9.3390     9.1200
  582.0000   124.4530   -36.6330     9.2600     8.9690
  582.5000   121.7530   -36.8300     9.1810     8.7970
  583.0000   122.7160   -37.0260     9.1030     8.6250
  583.5000   127.7150   -37.2220     9.0240     8.4710
