~VERSION INFORMATION
 VERS.                2.0:   CWLS LOG ASCII STANDARD - VERSION 2.0
 WRAP.                 NO:   ONE LINE PER DEPTH STEP
~WELL INFORMATION
#MNEM.UNIT      DATA TYPE    INFORMATION
#----------   ------------   ------------------------------
 STRT.F          164.0000:   START DEPTH
 STOP.F         3223.5000:   STOP DEPTH
 STEP.F            0.5000:   STEP LENGTH
 NULL.          -999.2500:   NO VALUE
 COMP.    FENIX & SCISSON:   COMPANY
 WELL. FENIX & SCISSON "AX" #64-34:   WELL
 FLD . NAVAL PETROLEUM RESERVE #3:   FIELD
 LOC .      S34 T39N R78W:   LOCATION
 CNTY.            NATRONA:   COUNTY
 STAT.            WYOMING:   STATE
 CTRY. UNITED STATES OF AMERICA:   COUNTRY
 SRVC.       SCHLUMBERGER:   SERVICE COMPANY
 DATE.        30-DEC-1980:   LOGDATE
 API .     49025108660000:   API NUMBER
~CURVE INFORMATION
#MNEM.UNIT       API CODE    CURVE DESCRIPTION
#----------   ------------   ------------------------------
 DEPT.F                  :   
 GRD .GAPI   45 310 01 00:   GAMMA RAY FROM DENSITY LOG
 RHOB.G/C3   45 350 01 00:   BULK DENSITY
 CALD.IN     45 280 60 00:   CALIPER FROM DENSITY LOG
 CORR.G/C3   45 356 01 00:   DENSITY CORRECTION
 SPR .MV     07 010 01 00:   SPONTANEOUS POTENTIAL
 TENR.LBS    06 635 01 00:   TENSION FROM RESISTIVITY
 ILD .OHMM   07 120 46 00:   DEEP INDUCTION RESISTIVITY
 ILM .OHMM   07 120 44 00:   INDUCTION LOG MEDIUM RESISTIVITY
 SFL .OHMM   07 220 01 00:   SHALLOW FOCUSED LOG RESISTIVITY
~PARAMETER INFORMATION
#MNEM.UNIT          VALUE    DESCRIPTION
#----------   ------------   ------------------------------
 EKB .F         5088.0000:   Kelly bushing
 EGL .F         5078.0000:   Ground level
 TD  .F         3225.0000:   Total depth
 CLNT.            A2DTECH:   Client Code
 SL  . 3107' FSL & 3680' FWL:   Surface Location
 PD  .                 GL:   Permanent Datum
 EPD .F              5078:   Elevation Permanent Datum
 LMF .                 KB:   Log Measured From
 DMF .                 KB:   Drilling Measured From
 DAPD.F                10:   Feet Above Permanent Datum
 DATE.        30-DEC-1980:   Date Logged [DD-MMM-YYYY]
 DD  .F              3225:   Depth driller
 DL  .F              3225:   Depth logger
 BLI .F              3219:   Bottom log interval
 TLI .F               190:   Top log interval
 CS1 .IN            8.625:   Casing size
 CBD1.      8.625" @ 205':   Casing driller 1
 CBL1.F               190:   Casing logger 1
 BS1 .IN            7.875:   Bit size
 BSD1.F              3225:   Depth drilled with bit1
 DFT .              FRESH:   Type fluid in hole
 DFD .                  9:   Density
 DFV .                 46:   Viscosity
 MSS .           MUD TANK:   Source of sample
 RMS .OHMM           2.47:   Rm
 MST .F                57:   Rm Meas. temp.
 RMF .OHMM           1.45:   Rmf
 MFST.F                57:   Rmf Meas. temp.
 MFSS.               MEAS:   Source Rmf.
 RMB .OHMM            1.2:   Rm. at BHT
 BHT .F               124:   BHT.
 TCS .HRS            0400:   Time Circ. stopped
 MRT .F               124:   Maximum recorded temp.
 LUN .               8034:   Logging unit number
 LUL .               CSPR:   Logging unit location
 ENGI.             LARSON:   Recorded By
 WITN.              FIVAS:   Witnessed by
 ORIG.        2" 5" PRINT:   Origin of data
 UWI .     49025108660000:   Unique Well ID
 DICO. A2D TECHNOLOGIES, INC:   Digitizing Company
 TLAB.HRS            2030:   Time logger at bottom
~OTHER INFORMATION
~A   DEPT       GRD      RHOB       CALD       CORR        SPR       TENR        ILD        ILM        SFL   
# ...
 2974.5000   133.4151     2.5307     9.2069    -0.0008   -35.5030  1593.4805     5.1495     5.2711     6.2948
 2975.0000   132.7921     2.5353     9.2045    -0.0012   -35.5207  1593.0238     5.1841     5.2661     6.3814
 2975.5000   131.1029     2.5167     9.2022    -0.0016   -35.9925  1592.5670     5.2557     5.3003     6.6106
 2976.0000   125.4724     2.5073     9.2306    -0.0016   -36.1595  1592.1104     5.2892     5.3346     7.0528
 2976.5000   123.6354     2.5026     9.2287     0.0004   -36.1740  1591.6534     5.3237     5.4081     7.1452
 2977.0000   125.1369     2.5010     9.2270     0.0039   -36.1890  1591.1968     5.2810     5.3255     6.9858
 2977.5000   128.0040     2.5041     9.2401     0.0093   -36.2067  1590.7400     5.2396     5.2076     6.8312
 2978.0000   130.2764     2.5219     9.2534     0.0150   -36.3736  1590.2832     5.1611     5.2037     6.6321
 2978.5000   131.4582     2.5475     9.2510     0.0204   -36.3882  1589.8265     5.0838     5.1998     6.4842
 2979.0000   132.2009     2.5513     9.2492     0.0288   -36.6259  1589.3696     5.0795     5.1959     6.4327
 2979.5000   132.9436     2.5536     9.2473     0.0409   -36.7327  1588.9130     5.0396     5.1910     6.4279
 2980.0000   132.7759     2.5566     9.2454     0.0489   -36.8902  1588.4563     5.0000     5.1870     6.4707
 2980.5000   131.6976     2.5645     9.2284     0.0506   -36.9072  1587.9994     4.9608     5.1089     6.4646
 2981.0000   128.9499     2.5628     9.2416     0.0498   -37.0741  1587.5427     4.9217     5.0319     6.3662
 2981.5000   129.3895     2.5573     9.2393     0.0498   -37.0887  1587.0861     4.9176     4.9913     6.2703
 2982.0000   132.4044     2.5533     9.2374     0.0498   -37.4085  1586.6292     4.8440     4.8805     6.1316
 2982.5000   136.7890     2.5533     9.2355     0.0498   -37.4262  1586.1725     4.8059     4.8348     6.0393
 2983.0000   139.8079     2.5540     9.2336     0.0500   -36.9798  1585.7156     4.7682     4.7346     5.9896
 2983.5000   140.0956     2.5501     9.2314     0.0505   -36.4838  1585.2589     4.6623     4.6633     5.8578
 2984.0000   137.3351     2.5431     9.2294     0.0505   -35.9554  1584.8022     4.6257     4.5912     5.7696
 2984.5000   133.9896     2.5422     9.2429     0.0505   -35.6550  1584.3455     4.6225     4.5230     5.6828
 2985.0000   134.1253     2.5492     9.2465     0.0505   -35.3646  1583.8887     4.6194     4.4871     5.6377
 2985.5000   135.4750     2.5453     9.2544     0.0487   -35.2267  1583.4319     4.6162     4.5162     5.5128
 2986.0000   137.5875     2.5124     9.2521     0.0447   -35.2449  1582.9751     4.6123     4.5128     5.4682
 2986.5000   136.3535     2.5094     9.2498     0.0387   -35.2594  1582.3119     4.6091     4.5093     5.5037
 2987.0000   134.4427     2.5373     9.2636     0.0444   -35.4268  1581.5209     4.6060     4.5714     5.6197
 2987.5000   131.7652     2.5590     9.2614     0.0485   -35.7494  1580.7339     4.6362     4.6002     5.8636
 2988.0000   130.2317     2.5621     9.2593     0.0496   -35.9146  1579.9468     4.6664     4.6309     5.9016
 2988.5000   129.3053     2.5395     9.2574     0.0481   -36.0823  1579.1597     4.6961     4.6938     5.8117
 2989.0000   128.3788     2.5166     9.2555     0.0438   -36.2502  1578.3727     4.7276     4.7583     5.8073
 2989.5000   126.2101     2.5068     9.2535     0.0253   -36.5041  1577.5854     4.7930     4.8238     5.9298
 2990.0000   123.4909     2.5106     9.2515     0.0059   -36.5854  1576.7983     4.8583     4.9247     6.2829
 2990.5000   125.2919     2.5215     9.2494     0.0042   -36.7938  1576.0114     4.9602     5.0650     6.4557
 2991.0000   127.5521     2.5191     9.2539     0.0034   -37.0969  1575.2241     5.0651     5.1719     6.4033
 2991.5000   127.3843     2.5136     9.2608     0.0021   -37.3935  1574.4371     5.1730     5.2054     6.2616
 2992.0000   125.8509     2.5089     9.2588     0.0003   -37.8862  1573.6500     5.2061     5.2391     6.1674
 2992.5000   125.5314     2.5213     9.2566    -0.0005   -38.4933  1572.8630     5.2400     5.2342     6.1627
 2993.0000   126.5736     2.5298     9.2547    -0.0006   -38.9651  1572.0758     5.2743     5.2691     6.2475
 2993.5000   126.1024     2.5391     9.2528     0.0007   -39.1321  1571.2888     5.3079     5.3793     6.3322
 2994.0000   122.7480     2.5460     9.2509     0.0057   -39.2988  1570.5017     5.4210     5.5315     6.8495
 2994.5000   118.1796     2.5515     9.2486     0.0108   -39.3140  1569.7145     5.4164     5.4482     7.3558
 2995.0000   117.5566     2.5521     9.2505     0.0173   -39.3317  1568.9275     5.3344     5.4049     7.8981
 2995.5000   118.8033     2.5490     9.2751     0.0244   -39.1921  1568.1404     5.2925     5.3620     8.0661
 2996.0000   122.6800     2.5435     9.2733     0.0329   -38.5985  1567.3533     5.1758     5.2808     7.4444
 2996.5000   123.5784     2.5403     9.2791     0.0414   -38.0033  1566.5662     5.0983     5.2007     6.6766
 2997.0000   123.5584     2.5379     9.2845     0.0524   -37.4081  1565.7791     4.9859     5.0856     6.2028
 2997.5000   123.9977     2.5395     9.2823     0.0631   -36.9689  1564.9919     4.9105     5.0452     5.7292
 2998.0000   126.8648     2.5223     9.2653     0.0698   -36.8273  1564.2048     4.8719     4.9692     5.4041
 2998.5000   130.1017     2.4741     9.2331     0.0700   -36.6894  1563.4178     4.9400     5.0014     5.2089
 2999.0000   131.3852     2.4601     9.2009     0.0654   -36.4024  1562.6307     4.9358     4.9967     5.0571
 2999.5000   128.4766     2.4732     9.1686     0.0571   -36.2648  1561.8435     4.9324     4.9929     4.9810
 3000.0000   125.8869     2.5509     9.1512     0.0320   -36.2829  1561.0565     4.8929     4.9533     5.3029
 3000.5000   122.0704     2.5501     9.1493     0.0242   -36.3071  1560.2695     4.9424     5.0172     6.4007
 3001.0000   120.2532     2.5375     9.1474     0.0208   -36.4119  1559.4823     5.0012     5.0923     6.8259
 3001.5000   119.0411     2.5367     9.1456     0.0132   -36.5166  1558.6952     5.0650     5.1623     6.6283
 3002.0000   118.1317     2.5390     9.1458     0.0077   -36.6214  1557.9082     5.1731     5.1966     6.4356
 3002.5000   119.7937     2.5398     9.1149     0.0043   -36.7262  1557.1210     5.2482     5.3069     6.4786
 3003.0000   120.3974     2.5350     9.1138    -0.0009   -36.8112  1556.3340     5.3576     5.3807     6.6166
 3003.5000   117.9745     2.5194     9.1126    -0.0011   -37.2805  1555.5469     5.4321     5.4942     6.9551
 3004.0000   114.6441     2.5116     9.1115    -0.0006   -37.9044  1554.7598     5.5089     5.6109     7.1033
 3004.5000   115.3988     2.5178     9.1255     0.0014   -38.3733  1553.9727     5.5856     5.7716     6.8967
 3005.0000   116.6073     2.5410     9.1395     0.0053   -38.9947  1553.1855     5.6638     5.8518     6.6012
 3005.5000   116.1514     2.5596     9.1535     0.0101   -38.7012  1552.3986     5.7425     5.9761     6.4565
 3006.0000   113.2752     2.5642     9.1521     0.0187   -38.2448  1551.6113     5.8238     6.1031     6.5467
 3006.5000   111.4577     2.5657     9.1428     0.0310   -37.8128  1550.8242     5.9474     6.1435     6.9806
 3007.0000   112.6662     2.5703     9.1040     0.0388   -37.5915  1550.0372     6.0308     6.2294     7.3378
 3007.5000   115.9927     2.5774     9.0726     0.0490   -37.3197  1549.2500     5.9839     6.2692     7.5483
 3008.0000   120.8318     2.5827     9.0715     0.0537   -36.9330  1548.4630     5.8112     6.2193     7.7092
 3008.5000   122.6454     2.5764     9.0703     0.0601   -36.6397  1547.6759     5.6435     5.9523     7.4244
 3009.0000   124.1562     2.5608     9.0386     0.0759   -36.1969  1546.8889     5.5203     5.6967     6.9106
 3009.5000   124.7596     2.5545     9.0374     0.0910   -36.2085  1546.1017     5.1654     5.2500     6.5671
 3010.0000   124.4553     2.5607     9.0060     0.1169   -36.4330  1545.3147     4.7747     4.7502     6.1071
 3010.5000   131.2611     2.5707     9.0048     0.2116   -36.8415  1544.5276     4.3147     4.2913     5.5579
