~VERSION INFORMATION
 VERS.                2.0:   CWLS LOG ASCII STANDARD - VERSION 2.0
 WRAP.                 NO:   ONE LINE PER DEPTH STEP
~WELL INFORMATION
#MNEM.UNIT      DATA TYPE    INFORMATION
#----------   ------------   ------------------------------
 STRT.F          150.0000:   START DEPTH
 STOP.F         2929.0000:   STOP DEPTH
 STEP.F            0.5000:   STEP LENGTH
 NULL.          -999.2500:   NO VALUE
 COMP.    FENIX & SCISSON:   COMPANY
 WELL.    FENIX AX #12-28:   WELL
 FLD .        TEAPOT DOME:   FIELD
 LOC .      S28 T39N R78W:   LOCATION
 CNTY.            NATRONA:   COUNTY
 STAT.            WYOMING:   STATE
 CTRY. UNITED STATES OF AMERICA:   COUNTRY
 SRVC.           BIRDWELL:   SERVICE COMPANY
 DATE.        06-JUN-1978:   LOGDATE
 API .     49025106420000:   API NUMBER
~CURVE INFORMATION
#MNEM.UNIT       API CODE    CURVE DESCRIPTION
#----------   ------------   ------------------------------
 DEPT.F                  :   
 SPR .MV     05 010 01 00:   SPONTANEOUS POTENTIAL
 SN  .OHMM   05 040 16 00:   SHORT NORMAL 16"
 ILD .OHMM   05 120 46 00:   INDUCTION LOG DEEP RESISTIVITY
 RHOB.G/C3   45 350 01 00:   BULK DENSITY
 CORR.G/C3   45 356 01 00:   DENSITY CORRECTION
 GRD .GAPI   45 310 01 00:   GAMMA RAY FROM DENSITY LOG
 CALD.IN     45 280 60 00:   CALIPER FROM DENSITY LOG
~PARAMETER INFORMATION
#MNEM.UNIT          VALUE    DESCRIPTION
#----------   ------------   ------------------------------
 EKB .F         5000.0000:   Kelly bushing
 EGL .F         4990.0000:   Ground level
 EDF .F            0.0000:   Drilling floor
 EPD .F         5005.0000:   Permanent datum
 TD  .F         2911.0000:   Total depth
 DATE.        06-JUN-1978:   Date logged
 CLNT.            A2DTECH:   Client Code
 SL  . 1250' FNL & 225' FWL:   Surface Location
 PD  .                 GL:   Permanent Datum
 LMF .                 KB:   Log Measured From
 DMF .                 KB:   Drilling Measured From
 DAPD.F                10:   Feet Above Permanent Datum
 DD  .F              2911:   Depth driller
 DL  .F              2912:   Depth logger
 BLI .F              2906:   Bottom log interval
 TLI .F               200:   Top log interval
 CS1 .IN            8.625:   Casing size
 CBD1.      8.625" @ 225':   Casing driller 1
 CBL1.F               225:   Casing logger 1
 BS1 .IN            7.875:   Bit size
 BSD1.F              2911:   Depth drilled with bit1
 DFT .       OIL BASE MUD:   Type fluid in hole
 DFD .                9.2:   Density
 DFV .                 35:   Viscosity
 DFPH.               10.5:   pH
 DFL .                  2:   Fluid loss
 TCS .HRS             3.5:   Time Circ. stopped
 LUN .               2958:   Logging unit number
 LUL .               CASP:   Logging unit location
 ENGI.            POINTER:   Recorded By
 WITN.           MCGINLEY:   Witnessed by
 ORIG.           5" PRINT:   Origin of data
 UWI .     49025106420000:   Unique Well ID
 DICO. A2D TECHNOLOGIES, INC.:   Digitizing Company
~OTHER INFORMATION
~A   DEPT      SPR         SN        ILD       RHOB       CORR         GRD      CALD   
# ...
  423.0000   -36.9020     8.7830     7.2990     2.5000     0.0210    81.6440    10.2850
  423.5000   -36.0650     8.7680     7.2810     2.5050     0.0210    80.0130    10.2860
  424.0000   -36.4530     8.7510     7.2630     2.5040     0.0200    78.3750    10.2870
  424.5000   -36.8520     8.7640     7.2450     2.5030     0.0200    76.7350    10.2870
  425.0000   -37.2510     8.7820     7.2270     2.5020     0.0190    76.4000    10.2880
  425.5000   -37.1920     8.8000     7.2130     2.4880     0.0250    77.4160    10.2890
  426.0000   -36.5200     8.8180     7.2910     2.4870     0.0300    78.6150    10.2900
  426.5000   -35.3490     8.8480     7.3670     2.5010     0.0330    79.8200    10.2900
  427.0000   -35.0330     8.9100     7.4440     2.5050     0.0300    80.2940    10.2910
  427.5000   -35.5250     8.9730     7.5210     2.4970     0.0270    79.8490    10.2920
  428.0000   -36.5400     9.0360     7.5970     2.4900     0.0240    79.1400    10.2930
  428.5000   -36.9990     9.0990     7.6740     2.4830     0.0210    79.0730    10.2930
  429.0000   -37.0140     9.1610     7.7750     2.4830     0.0190    79.3930    10.2940
  429.5000   -36.6440     9.2240     7.7950     2.4880     0.0170    79.7180    10.2950
  430.0000   -36.1760     9.2870     7.8150     2.4870     0.0180    80.0580    10.2960
  430.5000   -36.3350     9.3490     7.8350     2.4840     0.0180    80.3170    10.2960
  431.0000   -36.8400     9.4120     7.8550     2.4870     0.0200    79.4290    10.2970
  431.5000   -37.3400     9.4750     7.8750     2.4960     0.0270    78.7940    10.2980
  432.0000   -37.1900     9.5060     7.8940     2.5040     0.0270    78.1900    10.2990
  432.5000   -36.9520     9.5060     7.9080     2.5030     0.0280    78.1790    10.2990
  433.0000   -36.7120     9.5060     7.8810     2.5030     0.0280    78.2830    10.3000
  433.5000   -36.6910     9.4920     7.8600     2.5010     0.0280    78.9760    10.3010
  434.0000   -36.8340     9.4100     7.8400     2.5030     0.0290    79.8250    10.3020
  434.5000   -36.9780     9.3280     7.8200     2.5070     0.0290    80.2990    10.3020
  435.0000   -37.1220     9.2460     7.7990     2.5120     0.0280    79.3010    10.3030
  435.5000   -37.0460     9.1640     7.7780     2.5050     0.0260    80.2490    10.3040
  436.0000   -36.5690     9.0820     7.6930     2.4970     0.0280    81.3710    10.3050
  436.5000   -35.6550     9.0000     7.4850     2.4930     0.0340    81.9740    10.3060
  437.0000   -35.9850     8.9180     7.2790     2.4960     0.0400    80.0310    10.3060
  437.5000   -36.4090     8.8310     7.2680     2.4950     0.0470    78.9740    10.3070
  438.0000   -36.8290     8.8130     7.2550     2.4940     0.0540    82.3130    10.3080
  438.5000   -36.9350     8.7930     7.2420     2.5030     0.0590    84.3980    10.3090
  439.0000   -36.8430     8.7740     7.2300     2.5120     0.0570    82.2320    10.3090
  439.5000   -36.3360     8.7540     7.2170     2.5170     0.0500    80.0170    10.3100
  440.0000   -36.1990     8.7340     7.2050     2.5110     0.0420    79.3260    10.3110
  440.5000   -36.6030     8.7150     7.1920     2.5110     0.0350    78.9650    10.3120
  441.0000   -37.0040     8.6950     7.1800     2.5140     0.0290    78.6190    10.3120
  441.5000   -37.4100     8.6760     7.1670     2.5160     0.0230    78.2660    10.3130
  442.0000   -37.5240     8.6090     7.1550     2.5030     0.0220    77.8960    10.3140
  442.5000   -37.3910     8.5240     7.1220     2.4890     0.0210    77.3590    10.3150
  443.0000   -37.2550     8.4400     7.0540     2.4900     0.0200    78.7830    10.3160
  443.5000   -37.2620     8.3570     6.9870     2.4910     0.0200    80.2360    10.3170
  444.0000   -37.3580     8.2600     6.9190     2.4820     0.0190    81.3590    10.3180
  444.5000   -37.4520     8.1640     6.8510     2.4790     0.0180    82.3050    10.3190
  445.0000   -37.5460     8.0690     6.7620     2.4830     0.0170    84.3910    10.3210
  445.5000   -37.2630     7.9730     6.8480     2.4800     0.0190    86.3560    10.3220
  446.0000   -36.5890     7.9080     6.9740     2.4790     0.0210    85.9300    10.3230
  446.5000   -36.0450     7.9290     7.0680     2.4840     0.0230    85.4380    10.3240
  447.0000   -36.2760     7.9460     6.9400     2.4850     0.0240    84.9440    10.3250
  447.5000   -36.5150     7.9620     6.7830     2.4800     0.0260    84.8280    10.3260
  448.0000   -36.6060     7.9810     6.6320     2.4760     0.0280    85.8980    10.3270
  448.5000   -36.6090     7.8870     6.6000     2.4820     0.0300    87.7260    10.3280
  449.0000   -36.6060     7.7710     6.5670     2.4900     0.0300    88.7610    10.3290
  449.5000   -35.9590     7.6550     6.5350     2.4930     0.0290    88.6850    10.3300
  450.0000   -35.4380     7.5390     6.4790     2.4940     0.0280    88.6190    10.3310
  450.5000   -35.5610     7.4140     6.3990     2.4960     0.0260    88.9680    10.3320
  451.0000   -36.5200     7.3830     6.3200     2.4980     0.0250    89.6950    10.3330
  451.5000   -37.0260     7.3490     6.2400     2.5000     0.0250    89.8840    10.3340
  452.0000   -37.3650     7.3140     6.1600     2.4960     0.0250    89.0950    10.3350
  452.5000   -36.6810     7.2800     6.1140     2.4910     0.0250    88.3210    10.3360
  453.0000   -35.7550     7.2460     6.1410     2.4960     0.0250    87.5590    10.3370
  453.5000   -36.1100     7.2130     6.1630     2.5040     0.0250    87.1320    10.3380
  454.0000   -36.6940     7.3470     6.1850     2.5110     0.0220    87.6240    10.3390
  454.5000   -37.2890     7.4460     6.2070     2.5070     0.0190    88.1560    10.3400
  455.0000   -37.3220     7.5410     6.2280     2.5000     0.0150    85.7270    10.3410
  455.5000   -36.7670     7.6360     6.2500     2.4920     0.0120    83.7670    10.3420
  456.0000   -36.2160     7.7320     6.2720     2.4850     0.0090    83.6170    10.3430
  456.5000   -35.6570     7.8270     6.3240     2.4880     0.0110    80.7620    10.3440
  457.0000   -35.5820     7.9080     6.4030     2.4910     0.0130    77.2090    10.3450
  457.5000   -35.8590     7.9080     6.4810     2.4960     0.0150    78.2040    10.3460
  458.0000   -36.1430     7.9080     6.5600     2.4990     0.0170    80.5380    10.3470
  458.5000   -36.3900     8.0550     6.6390     2.4990     0.0180    82.8920    10.3480
  459.0000   -35.9810     8.0550     6.7180     2.4990     0.0200    84.6420    10.3490
  459.5000   -35.5600     8.0550     6.7730     2.5010     0.0220    85.5710    10.3500
  460.0000   -35.1230     8.0550     6.7990     2.5020     0.0220    83.5540    10.3510
  460.5000   -35.3460     8.0550     6.8240     2.5030     0.0200    82.0000    10.3520
  461.0000   -35.7930     8.0550     6.8500     2.5050     0.0180    82.5020    10.3530
  461.5000   -35.6650     8.2040     6.8750     2.5060     0.0160    82.9890    10.3540
  462.0000   -35.5000     8.1630     6.9000     2.5000     0.0150    82.2520    10.3550
  462.5000   -35.3360     8.1290     6.9260     2.4980     0.0160    81.5740    10.3560
  463.0000   -35.1700     8.1130     6.9520     2.5000     0.0170    82.1170    10.3570
  463.5000   -35.0410     8.0950     6.9360     2.5020     0.0180    82.6330    10.3570
  464.0000   -35.6260     8.0780     6.9200     2.5040     0.0190    82.1310    10.3580
  464.5000   -36.2420     8.0600     6.9040     2.5060     0.0200    81.5260    10.3590
  465.0000   -36.4370     8.0420     6.8880     2.5070     0.0200    81.5470    10.3600
  465.5000   -36.4880     8.0250     6.8710     2.5060     0.0210    81.9830    10.3610
  466.0000   -36.5330     8.0070     6.8550     2.5050     0.0220    82.4260    10.3620
  466.5000   -36.5780     7.9900     6.8390     2.5050     0.0220    82.8700    10.3630
  467.0000   -36.6070     7.9720     6.8230     2.5040     0.0230    83.3130    10.3630
  467.5000   -36.6080     7.9550     6.8070     2.5030     0.0240    83.7570    10.3640
  468.0000   -36.6200     7.9370     6.7900     2.5030     0.0240    84.2040    10.3650
