~VERSION INFORMATION
 VERS.                2.0:   CWLS LOG ASCII STANDARD - VERSION 2.0
 WRAP.                 NO:   ONE LINE PER DEPTH STEP
~WELL INFORMATION
#MNEM.UNIT      DATA TYPE    INFORMATION
#----------   ------------   ------------------------------
 STRT.F          176.0000:   START DEPTH
 STOP.F         3442.0000:   STOP DEPTH
 STEP.F            0.5000:   STEP LENGTH
 NULL.          -999.2500:   NO VALUE
 COMP.  FENIX AND SCISSON:   COMPANY
 WELL.  FENIX "AX" #65-15:   WELL
 FLD . NAVAL PETROLEUM RESERVE #3:   FIELD
 LOC .      S15 T38N R78W:   LOCATION
 CNTY.            NATRONA:   COUNTY
 STAT.            WYOMING:   STATE
 CTRY. UNITED STATES OF AMERICA:   COUNTRY
 SRVC.       SCHLUMBERGER:   SERVICE COMPANY
 DATE.        09-APR-1981:   LOGDATE
 API .     49025108710000:   API NUMBER
~CURVE INFORMATION
#MNEM.UNIT       API CODE    CURVE DESCRIPTION
#----------   ------------   ------------------------------
 DEPT.F                  :   
 TENR.LBS    07 635 01 00:   TENSION
 SPR .MV     07 010 01 00:   SPONTANEOUS POTENTIAL
 ILD .OHMM   07 120 46 00:   INDUCTION LOG DEEP RESISTIVITY
 ILM .OHMM   07 120 44 00:   INDUCTION LOG MEDIUM RESISTIVITY
 SFL .OHMM   07 220 01 00:   SHALLOW FOCUSED LOG RESISTIVITY
 TEND.LBS    45 635 01 00:   TENSION FROM DENSITY LOG
 CALD.IN     45 280 60 00:   CALIPER FROM DENSITY LOG
 GRD .GAPI   45 310 01 00:   GAMMA RAY FROM DENSITY LOG
 RHOB.G/C3   45 350 01 00:   BULK DENSITY
 CORR.G/C3   45 356 01 00:   DENSITY CORRECTION
~PARAMETER INFORMATION
#MNEM.UNIT          VALUE    DESCRIPTION
#----------   ------------   ------------------------------
 EKB .F         5287.0000:   Kelly bushing
 EGL .F         5277.0000:   Ground level
 EDF .F            0.0000:   Drilling floor
 TD  .F         5476.0000:   Total depth
 DATE.        09-APR-1981:   Date logged
 CLNT.            A2DTECH:   Client Code
 SL  . 1945' FSL & 1161' FEL:   Surface Location
 PD  .                 GL:   Permanent Datum
 EPD .F              5277:   Elevation Permanent Datum
 LMF .                 KB:   Log Measured From
 DMF .                 KB:   Drilling Measured From
 DAPD.F                10:   Feet Above Permanent Datum
 DD  .F              5476:   Depth driller
 DL  .F              5436:   Depth logger
 BLI .F              5430:   Bottom log interval
 TLI .F               190:   Top log interval
 CS1 .IN            8.625:   Casing size
 CBD1.      8.625" @ 190':   Casing driller 1
 CBL1.F               190:   Casing logger 1
 BS1 .IN            7.875:   Bit size
 BSD1.F              5476:   Depth drilled with bit1
 DFT .           CHEM GEL:   Type fluid in hole
 DFD .                9.1:   Density
 DFV .                 42:   Viscosity
 DFPH.                9.5:   pH
 DFL .                  8:   Fluid loss
 MSS .            MUDTANK:   Source of sample
 RMS .OHMM           1.62:   Rm
 MST .F                71:   Rm Meas. temp.
 RMF .OHMM           1.45:   Rmf
 MFST.F                71:   Rmf Meas. temp.
 MFSS.               MEAS:   Source Rmf.
 RMB .OHMM           1.02:   Rm. at BHT
 BHT .F               116:   BHT.
 TCS .HRS            1600:   Time Circ. stopped
 TLAB.HRS            1830:   Time logger at bottom
 MRT .F               116:   Maximum recorded temp.
 LUN .               8035:   Logging unit number
 LUL .               CSPR:   Logging unit location
 ENGI.            BEATTIE:   Recorded By
 WITN.              EIVAS:   Witnessed by
 ORIG.           5" PRINT:   Origin of data
 UWI .     49025108710000:   Unique Well ID
 DICO. A2D TECHNOLOGIES, INC.:   Digitizing Company
~OTHER INFORMATION
~A   DEPT     TENR        SPR        ILD        ILM        SFL       TEND       CALD         GRD      RHOB       CORR   
# ...
 2119.0000   558.6680   -22.6520     7.9830     8.0220     8.8970   553.8920     8.2600   125.4350     2.5130     0.0130
 2119.5000   558.5380   -22.7530     7.9430     7.9430     9.2060   553.8920     8.2630   121.7660     2.5190     0.0090
 2120.0000   558.4070   -22.8510     7.9030     7.8650    10.2040   553.8920     8.2670   121.1640     2.5240     0.0060
 2120.5000   558.2770   -22.9370     7.8630     7.7860    10.4810   553.8920     8.2710   123.9160     2.5280     0.0020
 2121.0000   558.1460   -22.9460     7.8230     7.7080    10.0540   553.8920     8.2750   126.6590     2.5260     0.0020
 2121.5000   558.0160   -22.8790     7.7830     7.6290     9.5690   553.8920     8.2790   127.3950     2.5190     0.0020
 2122.0000   557.8850   -22.7360     7.7430     7.5510     9.2270   553.8920     8.3110   127.8260     2.5130     0.0020
 2122.5000   557.7550   -22.6020     7.7030     7.4730     9.0360   553.8920     8.3430   128.2840     2.5080     0.0210
 2123.0000   557.6240   -22.4670     7.6630     7.3940     8.8970   553.8920     8.3760   129.7600     2.5100     0.0450
 2123.5000   557.4930   -22.3310     7.6240     7.3160     8.8970   553.8920     8.3610   131.7980     2.5080     0.0630
 2124.0000   557.3630   -22.1970     7.5840     7.2830     9.0330   553.8920     8.3460   133.8840     2.4980     0.0590
 2124.5000   557.2320   -22.0580     7.5440     7.2830     9.2690   553.8920     8.3310   134.3400     2.4840     0.0170
 2125.0000   557.1020   -21.9280     7.5040     7.2830     9.5040   553.8920     8.3170   132.8720     2.4830     0.0020
 2125.5000   556.9710   -21.7770     7.4640     7.2830     9.7390   553.8920     8.3120   132.8270     2.4840     0.0000
 2126.0000   556.8410   -21.7680     7.4170     7.3080     9.8680   553.8920     8.3060   135.5080     2.4850    -0.0020
 2126.5000   556.7100   -21.7920     7.4170     7.4280     9.6100   553.8920     8.3010   135.1360     2.4930     0.0030
 2127.0000   556.5800   -21.8240     7.4170     7.5480     9.3510   553.8920     8.2970   132.9950     2.5010     0.0080
 2127.5000   556.4490   -21.8530     7.4910     7.6680     9.0920   553.8920     8.2950   132.3630     2.5020     0.0100
 2128.0000   556.3180   -21.8820     7.5800     7.7880     8.8970   553.8920     8.2920   133.1460     2.4950     0.0080
 2128.5000   556.1880   -21.9110     7.6690     7.9080     8.8970   553.8920     8.2900   133.2800     2.4870     0.0030
 2129.0000   556.0570   -21.9400     7.7580     8.0280     9.4240   553.8920     8.2880   133.2960     2.4870     0.0080
 2129.5000   555.9270   -21.9700     7.8470     8.1480     9.9220   553.8920     8.2850   133.5990     2.4950     0.0180
 2130.0000   555.7960   -21.9990     7.9360     8.2670    10.4210   553.8920     8.2830   133.8510     2.5000     0.0270
 2130.5000   555.6660   -22.0280     8.0250     8.4240    10.9200   553.8920     8.2810   133.1060     2.4950     0.0190
 2131.0000   555.5350   -22.0580     8.1230     8.3080    11.2720   553.8920     8.2790   131.7100     2.4870     0.0050
 2131.5000   555.4040   -22.0860     8.1230     7.9110    10.8690   553.8920     8.3020   128.9230     2.4840     0.0030
 2132.0000   555.2740   -22.1180     7.7600     7.5140     9.5230   553.8920     8.3290   123.6360     2.4860     0.0070
 2132.5000   555.1430   -22.1440     7.4310     7.1180     8.3030   553.8920     8.3560   120.0460     2.4820     0.0160
 2133.0000   555.0130   -22.1460     7.1020     6.7210     7.0830   553.8920     8.3470   117.5890     2.4750     0.0170
 2133.5000   554.8820   -21.9960     6.7740     6.3240     5.5430   553.8920     8.3350   118.5860     2.4690     0.0150
 2134.0000   554.7520   -21.8700     6.4450     5.9280     5.8360   553.8920     8.3240   123.7610     2.4710     0.0050
 2134.5000   554.6210   -21.7340     6.2170     5.7320     6.6960   553.8920     8.3130   126.7240     2.4730    -0.0010
 2135.0000   554.4910   -21.6030     6.0710     5.7030     7.5560   553.8920     8.3020   127.2220     2.4730    -0.0040
 2135.5000   554.3600   -21.4710     5.9610     5.6740     8.2720   553.8920     8.2980   124.5460     2.4660     0.0010
 2136.0000   554.2290   -21.3380     5.8540     5.6440     7.3020   553.8920     8.2980   121.0780     2.4550     0.0040
 2136.5000   554.0990   -21.2060     5.8540     5.6440     6.4700   553.8920     8.2980   121.1310     2.4450     0.0000
 2137.0000   553.9680   -21.0720     5.8710     5.6440     5.7480   553.8920     8.2980   124.9340     2.4390    -0.0040
 2137.5000   553.8380   -20.9420     5.8930     5.5430     6.4610   553.8920     8.2980   132.8740     2.4510    -0.0080
 2138.0000   553.7070   -20.8090     5.9150     5.6420     8.1230   553.8920     8.2980   141.2670     2.4670    -0.0060
 2138.5000   553.5770   -20.6670     5.9370     5.7660     7.9110   553.8920     8.2980   143.5120     2.4830     0.0070
 2139.0000   553.4460   -20.5800     5.9590     5.8900     7.5650   553.8920     8.2980   143.3620     2.4980     0.0320
 2139.5000   553.3160   -20.5870     5.9800     6.0140     7.2180   553.8920     8.2980   142.8430     2.5050     0.0460
 2140.0000   553.1850   -20.6230     6.0020     6.1380     6.7710   553.8920     8.2980   143.7480     2.5070     0.0500
 2140.5000   553.0540   -20.7300     6.0230     6.1820     6.9570   553.8920     8.2980   146.1850     2.4830     0.0230
 2141.0000   552.9240   -20.8340     6.0440     6.1820     7.1350   553.8920     8.2980   149.5510     2.4710     0.0050
 2141.5000   552.7930   -20.9390     6.0690     6.1550     7.3130   553.8920     8.2980   150.6330     2.4690     0.0040
 2142.0000   552.6630   -21.0430     6.0690     6.1300     7.4920   553.8920     8.2980   149.8680     2.4740     0.0020
 2142.5000   552.5320   -21.1480     6.0720     6.1040     7.6700   553.8920     8.2980   148.6420     2.4780     0.0040
 2143.0000   552.4020   -21.2540     6.0710     6.0790     7.9770   551.4970     8.2980   146.0290     2.4800     0.0060
 2143.5000   552.2710   -21.3620     5.9610     6.0210     7.8430   549.2970     8.2980   145.7480     2.4830     0.0090
 2144.0000   552.1410   -21.3520     5.7740     5.8510     7.3890   547.0970     8.2980   146.2710     2.4890     0.0120
 2144.5000   552.0100   -21.0470     5.6150     5.6820     6.8960   544.8970     8.2980   143.8750     2.4940     0.0090
 2145.0000   551.8790   -20.7510     5.4560     5.5120     6.7700   545.5090     8.2980   141.4910     2.4940     0.0060
 2145.5000   551.7490   -20.4340     5.2960     5.3420     6.6330   548.4000     8.2980   141.8020     2.4940     0.0020
 2146.0000   551.6180   -20.1400     5.1370     5.1730     6.4950   551.2920     8.2980   142.8760     2.4930    -0.0010
 2146.5000   551.4880   -19.8260     4.9690     5.0030     6.3580   554.1830     8.2980   143.3990     2.4900     0.0020
 2147.0000   551.3570   -19.8060     4.9690     4.7920     6.2960   557.0740     8.2980   141.5350     2.4710     0.0050
 2147.5000   551.2270   -19.8640     4.9990     4.8190     5.3240   559.9660     8.2980   137.0820     2.4470     0.0060
 2148.0000   551.0960   -19.9610     5.0380     4.8960     4.6200   562.8570     8.2970   132.3730     2.4380    -0.0010
 2148.5000   550.9660   -20.0490     5.0770     4.9720     5.8790   563.2970     8.2940   128.8510     2.4440    -0.0050
 2149.0000   550.8350   -20.1450     5.1160     5.0490     6.8210   562.0240     8.2910   125.7020     2.4560    -0.0100
 2149.5000   550.7040   -20.2010     5.1550     5.1260     7.4170   560.7510     8.2870   123.4580     2.4730    -0.0050
 2150.0000   550.5740   -20.1950     5.1940     5.2030     7.0130   559.4780     8.2840   122.5070     2.4890     0.0140
 2150.5000   550.4430   -20.1960     5.2330     5.2480     6.6050   558.2050     8.2810   126.0350     2.5020     0.0400
 2151.0000   550.3130   -20.1970     5.2480     5.2480     6.1980   556.9320     8.2780   127.8640     2.4810     0.0400
 2151.5000   550.1820   -20.1950     5.2480     5.2480     5.6440   555.6590     8.2800   126.2450     2.4740     0.0320
 2152.0000   550.0520   -20.1960     5.2480     5.1620     5.7410   554.3860     8.2950   124.1780     2.4730     0.0180
