~VERSION INFORMATION
 VERS.                2.0:   CWLS LOG ASCII STANDARD - VERSION 2.0
 WRAP.                 NO:   ONE LINE PER DEPTH STEP
~WELL INFORMATION
#MNEM.UNIT      DATA TYPE    INFORMATION
#----------   ------------   ------------------------------
 STRT.F          196.0000:   START DEPTH
 STOP.F         3430.0000:   STOP DEPTH
 STEP.F            0.5000:   STEP LENGTH
 NULL.          -999.2500:   NO VALUE
 COMP.    FENIX $ SCISSON:   COMPANY
 WELL.   FENIX "A" #23-10:   WELL
 FLD .              N P R:   FIELD
 LOC .      S10 T38N R78W:   LOCATION
 CNTY.            NATRONA:   COUNTY
 STAT.            WYOMING:   STATE
 CTRY. UNITED STATES OF AMERICA:   COUNTRY
 SRVC.              WELEX:   SERVICE COMPANY
 DATE.        23-JUL-1977:   LOGDATE
 API .     49025103990000:   API NUMBER
~CURVE INFORMATION
#MNEM.UNIT       API CODE    CURVE DESCRIPTION
#----------   ------------   ------------------------------
 DEPT.F                  :   
 SPR .MV     07 010 01 00:   SPONTANEOUS POTENTIAL
 GURD.OHMM   07 220 05 00:   GUARD LOG RESISTIVITY
 FORX.OHMM   07 220 00 00:   FORMATION FACTOR
 NPHI.DEC    42 890 03 00:   NEUTRON POROSITY SANDSTONE
 CALD.IN     45 280 60 00:   CALIPER FROM DENSITY LOG
 CORR.G/C3   45 356 01 00:   DENSITY CORRECTION
 GRD .GAPI   45 310 01 00:   GAMMA RAY FROM DENSITY LOG
 RHOB.G/C3   45 350 01 00:   BULK DENSITY
~PARAMETER INFORMATION
#MNEM.UNIT          VALUE    DESCRIPTION
#----------   ------------   ------------------------------
 EKB .F         5251.0000:   Kelly bushing
 EGL .F         5241.0000:   Ground level
 EDF .F            0.0000:   Drilling floor
 EPD .F         5241.0000:   Permanent datum
 TD  .F         3430.0000:   Total depth
 DATE.        23-JUL-1977:   Date logged
 CLNT.            A2DTECH:   Client Code
 SL  . 1650' FNL & 990' FWL:   Surface Location
 PD  .                 GL:   Permanent Datum
 DD  .F              3430:   Depth driller
 DL  .F              3430:   Depth logger
 BLI .F              3428:   Bottom log interval
 CS1 .IN            8.625:   Casing size
 CBD1.      8.625" @ 220':   Casing driller 1
 BS1 .IN            7.875:   Bit size
 DFT .            KCL MUD:   Type fluid in hole
 DFD .                8.9:   Density
 DFV .                 33:   Viscosity
 DFPH.                  8:   pH
 DFL .                  8:   Fluid loss
 MSS .           FLOWLINE:   Source of sample
 RMS .OHMM            .49:   Rm
 MST .F                94:   Rm Meas. temp.
 RMF .OHMM            .46:   Rmf
 MFST.F                90:   Rmf Meas. temp.
 RMC .OHMM            .40:   Rmc
 MCST.F                90:   Rmc Meas. temp.
 MFSS.               FANN:   Source Rmf.
 RMB .OHMM            .15:   Rm. at BHT
 BHT .F               122:   BHT.
 TCS .HRS               6:   Time Circ. stopped
 MRT .F               122:   Maximum recorded temp.
 LUN .               8611:   Logging unit number
 LUL .             CASPER:   Logging unit location
 ENGI.            C. DOAK:   Recorded By
 WITN.      B. HARRINGTON:   Witnessed by
 ORIG.           5" PRINT:   Origin of data
 UWI .     49025103990000:   Unique Well ID
 DICO. A2D TECHNOLOGIES, INC.:   Digitizing Company
 DAPD.                 10:   Feet Above Permanent Datum
 BSD1.               3430:   Depth drilled with bit1
 MCSS.                KIT:   Source Rmc.
 TLI .                200:   Top log interval
~OTHER INFORMATION
~A   DEPT      SPR         GURD     FORX       NPHI       CALD       CORR        GRD       RHOB   
# ...
 1046.5000   -81.4750    10.5390    14.4320     0.2710     9.3000     0.0460   101.3770     2.4750
 1047.0000   -81.5010    10.8400    14.5200     0.2680     9.2960     0.0470   101.8950     2.4680
 1047.5000   -81.5260    11.1570    13.6190     0.2670     9.2930     0.0440   102.4140     2.4720
 1048.0000   -81.5520    11.2460    13.1640     0.2670     9.2890     0.0400   102.9330     2.4580
 1048.5000   -81.5770    10.4610    13.6570     0.2660     9.2850     0.0360   103.4520     2.4510
 1049.0000   -81.6030    10.4610    13.2860     0.2640     9.2810     0.0310   103.9710     2.4420
 1049.5000   -81.6280    10.6650    13.9110     0.2630     9.2770     0.0270   104.4900     2.4350
 1050.0000   -81.6540    10.9480    13.3330     0.2660     9.2740     0.0260   105.0090     2.4380
 1050.5000   -81.6880    11.2600    12.7790     0.2690     9.2700     0.0280   105.5320     2.4430
 1051.0000   -81.7680    11.0130    12.4580     0.2770     9.2650     0.0300   105.7580     2.4410
 1051.5000   -81.8450    10.6590    12.8060     0.2820     9.2610     0.0310   104.6250     2.4460
 1052.0000   -81.9230    10.2710    12.2310     0.2870     9.2560     0.0330   103.3810     2.4510
 1052.5000   -82.0000    10.1770    12.4580     0.2910     9.2510     0.0350   102.1400     2.4510
 1053.0000   -82.0780    10.2310    11.7890     0.2930     9.2470     0.0360   100.8900     2.4510
 1053.5000   -82.1550    10.2800    12.1250     0.2950     9.2420     0.0380    99.5830     2.4510
 1054.0000   -82.2350    10.3290    12.8060     0.2920     9.2380     0.0400   101.0350     2.4590
 1054.5000   -82.2350    10.3780    12.8060     0.2890     9.2330     0.0410   103.0360     2.4720
 1055.0000   -82.1990    10.4270    12.5250     0.2890     9.2290     0.0410   105.0460     2.4580
 1055.5000   -82.1620    10.4610    12.2130     0.2890     9.2240     0.0410   106.5520     2.4530
 1056.0000   -82.1250    10.1100    11.9000     0.2910     9.2200     0.0410   106.2260     2.4540
 1056.5000   -82.0890     9.7910    11.6810     0.2930     9.2150     0.0410   105.9440     2.4560
 1057.0000   -82.0520     9.6310    12.4860     0.2950     9.2110     0.0410   105.6680     2.4580
 1057.5000   -82.0150     9.8040    13.0440     0.2960     9.2060     0.0410   105.3910     2.4640
 1058.0000   -81.9780     9.9370    12.3700     0.2970     9.2020     0.0410   105.1120     2.4640
 1058.5000   -81.9410    10.0840    11.7580     0.2950     9.1970     0.0410   105.0620     2.4640
 1059.0000   -81.9040    10.0740    11.5750     0.2940     9.1930     0.0410   105.2100     2.4650
 1059.5000   -81.8670    10.0630    11.6530     0.2920     9.1880     0.0410   105.3590     2.4710
 1060.0000   -81.8310    10.0530    11.7250     0.2910     9.1840     0.0410   105.5100     2.4770
 1060.5000   -81.7940    10.0420    11.7890     0.2890     9.1810     0.0410   105.6540     2.4750
 1061.0000   -81.7570    10.0310    11.5750     0.2860     9.1620     0.0410   105.6050     2.4740
 1061.5000   -81.7200    10.0210    11.5750     0.2830     9.1690     0.0410   104.6810     2.4840
 1062.0000   -81.6830    10.0100    11.9760     0.2810     9.1750     0.0410   103.7680     2.4820
 1062.5000   -81.6820     9.9990    12.2310     0.2790     9.1810     0.0410   102.8740     2.4810
 1063.0000   -81.7090     9.9920    11.6050     0.2780     9.1880     0.0410   102.4130     2.4780
 1063.5000   -81.7360    10.0590    11.2600     0.2800     9.1940     0.0410   103.4710     2.4710
 1064.0000   -81.7630    10.1340    12.1620     0.2820     9.2000     0.0410   104.4640     2.4680
 1064.5000   -81.7910    10.2090    12.5730     0.2830     9.2070     0.0410   103.8450     2.4650
 1065.0000   -81.8180    10.2830    11.9680     0.2830     9.2130     0.0410   103.0180     2.4620
 1065.5000   -81.8460    10.3660    11.3640     0.2790     9.2190     0.0410   102.1930     2.4580
 1066.0000   -81.8620    10.2680    12.3440     0.2760     9.2260     0.0390   101.3780     2.4550
 1066.5000   -81.7940    10.1600    12.3440     0.2740     9.2320     0.0370   101.9010     2.4510
 1067.0000   -81.7230    10.0840    12.9380     0.2730     9.2380     0.0350   104.4830     2.4460
 1067.5000   -81.6510    10.5620    13.5320     0.2740     9.2450     0.0330   106.6110     2.4420
 1068.0000   -81.5800    10.9540    11.4760     0.2760     9.2510     0.0320   105.2500     2.4460
 1068.5000   -81.5080    10.1020    10.2710     0.2780     9.2570     0.0300   103.8920     2.4480
 1069.0000   -81.4370     9.3270    14.8350     0.2790     9.2640     0.0280   102.5490     2.4480
 1069.5000   -81.3650     8.7850    13.9110     0.2790     9.2700     0.0280   101.2020     2.4480
 1070.0000   -81.2940    10.4710    14.4320     0.2760     9.2760     0.0290    99.8010     2.4480
 1070.5000   -81.2220    11.8980    13.7720     0.2750     9.2760     0.0300    99.4270     2.4510
 1071.0000   -81.1500    11.7220    12.9240     0.2750     9.2740     0.0310    99.7430     2.4540
 1071.5000   -81.0810    11.5270    15.2500     0.2760     9.2720     0.0320   100.0710     2.4570
 1072.0000   -81.0970    11.3640    14.7090     0.2780     9.2700     0.0330   100.3960     2.4650
 1072.5000   -81.1160    11.5340    14.1690     0.2790     9.2680     0.0310   100.7200     2.4570
 1073.0000   -81.1350    11.7220    14.8950     0.2780     9.2660     0.0290   100.9930     2.4450
 1073.5000   -81.1540    11.9110    15.5550     0.2740     9.2640     0.0260   100.8310     2.4340
 1074.0000   -81.1730    12.0990    16.2150     0.2710     9.2620     0.0230   100.6670     2.4330
 1074.5000   -81.1920    12.2880    16.4140     0.2690     9.2600     0.0260   100.1680     2.4370
 1075.0000   -81.2110    12.5150    15.9040     0.2670     9.2580     0.0280   100.5550     2.4410
 1075.5000   -81.2300    12.6890    15.2500     0.2650     9.2560     0.0310   100.9300     2.4450
 1076.0000   -81.2490    12.5640    15.8210     0.2640     9.2540     0.0330   101.2960     2.4490
 1076.5000   -81.2680    12.4680    15.5330     0.2640     9.2520     0.0360   101.6700     2.4530
 1077.0000   -81.2870    12.3440    16.8720     0.2640     9.2500     0.0370   101.5890     2.4660
 1077.5000   -81.3060    12.4600    17.0280     0.2670     9.2480     0.0370   101.2830     2.4660
 1078.0000   -81.3250    12.6270    16.6460     0.2770     9.2460     0.0370   100.9810     2.4610
 1078.5000   -81.3440    12.7940    16.0970     0.2820     9.2440     0.0370   100.5980     2.4600
 1079.0000   -81.3630    12.9600    15.8210     0.2860     9.2420     0.0370   100.6110     2.4620
 1079.5000   -81.3820    13.0440    16.7180     0.2890     9.2400     0.0370   101.9010     2.4640
 1080.0000   -81.4010    12.9390    15.8940     0.2870     9.2380     0.0400   103.3340     2.4730
 1080.5000   -81.4200    12.7900    16.1150     0.2830     9.2360     0.0430   104.7710     2.4850
 1081.0000   -81.4390    12.6410    15.6760     0.2800     9.2340     0.0450   106.1920     2.4930
 1081.5000   -81.4580    12.4920    16.2630     0.2790     9.2320     0.0480   107.4000     2.5020
 1082.0000   -81.4770    12.3430    15.4990     0.2780     9.2300     0.0500   106.9240     2.5100
 1082.5000   -81.4960    12.1940    14.5650     0.2760     9.2280     0.0530   106.4590     2.5010
 1083.0000   -81.5150    11.9750    14.4660     0.2730     9.2260     0.0550   106.0000     2.4900
 1083.5000   -81.5340    11.6870    14.0390     0.2720     9.2240     0.0520   105.5410     2.4930
 1084.0000   -81.5530    11.4000    14.2030     0.2710     9.2220     0.0480   104.9900     2.4890
 1084.5000   -81.5730    11.1120    14.4320     0.2700     9.2200     0.0440   105.3060     2.4840
 1085.0000   -81.5920    10.8530    14.0390     0.2700     9.2180     0.0400   105.6920     2.4770
 1085.5000   -81.6100    10.9460    14.6990     0.2680     9.2130     0.0380   106.0780     2.4640
 1086.0000   -81.6310    11.0290    13.5680     0.2670     9.2050     0.0320   106.4630     2.4520
 1086.5000   -81.6530    11.1570    12.6890     0.2630     9.1970     0.0260   106.8480     2.4390
