~VERSION INFORMATION
 VERS.                2.0:   CWLS LOG ASCII STANDARD - VERSION 2.0
 WRAP.                 NO:   ONE LINE PER DEPTH STEP
~WELL INFORMATION
#MNEM.UNIT      DATA TYPE    INFORMATION
#----------   ------------   ------------------------------
 STRT.F           20.0000:   START DEPTH
 STOP.F         4128.0000:   STOP DEPTH
 STEP.F            0.5000:   STEP LENGTH
 NULL.          -999.2500:   NO VALUE
 COMP. LAWRENCE-ALLISON & ASSOCIATES:   COMPANY
 WELL. LAWRENCE "X" #53-3:   WELL
 FLD .             NPR #3:   FIELD
 LOC .       S3 T38N R78W:   LOCATION
 CNTY.            NATRONA:   COUNTY
 STAT.            WYOMING:   STATE
 CTRY. UNITED STATES OF AMERICA:   COUNTRY
 SRVC.      DRESSER ATLAS:   SERVICE COMPANY
 DATE.        18-SEP-1983:   LOGDATE
 API .     49025109370000:   API NUMBER
~CURVE INFORMATION
#MNEM.UNIT       API CODE    CURVE DESCRIPTION
#----------   ------------   ------------------------------
 DEPT.F                  :   
 NPHI.DEC    42 890 03 00:   NEUTRON POROSITY SANDSTONE
 TEND.LBS    45 635 01 00:   TENSION FORM DENSITY LOG
 CORR.G/C3   45 356 01 00:   DENSITY CORRECTION
 RHOB.G/C3   45 350 01 00:   BULK DENSITY
 CALD.IN     45 280 60 00:   CALIPER FROM DENSITY LOG
 GRR .GAPI   07 310 01 00:   GAMMA RAY FROM RESISTIVITY
 TENR.LBS    06 635 01 00:   TENSION FROM RESISTIVITY
 SPR .MV     07 010 01 00:   SPONTANEOUS POTENTIAL
 RILD.OHMM   07 120 46 00:   DEEP INDUCTION RESISTIVITY
 RILM.OHMM   07 120 44 00:   INDUCTION LOG MEDIUM RESISTIVITY
 RSFL.OHMM   07 220 01 00:   SPHERICALLY FOCUSED RESISTIVITY
 TENS.LBS    60 635 01 00:   TENSION FROM SONIC
 DT  .US/F   60 520 00 00:   DELTA TIME
~PARAMETER INFORMATION
#MNEM.UNIT          VALUE    DESCRIPTION
#----------   ------------   ------------------------------
 EKB .F         5214.0000:   Kelly bushing
 EGL .F         5204.0000:   Ground level
 EDF .F            0.0000:   Drilling floor
 TD  .F         4117.0000:   Total depth
 CLNT.            A2DTECH:   Client Code
 PD  .                 GL:   Permanent Datum
 EPD .F              5204:   Elevation Permanent Datum
 LMF .                 KB:   Log Measured From
 DMF .                 KB:   Drilling Measured From
 DAPD.F                10:   Feet Above Permanent Datum
 DATE.        18-SEP-1983:   Date Logged [DD-MMM-YYYY]
 DD  .F              4117:   Depth driller
 DL  .F              4113:   Depth logger
 BLI .F              4110:   Bottom log interval
 TLI .F                 0:   Top log interval
 CS1 .IN            9.625:   Casing size
 CBD1.      9.625" @ 523':   Casing driller 1
 CBL1.F               523:   Casing logger 1
 BS1 .IN            7.875:   Bit size
 BSD1.F              4117:   Depth drilled with bit1
 DFT .            GEL KCL:   Type fluid in hole
 DFD .                9.0:   Density
 DFV .                 42:   Viscosity
 DFPH.                8.5:   pH
 DFL .                 10:   Fluid loss
 MSS .               TANK:   Source of sample
 RMS .OHMM           0.35:   Rm
 MST .F                68:   Rm Meas. temp.
 RMF .OHMM          0.266:   Rmf
 MFST.F                68:   Rmf Meas. temp.
 MFSS.               MEAS:   Source Rmf.
 RMC .OHMM          0.443:   Rmc
 MCST.F                68:   Rmc Meas. temp.
 MCSS.               CALC:   Source Rmc.
 RMB .OHMM          0.185:   Rm. at BHT
 BHT .F               130:   BHT.
 TCS .HRS               4:   Time Circ. stopped
 MRT .F               130:   Maximum recorded temp.
 LUN .               6270:   Logging unit number
 LUL .              WLSTN:   Logging unit location
 ENGI.             REEVES:   Recorded By
 WITN.             STRONG:   Witnessed by
 ORIG.           5" PRINT:   Origin of data
 UWI .     49025109370000:   Unique Well ID
 DICO. A2D TECHNOLOGIES, INC.:   Digitizing Company
~OTHER INFORMATION
~A   DEPT     NPHI       TEND       CORR       RHOB       CALD         GRR      TENR        SPR       RILD       RILM       RSFL       TENS         DT   
# ...
  514.0000     0.3702  -999.2500  -999.2500  -999.2500  -999.2500    70.8953  -999.2500  -999.2500  -999.2500  -999.2500  -999.2500  -999.2500  -999.2500
  514.5000     0.3906  -999.2500  -999.2500  -999.2500  -999.2500    70.5766  -999.2500  -999.2500  -999.2500  -999.2500  -999.2500  -999.2500  -999.2500
  515.0000     0.4228  -999.2500  -999.2500  -999.2500  -999.2500    70.5607  -999.2500  -999.2500  -999.2500  -999.2500  -999.2500  -999.2500  -999.2500
  515.5000     0.4243  -999.2500  -999.2500  -999.2500  -999.2500    70.5463  -999.2500  -999.2500  -999.2500  -999.2500  -999.2500  -999.2500  -999.2500
  516.0000     0.4203  -999.2500  -999.2500  -999.2500  -999.2500    73.7967  -999.2500  -999.2500  -999.2500  -999.2500  -999.2500  -999.2500  -999.2500
  516.5000     0.4140  -999.2500  -999.2500  -999.2500  -999.2500    74.0730  -999.2500  -999.2500  -999.2500  -999.2500  -999.2500  -999.2500  -999.2500
  517.0000     0.3917  -999.2500  -999.2500  -999.2500  -999.2500    75.2948  -999.2500  -999.2500  -999.2500  -999.2500  -999.2500  -999.2500  -999.2500
  517.5000     0.3809  -999.2500  -999.2500  -999.2500  -999.2500    75.5345  -999.2500  -999.2500  -999.2500  -999.2500  -999.2500  -999.2500  -999.2500
  518.0000     0.3854  -999.2500  -999.2500  -999.2500  -999.2500    75.1948  -999.2500  -999.2500  -999.2500  -999.2500  -999.2500  -999.2500  -999.2500
  518.5000     0.3911  -999.2500  -999.2500  -999.2500  -999.2500    73.9504  -999.2500  -999.2500  -999.2500  -999.2500  -999.2500  -999.2500  -999.2500
  519.0000     0.3983  -999.2500  -999.2500  -999.2500  -999.2500    72.6727  -999.2500  -999.2500  -999.2500  -999.2500  -999.2500  -999.2500  -999.2500
  519.5000     0.4121  -999.2500  -999.2500  -999.2500  -999.2500    71.1504  -999.2500  -999.2500  -999.2500  -999.2500  -999.2500  -999.2500  -999.2500
  520.0000     0.3932  -999.2500  -999.2500  -999.2500  -999.2500    69.9060  -999.2500  -999.2500  -999.2500  -999.2500  -999.2500  -999.2500  -999.2500
  520.5000     0.3709  -999.2500  -999.2500  -999.2500  -999.2500    70.1884  -999.2500  -999.2500  -999.2500  -999.2500  -999.2500  -999.2500  -999.2500
  521.0000     0.3832  -999.2500  -999.2500  -999.2500  -999.2500    71.3685  -999.2500  -999.2500  -999.2500  -999.2500  -999.2500  -999.2500  -999.2500
  521.5000     0.4069  -999.2500  -999.2500  -999.2500  -999.2500    70.4208  -999.2500  -999.2500  -999.2500  -999.2500  -999.2500  -999.2500  -999.2500
  522.0000     0.4202  -999.2500  -999.2500  -999.2500  -999.2500    68.8724  -999.2500  -999.2500  -999.2500  -999.2500  -999.2500  -999.2500  -999.2500
  522.5000     0.4114  -999.2500  -999.2500  -999.2500  -999.2500    68.8438  -999.2500  -999.2500  -999.2500  -999.2500  -999.2500  -999.2500  -999.2500
  523.0000     0.3985    27.4836    -0.2437     2.2780    10.6765    74.4322   -81.5430    -2.4963  -999.2500  -999.2500     0.3173  -999.2500  -999.2500
  523.5000     0.3002     5.8623     0.1112     2.2466    11.1912    90.6639   -76.6602   -18.3953  -999.2500  1985.0615     0.9277  -999.2500  -999.2500
  524.0000     0.2247   -17.0488     0.1762     2.1825    11.3235    98.8419   -76.8591   -31.8824  -999.2500  1968.8513     1.9755  -999.2500  -999.2500
  524.5000     0.2362   -32.3519     0.2307     2.0920    11.4118   100.9481   -77.1665   -40.8676     6.1962   330.8962     3.9142  -999.2500  -999.2500
  525.0000     0.2854   -43.8729     0.2474     2.0558    11.5000    99.6757   -77.4739   -47.6437     2.7405     4.2480     4.4223  -999.2500  -999.2500
  525.5000     0.3191   -51.6554     0.2413     2.0512    11.5588    97.2291   -77.7814   -51.5187     1.9800     5.5410     4.6827  -999.2500  -999.2500
  526.0000     0.3488   -51.8300     0.1941     2.0505    11.6196    94.1610   -78.0888   -57.8088     2.4557     7.9943     4.9228  -999.2500  -999.2500
  526.5000     0.3635   -55.7867     0.2031     2.0570    11.7059    94.4435   -78.3963   -60.7557     4.3631     9.4954     5.0690  -999.2500  -999.2500
  527.0000     0.3674   -63.5692     0.2136     2.0668    11.7941    95.9431   -78.7037   -62.8190     9.8578    11.3737     5.2477  -999.2500  -999.2500
  527.5000     0.3527   -67.5259     0.2286     2.0870    11.7941    97.7154   -79.0111   -64.5877    10.7402    14.7081     5.3607  -999.2500  -999.2500
  528.0000     0.3430   -71.4826     0.2406     2.1344    11.7059    97.6867   -79.3186   -65.6200    10.5780     9.4708     5.4750  -999.2500  -999.2500
  528.5000     0.3352   -79.2506     0.2542     2.2093    11.5294    97.3541   -79.6260   -65.4742    10.1221     6.8928     5.5924  -999.2500  -999.2500
  529.0000     0.3250   -83.2073     0.2693     2.3227    11.4118    98.8571   -79.9334   -64.4450     9.6143     6.5017     5.7116  -999.2500  -999.2500
  529.5000     0.3162   -83.4255     0.2525     2.3647    11.1765   102.1530   -80.2409   -63.4155     9.4011     6.4964     5.8461  -999.2500  -999.2500
  530.0000     0.3087   -83.6000     0.2057     2.3910    10.8382   103.6512   -80.5483   -63.5641     9.2591     6.6797     6.0021  -999.2500  -999.2500
  530.5000     0.3005   -79.9924     0.1589     2.4381    10.5882   104.5273   -80.8558   -65.6274     9.2517     6.8695     6.1324  -999.2500  -999.2500
  531.0000     0.2904   -71.8671     0.1377     2.4780    10.4706   104.1865   -81.1632   -66.5128     9.2444     7.2190     6.2614  -999.2500  -999.2500
  531.5000     0.2772   -71.4306     0.1347     2.4930    10.4250   103.8621   -81.4706   -66.6615     9.5073     7.5863     6.3503  -999.2500  -999.2500
  532.0000     0.2579   -67.9487     0.1226     2.4848    10.3824   105.3461   -81.7200   -67.1047     9.7758     8.1448     6.4399  -999.2500  -999.2500
  532.5000     0.2470   -64.0964     0.0682     2.4712    10.3676   105.9325   -82.0312   -67.6952     9.8407     8.3762     6.4366  -999.2500  -999.2500
  533.0000     0.2398   -64.0259     0.0289     2.4735    10.3797   105.2887   -82.3425   -68.5803     9.6158     8.4927     6.4333  -999.2500  -999.2500
  533.5000     0.2338   -60.1670     0.0244     2.4720    10.4228   104.6452   -82.6538   -69.6130     9.3378     8.4842     6.4307  -999.2500  -999.2500
  534.0000     0.2296   -63.8848     0.0273     2.4682    10.4953   104.3126   -82.9651   -70.6453     9.1307     8.4773     6.4281  -999.2500  -999.2500
  534.5000     0.2283   -63.7966     0.0305     2.4734    10.5970   104.5951   -83.2764   -71.8249     8.6743     8.2879     6.3335  -999.2500  -999.2500
  535.0000     0.2660   -71.2676     0.0363     2.4757    10.6110   104.8632   -83.5876   -73.1518     8.4210     7.9311     6.1064  -999.2500  -999.2500
  535.5000     0.2767   -78.7385     0.0377     2.4749    10.5364   104.5235   -83.8989   -74.9205     8.1148     7.6444     5.9734  -999.2500  -999.2500
  536.0000     0.2701   -78.6503     0.0407     2.4695    10.4768   104.7988   -84.2102   -76.2946     7.9348     7.2627     5.8014  -999.2500  -999.2500
  536.5000     0.2713   -74.8091     0.0422     2.4666    10.4756   105.9860   -84.5215   -77.4273     7.7031     6.9275     5.5537  -999.2500  -999.2500
  537.0000     0.2778   -63.4238     0.0421     2.4719    10.5043   106.8693   -84.8328   -78.3124     7.2655     6.3224     5.3161  -999.2500  -999.2500
  537.5000     0.2844   -63.3381     0.0405     2.4771    10.5179   103.4900   -85.1440   -79.0502     6.6567     5.9806     5.2003  -999.2500  -999.2500
  538.0000     0.2925   -63.2676     0.0375     2.4823    10.5022   101.9416   -85.4553   -79.9352     5.7581     5.5587     5.0143  -999.2500  -999.2500
  538.5000     0.3016   -70.7385     0.0329     2.4786    10.4570   101.3122   -85.7666   -80.5469     5.2767     4.7620     4.7658  -999.2500  -999.2500
  539.0000     0.3267   -74.4387     0.0283     2.4680    10.4414   105.5317   -86.0779   -81.1166     4.9412     4.5242     4.4855  -999.2500  -999.2500
  539.5000     0.3376   -78.1389     0.0283     2.4425    10.4552   105.8070   -86.3892   -81.5598     4.3491     4.2983     3.8361  -999.2500  -999.2500
