~VERSION INFORMATION
 VERS.                2.0:   CWLS LOG ASCII STANDARD - VERSION 2.0
 WRAP.                 NO:   ONE LINE PER DEPTH STEP
~WELL INFORMATION
#MNEM.UNIT      DATA TYPE    INFORMATION
#----------   ------------   ------------------------------
 STRT.F          172.0000:   START DEPTH
 STOP.F         3376.0000:   STOP DEPTH
 STEP.F            0.5000:   STEP LENGTH
 NULL.          -999.2500:   NO VALUE
 COMP.    FENIX & SCISSON:   COMPANY
 WELL. FENIX NPR 3 "AX" #23-2:   WELL
 FLD .                NPR:   FIELD
 LOC .       S2 T38N R78W:   LOCATION
 CNTY.            NATRONA:   COUNTY
 STAT.            WYOMING:   STATE
 CTRY. UNITED STATES OF AMERICA:   COUNTRY
 SRVC.              WELEX:   SERVICE COMPANY
 DATE.        02-DEC-1980:   LOGDATE
 API .     49025108740000:   API NUMBER
~CURVE INFORMATION
#MNEM.UNIT       API CODE    CURVE DESCRIPTION
#----------   ------------   ------------------------------
 DEPT.F                  :   
 CALD.IN     45 280 60 00:   CALIPER FROM DENSITY LOG
 CORR.G/C3   45 356 01 00:   DENSITY CORRECTION
 GRD .GAPI   45 310 01 00:   GAMMA RAY FROM DENSITY LOG
 RHOB.G/C3   45 350 01 00:   BULK DENSITY
 TENR.LBS    07 635 01 00:   TENSION
 SPR .MV     07 010 01 00:   SPONTANEOUS POTENTIAL
 SGRD.OHMM   07 220 05 00:   SHALLOW GUARD
 ILD .OHMM   07 120 46 00:   INDUCTION LOG DEEP RESISTIVITY
 ILM .OHMM   07 120 44 00:   INDUCTION LOG MEDIUM RESISTIVITY
~PARAMETER INFORMATION
#MNEM.UNIT          VALUE    DESCRIPTION
#----------   ------------   ------------------------------
 EKB .F         5133.0000:   Kelly bushing
 EGL .F         5123.0000:   Ground level
 EDF .F            0.0000:   Drilling floor
 TD  .F         3375.0000:   Total depth
 DATE.        02-DEC-1980:   Date logged
 CLNT.            A2DTECH:   Client Code
 SL  . 3800' FSL & 827' FWL:   Surface Location
 PD  .                 GL:   Permanent Datum
 EPD .F              5123:   Elevation Permanent Datum
 LMF .                 KB:   Log Measured From
 DMF .                 KB:   Drilling Measured From
 DAPD.F                10:   Feet Above Permanent Datum
 DD  .F              3375:   Depth driller
 DL  .F              3373:   Depth logger
 BLI .F              3371:   Bottom log interval
 TLI .F               181:   Top log interval
 CS1 .IN            8.625:   Casing size
 CBD1.      8.625" @ 181':   Casing driller 1
 CBL1.F               181:   Casing logger 1
 BS1 .IN            7.875:   Bit size
 BSD1.F              3375:   Depth drilled with bit1
 DFT .           CHEM/GEL:   Type fluid in hole
 DFD .                8.8:   Density
 DFV .                 45:   Viscosity
 DFPH.                  9:   pH
 DFL .                 16:   Fluid loss
 MSS .           FLOWLINE:   Source of sample
 RMS .OHMM           1.25:   Rm
 MST .F                64:   Rm Meas. temp.
 RMF .OHMM           1.17:   Rmf
 MFST.F                64:   Rmf Meas. temp.
 RMC .OHMM            1.1:   Rmc
 MCST.F                64:   Rmc Meas. temp.
 MFSS.               MEAS:   Source Rmf.
 MCSS.               MEAS:   Source Rmc.
 RMB .OHMM            .67:   Rm. at BHT
 BHT .F               120:   BHT.
 TCS .HRS               2:   Time Circ. stopped
 MRT .F               120:   Maximum recorded temp.
 LUN .               1892:   Logging unit number
 LUL .             CASPER:   Logging unit location
 ENGI.  PFRIMMER/MONNAHAN:   Recorded By
 WITN.              FIVAS:   Witnessed by
 ORIG.           5" PRINT:   Origin of data
 UWI .     49025108740000:   Unique Well ID
 DICO. A2D TECHNOLOGIES, INC.:   Digitizing Company
~OTHER INFORMATION
~A   DEPT     CALD       CORR         GRD      RHOB       TENR        SPR       SGRD        ILD        ILM   
# ...
 1449.5000     9.6960     0.0370   122.6170     2.5290   481.3630   -18.4070     9.4850     8.2660     8.6510
 1450.0000     9.6910     0.0360   123.7230     2.5240   478.9880   -18.6490     9.4850     8.2940     8.7060
 1450.5000     9.6700     0.0370   121.2970     2.5310   476.6140   -18.9100     9.4850     8.3220     8.7620
 1451.0000     9.6500     0.0390   118.4800     2.5420   474.2390   -19.1470     9.4850     8.3500     8.8170
 1451.5000     9.6290     0.0410   115.7190     2.5510   471.8640   -19.3800     9.7030     8.3790     8.8730
 1452.0000     9.6090     0.0420   116.7400     2.5560   469.4890   -19.2990     9.9790     8.4070     8.9290
 1452.5000     9.5940     0.0440   118.2550     2.5600   467.1140   -19.2010    10.2550     8.4360     8.9840
 1453.0000     9.5910     0.0450   119.7740     2.5630   464.7400   -19.1000    10.5930     8.4630     9.0400
 1453.5000     9.5880     0.0440   121.2900     2.5540   462.3650   -19.0200    10.5420     8.4950     9.0960
 1454.0000     9.5860     0.0420   122.8050     2.5400   459.9900   -19.2250    10.4060     8.4910     9.1420
 1454.5000     9.5830     0.0390   124.3050     2.5260   457.6150   -19.4360    10.2700     8.4600     9.0730
 1455.0000     9.5800     0.0350   125.3140     2.5200   455.2410   -19.6890    10.2100     8.4330     9.0140
 1455.5000     9.5770     0.0310   124.8190     2.5190   452.8660   -19.7320    10.2100     8.4050     8.9550
 1456.0000     9.5750     0.0260   124.3650     2.5150   457.3490   -19.5020    10.2100     8.3770     8.8970
 1456.5000     9.5720     0.0220   123.9100     2.5040   467.3490   -19.3010    10.0240     8.3500     8.8380
 1457.0000     9.5690     0.0180   123.4590     2.4920   477.3490   -19.0930     9.7840     8.2970     8.8110
 1457.5000     9.5660     0.0180   123.5160     2.4810   487.3490   -18.8820     9.5300     8.2230     8.6950
 1458.0000     9.5640     0.0180   123.6470     2.4740   497.3490   -18.6750     9.3120     8.1500     8.5930
 1458.5000     9.5610     0.0180   123.7770     2.4860   507.3490   -18.4690     9.3120     8.0760     8.4920
 1459.0000     9.5580     0.0190   123.2330     2.4930   512.0480   -18.2530     9.3120     8.0020     8.3900
 1459.5000     9.5550     0.0190   122.0120     2.5010   512.0480   -18.0590     9.3120     7.9280     8.2880
 1460.0000     9.5560     0.0190   120.7930     2.5000   512.0480   -17.8250     9.3120     7.8550     8.1870
 1460.5000     9.5620     0.0200   119.5730     2.4950   512.0480   -18.0000     9.3120     7.7450     8.0360
 1461.0000     9.5670     0.0200   118.7130     2.4900   512.0480   -18.2440     9.2900     7.7690     8.0600
 1461.5000     9.5720     0.0210   117.9200     2.4820   512.0480   -18.5070     9.2670     7.8140     8.1080
 1462.0000     9.5780     0.0210   117.1170     2.4780   512.0480   -18.7460     9.2430     7.8600     8.1550
 1462.5000     9.5830     0.0220   116.2190     2.4890   512.0480   -18.9820     9.2190     7.9060     8.2020
 1463.0000     9.5880     0.0220   118.5990     2.4930   512.0480   -18.9200     9.1960     7.9510     8.2500
 1463.5000     9.5930     0.0230   119.6750     2.4890   512.0480   -18.8500     9.1750     7.9970     8.2970
 1464.0000     9.5990     0.0230   118.5710     2.4890   508.4820   -18.7660     9.1470     8.0430     8.3440
 1464.5000     9.6040     0.0230   117.4660     2.5000   504.4820   -18.6950     9.1600     8.0880     8.3920
 1465.0000     9.6090     0.0210   116.3520     2.5080   500.4820   -18.6110     9.2250     8.1340     8.4390
 1465.5000     9.6140     0.0200   115.2480     2.5140   496.4820   -18.6720     9.2120     8.1850     8.4920
 1466.0000     9.6200     0.0180   115.2860     2.5190   492.4820   -18.7560     9.2220     8.1810     8.4880
 1466.5000     9.6250     0.0160   116.8540     2.5080   488.4820   -18.8750    10.0240     8.1730     8.4790
 1467.0000     9.6300     0.0150   118.4440     2.4970   484.4820   -18.9070     9.8410     8.1630     8.4700
 1467.5000     9.6350     0.0150   118.3730     2.4860   480.4820   -19.3170     9.8040     8.1540     8.4600
 1468.0000     9.6350     0.0150   117.9870     2.4830   476.4820   -19.1990     9.7700     8.1460     8.4510
 1468.5000     9.6350     0.0160   118.8550     2.4830   471.8880   -19.0030     9.7350     8.1370     8.4420
 1469.0000     9.6350     0.0160   119.7060     2.4830   471.8880   -18.8120     9.7010     8.1280     8.4330
 1469.5000     9.6350     0.0160   120.5610     2.4820   483.5340   -18.5740     9.6610     8.1190     8.4240
 1470.0000     9.6350     0.0170   121.4170     2.4750   494.6450   -18.9230     9.3010     8.1100     8.4150
 1470.5000     9.6350     0.0170   122.2790     2.4870   505.7560   -18.9990     8.9750     8.1010     8.4050
 1471.0000     9.6350     0.0170   122.5640     2.4960   512.0480   -19.0100     9.0290     8.0920     8.3960
 1471.5000     9.6360     0.0170   122.3990     2.4960   515.1450   -18.9920     9.0930     8.0840     8.3870
 1472.0000     9.6360     0.0160   122.2350     2.4900   518.1450   -19.0040     9.1580     8.0750     8.3780
 1472.5000     9.6320     0.0150   122.0660     2.5040   521.1450   -18.9990     9.2220     8.0650     8.3680
 1473.0000     9.6160     0.0140   121.8900     2.4960   524.1450   -19.0000     9.3120     8.0570     8.3590
 1473.5000     9.6150     0.0130   120.5450     2.4850   527.1450   -19.0000     9.2900     8.0490     8.3510
 1474.0000     9.6150     0.0120   117.3950     2.4780   530.1450   -19.0000     9.1880     8.0380     8.3400
 1474.5000     9.6150     0.0100   114.3160     2.4810   533.1450   -19.0000     9.0860     8.0340     8.3360
 1475.0000     9.6150     0.0090   111.7320     2.4790   536.1450   -19.0000     8.9840     7.9270     8.2250
 1475.5000     9.6150     0.0080   113.5980     2.4790   539.1450   -19.0000     8.8820     7.8390     8.1330
 1476.0000     9.6130     0.0070   116.4280     2.4750   542.1450   -18.9990     8.7800     7.7500     8.0410
 1476.5000     9.6060     0.0050   119.1890     2.4660   545.1450   -19.0020     8.6780     7.6620     7.9490
 1477.0000     9.6000     0.0030   121.9880     2.4570   548.1450   -18.9980     8.5760     7.5730     7.8580
 1477.5000     9.5930     0.0010   124.7210     2.4480   551.1450   -18.9900     8.4920     7.4840     7.7650
 1478.0000     9.5870     0.0060   126.3100     2.4440   554.1450   -18.8160     8.5430     7.4560     7.7360
 1478.5000     9.5810     0.0100   122.2370     2.4800   557.1450   -18.6380     8.6090     7.4440     7.7240
 1479.0000     9.5740     0.0140   120.9260     2.5000   560.1450   -18.4540     8.6500     7.4320     7.7110
 1479.5000     9.5680     0.0180   119.5210     2.5110   563.1450   -18.2730     8.5680     7.4210     7.6990
 1480.0000     9.5620     0.0210   118.0350     2.5190   566.1450   -18.0890     8.4240     7.4090     7.6870
 1480.5000     9.5550     0.0210   119.4940     2.5270   569.1450   -17.9130     8.1850     7.3970     7.6750
 1481.0000     9.5490     0.0210   121.6070     2.5310   572.2890   -17.7220     8.2640     7.3860     7.6630
 1481.5000     9.5430     0.0220   123.4950     2.5340   574.1930   -17.5460     8.4870     7.3740     7.6510
 1482.0000     9.5360     0.0220   122.3040     2.5340   576.1930   -17.4360     8.8110     7.3620     7.6390
 1482.5000     9.5360     0.0220   121.3980     2.5230   578.1930   -17.8130     8.6500     7.3510     7.6260
 1483.0000     9.5400     0.0230   121.3990     2.5130   580.1930   -18.1220     8.5380     7.3390     7.6150
 1483.5000     9.5440     0.0240   120.7190     2.5020   582.1930   -18.4770     8.4920     7.3290     7.6060
 1484.0000     9.5490     0.0270   116.4260     2.4980   584.1930   -18.6100     8.4920     7.3290     7.6340
 1484.5000     9.5530     0.0300   115.0910     2.5110   586.1930   -18.5980     8.4920     7.3290     7.6580
 1485.0000     9.5570     0.0320   115.9010     2.5260   588.1930   -18.5980     8.4920     7.3290     7.6840
 1485.5000     9.5610     0.0350   116.9430     2.5410   590.1930   -18.6060     8.4920     7.3290     7.7100
