~VERSION INFORMATION
 VERS.                2.0:   CWLS LOG ASCII STANDARD - VERSION 2.0
 WRAP.                 NO:   ONE LINE PER DEPTH STEP
~WELL INFORMATION
#MNEM.UNIT      DATA TYPE    INFORMATION
#----------   ------------   ------------------------------
 STRT.F          500.0000:   START DEPTH
 STOP.F         2517.0000:   STOP DEPTH
 STEP.F            0.5000:   STEP LENGTH
 NULL.          -999.2500:   NO VALUE
 COMP.    FENIX & SCISSON:   COMPANY
 WELL. FENIX & SCISSON SHX #46-33:   WELL
 FLD .  TEAPOT DOME NPR-3:   FIELD
 LOC .      S33 T39N R78W:   LOCATION
 CNTY.            NATRONA:   COUNTY
 STAT.            WYOMING:   STATE
 CTRY. UNITED STATES OF AMERICA:   COUNTRY
 SRVC.           BIRDWELL:   SERVICE COMPANY
 DATE.        04-APR-1979:   LOGDATE
 API .     49025107670000:   API NUMBER
~CURVE INFORMATION
#MNEM.UNIT       API CODE    CURVE DESCRIPTION
#----------   ------------   ------------------------------
 DEPT.F                  :   
 GRD .GAPI   45 310 01 00:   GAMMA RAY FROM DENSITY LOG
 CALD.IN     45 280 60 00:   CALIPER FROM DENSITY LOG
 CORR.G/C3   45 356 01 00:   DENSITY CORRECTION
 RHOB.G/C3   45 350 01 00:   BULK DENSITY
~PARAMETER INFORMATION
#MNEM.UNIT          VALUE    DESCRIPTION
#----------   ------------   ------------------------------
 EKB .F         5217.0000:   Kelly bushing
 EGL .F         5207.0000:   Ground level
 EDF .F            0.0000:   Drilling floor
 TD  .F         2630.0000:   Total depth
 CLNT.            A2DTECH:   Client Code
 SL  . 1955' FSL & 1970' FWL:   Surface Location
 PD  .                 GL:   Permanent Datum
 EPD .F              5207:   Elevation Permanent Datum
 LMF .                 KB:   Log Measured From
 DMF .                 KB:   Drilling Measured From
 DAPD.                 10:   Feet Above Permanent Datum
 DATE.        04-APR-1979:   Date Logged [DD-MMM-YYYY]
 DD  .F              2630:   Depth driller
 DL  .F              2517:   Depth logger
 BLI .F              2517:   Bottom log interval
 TLI .F               504:   Top log interval
 CS1 .              9.625:   Casing size
 CBD1.      9.625" @ 300':   Casing driller 1
 CBL1.IN              306:   Casing logger 1
 BS1 .IN            7.875:   Bit size
 BSD1.F              2630:   Depth drilled with bit1
 DFT .                OIL:   Type fluid in hole
 LUL .             CASPER:   Logging unit location
 ENGI.            ROLLINS:   Recorded By
 ORIG.           5" PRINT:   Origin of data
 UWI .     49025107670000:   Unique Well ID
 DICO. A2D TECHNOLOGIES ,INC.:   Digitizing Company
 WITN.              AMUND:   Witnessed by
~OTHER INFORMATION
~A   DEPT      GRD       CALD       CORR       RHOB   
# ...
 1011.0000    31.1830    10.7931     0.2154     2.5907
 1011.5000    30.0134    10.7795     0.2187     2.6029
 1012.0000    28.8438    10.7808     0.2112     2.6066
 1012.5000    32.0581    10.7822     0.1976     2.6015
 1013.0000    34.8825    10.7835     0.1841     2.5797
 1013.5000    36.2079    10.7851     0.1751     2.5572
 1014.0000    36.8002    10.7865     0.1737     2.5460
 1014.5000    35.6306    10.7579     0.2063     2.5529
 1015.0000    34.7582    10.7439     0.2310     2.5665
 1015.5000    34.7773    10.7156     0.2479     2.5764
 1016.0000    35.3907    10.6717     0.2381     2.5840
 1016.5000    36.8957    10.6284     0.2313     2.5917
 1017.0000    37.8064    10.5998     0.2316     2.6068
 1017.5000    38.1227    10.5859     0.2302     2.6144
 1018.0000    37.9932    10.5722     0.2304     2.6160
 1018.5000    36.0806    10.5586     0.2322     2.6063
 1019.0000    34.7625    10.5602     0.2324     2.6034
 1019.5000    35.2273    10.5466     0.2310     2.6020
 1020.0000    36.5837    10.5330     0.2725     2.6239
 1020.5000    35.7113    10.5193     0.2941     2.6376
 1021.0000    35.5818    10.5057     0.2974     2.6339
 1021.5000    31.7376    10.5086     0.3037     2.6379
 1022.0000    30.4195    10.5257     0.3130     2.6635
 1022.5000    34.4505    10.5549     0.3224     2.6697
 1023.0000    35.6583    10.5712     0.2676     2.6704
 1023.5000    35.5288    10.5725     0.2402     2.6472
 1024.0000    33.9555    10.5439     0.2297     2.6383
 1024.5000    30.1817    10.5153     0.2284     2.6353
 1025.0000    29.6426    10.4867     0.2271     2.6324
 1025.5000    35.6100    10.4727     0.2288     2.6318
 1026.0000    38.1551    10.4744     0.2338     2.6372
 1026.5000    37.4313    10.4757     0.2332     2.6478
 1027.0000    34.6272    10.4770     0.2115     2.6486
 1027.5000    34.1958    10.4634     0.1868     2.6284
 1028.0000    36.5971    10.4647     0.1732     2.6180
 1028.5000    39.2908    10.4661     0.1719     2.6165
 1029.0000    38.4184    10.4524     0.1736     2.6234
 1029.5000    36.9516    10.4388     0.1784     2.6311
 1030.0000    38.3080    10.4251     0.1878     2.6364
 1030.5000    39.8082    10.4414     0.1956     2.6358
 1031.0000    34.9287    10.4578     0.2019     2.6366
 1031.5000    33.7591    10.4441     0.2067     2.6375
 1032.0000    31.4008    10.4155     0.2054     2.6436
 1032.5000    29.7854    10.4171     0.1934     2.6467
 1033.0000    27.7243    10.4185     0.1859     2.6249
 1033.5000    31.4581    10.4198     0.1876     2.6221
 1034.0000    36.9750    10.4211     0.1955     2.6222
 1034.5000    40.1145    10.4224     0.2171     2.6245
 1035.0000    42.3624    10.4387     0.2463     2.6269
 1035.5000    40.6788    10.4550     0.2649     2.6360
 1036.0000    36.6655    10.4863     0.2713     2.6376
 1036.5000    32.7448    10.4876     0.2776     2.6385
 1037.0000    30.4032    10.5039     0.2792     2.6370
 1037.5000    31.7644    10.5352     0.2828     2.6379
 1038.0000    32.8236    10.5515     0.3011     2.6403
 1038.5000    35.5173    10.5528     0.3074     2.6494
 1039.0000    39.9940    10.5542     0.3015     2.6337
 1039.5000    40.6075    10.5727     0.2956     2.6270
 1040.0000    33.6430    10.6170     0.2973     2.6421
 1040.5000    28.4615    10.6633     0.3021     2.6543
 1041.0000    27.8862    10.6796     0.2763     2.6567
 1041.5000    27.1624    10.6656     0.2413     2.6409
 1042.0000    25.5470    10.6223     0.2140     2.6365
 1042.5000    23.0401    10.5635     0.1866     2.6238
 1043.0000    20.6818    10.5052     0.1807     2.6013
 1043.5000    22.7812    10.4617     0.1901     2.5969
 1044.0000    26.8122    10.4477     0.2163     2.6145
 1044.5000    30.1002    10.4493     0.2241     2.6327
 1045.0000    31.6052    10.4806     0.2167     2.6333
 1045.5000    31.6243    10.4969     0.2062     2.6214
 1046.0000    31.9406    10.5132     0.2033     2.6072
 1046.5000    33.1531    10.5145     0.2020     2.6013
 1047.0000    33.6137    10.5308     0.2022     2.6006
 1047.5000    30.9849    10.5629     0.2007     2.5962
 1048.0000    28.4509    10.5784     0.1947     2.5895
 1048.5000    28.9206    10.5798     0.1905     2.5934
 1049.0000    29.9750    10.4916     0.1877     2.5988
 1049.5000    26.5814    10.4031     0.1803     2.6011
 1050.0000    25.8528    10.3741     0.1728     2.6057
 1050.5000    29.7400    10.3758     0.1714     2.6254
 1051.0000    32.7231    10.3921     0.1885     2.6323
 1051.5000    33.6572    10.3938     0.1887     2.6361
 1052.0000    33.0123    10.3996     0.1965     2.6429
 1052.5000    35.0003    10.4053     0.2120     2.6497
 1053.0000    36.2052    10.4087     0.2199     2.6453
 1053.5000    35.6121    10.3493     0.2216     2.6484
 1054.0000    28.4422    10.2894     0.2218     2.6673
 1054.5000    25.8182    10.2296     0.2159     2.6741
 1055.0000    24.9529    10.1547     0.2016     2.6652
 1055.5000    23.8085    10.1130     0.1881     2.6636
 1056.0000    21.2987    10.1139     0.1962     2.6789
 1056.5000    16.7086    10.1146     0.2056     2.6676
 1057.0000    15.8291    10.1304     0.2073     2.6632
 1057.5000    16.8894    10.1311     0.2074     2.6625
 1058.0000    19.5802    10.1318     0.2076     2.6626
 1058.5000    18.4076    10.1326     0.2246     2.6483
 1059.0000    16.0463    10.1333     0.2064     2.6314
 1059.5000    17.6969    10.1490     0.1928     2.6237
 1060.0000    20.5363    10.1498     0.1976     2.6268
 1060.5000    22.6326    10.1505     0.2039     2.6291
 1061.0000    23.5403    10.1361     0.2086     2.6300
 1061.5000    24.0022    10.1370     0.2118     2.6391
 1062.0000    22.6811    10.1527     0.2166     2.6557
 1062.5000    21.6568    10.1535     0.2198     2.6671
 1063.0000    21.2275    10.1692     0.2169     2.6724
 1063.5000    17.2224    10.1702     0.2064     2.6687
 1064.0000    15.1482    10.1856     0.2004     2.6590
 1064.5000    16.7222    10.1864     0.2006     2.6591
 1065.0000    18.4944    10.1871     0.2039     2.6599
 1065.5000    18.1919    10.2030     0.2055     2.6464
 1066.0000    17.9068    10.2187     0.2057     2.6405
 1066.5000    18.5213    10.2344     0.2043     2.6375
 1067.0000    19.5776    10.2501     0.2152     2.6512
 1067.5000    19.8869    10.2509     0.2261     2.6640
 1068.0000    18.7183    10.2666     0.2186     2.6664
 1068.5000    20.6661    10.2823     0.1989     2.6565
 1069.0000    22.7625    10.2830     0.1853     2.6421
 1069.5000    23.5216    10.2987     0.1763     2.6340
 1070.0000    22.7948    10.2995     0.1826     2.6358
 1070.5000    21.3251    10.3002     0.1858     2.6434
 1071.0000    20.3011    10.3009     0.1875     2.6465
 1071.5000    20.1679    10.3017     0.1877     2.6496
 1072.0000    19.7390    10.3024     0.1894     2.6489
 1072.5000    17.6746    10.3032     0.1850     2.6452
 1073.0000    19.6227    10.3039     0.1790     2.6318
 1073.5000    20.0847    10.2897     0.1745     2.6266
 1074.0000    20.4381    10.2904     0.1992     2.6424
 1074.5000    23.3764    10.2911     0.2147     2.6628
 1075.0000    26.5725    10.2919     0.2271     2.6757
 1075.5000    26.2454    10.2928     0.2227     2.6705
 1076.0000    23.2897    10.2935     0.2045     2.6548
 1076.5000    21.5228    10.2943     0.2031     2.6488
 1077.0000    20.4988    10.2950     0.2033     2.6474
 1077.5000    21.5551    10.2958     0.2080     2.6505
 1078.0000    20.6797    10.2965     0.2128     2.6656
 1078.5000    16.3868    10.2972     0.2145     2.6853
 1079.0000    10.1622    10.2381     0.2115     2.6960
 1079.5000     2.3032    10.1490     0.1991     2.6989
 1080.0000     0.0000    10.0897     0.1853     2.6573
 1080.5000     0.0000    10.1954     0.1922     2.6532
 1081.0000     0.0000    10.2411     0.2521     2.6548
 1081.5000    10.9859    10.2418     0.2537     2.6541
 1082.0000    16.9456    10.2425     0.2554     2.6489
 1082.5000    20.6764    10.2133     0.2495     2.6558
 1083.0000    21.4355    10.1841     0.2313     2.6626
 1083.5000    22.5169    10.1549     0.2040     2.6574
