~VERSION INFORMATION
 VERS.                2.0:   CWLS LOG ASCII STANDARD - VERSION 2.0
 WRAP.                 NO:   ONE LINE PER DEPTH STEP
~WELL INFORMATION
#MNEM.UNIT      DATA TYPE    INFORMATION
#----------   ------------   ------------------------------
 STRT.F           41.0000:   START DEPTH
 STOP.F          925.0000:   STOP DEPTH
 STEP.F            0.5000:   STEP LENGTH
 NULL.          -999.2500:   NO VALUE
 COMP. LAWRENCE ALLISON & ASSOCIATION:   COMPANY
 WELL. LAWRENCE ALLISON #48-2:   WELL
 FLD .       N.P.R. NO. 3:   FIELD
 LOC .       S2 T38N R78W:   LOCATION
 CNTY.            NATRONA:   COUNTY
 STAT.            WYOMING:   STATE
 CTRY. UNITED STATES OF AMERICA:   COUNTRY
 SRVC.       SCHLUMBERGER:   SERVICE COMPANY
 DATE.        06-SEP-1982:   LOGDATE
 API .     49025109110000:   API NUMBER
~CURVE INFORMATION
#MNEM.UNIT       API CODE    CURVE DESCRIPTION
#----------   ------------   ------------------------------
 DEPT.F                  :   
 ILM .OHMM   07 120 44 00:   INDUCTION LOG MEDIUM RESISTIVITY
 ILD .OHMM   07 120 46 00:   DEEP INDUCTION RESISTIVITY
 CALD.IN     45 280 60 00:   CALIPER FROM DENSITY LOG
 GRD .GAPI   45 310 01 00:   GAMMA RAY FROM DENSITY LOG
 TEND.LBS    45 635 01 00:   TENSION FROM DENSITY LOG
 CORR.G/C3   45 356 01 00:   DENSITY CORRECTION
 RHOB.G/C3   45 350 01 00:   BULK DENSITY
 NPHI.DEC    42 890 03 00:   NEUTRON POROSITY SANDSTONE
~PARAMETER INFORMATION
#MNEM.UNIT          VALUE    DESCRIPTION
#----------   ------------   ------------------------------
 EKB .F         5192.0000:   Kelly bushing
 EGL .F         5182.0000:   Ground level
 TD  .F          920.0000:   Total depth
 CLNT.            A2DTECH:   Client Code
 DATE.         6-SEP-1982:   Date Logged [DD-MMM-YYYY]
 DD  .F               920:   Depth driller
 DL  .F               918:   Depth logger
 BLI .F               908:   Bottom log interval
 TLI .F                49:   Top log interval
 CBL1.IN               49:   Casing logger 1
 BSD1.F               920:   Depth drilled with bit1
 DFT .                AIR:   Type fluid in hole
 TCS .HRS            0730:   Time Circ. stopped
 TLAB.HRS            0900:   Time logger at bottom
 LUN .               8035:   Logging unit number
 LUL .               CSPR:   Logging unit location
 ENGI.              PENNY:   Recorded By
 WITN.           JENNINGS:   Witnessed by
 ORIG.           5" PRINT:   Origin of data
 UWI .     49025109110000:   Unique Well ID
 DICO. A2D TECHNOLOGIES, INC.:   Digitizing Company
 PD  .                 GL:   Permanent Datum
 EPD .               5180:   Elevation Permanent Datum
 LMF .                 KB:   Log Measured From
 DMF .                 KB:   Drilling Measured From
 DAPD.                 10:   Feet Above Permanent Datum
~OTHER INFORMATION
~A   DEPT      ILM        ILD       CALD         GRD      TEND       CORR       RHOB       NPHI   
# ...
  324.5000    12.0952    11.9595    12.8690   111.4570   572.3728    -0.0004     2.2636  -999.2500
  325.0000    12.1012    12.0474    12.8699   112.1563   571.7696     0.0075     2.2793  -999.2500
  325.5000    12.1071    12.2236    12.8856   114.0002   571.1664     0.0239     2.3136  -999.2500
  326.0000    12.2003    12.3136    12.8864   117.4496   586.0193     0.0412     2.3316  -999.2500
  326.5000    12.2943    12.4041    12.8873   121.1501   585.4161     0.0467     2.3341  -999.2500
  327.0000    12.4782    12.4954    12.8882   123.4312   584.8130     0.0475     2.3293  -999.2500
  327.5000    12.4843    12.5878    12.8890   122.6490   584.2098     0.0459     2.3239  -999.2500
  328.0000    12.6711    12.7719    12.8899   119.7816   583.6067     0.0404     2.3176  -999.2500
  328.5000    12.7686    12.9587    12.8908   116.3503   582.9984     0.0396     2.3096  -999.2500
  329.0000    12.8670    12.9605    12.9067   113.1483   582.3802     0.0443     2.3013  -999.2500
  329.5000    12.9663    13.1500    12.9075   110.1757   581.6464     0.0491     2.3006  -999.2500
  330.0000    13.1616    13.3424    12.9232   109.0356   581.0432     0.0483     2.2991  -999.2500
  330.5000    13.2629    13.5375    12.9093   112.4873   580.4401     0.0412     2.2929  -999.2500
  331.0000    13.5583    13.6371    12.8804   116.3954   579.8369     0.0621     2.3054  -999.2500
  331.5000    13.8603    13.7513    12.9702   120.9916   579.2338     0.0930     2.3288  -999.2500
  332.0000    14.1689    14.0394    13.1042   121.9158   578.6306     0.1016     2.3366  -999.2500
  332.5000    14.4845    14.3475    13.2086   118.0280   578.0274     0.0962     2.3234  -999.2500
  333.0000    14.7012    14.6624    13.2835   109.5508   577.4243     0.0757     2.2876  -999.2500
  333.5000    15.0286    14.9842    13.2843   104.5140   576.8160     0.0538     2.2759  -999.2500
  334.0000    15.3648    15.4236    13.2408   102.6881   591.6739     0.0459     2.2744  -999.2500
  334.5000    15.7178    15.8758    13.2112   103.8691   606.5267     0.0436     2.2736  -999.2500
  335.0000    16.0573    16.3413    13.1667   105.5046   605.7727     0.0396     2.2682  -999.2500
  335.5000    16.2975    16.7000    13.0661   106.6896   605.1696     0.0286     2.2635  -999.2500
  336.0000    16.5413    16.9638    12.9931   108.4605   604.5664     0.0137     2.2638  -999.2500
  336.5000    16.7887    17.3167    12.9641   110.5337   588.5073     0.0135     2.3010  -999.2500
  337.0000    17.1626    17.8244    12.9652   113.7538   572.4482     0.0224     2.3393  -999.2500
  337.5000    17.5449    18.0851    12.9809   117.2032   571.8451     0.0561     2.3463  -999.2500
  338.0000    17.8073    18.3496    13.1741   119.9622   571.2419     0.0743     2.3409  -999.2500
  338.5000    18.0737    18.7524    13.3672   117.2212   570.6336     0.0805     2.3183  -999.2500
  339.0000    18.3441    19.0266    13.6196   112.6431   570.0154     0.0844     2.3059  -999.2500
  339.5000    18.7527    19.3049    14.1826   108.9824   553.8256     0.1064     2.2880  -999.2500
  340.0000    19.0518    19.5873    14.5385   109.9089   553.2225     0.1676     2.2490  -999.2500
  340.5000    19.3203    19.8744    14.6133   110.1472   552.6193     0.1958     2.1656  -999.2500
  341.0000    19.3297    19.7348    14.5091   109.4679   567.5224     0.1558     2.1235  -999.2500
  341.5000    19.2009    19.4551    14.0922   109.4772   566.9193     0.0805     2.1352  -999.2500
  342.0000    19.0729    18.9062    13.6378   113.1560   550.8501     0.0271     2.1610  -999.2500
  342.5000    18.4095    18.2418    13.0638   114.3118   550.2319     0.0208     2.2218  -999.2500
  343.0000    17.7692    17.7271    13.0055   112.2310   534.0471     0.0281     2.2593  -999.2500
  343.5000    17.1511    17.3511    13.0063   110.8493   533.4439     0.0375     2.2815  -999.2500
  344.0000    16.4361    16.8617    13.0072   113.8824   517.3848     0.0404     2.2875  -999.2500
  344.5000    16.2098    16.7329    13.0081   115.0360   532.2376     0.0365     2.2750  -999.2500
  345.0000    16.2178    16.3882    13.0090   113.6712   531.6345     0.0443     2.2797  -999.2500
  345.5000    16.2260    16.2731    12.9802   112.5334   546.6380     0.0663     2.3000  -999.2500
  346.0000    16.3526    16.1588    12.9811   112.0815   545.8840     0.1150     2.3391  -999.2500
  346.5000    16.4785    16.2782    12.9968   113.0102   545.2809     0.1401     2.3531  -999.2500
  347.0000    16.6054    16.2805    13.0272   116.0009   544.6677     0.1330     2.3446  -999.2500
  347.5000    16.6136    16.2828    13.0281   118.7622   546.6229     0.1024     2.3041  -999.2500
  348.0000    16.6217    15.8234    13.0290   124.0464   558.9274     0.0546     2.2690  -999.2500
  348.5000    16.5109    15.0488    12.9098   127.2665   558.1735     0.0404     2.2643  -999.2500
  349.0000    15.9366    14.2903    12.8828   129.3397   557.5703     0.0459     2.2948  -999.2500
  349.5000    14.3167    12.3974    12.8839   131.1836   556.9671     0.0522     2.3221  -999.2500
  350.0000    12.0568    10.4340    12.8855   132.3394   618.2884     0.0459     2.3331  -999.2500
  350.5000    10.6325     9.5063    12.8855   133.5100   617.5327     0.0182     2.3382  -999.2500
  351.0000     9.3154     8.6610    12.8702   135.1973   601.4720     0.0121     2.3713  -999.2500
  351.5000     7.7866     7.7783    12.8702   141.5431   600.8674     0.0169     2.3916  -999.2500
  352.0000     6.9432     6.8306    12.8550   150.4964   600.2627     0.0232     2.4095  -999.2500
  352.5000     6.3714     6.4043    12.8550   150.7587   615.2653     0.0271     2.4205  -999.2500
  353.0000     6.2366     6.1867    12.8550   148.2504   614.5095     0.0326     2.4275  -999.2500
  353.5000     6.2383     6.1889    12.8550   143.2180   613.9048     0.0381     2.4338  -999.2500
  354.0000     6.3298     6.2807    12.8550   142.5400   613.2921     0.0366     2.4252  -999.2500
  354.5000     6.4227     6.3739    12.8702   144.6210   612.6740     0.0217     2.4104  -999.2500
  355.0000     6.5216     6.4685    12.8855   146.0106   611.9398     0.0177     2.4158  -999.2500
  355.5000     6.6606     6.5175    12.8855   146.2534   611.3351     0.0232     2.4269  -999.2500
  356.0000     6.6620     6.5668    12.9160   146.7256   610.7305     0.0345     2.4347  -999.2500
  356.5000     6.6153     6.5220    12.9313   147.8859   610.1259     0.0464     2.4369  -999.2500
  357.0000     6.5228     6.3851    12.9466   148.1287   609.5212     0.0554     2.4369  -999.2500
  357.5000     6.3848     6.2932    12.9618   145.8335   608.9166     0.0617     2.4362  -999.2500
  358.0000     6.2057     6.2085    12.9771   141.6363   608.3120     0.0665     2.4362  -999.2500
  358.5000     6.0747     6.1661    12.9924   137.8513   607.7073     0.0665     2.4346  -999.2500
  359.0000     6.0760     6.2134    12.9924   136.9440   607.1027     0.0618     2.4276  -999.2500
  359.5000     6.1211     6.3056    12.9924   138.1076   606.4915     0.0390     2.4120  -999.2500
  360.0000     6.2112     6.3991    13.0076   139.0385   605.8732     0.0162     2.3956  -999.2500
  360.5000     6.2573     6.4476    12.9899   140.1987   605.1376     0.0123     2.3902  -999.2500
  361.0000     6.3948     6.5905    12.9913   141.1296   604.5330     0.0147     2.3965  -999.2500
  361.5000     6.4422     6.6404    13.0076   142.9780   619.5355     0.0220     2.3996  -999.2500
  362.0000     6.5368     6.6427    13.0090   144.3676   618.7797     0.0291     2.3988  -999.2500
  362.5000     6.5853     6.6450    12.9957   142.3168   633.7821     0.0359     2.4019  -999.2500
  363.0000     6.6341     6.6475    12.9528   136.8213   617.5704     0.0414     2.4089  -999.2500
  363.5000     6.6833     6.6021    12.9098   134.2500   616.9658     0.0493     2.4152  -999.2500
  364.0000     6.6369     6.5577    12.8817   135.4798   616.3611     0.0618     2.4214  -999.2500
  364.5000     6.5440     6.4200    12.8388   141.2272   615.7565     0.0736     2.4230  -999.2500
