~VERSION INFORMATION
 VERS.                2.0:   CWLS LOG ASCII STANDARD - VERSION 2.0
 WRAP.                 NO:   ONE LINE PER DEPTH STEP
~WELL INFORMATION
#MNEM.UNIT      DATA TYPE    INFORMATION
#----------   ------------   ------------------------------
 STRT.F          200.0000:   START DEPTH
 STOP.F         3150.0000:   STOP DEPTH
 STEP.F            0.5000:   STEP LENGTH
 NULL.          -999.2500:   NO VALUE
 COMP.  FENIX AND SCISSON:   COMPANY
 WELL.  FENIX "AX" #88-10:   WELL
 FLD .              NPR 3:   FIELD
 LOC .      S10 T38N R78W:   LOCATION
 CNTY.            NATRONA:   COUNTY
 STAT.            WYOMING:   STATE
 CTRY. UNITED STATES OF AMERICA:   COUNTRY
 SRVC.              WELEX:   SERVICE COMPANY
 DATE.        13-JUN-1977:   LOGDATE
 API .     49025103780000:   API NUMBER
~CURVE INFORMATION
#MNEM.UNIT       API CODE    CURVE DESCRIPTION
#----------   ------------   ------------------------------
 DEPT.F                  :   
 CALD.IN     45 280 60 00:   CALIPER FROM DENSITY LOG
 GRD .GAPI   45 310 01 00:   GAMMA RAY FROM DENSITY LOG
 RHOB.G/C3   45 350 01 00:   BULK DENSITY
 CORR.G/C3   45 356 01 00:   DENSITY CORRECTION
 SPR .MV     07 010 01 00:   SPONTANEOUS POTENTIAL
 GURD.OHMM   07 220 05 00:   GUARD LOG RESISTIVITY
 ILD .OHMM   07 120 46 00:   INDUCTION LOG DEEP RESISTIVITY
 ILM .OHMM   07 120 44 00:   INDUCTION LOG MEDIUM RESISTIVITY
~PARAMETER INFORMATION
#MNEM.UNIT          VALUE    DESCRIPTION
#----------   ------------   ------------------------------
 EKB .F         5264.0000:   Kelly bushing
 EGL .F         5254.0000:   Ground level
 EDF .F            0.0000:   Drilling floor
 TD  .F         3160.0000:   Total depth
 DATE.        13-JUN-1977:   Date logged
 CLNT.            A2DTECH:   Client Code
 SL  . 430' FSL & 330' FEL:   Surface Location
 PD  .                 GL:   Permanent Datum
 EPD .F              5254:   Elevation Permanent Datum
 LMF .                 KB:   Log Measured From
 DMF .                 KB:   Drilling Measured From
 DAPD.F                10:   Feet Above Permanent Datum
 DD  .F              3160:   Depth driller
 DL  .F              3151:   Depth logger
 BLI .F              3149:   Bottom log interval
 CS1 .IN            8.625:   Casing size
 CBD1.      8.625" @ 208':   Casing driller 1
 BS1 .IN            7.875:   Bit size
 BSD1.F              3160:   Depth drilled with bit1
 DFT .            KCL MUD:   Type fluid in hole
 DFD .                9.1:   Density
 DFV .                 31:   Viscosity
 DFPH.                7.5:   pH
 DFL .                 20:   Fluid loss
 MSS .           FLOWLINE:   Source of sample
 RMS .OHMM            .90:   Rm
 MST .F                60:   Rm Meas. temp.
 RMF .OHMM            .53:   Rmf
 MFST.F                60:   Rmf Meas. temp.
 RMC .OHMM           1.47:   Rmc
 MCST.F                60:   Rmc Meas. temp.
 MFSS.               MEAS:   Source Rmf.
 MCSS.               MEAS:   Source Rmc.
 RMB .OHMM            .46:   Rm. at BHT
 BHT .F               116:   BHT.
 TCS .HRS               8:   Time Circ. stopped
 MRT .F               116:   Maximum recorded temp.
 LUN .               8611:   Logging unit number
 LUL .             CASPER:   Logging unit location
 ENGI.            C. DOAK:   Recorded By
 WITN.         D. RHOADES:   Witnessed by
 ORIG.           5" PRINT:   Origin of data
 UWI .     49025103780000:   Unique Well ID
 DICO. A2D TECHNOLOGIES, INC.:   Digitizing Company
~OTHER INFORMATION
~A   DEPT       CALD       GRD      RHOB       CORR        SPR       GURD        ILD        ILM   
# ...
 1577.0000     9.6624   100.5217     2.5334    -0.0009   -54.9083    11.4013     7.0118     8.9040
 1577.5000     9.6627   101.3182     2.5364     0.0011   -54.7156    11.0897     7.1397     8.9033
 1578.0000     9.6630   102.5099     2.5314    -0.0029   -54.5230    11.0876     7.0091     8.9009
 1578.5000     9.7029   104.0981     2.5305    -0.0009   -54.5279    11.2908     7.0078     8.8988
 1579.0000     9.7427   106.0792     2.5344    -0.0028   -54.5328    11.4972     7.1364     8.8158
 1579.5000     9.7825   107.2710     2.5305    -0.0068   -54.5378    10.3922     7.1350     8.3414
 1580.0000     9.7828   109.6485     2.5175    -0.0068   -54.7403    10.2013     7.0037     8.1882
 1580.5000     9.8424   109.2592     2.5165    -0.0067   -54.7453    10.2934     6.9389     8.1863
 1581.0000     9.8624   105.3123     2.5156    -0.0067   -54.5526    10.1975     6.9365     8.1848
 1581.5000     9.9023   101.7607     2.5166    -0.0067   -54.5575    10.4796     6.8724     8.1835
 1582.0000     9.8827   100.9761     2.5216    -0.0067   -54.3648    10.8700     6.8710     8.1819
 1582.5000     9.8633   100.9820     2.5265    -0.0007   -54.3698    11.0692     6.9327     8.1803
 1583.0000     9.7846   101.3832     2.5256    -0.0007   -54.3747    11.4803     6.9958     8.1788
 1583.5000     9.7849   101.3891     2.5206     0.0013   -54.3797    10.9636     7.1234     8.2524
 1584.0000     9.7852   102.5808     2.5166     0.0014   -54.3846    10.5666     7.1223     8.2514
 1584.5000     9.7657   100.2151     2.5077    -0.0006   -54.1919    10.3725     7.1209     8.4025
 1585.0000     9.7858    99.4316     2.5057    -0.0006   -54.1969    10.9573     7.2511     8.7148
 1585.5000     9.7663    99.8328     2.5077    -0.0046   -54.2018    11.4691     7.3840     8.7938
 1586.0000     9.7666   100.6292     2.5137    -0.0145   -54.4053    12.0056     7.3831     9.2059
 1586.5000     9.7867   101.0304     2.5107    -0.0065   -54.4093    12.2256     7.4494     9.5484
 1587.0000     9.7870   101.0363     2.5037    -0.0125   -54.4142    12.1117     7.5163     9.8137
 1587.5000     9.7675   100.6470     2.4998    -0.0124   -54.4192    12.4473     7.6541     9.9024
 1588.0000     9.7678   100.6529     2.4978    -0.0124   -54.4241    12.6759     7.6532     9.4556
 1588.5000     9.7681   101.0541     2.4978    -0.0124   -54.2314    12.3290     7.6511     9.0296
 1589.0000     9.7882   101.4553     2.4998    -0.0124   -54.2364    11.7740     7.6496     8.9456
 1589.5000     9.7885   101.0659     2.4988    -0.0124   -54.4389    11.4522     7.6482     9.1932
 1590.0000     9.7888   101.4671     2.4988    -0.0143   -54.6415    12.2095     7.6473     9.5356
 1590.5000     9.8088   101.4730     2.4988    -0.0183   -54.6464    11.7673     7.4376     9.8003
 1591.0000     9.8091   101.4789     2.4998    -0.0163   -54.6513    11.5512     7.4365     9.7088
 1591.5000     9.8094   101.4848     2.4998    -0.0202   -54.6563    11.5490     7.3669     9.4430
 1592.0000     9.7899   101.0954     2.4998    -0.0222   -54.6612    11.4414     7.3655     8.9347
 1592.5000     9.7705   101.4966     2.5008    -0.0182   -54.6662    11.7585     7.5004     8.9330
 1593.0000     9.7708   101.8978     2.5038    -0.0182   -54.6711    11.6489     7.4990     9.0969
 1593.5000     9.8106   102.2990     2.5029    -0.0162   -54.4784    11.7540     7.4975     9.2646
 1594.0000     9.8307   102.3049     2.5029    -0.0162   -54.4834    11.9695     7.4961     9.6090
 1594.5000     9.9298   102.3108     2.5099    -0.0162   -54.2907    11.3253     7.7038     9.6071
 1595.0000     9.9894   102.3167     2.5278    -0.0121   -54.4932    12.0752     7.7032     9.4304
 1595.5000     9.9896   103.1132     2.5348    -0.0042   -54.4982    12.6398     7.7026     9.0886
 1596.0000     9.9899   105.8860     2.5408    -0.0041   -54.5031    12.6374     7.7008     9.0034
 1596.5000     9.9902   106.2872     2.5428    -0.0001   -54.3104    11.8490     7.6993     9.0020
 1597.0000    10.0499   107.0837     2.5398     0.0019   -54.5130    12.0662     7.6261     8.9999
 1597.5000    10.0500   107.8801     2.5368     0.0019   -54.5179    11.5229     7.5552     9.1651
 1598.0000    10.0504   107.4908     2.5368     0.0019   -54.5229    11.3112     7.4845     8.9965
 1598.5000    10.0309   106.3109     2.5309    -0.0001   -54.5278    11.2058     7.3470     8.9128
 1599.0000     9.9917   105.5250     2.5149    -0.0020   -54.5327    11.2037     7.3461     8.9108
 1599.5000     9.8933   104.3463     2.5080    -0.0020   -54.7353    11.5142     7.2106     8.9091
 1600.0000     9.8935   100.3994     2.5050    -0.0119   -54.7402    11.5120     7.2092     8.9074
 1600.5000     9.8205   100.4059     2.5014    -0.0059   -54.5667    11.1239     7.2077     9.0696
 1601.0000     9.7950   100.4057     2.4960    -0.0059   -54.7399    11.8336     7.2093     9.0725
 1601.5000     9.7952   101.1992     2.4951    -0.0059   -54.7394    12.3895     7.2095     9.1566
 1602.0000     9.8151   103.9689     2.5020    -0.0079   -54.5413    11.9432     7.2096     9.2412
 1602.5000     9.7757   102.3909     2.5070    -0.0098   -54.7385    11.3036     7.0786     9.1569
 1603.0000     9.7561   101.9986     2.5140    -0.0118   -54.7381    10.7968     7.0140     8.9080
 1603.5000     9.7168   101.2111     2.5150    -0.0138   -54.7376    11.0984     7.1441     8.5866
 1604.0000     9.7367   100.8188     2.5140    -0.0138   -54.7372    11.3042     7.0789     8.4303
 1604.5000     9.7764   100.0313     2.5061    -0.0157   -54.7367    11.4087     7.1443     8.4305
 1605.0000     9.8160   100.8248     2.5061    -0.0177   -54.5386    11.3047     7.3447     8.4306
 1605.5000     9.8953   101.2230     2.5131    -0.0137   -54.5382    11.0993     7.3449     8.7466
 1606.0000     9.9152   101.2259     2.5251     0.0023   -54.5378    11.5146     7.4128     9.1581
 1606.5000     9.7968   100.8337     2.5360    -0.0037   -54.5373    12.7380     7.4130     9.5891
 1607.0000     9.7377   100.4415     2.5380    -0.0037   -54.5369    12.9742     7.4131     9.8574
 1607.5000     9.6588   100.4444     2.5370    -0.0016   -54.7341    12.1672     7.4132     9.3286
 1608.0000     9.6194   101.2372     2.5311    -0.0016   -54.5360    11.8369     7.4134     9.0750
 1608.5000     9.5801   101.2402     2.5311    -0.0016   -54.5355    11.9463     7.4135     9.1590
 1609.0000     9.5802   101.6384     2.5271     0.0004   -54.5351    11.7293     7.4810     8.9100
 1609.5000     9.6397   101.6414     2.5281     0.0004   -54.7323    10.8993     7.4812     8.8287
 1610.0000     9.6398   101.6443     2.5331     0.0005   -54.7318    10.8994     7.1458     8.7481
 1610.5000     9.6597   101.6473     2.5331     0.0025   -54.5337    11.7301     7.2783     8.7482
 1611.0000     9.7389   101.2551     2.5331     0.0005   -54.5333    12.0577     7.3455     8.6683
 1611.5000     9.7588   100.4677     2.5371    -0.0015   -54.5328    11.6233     7.3456     8.6685
 1612.0000     9.7788   100.4707     2.5431    -0.0015   -54.7301    11.1023     7.3458     8.6687
 1612.5000     9.8184    99.2882     2.5471     0.0006   -54.5319    11.5176     7.3459     8.6688
 1613.0000     9.8384    98.5008     2.5471     0.0026   -54.7292    12.5098     7.3460     8.9114
 1613.5000     9.8188    98.1087     2.5442     0.0006   -54.5310    12.0589     7.3462     8.9116
 1614.0000     9.7597    97.7165     2.5442     0.0026   -54.7283    11.9490     7.3463     8.9117
 1614.5000     9.7203    97.7195     2.5422     0.0026   -54.7278    12.0594     7.3464     8.8304
 1615.0000     9.7205    97.7226     2.5372     0.0007   -54.7272    11.7321     7.3466     8.8304
 1615.5000     9.7404    98.9110     2.5313    -0.0033   -54.5292    11.9499     7.1471     8.6698
 1616.0000     9.7405    99.3091     2.5223    -0.0072   -54.7265    11.6254     7.1473     8.5906
 1616.5000     9.7209   100.1024     2.5074    -0.0172   -54.5283    10.9022     7.2799     8.2806
 1617.0000     9.7014   100.1054     2.5034    -0.0172   -54.5279    10.9024     7.2800     8.2808
