~VERSION INFORMATION
 VERS.                2.0:   CWLS LOG ASCII STANDARD - VERSION 2.0
 WRAP.                 NO:   ONE LINE PER DEPTH STEP
~WELL INFORMATION
#MNEM.UNIT      DATA TYPE    INFORMATION
#----------   ------------   ------------------------------
 STRT.F           85.5000:   START DEPTH
 STOP.F         2750.0000:   STOP DEPTH
 STEP.F            0.5000:   STEP LENGTH
 NULL.          -999.2500:   NO VALUE
 COMP.          INTEX OIL:   COMPANY
 WELL. INTEX NPR 3 "AX" #74-20:   WELL
 FLD .             TEAPOT:   FIELD
 LOC .      S20 T39N R78W:   LOCATION
 CNTY.            NATRONA:   COUNTY
 STAT.            WYOMING:   STATE
 CTRY. UNITED STATES OF AMERICA:   COUNTRY
 SRVC.       SCHLUMBERGER:   SERVICE COMPANY
 DATE.        08-MAY-1966:   LOGDATE
 API .     49025095210000:   API NUMBER
~CURVE INFORMATION
#MNEM.UNIT       API CODE    CURVE DESCRIPTION
#----------   ------------   ------------------------------
 DEPT.F                  :   
 CALD.IN     45 280 60 00:   CALIPER FROM DENSITY LOG
 GRD .GAPI   45 310 01 00:   GAMMA RAY FROM DENSITY LOG
 RHOB.G/C3   45 350 01 00:   BULK DENSITY
 CORR.G/C3   45 356 01 00:   DENSITY CORRECTION
 SPR .MV     05 010 01 00:   SPONTANEOUS POTENTIAL FROM RES.
 ILD .OHMM   05 120 46 00:   INDUCTION LOG DEEP
 SN  .OHMM   05 040 00 00:   SHORT NORMAL
~PARAMETER INFORMATION
#MNEM.UNIT          VALUE    DESCRIPTION
#----------   ------------   ------------------------------
 EKB .F         5018.3000:   Kelly bushing
 EGL .F         5008.0000:   Ground level
 EDF .F            0.0000:   Drilling floor
 EPD .F         5008.0000:   Permanent datum
 TD  .F         2750.0000:   Total depth
 DATE.        08-MAY-1966:   Date logged
 CLNT.            A2DTECH:   Client Code
 DAPD.F              10.3:   Feet Above Permanent Datum
 DD  .F              2750:   Depth driller
 DL  .F              2749:   Depth logger
 BLI .F              2748:   Bottom log interval
 TLI .F                87:   Top log interval
 CS1 .IN            10.75:   Casing size
 CBD1.       10.75" @ 30':   Casing driller 1
 BS1 .IN            7.875:   Bit size
 BSD1.F              2750:   Depth drilled with bit1
 DFT .           OIL EMUL:   Type fluid in hole
 DFD .               10.1:   Density
 DFV .                 54:   Viscosity
 MSS .         CIRCULATED:   Source of sample
 RMS .OHMM           1.90:   Rm
 MST .F                72:   Rm Meas. temp.
 RMF .OHMM           1.15:   Rmf
 MFST.F                72:   Rmf Meas. temp.
 MFSS.                 FP:   Source Rmf.
 RMB .OHMM           1.23:   Rm. at BHT
 BHT .F               111:   BHT.
 TCS .HRS             1.5:   Time Circ. stopped
 MRT .F               111:   Maximum recorded temp.
 LUN .               4507:   Logging unit number
 LUL .               CSPR:   Logging unit location
 ENGI.               HAUG:   Recorded By
 WITN.             TUTTLE:   Witnessed by
 ORIG.        2" 5" PRINT:   Origin of data
 UWI .     49025095210000:   Unique Well ID
 DICO. A2D TECHNOLOGIES, INC.:   Digitizing Company
~OTHER INFORMATION
~A   DEPT     CALD        GRD       RHOB       CORR        SPR        ILD         SN   
# ...
 2588.0000     8.4950   117.0960     2.5480     0.0430   -34.4470     4.3160     6.8470
 2588.5000     8.4950   117.5700     2.5370     0.0360   -34.1970     4.2450     6.5820
 2589.0000     8.4970   118.7300     2.5180     0.0230   -34.0420     4.2560     6.3600
 2589.5000     8.4970   121.1940     2.5070     0.0170   -34.0620     4.3220     6.2200
 2590.0000     8.4990   119.5360     2.5230     0.0260   -34.0540     4.4050     6.0440
 2590.5000     8.4990   115.7230     2.5390     0.0180   -34.0570     4.4870     6.0400
 2591.0000     8.4960   112.6230     2.5540     0.0140   -34.0560     4.5680     6.1520
 2591.5000     8.4550   114.0560     2.5530     0.0230   -34.0550     4.6500     6.2660
 2592.0000     8.4160   116.9570     2.5620     0.0320   -34.0570     4.7310     6.3760
 2592.5000     8.3760   119.8100     2.5790     0.0420   -34.0530     4.8130     6.4940
 2593.0000     8.3440   115.7010     2.5890     0.0500   -34.0800     4.8940     6.6180
 2593.5000     8.3430   112.2570     2.5810     0.0480   -34.1270     4.9770     6.9820
 2594.0000     8.3440   110.6150     2.5630     0.0430   -34.1680     5.0350     7.3970
 2594.5000     8.3470   108.5430     2.5510     0.0370   -34.2110     5.0340     7.7610
 2595.0000     8.3490   108.0940     2.5560     0.0320   -34.2530     4.9410     7.4870
 2595.5000     8.3510   109.0830     2.5660     0.0290   -34.2950     4.8970     7.2030
 2596.0000     8.3530   110.9110     2.5710     0.0400   -34.3390     4.5630     6.7500
 2596.5000     8.3550   112.7800     2.5590     0.0430   -34.3770     4.0230     6.3290
 2597.0000     8.3570   115.4000     2.5520     0.0440   -34.4360     3.5640     5.8740
 2597.5000     8.3590   118.5920     2.5420     0.0470   -34.3430     3.0320     5.4440
 2598.0000     8.3610   121.7730     2.5280     0.0380   -34.0670     3.0050     5.0440
 2598.5000     8.3630   124.5040     2.4800     0.0210   -33.8000     3.0840     4.6130
 2599.0000     8.3650   129.7420     2.4590     0.0160   -33.5370     3.0570     4.4230
 2599.5000     8.3670   136.7700     2.5130     0.0400   -33.2990     3.2010     4.6310
 2600.0000     8.3690   143.5760     2.5320     0.0430   -33.4910     3.4700     5.1020
 2600.5000     8.3710   151.2600     2.5740     0.0410   -33.6960     3.8630     5.5450
 2601.0000     8.3730   148.9990     2.5990     0.0560   -33.9410     4.2230     6.0170
 2601.5000     8.3750   136.4830     2.6210     0.0700   -34.0520     4.5950     6.4560
 2602.0000     8.3770   124.8610     2.6030     0.0580   -34.0020     4.9640     6.9720
 2602.5000     8.3790   115.5510     2.5660     0.0300   -33.9730     5.3380     7.2060
 2603.0000     8.3810   111.7400     2.5690     0.0200   -33.9350     5.6240     7.4610
 2603.5000     8.3810   108.4340     2.5460     0.0120   -33.9000     5.6060     7.7050
 2604.0000     8.3770   108.1790     2.5520     0.0260   -33.8660     5.5550     7.7900
 2604.5000     8.3740   108.8590     2.5690     0.0380   -33.8310     5.4980     7.5200
 2605.0000     8.3710   107.0010     2.5720     0.0260   -33.7970     5.4380     7.3100
 2605.5000     8.3670   105.1720     2.5530     0.0170   -33.7600     5.3850     7.0710
 2606.0000     8.3640   103.3700     2.5380     0.0100   -33.7270     5.3210     6.8510
 2606.5000     8.3610   105.3610     2.5490     0.0190   -33.6900     5.2620     6.6400
 2607.0000     8.3580   110.1370     2.5720     0.0380   -33.6540     5.1970     6.7130
 2607.5000     8.3540   110.3790     2.5820     0.0550   -33.5580     5.1410     6.7950
 2608.0000     8.3510   111.0940     2.5780     0.0600   -33.4710     5.0700     6.8940
 2608.5000     8.3480   113.6580     2.5880     0.0550   -33.3800     5.0180     6.9760
 2609.0000     8.3450   116.2780     2.5940     0.0500   -33.2920     4.7640     6.9980
 2609.5000     8.3340   114.9950     2.5970     0.0550   -33.2030     4.4930     6.7010
 2610.0000     8.3110   112.8770     2.5820     0.0520   -33.1140     4.2130     6.6080
 2610.5000     8.2910   111.7630     2.5680     0.0450   -33.0250     3.9470     6.3090
 2611.0000     8.2660   113.1510     2.5440     0.0430   -32.9360     3.6630     5.9090
 2611.5000     8.2710   117.7860     2.5490     0.0550   -32.8460     3.4030     5.5190
 2612.0000     8.2890   122.8660     2.5350     0.0490   -32.7590     3.0940     5.1150
 2612.5000     8.3070   132.0800     2.4980     0.0350   -32.6670     3.0690     4.7420
 2613.0000     8.3240   141.1900     2.4850     0.0250   -32.5810     3.0710     4.2800
 2613.5000     8.3410   148.9680     2.5010     0.0210   -32.4890     3.1730     4.4450
 2614.0000     8.3420   152.0920     2.5180     0.0280   -32.4810     3.2620     4.9820
 2614.5000     8.3430   158.0550     2.5720     0.0310   -32.4800     3.6270     5.5100
 2615.0000     8.3420   162.8980     2.5620     0.0220   -32.4810     4.0950     6.0370
 2615.5000     8.3420   163.7040     2.5510     0.0150   -32.4800     4.5480     6.5580
 2616.0000     8.3420   142.1060     2.5370     0.0070   -32.4810     5.0200     7.1220
 2616.5000     8.3420   119.3060     2.5320     0.0020   -32.4800     5.4630     7.4840
 2617.0000     8.3420   118.4230     2.5360     0.0090   -32.4800     5.9790     7.5730
 2617.5000     8.3290   116.4180     2.5480     0.0250   -32.4800     6.0730     7.7080
 2618.0000     8.3120   111.1600     2.5540     0.0160   -32.4800     6.1420     7.8290
 2618.5000     8.2940   108.2240     2.5360     0.0060   -32.4810     6.1950     7.9530
 2619.0000     8.2770   109.0970     2.5440     0.0210   -32.4810     6.2630     8.0780
 2619.5000     8.2600   107.9320     2.5530     0.0320   -32.4820     6.3230     8.2010
 2620.0000     8.2430   105.5820     2.5650     0.0450   -32.4810     6.3850     8.3260
 2620.5000     8.2260   103.6780     2.5620     0.0350   -32.4800     6.4490     8.4870
 2621.0000     8.2090   105.4810     2.5600     0.0400   -32.4850     6.5080     8.6930
 2621.5000     8.1930   100.1480     2.5770     0.0530   -32.4700     6.5720     8.9110
 2622.0000     8.1670    99.5490     2.5800     0.0640   -32.5980     6.6380     9.0000
 2622.5000     8.1320    98.9210     2.5800     0.0750   -32.9040     6.8380     8.9880
 2623.0000     8.1000   101.0660     2.5870     0.0840   -33.1890     7.0140     8.9930
 2623.5000     8.0690   104.9920     2.5920     0.0860   -33.4970     7.1930     9.0020
 2624.0000     8.0670   108.2170     2.5660     0.0590   -33.6930     7.3880     9.1700
 2624.5000     8.0690   112.0930     2.5500     0.0300   -33.4490     7.3970     9.3500
 2625.0000     8.0740   109.5370     2.5610     0.0180   -33.0130     7.2460     9.5240
 2625.5000     8.0780   103.4990     2.5770     0.0390   -32.9150     7.0750     9.7180
 2626.0000     8.0820    99.5190     2.5930     0.0580   -33.0360     6.9190     9.7000
 2626.5000     8.0870    99.4700     2.5990     0.0670   -33.1270     6.7470     9.4120
 2627.0000     8.0910   101.4750     2.5890     0.0610   -33.2260     6.5790     9.0040
 2627.5000     8.0960    98.2970     2.5920     0.0800   -33.3230     6.1250     8.5960
 2628.0000     8.1000    96.5440     2.5800     0.0540   -33.4290     5.7380     8.1820
 2628.5000     8.1050   104.0100     2.5880     0.0630   -33.5010     5.3230     7.7720
 2629.0000     8.0990   109.7740     2.6030     0.0910   -33.6570     4.9270     7.3610
 2629.5000     8.0840   108.3590     2.5860     0.0780   -33.3340     4.5180     6.9510
 2630.0000     8.0700   104.8160     2.5720     0.0690   -33.0400     4.1170     6.5420
 2630.5000     8.0550   103.1710     2.5560     0.0590   -32.8690     3.7210     6.1310
 2631.0000     8.0440   106.9990     2.5500     0.0650   -32.6900     3.2810     5.7170
 2631.5000     8.0220   110.7310     2.5400     0.0690   -32.4990     3.1800     5.3210
 2632.0000     8.0850   114.9750     2.5020     0.0820   -32.3230     3.6370     4.8680
 2632.5000     8.1550   123.1790     2.4830     0.1040   -32.1370     3.7260     4.6270
 2633.0000     8.1100   136.0710     2.5230     0.0930   -32.0860     3.7970     4.7850
