~VERSION INFORMATION
 VERS.                2.0:   CWLS LOG ASCII STANDARD - VERSION 2.0
 WRAP.                 NO:   ONE LINE PER DEPTH STEP
~WELL INFORMATION
#MNEM.UNIT      DATA TYPE    INFORMATION
#----------   ------------   ------------------------------
 STRT.F            0.0000:   START DEPTH
 STOP.F         3440.0000:   STOP DEPTH
 STEP.F            0.5000:   STEP LENGTH
 NULL.          -999.2500:   NO VALUE
 COMP. FLOOR DANIEL (NPSOR):   COMPANY
 WELL. FLOOR DANIEL "SHX" #48-34:   WELL
 FLD .                NPR:   FIELD
 LOC .      S34 T39N R78W:   LOCATION
 CNTY.            NATRONA:   COUNTY
 STAT.            WYOMING:   STATE
 CTRY. UNITED STATES OF AMERICA:   COUNTRY
 SRVC.      WESTERN ATLAS:   SERVICE COMPANY
 DATE.        06-APR-1995:   LOGDATE
 API .     49025109220000:   API NUMBER
~CURVE INFORMATION
#MNEM.UNIT       API CODE    CURVE DESCRIPTION
#----------   ------------   ------------------------------
 DEPT.F                  :   
 TEND.LBS    45 635 01 00:   TENSION FROM DENSITY LOG
 ZCOR.G/C3   45 356 01 00:   DENSITY CORRECTION
 ZDEN.G/C3   45 350 01 00:   BULK DENSITY
 CALD.IN     45 280 60 00:   CALIPER FROM DENSITY LOG
 CNC .DEC    42 890 03 00:   NEUTRON POROSITY SANDSTONE
 GRR .GAPI   07 310 01 00:   GAMMA RAY FROM RESISTIVITY
 TENR.LBS    07 635 01 00:   TENSION FROM RESISTIVITY
 RFOC.OHMM   07 220 04 00:   RESISTIVITY FOCUSED LOG RES.
 RILD.OHMM   07 120 46 00:   DEEP INDUCTION RESISTIVITY
 RILM.OHMM   07 120 44 00:   INDUCTION LOG MEDIUM RESISTIVITY
~PARAMETER INFORMATION
#MNEM.UNIT          VALUE    DESCRIPTION
#----------   ------------   ------------------------------
 EKB .F         5182.0000:   Kelly bushing
 EGL .F         5172.0000:   Ground level
 EDF .F            0.0000:   Drilling floor
 EPD .F            0.0000:   Permanent datum
 TD  .F         3442.0000:   Total depth
 DATE.        06-APR-1995:   Date logged
 CLNT.            A2DTECH:   Client Code
 SL  . 97' FSL & 2256 FWL:   Surface Location
 PD  .                 GL:   Permanent Datum
 DD  .F              3442:   Depth driller
 DL  .F              3422:   Depth logger
 BLI .F              3420:   Bottom log interval
 CS1 .IN            8.625:   Casing size
 CBD1.      8.625" @ 667':   Casing driller 1
 BS1 .IN            7.875:   Bit size
 BSD1.F               AIR:   Depth drilled with bit1
 ENGI.      PAT RASMUSSEN:   Recorded By
 WITN.        GARY STRONG:   Witnessed by
 ORIG.           5" PRINT:   Origin of data
 UWI .     49025109220000:   Unique Well ID
 DICO. A2D TECHNOLOGIES, INC.:   Digitizing Company
 MRT .F               142:   Maximum recorded temp.
~OTHER INFORMATION
~A    DEPT    TEND       ZCOR       ZDEN       CALD        CNC         GRR      TENR       RFOC       RILD       RILM   
# ...
 3383.5000   161.9280     0.0320     2.4870     8.0200     0.2640   180.9090   226.0280     3.3520     2.4760     2.2610
 3384.0000   160.3020     0.0550     2.4640     8.0200     0.2690   200.8830   227.2600     2.5210     2.5350     2.3270
 3384.5000   158.6770     0.0860     2.4500     8.0200     0.2600   217.1340   228.4910     2.4760     2.6470     2.4310
 3385.0000   157.0510     0.1180     2.4550     8.0200     0.2520   227.7290   229.7230     3.0580     2.8250     2.6980
 3385.5000   155.1380     0.1070     2.4910     8.0200     0.2410   212.2180   230.9540     4.2170     3.1780     2.9510
 3386.0000   164.1610     0.0860     2.5230     8.0200     0.2300   155.5470   232.1860     6.1410     3.7120     3.5060
 3386.5000   175.1160     0.0710     2.5400     8.0200     0.2200   157.5320   233.2350     6.0800     4.2460     4.1840
 3387.0000   186.0710     0.0750     2.5460     8.0200     0.2170   155.5570   234.9920     5.9210     4.7800     4.8620
 3387.5000   197.0270     0.0780     2.5520     8.0190     0.2140   150.7310   236.5220     6.0300     5.3140     5.4070
 3388.0000   207.9820     0.0720     2.5580     8.0190     0.2140   136.6300   238.0520     7.0500     5.8480     5.8840
 3388.5000   218.9380     0.0670     2.5620     7.9790     0.2150   128.6110   239.5820     7.4520     6.4550     6.7090
 3389.0000   229.8930     0.0610     2.5590     7.9270     0.2160   128.5650   241.1120     7.5920     7.2310     6.6160
 3389.5000   240.8490     0.0560     2.5560     7.8780     0.2160   131.4700   242.6420     7.9310     7.2880     6.6970
 3390.0000   253.9530     0.0500     2.5540     7.8250     0.2100   128.5830   244.1720     8.3650     7.3400     7.0220
 3390.5000   256.4850     0.0520     2.5560     7.8250     0.2120   125.0920   245.7030     8.9930     7.3930     7.3640
 3391.0000   259.6340     0.0640     2.5570     7.8300     0.2140   123.4560   247.2330     8.8820     7.4460     7.3640
 3391.5000   262.7840     0.0740     2.5600     7.8370     0.2170   125.9040   248.7630     8.6820     7.4990     7.4990
 3392.0000   265.9340     0.0610     2.5630     7.8420     0.2200   130.2450   250.2930     8.4820     7.3080     7.3460
 3392.5000   269.0830     0.0530     2.5660     7.8480     0.2160   134.5860   251.8230     8.2820     7.1160     7.1010
 3393.0000   272.2330     0.0470     2.5650     7.8530     0.2130   134.9690   252.3390     8.1150     6.8860     6.7520
 3393.5000   275.3830     0.0410     2.5650     7.8600     0.2200   132.5480   249.9340     7.9650     6.5500     6.4170
 3394.0000   278.5330     0.0440     2.5620     7.8830     0.2260   132.5210   247.5300     7.5610     6.2130     6.0810
 3394.5000   281.6820     0.0510     2.5570     7.9120     0.2290   134.4740   245.1250     7.0470     5.9210     5.9050
 3395.0000   284.8320     0.0660     2.5480     7.9410     0.2290   136.8050   242.7210     6.5330     5.9030     5.8730
 3395.5000   287.9820     0.0910     2.5300     7.9700     0.2290   139.6630   240.3170     5.7100     5.8780     5.8410
 3396.0000   291.1310     0.1180     2.5250     8.0000     0.2250   140.9630   237.9120     5.8150     5.8530     5.8090
 3396.5000   293.4780     0.1170     2.5320     8.0190     0.2150   141.7670   235.5080     6.4180     5.8290     5.7780
 3397.0000   293.4780     0.0980     2.5430     8.0200     0.2060   133.6100   233.2350     7.0160     5.7850     5.7460
 3397.5000   293.4780     0.0820     2.5690     8.0200     0.1960   125.7140   240.4880     7.9190     5.7100     5.7100
 3398.0000   293.4780     0.0660     2.5750     8.0130     0.2080   124.1700   247.3660     7.6250     5.5540     5.6040
 3398.5000   293.4780     0.0470     2.5740     7.9250     0.2240   122.9660   254.2430     7.0280     5.3780     5.4840
 3399.0000   293.4780     0.0470     2.5630     7.8630     0.2370   122.1050   261.1210     6.4310     5.2020     5.3640
 3399.5000   293.4780     0.0540     2.5550     7.8600     0.2450   121.3760   267.9980     5.8340     5.0250     5.2440
 3400.0000   293.4780     0.0590     2.5490     7.8600     0.2520   123.1760   274.8760     5.1210     4.8490     5.1240
 3400.5000   300.3130     0.0500     2.5310     7.8600     0.2540   124.9290   281.7530     4.9810     4.6760     5.0030
 3401.0000   308.7940     0.0500     2.5140     7.8600     0.2520   124.1210   288.6300     4.7620     4.5690     4.8830
 3401.5000   315.7890     0.0550     2.5050     7.8600     0.2480   124.0030   292.9340     4.8740     4.4650     4.7630
 3402.0000   321.1460     0.0460     2.5020     7.8600     0.2420   123.6680   294.1030     5.1230     4.3480     4.6760
 3402.5000   326.5030     0.0370     2.5020     7.8600     0.2390   125.4280   295.2730     5.3710     4.3110     4.6760
 3403.0000   331.8600     0.0320     2.5040     7.8600     0.2400   127.3890   296.4430     5.6200     4.2690     4.6760
 3403.5000   337.2170     0.0430     2.5080     7.8600     0.2420   129.4790   297.6120     6.0300     4.2270     4.6760
 3404.0000   342.5730     0.0550     2.5190     7.8600     0.2440   128.2630   298.7820     5.9820     4.1850     4.5010
 3404.5000   347.9300     0.0600     2.5280     7.8600     0.2440   125.8040   299.9520     5.8440     4.1430     4.3470
 3405.0000   352.7670     0.0590     2.5330     7.8600     0.2450   123.3840   301.1220     5.3520     4.0750     4.1930
 3405.5000   352.7670     0.0590     2.5380     7.8600     0.2460   120.8740   302.2910     5.0360     3.9650     4.0530
 3406.0000   352.7670     0.0610     2.5380     7.8600     0.2490   119.3070   303.4610     4.8980     3.8560     3.8230
 3406.5000   352.7670     0.0780     2.5310     7.8600     0.2550   119.1620   304.6310     4.7780     3.7470     3.5610
 3407.0000   352.7670     0.0920     2.5170     7.8600     0.2570   118.9140   305.8000     4.6760     3.6380     3.5320
 3407.5000   358.9430     0.1120     2.5070     7.8600     0.2520   120.6920   306.9700     4.4550     3.5400     3.4720
 3408.0000   373.0790     0.1000     2.5050     7.8600     0.2470   122.5240   308.1400     4.2490     3.4720     3.4120
 3408.5000   387.2150     0.0750     2.5160     7.8600     0.2430   123.7190   309.3090     4.1180     3.4030     3.3550
 3409.0000   401.3500     0.0790     2.5280     7.8600     0.2440   123.6020   310.4790     4.1540     3.3720     3.3110
 3409.5000   415.4860     0.0900     2.5320     7.8600     0.2450   124.9850   311.6490     4.1930     3.3720     3.4030
 3410.0000   429.6220     0.1020     2.5290     7.8600     0.2460   126.6520   312.8520     4.3350     3.3720     3.5230
 3410.5000   443.7580     0.1100     2.5230     7.8600     0.2440   128.7330   314.0790     4.4800     3.6220     3.6430
 3411.0000   451.5810     0.1070     2.5200     7.8600     0.2450   128.6250   315.3050     4.6250     4.0790     3.7630
 3411.5000   451.5810     0.1030     2.5190     7.8600     0.2460   126.6110   316.5320     4.7620     4.5090     3.8710
 3412.0000   451.5810     0.0900     2.5250     7.8600     0.2460   127.1270   317.7590     4.8380     4.6440     3.9650
 3412.5000   451.5810     0.0760     2.5350     7.8600     0.2460   114.7410   318.9850     4.9540     4.7710     4.0590
 3413.0000   459.3960     0.0630     2.5480     7.8600     0.2450  -999.2500   320.2120     5.0690     4.8980     4.1520
 3413.5000   473.2750     0.0560     2.5580     7.8600     0.2460  -999.2500   321.4390     5.1840     5.0250     4.2460
 3414.0000   487.1540     0.0460     2.5540     7.8600  -999.2500  -999.2500   322.6660     5.2990     5.1520     4.1930
 3414.5000   501.0330     0.0370     2.5420     7.8600  -999.2500  -999.2500   323.8920     5.4140     5.2800     4.9130
 3415.0000   512.3520     0.0270     2.5270     7.8600  -999.2500  -999.2500   325.1190     5.5300     5.4070     5.4070
 3415.5000   517.4410     0.0180     2.5140     7.8600  -999.2500  -999.2500   326.3460     5.6450     5.5250     5.6150
 3416.0000   522.5300     0.0070     2.5050     7.8600  -999.2500  -999.2500   327.5730     5.7430     5.6120     5.8150
 3416.5000   527.6190     0.0080     2.4960     7.8600  -999.2500  -999.2500   328.7990     5.8200     5.7100     5.8150
