~VERSION INFORMATION
 VERS.                2.0:   CWLS LOG ASCII STANDARD - VERSION 2.0
 WRAP.                 NO:   ONE LINE PER DEPTH STEP
~WELL INFORMATION
#MNEM.UNIT      DATA TYPE    INFORMATION
#----------   ------------   ------------------------------
 STRT.F           12.0000:   START DEPTH
 STOP.F          900.0000:   STOP DEPTH
 STEP.F            0.5000:   STEP LENGTH
 NULL.          -999.2500:   NO VALUE
 COMP. FLUOR DANIEL - NPSOR:   COMPANY
 WELL. FLUOR NPR "X" #82-34:   WELL
 FLD .              NPR 3:   FIELD
 LOC .      S34 T39N R78W:   LOCATION
 CNTY.            NATRONA:   COUNTY
 STAT.            WYOMING:   STATE
 CTRY. UNITED STATES OF AMERICA:   COUNTRY
 SRVC.      WESTERN ATLAS:   SERVICE COMPANY
 DATE.        06-SEP-1994:   LOGDATE
 API .     49025226350000:   API NUMBER
~CURVE INFORMATION
#MNEM.UNIT       API CODE    CURVE DESCRIPTION
#----------   ------------   ------------------------------
 DEPT.F                  :   
 RILD.OHMM   07 120 46 00:   INDUCTION LOG DEEP RESISTIVITY
 TENR.LBS    07 635 01 00:   TENSION
 RILM.OHMM   07 120 44 00:   INDUCTION LOG MEDIUM RESISTIVITY
 GRR .GAPI   07 310 01 00:   GAMMA RAY FROM RESISTIVITY
~PARAMETER INFORMATION
#MNEM.UNIT          VALUE    DESCRIPTION
#----------   ------------   ------------------------------
 EKB .F         5084.0000:   Kelly bushing
 EGL .F         5074.0000:   Ground level
 EDF .F         5083.0000:   Drilling floor
 EPD .F            0.0000:   Permanent datum
 TD  .F          918.0000:   Total depth
 DATE.        06-SEP-1994:   Date logged
 CLNT.            A2DTECH:   Client Code
 SL  . 990' FNL & 330' FEL:   Surface Location
 PD  .                 GL:   Permanent Datum
 DAPD.F                10:   Feet Above Permanent Datum
 DD  .F               918:   Depth driller
 DL  .F               807:   Depth logger
 BLI .F               889:   Bottom log interval
 CS1 .IN            9.625:   Casing size
 CBD1.       9.625" @ 54':   Casing driller 1
 CBL1.F                54:   Casing logger 1
 BS1 .IN             8.75:   Bit size
 BSD1.F               918:   Depth drilled with bit1
 DFT .                AIR:   Type fluid in hole
 LUN .            HL-6321:   Logging unit number
 LUL .       ROCK SPRINGS:   Logging unit location
 ENGI.           VERCIMAK:   Recorded By
 WITN.          G. STRONG:   Witnessed by
 ORIG.           5" PRINT:   Origin of data
 UWI .     49025226350000:   Unique Well ID
 DICO. A2D TECHNOLOGIES, INC.:   Digitizing Company
~OTHER INFORMATION
~A   DEPT     RILD       TENR       RILM         GRR  
   12.0000  -999.2500  -999.2500  -999.2500    67.8750
   12.5000  -999.2500  -999.2500  -999.2500    66.8910
   13.0000  -999.2500  -999.2500  -999.2500    65.9060
   13.5000  -999.2500  -999.2500  -999.2500    64.9220
   14.0000  -999.2500  -999.2500  -999.2500    64.5680
   14.5000  -999.2500  -999.2500  -999.2500    64.7860
   15.0000  -999.2500  -999.2500  -999.2500    65.0050
   15.5000  -999.2500  -999.2500  -999.2500    65.2150
   16.0000  -999.2500  -999.2500  -999.2500    64.2590
   16.5000  -999.2500  -999.2500  -999.2500    61.8820
   17.0000  -999.2500  -999.2500  -999.2500    59.8270
   17.5000  -999.2500  -999.2500  -999.2500    60.1380
   18.0000  -999.2500  -999.2500  -999.2500    61.3280
   18.5000  -999.2500  -999.2500  -999.2500    62.5680
   19.0000  -999.2500  -999.2500  -999.2500    63.6490
   19.5000  -999.2500  -999.2500  -999.2500    63.3900
   20.0000  -999.2500  -999.2500  -999.2500    62.5170
   20.5000  -999.2500  -999.2500  -999.2500    61.6580
   21.0000  -999.2500  -999.2500  -999.2500    60.7860
   21.5000  -999.2500  -999.2500  -999.2500    60.4820
   22.0000  -999.2500  -999.2500  -999.2500    61.0660
   22.5000  -999.2500  -999.2500  -999.2500    62.1770
   23.0000  -999.2500  -999.2500  -999.2500    63.2250
   23.5000  -999.2500  -999.2500  -999.2500    64.2680
   24.0000  -999.2500  -999.2500  -999.2500    65.3170
   24.5000  -999.2500  -999.2500  -999.2500    66.4090
   25.0000  -999.2500  -999.2500  -999.2500    66.7410
   25.5000  -999.2500  -999.2500  -999.2500    66.5110
   26.0000  -999.2500  -999.2500  -999.2500    66.3350
   26.5000  -999.2500  -999.2500  -999.2500    66.1810
   27.0000  -999.2500  -999.2500  -999.2500    65.5750
   27.5000  -999.2500  -999.2500  -999.2500    63.5280
   28.0000  -999.2500  -999.2500  -999.2500    63.0660
   28.5000  -999.2500  -999.2500  -999.2500    63.5720
   29.0000  -999.2500  -999.2500  -999.2500    63.3890
   29.5000  -999.2500  -999.2500  -999.2500    62.8490
   30.0000  -999.2500  -999.2500  -999.2500    62.3530
   30.5000  -999.2500  -999.2500  -999.2500    61.8680
   31.0000  -999.2500  -999.2500  -999.2500    61.4160
   31.5000  -999.2500  -999.2500  -999.2500    61.3000
   32.0000  -999.2500  -999.2500  -999.2500    63.1070
   32.5000  -999.2500  -999.2500  -999.2500    66.0810
   33.0000  -999.2500  -999.2500  -999.2500    66.5150
   33.5000  -999.2500  -999.2500  -999.2500    62.2510
   34.0000  -999.2500  -999.2500  -999.2500    58.4010
   34.5000  -999.2500  -999.2500  -999.2500    56.0150
   35.0000  -999.2500  -999.2500  -999.2500    57.7990
   35.5000  -999.2500  -999.2500  -999.2500    59.3250
   36.0000  -999.2500  -999.2500  -999.2500    60.3140
   36.5000  -999.2500  -999.2500  -999.2500    60.6060
   37.0000  -999.2500  -999.2500  -999.2500    61.7130
   37.5000  -999.2500  -999.2500  -999.2500    63.3100
   38.0000  -999.2500  -999.2500  -999.2500    62.6580
   38.5000  -999.2500  -999.2500  -999.2500    61.2530
   39.0000  -999.2500  -999.2500  -999.2500    60.4100
   39.5000  -999.2500  -999.2500  -999.2500    61.2510
   40.0000  -999.2500  -999.2500  -999.2500    63.2240
   40.5000  -999.2500  -999.2500  -999.2500    65.5430
   41.0000  -999.2500  -999.2500  -999.2500    67.8560
   41.5000  -999.2500  -999.2500  -999.2500    70.1150
   42.0000  -999.2500  -999.2500  -999.2500    72.2470
   42.5000  -999.2500  -999.2500  -999.2500    71.6310
   43.0000  -999.2500  -999.2500  -999.2500    70.6900
   43.5000  -999.2500  -999.2500  -999.2500    69.2340
   44.0000  -999.2500  -999.2500  -999.2500    66.6530
   44.5000  -999.2500  -999.2500  -999.2500    65.6060
   45.0000  -999.2500  -999.2500  -999.2500    67.4900
   45.5000  -999.2500  -999.2500  -999.2500    69.1680
   46.0000  -999.2500  -999.2500  -999.2500    70.1720
   46.5000  -999.2500  -999.2500  -999.2500    70.6190
   47.0000  -999.2500  -999.2500  -999.2500    70.9920
   47.5000  -999.2500  -999.2500  -999.2500    71.4040
   48.0000  -999.2500  -999.2500  -999.2500    69.8900
   48.5000  -999.2500  -999.2500  -999.2500    68.2670
   49.0000  -999.2500  -999.2500  -999.2500    67.6170
   49.5000  -999.2500  -999.2500  -999.2500    68.7670
   50.0000  -999.2500  -999.2500  -999.2500    69.6870
   50.5000  -999.2500  -999.2500  -999.2500    69.2210
   51.0000  -999.2500  -999.2500  -999.2500    68.3560
   51.5000  -999.2500  -999.2500  -999.2500    67.4420
   52.0000  -999.2500   -65.8910  -999.2500    66.0070
   52.5000  -999.2500   -65.8910  -999.2500    62.4900
   53.0000  -999.2500   -65.8910  -999.2500    60.9990
   53.5000  -999.2500   -65.8910  -999.2500    63.9430
   54.0000  -999.2500   -65.8910  -999.2500    70.4750
   54.5000  -999.2500   -65.8910  -999.2500    76.6990
   55.0000  -999.2500   -65.8910  -999.2500    82.9530
   55.5000     2.5450   -65.8910  -999.2500    89.2880
   56.0000     3.6370   -65.8910     2.9670    95.5630
   56.5000     4.5580   -65.8910     3.5000   101.1370
   57.0000     7.3800   -65.8910     4.0320   103.2660
   57.5000    11.8130   -65.8910     4.5640   106.0750
   58.0000    10.5120   -65.8910     5.2910   109.7410
   58.5000     7.4770   -65.8910     5.2480   112.4580
   59.0000     5.8980   -65.8910     5.1810   114.2740
   59.5000     4.5060   -65.8910     5.2070   116.6710
   60.0000     4.3470   -65.8910     5.1050   119.3160
   60.5000     4.3470   -65.8910     5.1050   121.3280
   61.0000     4.3970   -65.8910     5.5440   119.6330
   61.5000     4.5290   -65.8910     6.1140   118.2090
   62.0000     4.6620   -65.8910     6.9150   116.7000
   62.5000     4.7950   -65.8910     6.1500   115.2700
   63.0000     4.9260   -65.8910     5.3860   115.8360
   63.5000     4.9930   -65.8910     5.3860   117.5800
   64.0000     5.0600   -65.8910     5.4060   117.7610
   64.5000     5.1270   -65.8910     5.4520   115.8720
   65.0000     5.1940   -65.8910     5.4990   114.1760
   65.5000     5.2610   -65.8910     5.5460   112.8490
   66.0000     5.3280   -65.8910     5.5920   113.7180
   66.5000     5.3940   -65.8910     5.6390   115.7860
   67.0000     5.4830   -65.8910     5.6820   117.7170
   67.5000     5.4730   -65.8910     5.6820   119.0600
   68.0000     5.4590   -65.8910     5.6540   116.5000
   68.5000     5.4440   -65.8910     5.6220   113.6090
   69.0000     5.4300   -65.8910     5.5910   110.7460
   69.5000     5.4160   -65.8910     5.5590   108.8980
   70.0000     5.4010   -65.8910     5.5270   110.9660
   70.5000     5.3860   -65.8910     5.4950   115.7560
   71.0000     5.3450   -65.8910     5.4630   117.8810
   71.5000     5.3000   -65.8910     5.4310   118.2440
   72.0000     5.2550   -65.8910     5.4000   115.7570
   72.5000     5.2110   -65.8910     5.3680   113.0790
   73.0000     5.1660   -65.8910     5.3360   113.0870
   73.5000     5.1220   -65.8910     5.3040   113.3650
   74.0000     5.0770   -65.8910     5.2560   113.6570
   74.5000     5.0330   -65.8910     5.1970   113.2260
   75.0000     4.9880   -65.8910     5.1370   112.8720
   75.5000     4.9430   -65.8910     5.0780   112.5630
   76.0000     4.9260   -65.8910     5.0190   112.1620
   76.5000     4.9260   -65.8910     4.9590   113.9710
   77.0000     4.9270   -65.8910     4.9000   116.1570
   77.5000     4.9250   -65.8910     4.8400   118.2350
   78.0000     4.9250   -65.8910     4.7810   117.5780
   78.5000     4.9270   -65.8910     4.7210   116.9400
   79.0000     4.8160   -65.8910     4.6620   116.2020
   79.5000     4.7120   -65.8910     4.6030   115.4640
   80.0000     4.6080   -65.8910     4.5430   115.2340
   80.5000     4.5040   -65.8910     4.4840   115.2740
   81.0000     4.4000   -65.8910     4.4240   115.1440
   81.5000     4.2710   -65.8910     4.3530   115.2710
   82.0000     4.2710   -65.8910     4.3670   110.9930
   82.5000     4.2710   -65.8910     4.3950   104.1750
   83.0000     4.2830   -65.8910     4.4230    99.7830
   83.5000     4.3220   -65.8910     4.4510   102.5860
   84.0000     4.3600   -65.8910     4.4790   106.9510
   84.5000     4.3990   -65.8910     4.5070   110.3940
