~VERSION INFORMATION
 VERS.                2.0:   CWLS LOG ASCII STANDARD - VERSION 2.0
 WRAP.                 NO:   ONE LINE PER DEPTH STEP
~WELL INFORMATION
#MNEM.UNIT      DATA TYPE    INFORMATION
#----------   ------------   ------------------------------
 STRT.F          211.5000:   START DEPTH
 STOP.F         3103.0000:   STOP DEPTH
 STEP.F            0.5000:   STEP LENGTH
 NULL.          -999.2500:   NO VALUE
 COMP.    FENIX & SCISSON:   COMPANY
 WELL. FENIX NPR 3 "AX" #38-10:   WELL
 FLD .  TEAPOT DOME - NPR:   FIELD
 LOC .      S10 T38N R78W:   LOCATION
 CNTY.            NATRONA:   COUNTY
 STAT.            WYOMING:   STATE
 CTRY. UNITED STATES OF AMERICA:   COUNTRY
 SRVC.           BIRDWELL:   SERVICE COMPANY
 DATE.        01-JUL-1978:   LOGDATE
 API .     49025106550000:   API NUMBER
~CURVE INFORMATION
#MNEM.UNIT       API CODE    CURVE DESCRIPTION
#----------   ------------   ------------------------------
 DEPT.F                  :   
 CALD.IN     45 280 60 00:   CALIPER FROM DENSITY LOG
 GRD .GAPI   45 310 01 00:   GAMMA RAY FROM DENSITY LOG
 RHOB.G/C3   45 350 01 00:   BULK DENSITY
 CORR.G/C3   45 356 01 00:   DENSITY CORRECTION
 NPOR.DEC    42 890 03 00:   ALPHA PROCESSED NEUTRON POROSITY
 SPR .MV     05 010 01 00:   SPONTANEOUS POTENTIAL
 SN  .OHMM   05 040 00 00:   SHORT NORMAL
 ILD .OHMM   05 120 46 00:   DEEP INDUCTION RESISTIVITY
~PARAMETER INFORMATION
#MNEM.UNIT          VALUE    DESCRIPTION
#----------   ------------   ------------------------------
 EKB .F         5240.0000:   Kelly bushing
 EGL .F         5230.0000:   Ground level
 TD  .F         3103.0000:   Total depth
 DATE.        01-JUL-1978:   Date logged
 CLNT.            A2DTECH:   Client Code
 SL  . 200' FSL & 2100' FWL:   Surface Location
 PD  .                 GL:   Permanent Datum
 EPD .F              5230:   Elevation Permanent Datum
 LMF .                 KB:   Log Measured From
 DMF .                 KB:   Drilling Measured From
 DAPD.F                10:   Feet Above Permanent Datum
 DD  .F              3100:   Depth driller
 DL  .F              3103:   Depth logger
 BLI .F              3096:   Bottom log interval
 TLI .F               228:   Top log interval
 CS1 .IN            8.625:   Casing size
 CBD1.      8.625" @ 224':   Casing driller 1
 CBL1.F               228:   Casing logger 1
 BS1 .IN            7.875:   Bit size
 BSD1.F              3100:   Depth drilled with bit1
 DFT .            MUD/GEL:   Type fluid in hole
 DFD .                8.7:   Density
 DFV .                 31:   Viscosity
 DFPH.               10.5:   pH
 DFL .                  7:   Fluid loss
 MSS .           FLOWLINE:   Source of sample
 BHT .F               109:   BHT.
 TCS .HRS             4.5:   Time Circ. stopped
 MRT .F               109:   Maximum recorded temp.
 LUN .               2958:   Logging unit number
 LUL .               CASP:   Logging unit location
 ENGI.             MILLER:   Recorded By
 ORIG.      2.5" 5" PRINT:   Origin of data
 UWI .     49025106550000:   Unique Well ID
 DICO. A2D TECHNOLOGIES, INC.:   Digitizing Company
~OTHER INFORMATION
~A   DEPT     CALD         GRD      RHOB       CORR       NPOR        SPR         SN        ILD   
# ...
  252.0000    10.9526   126.0012     2.4389     0.0046  -999.2500  -999.2500  -999.2500  -999.2500
  252.5000    10.9522   126.3938     2.4379     0.0046  -999.2500  -999.2500  -999.2500  -999.2500
  253.0000    10.9518   125.7953     2.4389     0.0046  -999.2500  -999.2500  -999.2500  -999.2500
  253.5000    10.9514   125.5924     2.4488     0.0064  -999.2500  -999.2500  -999.2500  -999.2500
  254.0000    10.9510   124.5982     2.4565     0.0124  -999.2500  -999.2500  -999.2500  -999.2500
  254.5000    10.9506   118.0524     2.4565     0.0204  -999.2500  -999.2500  -999.2500  -999.2500
  255.0000    10.9502   114.0833     2.4565     0.0302  -999.2500  -999.2500  -999.2500  -999.2500
  255.5000    10.9498   114.4759     2.4547     0.0382  -999.2500  -999.2500  -999.2500  -999.2500
  256.0000    10.9296   115.2649     2.4604     0.0520  -999.2500  -999.2500  -999.2500  -999.2500
  256.5000    10.9490   117.6397     2.4813     0.0578  -999.2500  -999.2500  -999.2500  -999.2500
  257.0000    10.9486   120.6092     2.4703     0.0478  -999.2500  -999.2500  -999.2500  -999.2500
  257.5000    10.9482   122.1911     2.4673     0.0398  -999.2500  -999.2500  -999.2500  -999.2500
  258.0000    10.9280   123.3765     2.4496     0.0140  -999.2500  -999.2500  -999.2500  -999.2500
  258.5000    10.9474   123.7699     2.4515     0.0100  -999.2500  -999.2500  -999.2500  -999.2500
  259.0000    10.9470   120.9902     2.4485     0.0178  -999.2500  -999.2500  -999.2500  -999.2500
  259.5000    10.9466   119.7970     2.4455     0.0178  -999.2500  -999.2500  -999.2500  -999.2500
  260.0000    10.9659   119.9913     2.4475     0.0178  -999.2500  -999.2500  -999.2500  -999.2500
  260.5000    10.9459   120.5814     2.4455     0.0176  -999.2500  -999.2500  -999.2500  -999.2500
  261.0000    10.9455   120.5775     2.4405     0.0176  -999.2500  -999.2500  -999.2500  -999.2500
  261.5000    10.9451   121.3665     2.4385     0.0176  -999.2500  -999.2500  -999.2500  -999.2500
  262.0000    10.9446   122.9484     2.4374     0.0174  -999.2500  -999.2500  -999.2500  -999.2500
  262.5000    10.9442   122.7464     2.4304     0.0154  -999.2500  -999.2500  -999.2500  -999.2500
  263.0000    10.9438   122.1486     2.4274     0.0134  -999.2500  -999.2500  -999.2500  -999.2500
  263.5000    10.9435   119.9636     2.4334     0.0134  -999.2500  -999.2500  -999.2500  -999.2500
  264.0000    10.9431   118.3732     2.4443     0.0074  -999.2500  -999.2500  -999.2500  -999.2500
  264.5000    10.9427   113.0166     2.4443     0.0112  -999.2500  -999.2500  -999.2500  -999.2500
  265.0000    10.9423   108.0747     2.4433     0.0132  -999.2500  -999.2500  -999.2500  -999.2500
  265.5000    10.9418   109.2609     2.4492     0.0172  -999.2500  -999.2500  -999.2500  -999.2500
  266.0000    10.9414   112.8250     2.4551     0.0210  -999.2500  -999.2500  -999.2500  -999.2500
  266.5000    10.9411   116.3891     2.4519     0.0210  -999.2500  -999.2500  -999.2500  -999.2500
  267.0000    10.9407   117.1782     2.4509     0.0210  -999.2500  -999.2500  -999.2500  -999.2500
  267.5000    10.9403   116.9768     2.4499     0.0188  -999.2500  -999.2500  -999.2500  -999.2500
  268.0000    10.9399   110.4119     2.4499     0.0188  -999.2500  -999.2500  -999.2500  -999.2500
  268.5000    10.9395   107.6330     2.4489     0.0168  -999.2500  -999.2500  -999.2500  -999.2500
  269.0000    10.9391   107.8274     2.4488     0.0068  -999.2500  -999.2500  -999.2500  -999.2500
  269.5000    10.9387   108.6346     2.4488     0.0068  -999.2500  -999.2500  -999.2500  -999.2500
  270.0000    10.9383   115.1538     2.4488     0.0066  -999.2500  -999.2500  -999.2500  -999.2500
  270.5000    10.9379   112.7713     2.4478     0.0066  -999.2500  -999.2500  -999.2500  -999.2500
  271.0000    10.9375   112.1728     2.4438     0.0066  -999.2500  -999.2500  -999.2500  -999.2500
  271.5000    10.9371   112.5646     2.4388     0.0066  -999.2500  -999.2500  -999.2500  -999.2500
  272.0000    10.9367   111.9843     2.4348     0.0164  -999.2500  -999.2500  -999.2500  -999.2500
  272.5000    10.9363   105.0237     2.4586     0.0204  -999.2500  -999.2500  -999.2500  -999.2500
  273.0000    10.9359   101.8460     2.4476     0.0222  -999.2500  -999.2500  -999.2500  -999.2500
  273.5000    10.9355   105.4124     2.4446     0.0242  -999.2500  -999.2500  -999.2500  -999.2500
  274.0000    10.9351   108.5793     2.4446     0.0400  -999.2500  -999.2500  -999.2500  -999.2500
  274.5000    10.9347   105.9994     2.4466     0.0460  -999.2500  -999.2500  -999.2500  -999.2500
  275.0000    10.9343   105.7973     2.4466     0.0460  -999.2500  -999.2500  -999.2500  -999.2500
  275.5000    10.9340   106.5863     2.4455     0.0398  -999.2500  -999.2500  -999.2500  -999.2500
  276.0000    10.9336   106.5825     2.4495     0.0240  -999.2500  -999.2500  -999.2500  -999.2500
  276.5000    10.9332   105.3885     2.4298     0.0100  -999.2500  -999.2500  -999.2500  -999.2500
  277.0000    10.9525   101.8167     2.4248     0.0020  -999.2500  -999.2500  -999.2500  -999.2500
  277.5000    10.9522    99.8298     2.4307    -0.0002  -999.2500  -999.2500  -999.2500  -999.2500
  278.0000    10.9518   105.1787     2.4386     0.0058  -999.2500  -999.2500  -999.2500  -999.2500
  278.5000    10.9514   111.1215     2.4474     0.0058  -999.2500  -999.2500  -999.2500  -999.2500
  279.0000    10.9510   117.4615     2.4416     0.0056  -999.2500  -999.2500  -999.2500  -999.2500
  279.5000    10.9308   119.4580     2.4376     0.0056  -999.2500  -999.2500  -999.2500  -999.2500
  280.0000    10.8908   114.0832     2.4356     0.0076  -999.2500  -999.2500  -999.2500  -999.2500
  280.5000    10.9300   109.5203     2.4365     0.0154  -999.2500  -999.2500  -999.2500  -999.2500
  281.0000    10.9296   105.7494     2.4445     0.0154  -999.2500  -999.2500  -999.2500  -999.2500
  281.5000    10.9292   104.9527     2.4444     0.0154  -999.2500  -999.2500  -999.2500  -999.2500
  282.0000    10.9288   105.3453     2.4444     0.0172  -999.2500  -999.2500  -999.2500  -999.2500
  282.5000    10.9086   105.7378     2.4454     0.0192  -999.2500  -999.2500  -999.2500  -999.2500
  283.0000    10.9082   106.9233     2.4454     0.0232  -999.2500  -999.2500  -999.2500  -999.2500
  283.5000    10.9276   106.5230     2.4501     0.0310  -999.2500  -999.2500  -999.2500  -999.2500
  284.0000    10.9272   105.3290     2.4481     0.0446  -999.2500  -999.2500  -999.2500  -999.2500
  284.5000    10.9268   103.7592     2.4443     0.0544  -999.2500  -999.2500  -999.2500  -999.2500
  285.0000    10.9264   109.4847     2.4383     0.0682  -999.2500  -999.2500  -999.2500  -999.2500
  285.5000    10.9260   112.4709     2.4333     0.0762  -999.2500  -999.2500  -999.2500  -999.2500
  286.0000    10.9256   112.8650     2.4412     0.0840  -999.2500  -999.2500  -999.2500  -999.2500
  286.5000    10.9252   109.0759     2.4500     0.0820  -999.2500  -999.2500  -999.2500  -999.2500
  287.0000    10.9248   107.2881     2.4569     0.0780  -999.2500  -999.2500  -999.2500  -999.2500
  287.5000    10.9245   107.2842     2.4559     0.0640  -999.2500  -999.2500  -999.2500  -999.2500
  288.0000    10.9439   109.0644     2.4232     0.0246  -999.2500  -999.2500  -999.2500  -999.2500
  288.5000    10.9236   109.6552     2.4222     0.0086  -999.2500  -999.2500  -999.2500  -999.2500
  289.0000    10.9232   109.4523     2.4212     0.0066  -999.2500  -999.2500  -999.2500  -999.2500
  289.5000    10.9228   107.4662     2.4202     0.0066  -999.2500  -999.2500  -999.2500  -999.2500
  290.0000    10.9224   104.4891     2.4082     0.0044  -999.2500  -999.2500  -999.2500  -999.2500
  290.5000    10.9221   107.8550     2.4022     0.0044  -999.2500  -999.2500  -999.2500  -999.2500
  291.0000    10.9217   110.6262     2.4012     0.0064  -999.2500  -999.2500  -999.2500  -999.2500
  291.5000    10.9213   111.6294     2.4032     0.0064  -999.2500  -999.2500  -999.2500  -999.2500
  292.0000    10.9208   111.0149     2.4111     0.0062  -999.2500  -999.2500  -999.2500  -999.2500
