~VERSION INFORMATION
 VERS.                2.0:   CWLS LOG ASCII STANDARD - VERSION 2.0
 WRAP.                 NO:   ONE LINE PER DEPTH STEP
~WELL INFORMATION
#MNEM.UNIT      DATA TYPE    INFORMATION
#----------   ------------   ------------------------------
 STRT.F            0.0000:   START DEPTH
 STOP.F         2870.0000:   STOP DEPTH
 STEP.F            0.5000:   STEP LENGTH
 NULL.          -999.2500:   NO VALUE
 COMP.  FENIX AND SCISSON:   COMPANY
 WELL.  FENIX "A" #304-28:   WELL
 FLD .             NPR #3:   FIELD
 LOC .      S28 T39N R78W:   LOCATION
 CNTY.            NATRONA:   COUNTY
 STAT.            WYOMING:   STATE
 CTRY. UNITED STATES OF AMERICA:   COUNTRY
 SRVC.         MCCULLOUGH:   SERVICE COMPANY
 DATE.        21-DEC-1977:   LOGDATE
 API .     49025105600000:   API NUMBER
~CURVE INFORMATION
#MNEM.UNIT       API CODE    CURVE DESCRIPTION
#----------   ------------   ------------------------------
 DEPT.F                  :   
 GR  .GAPI   30 310 01 00:   GAMMA RAY
 CALI.IN     70 280 01 00:   CALIPER
~PARAMETER INFORMATION
#MNEM.UNIT          VALUE    DESCRIPTION
#----------   ------------   ------------------------------
 EKB .F            0.0000:   Kelly bushing
 EGL .F            0.0000:   Ground level
 EDF .F         5074.7000:   Drilling floor
 EPD .F         5074.7000:   Permanent datum
 TD  .F         2868.0000:   Total depth
 DATE.        21-DEC-1977:   Date logged
 CLNT.            A2DTECH:   Client Code
 DL  .F              2868:   Depth logger
 BLI .F              2866:   Bottom log interval
 TLI .F              2000:   Top log interval
 CS1 .IN             6.25:   Casing size
 CBD1.     6.625" @ 2935':   Casing driller 1
 BS1 .IN             6.25:   Bit size
 BSD1.F              2868:   Depth drilled with bit1
 DFT .              WATER:   Type fluid in hole
 TCS .HRS             1.5:   Time Circ. stopped
 ENGI.             CONLEY:   Recorded By
 WITN.           HARRISON:   Witnessed by
 ORIG.           5" PRINT:   Origin of data
 UWI .     49025105600000:   Unique Well ID
 DICO. A2D TECHNOLOGIES, INC.:   Digitizing Company
~OTHER INFORMATION
~A    DEPT      GR         CALI 
# ...
 1093.5000  -999.2500     6.8470
 1094.0000  -999.2500     6.8470
 1094.5000  -999.2500     6.8550
 1095.0000  -999.2500     6.8590
 1095.5000  -999.2500     6.8560
 1096.0000  -999.2500     6.8520
 1096.5000  -999.2500     6.9950
 1097.0000  -999.2500     6.7360
 1097.5000  -999.2500     6.7450
 1098.0000  -999.2500     6.7480
 1098.5000  -999.2500     6.7500
 1099.0000  -999.2500     6.7530
 1099.5000  -999.2500     6.7650
 1100.0000  -999.2500     6.7720
 1100.5000  -999.2500     6.7750
 1101.0000  -999.2500     6.7770
 1101.5000  -999.2500     6.7790
 1102.0000  -999.2500     6.7810
 1102.5000  -999.2500     6.7820
 1103.0000  -999.2500     6.7830
 1103.5000  -999.2500     6.7840
 1104.0000  -999.2500     6.7860
 1104.5000  -999.2500     6.7870
 1105.0000  -999.2500     6.7880
 1105.5000  -999.2500     6.7890
 1106.0000  -999.2500     6.7900
 1106.5000  -999.2500     6.7910
 1107.0000  -999.2500     6.7920
 1107.5000  -999.2500     6.7930
 1108.0000  -999.2500     6.7940
 1108.5000  -999.2500     6.7950
 1109.0000  -999.2500     6.7950
 1109.5000  -999.2500     6.7950
 1110.0000  -999.2500     6.7960
 1110.5000  -999.2500     6.7960
 1111.0000  -999.2500     6.7970
 1111.5000  -999.2500     6.7970
 1112.0000  -999.2500     6.7970
 1112.5000  -999.2500     6.7970
 1113.0000  -999.2500     6.7970
 1113.5000  -999.2500     6.7970
 1114.0000  -999.2500     6.7960
 1114.5000  -999.2500     6.7950
 1115.0000  -999.2500     6.7940
 1115.5000  -999.2500     6.7930
 1116.0000  -999.2500     6.7930
 1116.5000  -999.2500     6.7940
 1117.0000  -999.2500     6.7990
 1117.5000  -999.2500     6.8020
 1118.0000  -999.2500     6.8010
 1118.5000  -999.2500     6.8000
 1119.0000  -999.2500     6.8030
 1119.5000  -999.2500     6.9220
 1120.0000  -999.2500     6.7360
 1120.5000  -999.2500     6.7530
 1121.0000  -999.2500     6.7480
 1121.5000  -999.2500     6.7500
 1122.0000  -999.2500     6.7520
 1122.5000  -999.2500     6.7510
 1123.0000  -999.2500     6.7470
 1123.5000  -999.2500     6.7430
 1124.0000  -999.2500     6.7430
 1124.5000  -999.2500     6.7430
 1125.0000  -999.2500     6.7440
 1125.5000  -999.2500     6.7440
 1126.0000  -999.2500     6.7430
 1126.5000  -999.2500     6.7430
 1127.0000  -999.2500     6.7430
 1127.5000  -999.2500     6.7420
 1128.0000  -999.2500     6.7420
 1128.5000  -999.2500     6.7460
 1129.0000  -999.2500     6.7500
 1129.5000  -999.2500     6.7500
 1130.0000  -999.2500     6.7500
 1130.5000  -999.2500     6.7500
 1131.0000  -999.2500     6.7510
 1131.5000  -999.2500     6.7520
 1132.0000  -999.2500     6.7530
 1132.5000  -999.2500     6.7530
 1133.0000  -999.2500     6.7510
 1133.5000  -999.2500     6.7490
 1134.0000  -999.2500     6.7350
 1134.5000  -999.2500     6.7230
 1135.0000  -999.2500     6.7230
 1135.5000  -999.2500     6.7230
 1136.0000  -999.2500     6.7230
 1136.5000  -999.2500     6.7230
 1137.0000  -999.2500     6.7270
 1137.5000  -999.2500     6.7320
 1138.0000  -999.2500     6.7350
 1138.5000  -999.2500     6.7510
 1139.0000  -999.2500     6.7590
 1139.5000  -999.2500     6.7630
 1140.0000  -999.2500     6.7650
 1140.5000  -999.2500     6.9270
 1141.0000  -999.2500     6.7680
 1141.5000  -999.2500     6.7590
 1142.0000  -999.2500     6.7480
 1142.5000  -999.2500     6.7380
 1143.0000  -999.2500     6.7340
 1143.5000  -999.2500     6.7300
 1144.0000  -999.2500     6.7280
 1144.5000  -999.2500     6.7290
 1145.0000  -999.2500     6.7300
 1145.5000  -999.2500     6.7310
 1146.0000  -999.2500     6.7320
 1146.5000  -999.2500     6.7300
 1147.0000  -999.2500     6.7260
 1147.5000  -999.2500     6.7220
 1148.0000  -999.2500     6.7180
 1148.5000  -999.2500     6.7160
 1149.0000  -999.2500     6.7170
 1149.5000  -999.2500     6.7210
 1150.0000  -999.2500     6.7330
 1150.5000  -999.2500     6.7410
 1151.0000  -999.2500     6.7400
 1151.5000  -999.2500     6.7380
 1152.0000  -999.2500     6.7310
 1152.5000  -999.2500     6.7250
 1153.0000  -999.2500     6.7230
 1153.5000  -999.2500     6.7170
 1154.0000  -999.2500     6.7040
 1154.5000  -999.2500     6.7030
 1155.0000  -999.2500     6.7070
 1155.5000  -999.2500     6.7180
 1156.0000  -999.2500     6.7170
 1156.5000  -999.2500     6.7220
 1157.0000  -999.2500     6.7230
 1157.5000  -999.2500     6.7240
 1158.0000  -999.2500     6.7240
 1158.5000  -999.2500     6.7240
 1159.0000  -999.2500     6.7310
 1159.5000  -999.2500     6.7290
 1160.0000  -999.2500     6.7270
 1160.5000  -999.2500     6.7230
 1161.0000  -999.2500     6.7230
 1161.5000  -999.2500     6.7300
 1162.0000  -999.2500     6.9390
 1162.5000  -999.2500     6.7090
 1163.0000  -999.2500     6.7310
 1163.5000  -999.2500     6.7300
 1164.0000  -999.2500     6.7200
 1164.5000  -999.2500     6.7120
 1165.0000  -999.2500     6.7120
 1165.5000  -999.2500     6.7130
 1166.0000  -999.2500     6.7130
 1166.5000  -999.2500     6.7130
 1167.0000  -999.2500     6.7140
 1167.5000  -999.2500     6.7140
 1168.0000  -999.2500     6.7140
 1168.5000  -999.2500     6.7140
 1169.0000  -999.2500     6.7080
 1169.5000  -999.2500     6.7030
 1170.0000  -999.2500     6.7000
 1170.5000  -999.2500     6.7010
 1171.0000  -999.2500     6.6980
 1171.5000  -999.2500     6.6940
 1172.0000  -999.2500     6.6940
 1172.5000  -999.2500     6.6950
 1173.0000  -999.2500     6.6950
 1173.5000  -999.2500     6.6950
 1174.0000  -999.2500     6.6960
 1174.5000  -999.2500     6.6960
 1175.0000  -999.2500     6.6960
 1175.5000  -999.2500     6.6960
 1176.0000  -999.2500     6.6970
 1176.5000  -999.2500     6.6970
 1177.0000  -999.2500     6.7010
 1177.5000  -999.2500     6.7060
 1178.0000  -999.2500     6.7110
 1178.5000  -999.2500     6.7120
 1179.0000  -999.2500     6.7130
 1179.5000  -999.2500     6.7090
 1180.0000  -999.2500     6.7020
 1180.5000  -999.2500     6.6910
 1181.0000  -999.2500     6.6850
 1181.5000  -999.2500     6.6710
 1182.0000  -999.2500     6.6510
 1182.5000  -999.2500     6.6370
 1183.0000  -999.2500     6.6390
 1183.5000  -999.2500     6.6420
 1184.0000  -999.2500     6.6550
 1184.5000  -999.2500     6.8500
 1185.0000  -999.2500     6.7360
 1185.5000  -999.2500     6.7300
 1186.0000  -999.2500     6.7200
 1186.5000  -999.2500     6.7120
 1187.0000  -999.2500     6.7130
 1187.5000  -999.2500     6.7160
 1188.0000  -999.2500     6.7200
 1188.5000  -999.2500     6.7250
 1189.0000  -999.2500     6.7290
 1189.5000  -999.2500     6.7290
 1190.0000  -999.2500     6.7280
 1190.5000  -999.2500     6.7270
 1191.0000  -999.2500     6.7260
 1191.5000  -999.2500     6.7260
 1192.0000  -999.2500     6.7220
 1192.5000  -999.2500     6.7170
 1193.0000  -999.2500     6.7150
 1193.5000  -999.2500     6.7160
 1194.0000  -999.2500     6.7160
 1194.5000  -999.2500     6.7170
 1195.0000  -999.2500     6.7180
 1195.5000  -999.2500     6.7190
 1196.0000  -999.2500     6.7210
 1196.5000  -999.2500     6.7280
 1197.0000  -999.2500     6.7360
 1197.5000  -999.2500     6.7440
 1198.0000  -999.2500     6.7450
 1198.5000  -999.2500     6.7460
 1199.0000  -999.2500     6.7460
 1199.5000  -999.2500     6.7460
 1200.0000  -999.2500     6.7460
 1200.5000  -999.2500     6.7460
 1201.0000  -999.2500     6.7470
 1201.5000  -999.2500     6.7470
 1202.0000  -999.2500     6.7510
 1202.5000  -999.2500     6.7600
 1203.0000  -999.2500     6.7570
 1203.5000  -999.2500     6.7500
 1204.0000  -999.2500     6.7430
 1204.5000  -999.2500     6.7660
 1205.0000  -999.2500     6.9020
 1205.5000  -999.2500     6.7490
 1206.0000  -999.2500     6.7360
 1206.5000  -999.2500     6.7260
 1207.0000  -999.2500     6.7250
 1207.5000  -999.2500     6.7220
 1208.0000  -999.2500     6.7130
 1208.5000  -999.2500     6.7100
 1209.0000  -999.2500     6.7110
 1209.5000  -999.2500     6.7110
 1210.0000  -999.2500     6.7100
 1210.5000  -999.2500     6.7100
 1211.0000  -999.2500     6.7090
 1211.5000  -999.2500     6.7080
 1212.0000  -999.2500     6.7090
 1212.5000  -999.2500     6.7100
 1213.0000  -999.2500     6.7110
 1213.5000  -999.2500     6.7180
 1214.0000  -999.2500     6.7190
 1214.5000  -999.2500     6.7170
