~VERSION INFORMATION
 VERS.                2.0:   CWLS LOG ASCII STANDARD - VERSION 2.0
 WRAP.                 NO:   ONE LINE PER DEPTH STEP
~WELL INFORMATION
#MNEM.UNIT      DATA TYPE    INFORMATION
#----------   ------------   ------------------------------
 STRT.F           13.0000:   START DEPTH
 STOP.F         2858.0000:   STOP DEPTH
 STEP.F            0.5000:   STEP LENGTH
 NULL.          -999.2500:   NO VALUE
 COMP.    FENIX & SCISSON:   COMPANY
 WELL. FENIX & SCISSON "AX" #16-21:   WELL
 FLD .  TEAPOT DOME NRP-3:   FIELD
 LOC .      S21 T39N R78W:   LOCATION
 CNTY.            NATRONA:   COUNTY
 STAT.            WYOMING:   STATE
 CTRY. UNITED STATES OF AMERICA:   COUNTRY
 SRVC.           BIRDWELL:   SERVICE COMPANY
 DATE.        17-JUL-1978:   LOGDATE
 API .     49025106590000:   API NUMBER
~CURVE INFORMATION
#MNEM.UNIT       API CODE    CURVE DESCRIPTION
#----------   ------------   ------------------------------
 DEPT.F                  :   
 GRD .GAPI   45 310 01 00:   GAMMA RAY FROM DENSITY LOG
 CALD.IN     45 280 60 00:   CALIPER FROM DENSITY LOG
 CORR.G/C3   45 356 01 00:   DENSITY CORRECTION
 RHOB.G/C3   45 350 01 00:   BULK DENSITY
 SPR .MV     05 010 01 00:   SPONTANEOUS POTENTIAL FROM RES.
 ILD .OHMM   05 120 46 00:   INDUCTION LOG DEEP
 SN  .OHMM   05 041 16 00:   SHORT NORMAL 16"
~PARAMETER INFORMATION
#MNEM.UNIT          VALUE    DESCRIPTION
#----------   ------------   ------------------------------
 EKB .F         5003.0000:   Kelly bushing
 EGL .F         4993.0000:   Ground level
 EDF .F            0.0000:   Drilling floor
 EPD .F         4993.0000:   Permanent datum
 TD  .F         2858.0000:   Total depth
 CLNT.            A2DTECH:   Client Code
 SL  . 1420' FSL & 200' FWL:   Surface Location
 DATE.        17-JUL-1978:   Date Logged [DD-MMM-YYYY]
 DD  .F              2855:   Depth driller
 DL  .F              2858:   Depth logger
 BLI .F              2858:   Bottom log interval
 TLI .F                20:   Top log interval
 CS1 .              8.625:   Casing size
 CBD1.      8.625" @ 200':   Casing driller 1
 CBL1.IN              228:   Casing logger 1
 BS1 .IN            7.875:   Bit size
 BSD1.F              2855:   Depth drilled with bit1
 DFT .            MUD GEL:   Type fluid in hole
 DFD .                9.9:   Density
 DFV .                 32:   Viscosity
 DFPH.               10.5:   pH
 DFL .                7.2:   Fluid loss
 MSS .           FLOWLINE:   Source of sample
 RMS .OHMM            1.3:   Rm
 MST .F                80:   Rm Meas. temp.
 RMF .OHMM           0.77:   Rmf
 MFST.F                74:   Rmf Meas. temp.
 MFSS.               MEAS:   Source Rmf.
 RMC .OHMM            1.5:   Rmc
 MCST.F                73:   Rmc Meas. temp.
 MCSS.               MEAS:   Source Rmc.
 TCS .HRS               1:   Time Circ. stopped
 MRT .F               118:   Maximum recorded temp.
 LUN .               2958:   Logging unit number
 LUL .               CASP:   Logging unit location
 ENGI.              HONEA:   Recorded By
 WITN.           MCGINLEY:   Witnessed by
 ORIG.        2" 5" PRINT:   Origin of data
 UWI .     49025106590000:   Unique Well ID
 DICO. A2D TECHNOLOGIES, INC.:   Digitizing Company
 PD  .                 GL:   Permanent Datum
 DAPD.                 10:   Feet Above Permanent Datum
~OTHER INFORMATION
~A   DEPT       GRD      CALD       CORR       RHOB        SPR        ILD         SN   
# ...
  923.0000    89.7444    10.3947     0.0416     2.5251   -31.6156     6.6810     6.9871
  923.5000    84.3977    10.3970     0.0359     2.5243   -31.5938     6.6868     6.9888
  924.0000    81.4329    10.3842     0.0316     2.5156   -31.7211     6.6927     6.9420
  924.5000    82.8187    10.3865     0.0318     2.5172   -31.6984     6.7446     6.9438
  925.0000    86.2444    10.3888     0.0305     2.5054   -31.8249     6.7505     6.9930
  925.5000    90.2194    10.3910     0.0291     2.5152   -31.9514     6.8496     7.0426
  926.0000    90.9545    10.3783     0.0294     2.5190   -31.9288     6.9502     7.0441
  926.5000    88.1451    10.3811     0.0385     2.5190   -31.9023     7.0041     7.0455
  927.0000    85.0373    10.3834     0.0475     2.5095   -32.0342     7.0585     7.0469
  927.5000    82.3772    10.3856     0.0492     2.5110   -32.0069     7.1133     7.0483
  928.0000    86.7320    10.4027     0.0449     2.5319   -31.9851     7.1196     7.0983
  928.5000    89.8928    10.4049     0.0451     2.5366   -31.8148     7.1272     7.1552
  929.0000    88.2774    10.4071     0.0453     2.5410   -31.9468     7.1334     7.2494
  929.5000    86.0651    10.4243     0.0484     2.5389   -31.9195     7.1397     7.3008
  930.0000    83.2557    10.4265     0.0501     2.5323   -31.8977     7.1950     7.4033
  930.5000    81.9389    10.4287     0.0498     2.5249   -31.8758     7.2013     7.4048
  931.0000    81.6656    10.4309     0.0386     2.5176   -31.8539     7.2572     7.4573
  931.5000    82.5888    10.4332     0.0313     2.5296   -31.8321     7.3135     7.4588
  932.0000    83.6601    10.4354     0.0285     2.5341   -31.8101     7.3702     7.5635
  932.5000    83.8358    10.4377     0.0287     2.5386   -31.7878     7.4274     7.6697
  933.0000    81.8702    10.4400     0.0304     2.5350   -31.7656     7.5364     7.6712
  933.5000    78.3083    10.4426     0.0320     2.5262   -31.7392     7.6486     7.6728
  934.0000    77.6531    10.4449     0.0188     2.5211   -31.7174     7.7653     7.7272
  934.5000    73.2019    10.4471     0.0143     2.5390   -31.8493     7.9292     7.8361
  935.0000    71.2815    10.4493     0.0340     2.5146   -31.9704     8.1010     7.8916
  935.5000    80.2698    10.4516     0.0401     2.4931   -31.9485     8.1639     8.0576
  936.0000    83.8783    10.4538     0.0329     2.5080   -32.2234     8.2838     8.1147
  936.5000    81.8152    10.4560     0.0480     2.5007   -32.3554     8.3480     8.2853
  937.0000    76.1701    10.4582     0.0541     2.4918   -32.4819     8.4128     8.3441
  937.5000    73.9577    10.4455     0.0513     2.5105   -32.4546     8.4780     8.4612
  938.0000    73.8283    10.4478     0.0470     2.5307   -32.4327     8.5438     8.5800
  938.5000    72.6673    10.4500     0.0427     2.5270   -32.4109     8.6100     8.5817
  939.0000    73.7386    10.4374     0.0414     2.5219   -32.3887     8.6768     8.5835
  939.5000    74.0635    10.4397     0.0356     2.5250   -32.3665     8.7441     8.7105
  940.0000    74.8363    10.4424     0.0254     2.5317   -32.3398     8.8161     8.8265
  940.5000    79.7881    10.4446     0.0241     2.5232   -32.3180     8.9416     8.8283
  941.0000    80.8767    10.4320     0.0258     2.5089   -32.4500     9.0127     9.0139
  941.5000    81.3335    10.4342     0.0349     2.4986   -32.4226     9.0826     9.0157
  942.0000    77.2653    10.4364     0.0499     2.4890   -32.4008     9.0905     9.0797
  942.5000    75.2671    10.4387     0.0635     2.4920   -32.5273     9.1610     9.0815
  943.0000    78.7330    10.4409     0.0681     2.5077   -32.5055     9.1690     9.0834
  943.5000    78.7594    10.4282     0.0727     2.5249   -32.6320     9.2401     9.1478
  944.0000    78.7859    10.4305     0.0789     2.5295   -32.6101     9.2482     9.2127
  944.5000    78.9616    10.4327     0.0835     2.5221   -32.5883     9.1911     9.2146
  945.0000    80.4806    10.4200     0.0807     2.5289   -32.4180     9.2644     9.2164
  945.5000    84.0891    10.4223     0.0615     2.5434   -32.3962     9.2725     9.1552
  946.0000    78.8917    10.4245     0.0377     2.5588   -32.3739     9.2807     9.1575
  946.5000    77.8668    10.4268     0.0322     2.5187   -32.3517     9.2889     9.2225
  947.0000    78.7954    10.4141     0.0324     2.5084   -32.3251     9.2988     9.2243
  947.5000    80.3144    10.4169     0.0281     2.5145   -32.3033     9.3070     9.2262
  948.0000    80.7886    10.4037     0.0223     2.5197   -32.4353     9.3151     9.2280
  948.5000    80.6657    10.4064     0.0210     2.5205   -32.5618     9.3232     9.2935
  949.0000    79.7519    10.4087     0.0242     2.5058   -32.6828     9.3955     9.2954
  949.5000    75.7784    10.4109     0.0348     2.4984   -32.6610     9.4038     9.3613
  950.0000    74.3777    10.3977     0.0349     2.5134   -32.9359     9.4120     9.5581
  950.5000    74.0552    10.4005     0.0336     2.5306   -33.2162     9.4202     9.4303
  951.0000    75.5808    10.4027     0.0308     2.5388   -33.4856     9.4933     9.4985
  951.5000    75.1595    10.4049     0.0156     2.5420   -33.6127     9.5016     9.4353
  952.0000    70.8576    10.4072     0.0045     2.5375   -33.5903     9.5753     9.4385
  952.5000    68.7879    10.4096     0.0091     2.5257   -33.5633     9.6496     9.4410
  953.0000    71.3583    10.4117     0.0167     2.5042   -33.3976     9.6660     9.4436
  953.5000    78.9967    10.4140     0.0243     2.4865   -33.3274     9.6960     9.3808
  954.0000    81.7031    10.4315     0.0274     2.4828   -33.2285     9.7260     9.3840
  954.5000    77.7063    10.4337     0.0232     2.4978   -33.2092     9.6627     9.2583
  955.0000    73.4044    10.4360     0.0204     2.5031   -32.8896     9.4191     9.1346
  955.5000    71.0985    10.4382     0.0220     2.4987   -32.8707     9.2342     9.1370
  956.0000    72.7111    10.4250     0.0311     2.4891   -32.7035     9.1762     9.1396
  956.5000    72.7468    10.4280     0.0357     2.4981   -32.6846     9.1847     9.1426
  957.0000    71.2714    10.4300     0.0327     2.5156   -32.6657     9.1270     9.1450
  957.5000    71.9229    10.4322     0.0316     2.5253   -32.6469     9.1354     9.2105
  958.0000    74.2759    10.4345     0.0348     2.5177   -32.7811     9.0780     9.2130
  958.5000    73.8947    10.4367     0.0365     2.5052   -32.7575     9.0864     9.2155
  959.0000    74.3690    10.4389     0.0381     2.4986   -32.7387     9.0931     9.1542
  959.5000    76.0372    10.4411     0.0487     2.4987   -32.7196     9.0999     9.1573
  960.0000    76.0637    10.4435     0.0518     2.5017   -32.7003     9.1067     9.1598
  960.5000    76.3886    10.4307     0.0357     2.5182   -32.8304     9.1149     9.0995
  961.0000    74.6241    10.4335     0.0270     2.5257   -32.8069     9.1216     9.1019
  961.5000    73.6057    10.4209     0.0271     2.5295   -32.7880     9.1284     8.9802
  962.0000    73.3271    10.4076     0.0275     2.5206   -32.9175     9.1351     8.9211
  962.5000    74.1064    10.4104     0.0290     2.5102   -32.8986     9.1418     8.8624
  963.0000    74.5806    10.4127     0.0292     2.5012   -32.8798     9.1486     8.8654
  963.5000    73.4131    10.3995     0.0323     2.4934   -32.8609     9.1553     8.8678
  964.0000    72.2455    10.4171     0.0384     2.4905   -32.8420     9.0993     8.8702
  964.5000    72.8689    10.4193     0.0401     2.4965   -32.8232     9.1062     8.8725
  965.0000    73.3432    10.4216     0.0403     2.5003   -32.8041     9.0487     8.8749
  965.5000    69.9025    10.4238     0.0419     2.5064   -32.7848     8.9341     8.8773
  966.0000    68.1522    10.4260     0.0421     2.5139   -32.7619     8.8812     8.8797
  966.5000    68.6530    10.4283     0.0408     2.5013   -32.7430     8.8878     8.8821
  967.0000    70.0228    10.4306     0.0454     2.4984   -32.7241     8.8320     8.8846
  967.5000    70.0492    10.4333     0.0471     2.5060   -32.7053     8.7781     8.8874
  968.0000    70.3742    10.4201     0.0414     2.5187   -32.6864     8.7862     8.7680
