~VERSION INFORMATION
 VERS.                2.0:   CWLS LOG ASCII STANDARD - VERSION 2.0
 WRAP.                 NO:   ONE LINE PER DEPTH STEP
~WELL INFORMATION
#MNEM.UNIT      DATA TYPE    INFORMATION
#----------   ------------   ------------------------------
 STRT.F            0.0000:   START DEPTH
 STOP.F         3040.0000:   STOP DEPTH
 STEP.F            0.5000:   STEP LENGTH
 NULL.          -999.2500:   NO VALUE
 COMP. LAWRENCE ALLISON & ASSOCIATES:   COMPANY
 WELL. LAWRENCE NPR 3 "AX" #77-28:   WELL
 FLD .      NPR - WILDCAT:   FIELD
 LOC .      S28 T39N R78W:   LOCATION
 CNTY.            NATRONA:   COUNTY
 STAT.            WYOMING:   STATE
 CTRY. UNITED STATES OF AMERICA:   COUNTRY
 SRVC.      DRESSER ATLAS:   SERVICE COMPANY
 DATE.        19-OCT-1986:   LOGDATE
 API .     49025111150000:   API NUMBER
~CURVE INFORMATION
#MNEM.UNIT       API CODE    CURVE DESCRIPTION
#----------   ------------   ------------------------------
 DEPT.F                  :   
 TENR.LBS    07 635 01 00:   TENSION FROM RESISTIVITY
 RILD.OHMM   07 120 46 00:   DEEP INDUCTION RESISTIVITY
 RILM.OHMM   07 120 44 00:   INDUCTION LOG MEDIUM RESISTIVITY
 RFOC.OHMM   07 220 04 00:   RESISTIVITY FOCUSED LOG RES.
 SPR .MV     07 010 01 00:   SPONTANEOUS POTENTIAL
 GRR .GAPI   07 310 01 00:   GAMMA RAY FROM RESISTIVITY
 CNC .DEC    42 890 03 00:   NEUTRON POROSITY SANDSTONE
 RHOB.G/C3   45 350 01 00:   BULK DENSITY
 TEND.LBS    45 635 01 00:   TENSION FROM DENSITY LOG
 CORR.G/C3   45 356 01 00:   DENSITY CORRECTION
 CALD.IN     45 280 60 00:   CALIPER FROM DENSITY LOG
~PARAMETER INFORMATION
#MNEM.UNIT          VALUE    DESCRIPTION
#----------   ------------   ------------------------------
 EKB .F         5086.0000:   Kelly bushing
 EGL .F         5074.0000:   Ground level
 EDF .F            0.0000:   Drilling floor
 TD  .F         3025.0000:   Total depth
 DATE.        19-OCT-1986:   Date logged
 CLNT.            A2DTECH:   Client Code
 SL  . 967' FSL @ 763' FEL:   Surface Location
 PD  .                 GL:   Permanent Datum
 EPD .F              5074:   Elevation Permanent Datum
 LMF .                 KB:   Log Measured From
 DMF .                 KB:   Drilling Measured From
 DAPD.F                12:   Feet Above Permanent Datum
 DD  .F              3021:   Depth driller
 DL  .F              3025:   Depth logger
 BLI .F              3023:   Bottom log interval
 CS1 .IN            8.625:   Casing size
 CBD1.      8.625" @ 620':   Casing driller 1
 CBL1.F               615:   Casing logger 1
 BS1 .IN            7.875:   Bit size
 BSD1.F              3021:   Depth drilled with bit1
 DFT .        KCL/POLTMER:   Type fluid in hole
 DFD .                8.9:   Density
 DFV .                 38:   Viscosity
 DFPH.                9.5:   pH
 DFL .                 11:   Fluid loss
 MSS .           FLOWLINE:   Source of sample
 RMS .OHMM            .25:   Rm
 MST .F                65:   Rm Meas. temp.
 RMF .OHMM           .203:   Rmf
 MFST.F                65:   Rmf Meas. temp.
 RMC .OHMM            .31:   Rmc
 MCST.F                65:   Rmc Meas. temp.
 MFSS.               MEAS:   Source Rmf.
 MCSS.               CALC:   Source Rmc.
 RMB .OHMM           .136:   Rm. at BHT
 BHT .F               119:   BHT.
 TCS .HRS               5:   Time Circ. stopped
 MRT .F               119:   Maximum recorded temp.
 LUN .               6274:   Logging unit number
 LUL .               GLTE:   Logging unit location
 ENGI.             RAUTIO:   Recorded By
 WITN.             STRONG:   Witnessed by
 ORIG.         2.5" PRINT:   Origin of data
 UWI .     49025111150000:   Unique Well ID
 DICO. A2D TECHNOLOGIES, INC.:   Digitizing Company
~OTHER INFORMATION
~A    DEPT    TENR       RILD       RILM       RFOC        SPR         GRR       CNC       RHOB       TEND       CORR       CALD   
# ...
  640.5000   -24.5100     7.0570     6.9130     7.1280   -52.5050   108.8460  -999.2500  -999.2500  -999.2500  -999.2500  -999.2500
  641.0000   -24.5100     7.0460     6.9020     7.0800   -52.3610   109.4120  -999.2500  -999.2500  -999.2500  -999.2500  -999.2500
  641.5000   -24.5100     7.0340     6.8910     7.1060   -52.4570   111.3200  -999.2500  -999.2500  -999.2500  -999.2500  -999.2500
  642.0000   -24.5100     7.0230     6.8800     7.1350   -52.5460   110.3800  -999.2500  -999.2500  -999.2500  -999.2500  -999.2500
  642.5000   -33.5430     7.0120     6.8680     7.1650   -52.6420   107.8580  -999.2500  -999.2500  -999.2500  -999.2500  -999.2500
  643.0000   -44.0060     7.0000     6.8570     7.1940   -52.7350   105.8980  -999.2500  -999.2500  -999.2500  -999.2500  -999.2500
  643.5000   -54.4680     6.9890     6.8460     7.2240   -52.8290   105.7690  -999.2500  -999.2500  -999.2500  -999.2500  -999.2500
  644.0000   -64.9300     6.9780     6.8350     7.2530   -52.9230   106.5580  -999.2500  -999.2500  -999.2500  -999.2500  -999.2500
  644.5000   -75.3920     6.9670     6.8290     7.2830   -53.0160   107.6740  -999.2500  -999.2500  -999.2500  -999.2500  -999.2500
  645.0000   -82.7990     6.9540     6.5190     7.3120   -53.1120   109.3160  -999.2500  -999.2500  -999.2500  -999.2500  -999.2500
  645.5000   -80.5790     6.7400     6.2230     7.3410   -53.2010   110.3790  -999.2500  -999.2500  -999.2500  -999.2500  -999.2500
  646.0000   -78.3600     6.5350     5.9260     7.0330   -53.3000   110.8520  -999.2500  -999.2500  -999.2500  -999.2500  -999.2500
  646.5000   -76.1410     6.3310     5.6300     6.7360   -53.3940   111.0800  -999.2500  -999.2500  -999.2500  -999.2500  -999.2500
  647.0000   -73.9220     6.1270     5.3950     6.4400   -53.4690   111.4780  -999.2500  -999.2500  -999.2500  -999.2500  -999.2500
  647.5000   -71.7020     5.9230     5.3730     6.1430   -53.7940   111.6880  -999.2500  -999.2500  -999.2500  -999.2500  -999.2500
  648.0000   -69.4830     5.7180     5.3500     5.9100   -54.5660   113.8760  -999.2500  -999.2500  -999.2500  -999.2500  -999.2500
  648.5000   -67.2640     5.5990     5.3270     6.0180   -55.3020   114.1450  -999.2500  -999.2500  -999.2500  -999.2500  -999.2500
  649.0000   -65.0450     5.5770     5.3050     5.9070   -56.0380   114.5840  -999.2500  -999.2500  -999.2500  -999.2500  -999.2500
  649.5000   -62.3870     5.5560     5.2820     5.9010   -56.7930   114.6680  -999.2500  -999.2500  -999.2500  -999.2500  -999.2500
  650.0000   -59.0860     5.5350     5.2600     5.8950   -57.5370   116.7390  -999.2500  -999.2500  -999.2500  -999.2500  -999.2500
  650.5000   -55.7850     5.5130     5.2370     5.8890   -58.2250   118.8830  -999.2500  -999.2500  -999.2500  -999.2500  -999.2500
  651.0000   -52.4840     5.4920     5.2150     5.8830   -59.3310   118.1080  -999.2500  -999.2500  -999.2500  -999.2500  -999.2500
  651.5000   -49.1830     5.4710     5.1920     5.8770   -61.2360   117.1740  -999.2500  -999.2500  -999.2500  -999.2500  -999.2500
  652.0000   -45.8820     5.4500     5.1700     5.8710   -63.0760   117.7190  -999.2500  -999.2500  -999.2500  -999.2500  -999.2500
  652.5000   -42.5810     5.4280     5.1470     5.8650   -64.9400   118.3400  -999.2500  -999.2500  -999.2500  -999.2500  -999.2500
  653.0000   -39.2800     5.4070     5.1240     5.8590   -66.7980   118.8870  -999.2500  -999.2500  -999.2500  -999.2500  -999.2500
  653.5000   -35.9790     5.3860     5.1010     5.8530   -68.6630   119.6050  -999.2500  -999.2500  -999.2500  -999.2500  -999.2500
  654.0000   -32.6780     5.3640     5.0780     5.8470   -70.5220   121.1480  -999.2500  -999.2500  -999.2500  -999.2500  -999.2500
  654.5000   -29.3760     5.3430     5.0550     5.8420   -72.1750   122.2370  -999.2500  -999.2500  -999.2500  -999.2500  -999.2500
  655.0000   -26.0750     5.3220     5.0310     5.8350   -73.0010   118.5310  -999.2500  -999.2500  -999.2500  -999.2500  -999.2500
  655.5000   -25.2150     5.3030     5.0200     5.8300   -73.6500   115.5700  -999.2500  -999.2500  -999.2500  -999.2500  -999.2500
  656.0000   -26.5550     5.3490     5.1190     5.8240   -74.0450   113.3330  -999.2500  -999.2500  -999.2500  -999.2500  -999.2500
  656.5000   -27.8960     5.4110     5.1120     5.8170   -74.1630   111.3540  -999.2500  -999.2500  -999.2500  -999.2500  -999.2500
  657.0000   -29.2370     5.4740     5.1650     5.8120   -74.5150   110.9790  -999.2500  -999.2500  -999.2500  -999.2500  -999.2500
  657.5000   -30.5780     5.5350     5.2310     5.8060   -74.8200   111.8950  -999.2500  -999.2500  -999.2500  -999.2500  -999.2500
  658.0000   -31.9180     5.5980     5.2960     5.8850   -75.1680   115.4070  -999.2500  -999.2500  -999.2500  -999.2500  -999.2500
  658.5000   -33.2590     5.5870     5.3620     5.9870   -75.4760   118.5090  -999.2500  -999.2500  -999.2500  -999.2500  -999.2500
  659.0000   -34.6000     5.5770     5.4000     6.1280   -75.8330   120.1460  -999.2500  -999.2500  -999.2500  -999.2500  -999.2500
  659.5000   -35.9410     5.5660     5.3570     6.0790   -76.0970   116.1980  -999.2500  -999.2500  -999.2500  -999.2500  -999.2500
  660.0000   -37.2810     5.5550     5.3150     6.0000   -77.2150   112.5520  -999.2500  -999.2500  -999.2500  -999.2500  -999.2500
  660.5000   -38.6220     5.5440     5.2720     5.9210   -78.6160   113.7000  -999.2500  -999.2500  -999.2500  -999.2500  -999.2500
  661.0000   -39.9630     5.5330     5.2300     5.8430   -80.0240   114.8990  -999.2500  -999.2500  -999.2500  -999.2500  -999.2500
  661.5000   -41.3040     5.5220     5.1880     5.7640   -81.4130   114.2820  -999.2500  -999.2500  -999.2500  -999.2500  -999.2500
  662.0000   -42.6440     5.5110     5.1450     5.6850   -82.6760   113.3860  -999.2500  -999.2500  -999.2500  -999.2500  -999.2500
  662.5000   -43.9850     5.5000     5.1180     5.5990   -83.3230   112.4460  -999.2500  -999.2500  -999.2500  -999.2500  -999.2500
  663.0000   -45.3260     5.4900     5.1270     5.6490   -83.9230   113.2100  -999.2500  -999.2500  -999.2500  -999.2500  -999.2500
  663.5000   -46.6670     5.4790     5.1360     5.7470   -84.5110   114.4560  -999.2500  -999.2500  -999.2500  -999.2500  -999.2500
  664.0000   -48.0070     5.4680     5.1450     5.8460   -85.0140   115.6470  -999.2500  -999.2500  -999.2500  -999.2500  -999.2500
  664.5000   -49.3480     5.4570     5.1530     5.9100   -85.1720   116.8440  -999.2500  -999.2500  -999.2500  -999.2500  -999.2500
  665.0000   -50.6890     5.4460     5.1620     5.8930   -85.3120   117.9030  -999.2500  -999.2500  -999.2500  -999.2500  -999.2500
  665.5000   -52.0300     5.4350     5.1710     5.8750   -85.4450   117.8610  -999.2500  -999.2500  -999.2500  -999.2500  -999.2500
  666.0000   -53.3700     5.4240     5.1800     5.8560   -85.5810   117.7710  -999.2500  -999.2500  -999.2500  -999.2500  -999.2500
  666.5000   -54.7110     5.4130     5.1890     5.8380   -85.7170   115.7780  -999.2500  -999.2500  -999.2500  -999.2500  -999.2500
  667.0000   -56.0520     5.4010     5.1980     5.8200   -85.8540   114.2040  -999.2500  -999.2500  -999.2500  -999.2500  -999.2500
  667.5000   -57.3930     5.4050     5.2070     5.8020   -85.9860   112.5870  -999.2500  -999.2500  -999.2500  -999.2500  -999.2500
  668.0000   -58.7330     5.4100     5.2160     5.7830   -86.1250   113.6300  -999.2500  -999.2500  -999.2500  -999.2500  -999.2500
  668.5000   -60.0740     5.4160     5.2250     5.7650   -86.2660   114.7280  -999.2500  -999.2500  -999.2500  -999.2500  -999.2500
  669.0000   -61.4150     5.4220     5.2340     5.7470   -86.3770   115.3400  -999.2500  -999.2500  -999.2500  -999.2500  -999.2500
  669.5000   -62.7560     5.4270     5.2420     5.7280   -86.5700   114.4420  -999.2500  -999.2500  -999.2500  -999.2500  -999.2500
  670.0000   -62.6700     5.4330     5.2510     5.7030   -86.2740   113.6140  -999.2500  -999.2500  -999.2500  -999.2500  -999.2500
  670.5000   -58.8540     5.4390     5.2600     5.7250   -86.0920   112.6850  -999.2500  -999.2500  -999.2500  -999.2500  -999.2500
