~VERSION INFORMATION
 VERS.                2.0:   CWLS LOG ASCII STANDARD - VERSION 2.0
 WRAP.                 NO:   ONE LINE PER DEPTH STEP
~WELL INFORMATION
#MNEM.UNIT      DATA TYPE    INFORMATION
#----------   ------------   ------------------------------
 STRT.F            0.0000:   START DEPTH
 STOP.F         3982.0000:   STOP DEPTH
 STEP.F            0.5000:   STEP LENGTH
 NULL.          -999.2500:   NO VALUE
 COMP.   LAWRENCE ALLISON:   COMPANY
 WELL. LAWRENCE NPR 3 "LX" #61-10:   WELL
 FLD .                NPR:   FIELD
 LOC .      S10 T38N R78W:   LOCATION
 CNTY.            NATRONA:   COUNTY
 STAT.            WYOMING:   STATE
 CTRY. UNITED STATES OF AMERICA:   COUNTRY
 SRVC.      DRESSER ATLAS:   SERVICE COMPANY
 DATE.        14-APR-1983:   LOGDATE
 API .     49025109180000:   API NUMBER
~CURVE INFORMATION
#MNEM.UNIT       API CODE    CURVE DESCRIPTION
#----------   ------------   ------------------------------
 DEPT.F                  :   
 CALD.IN     45 280 60 00:   CALIPER FROM DENSITY LOG
 RHOB.G/C3   45 350 01 00:   BULK DENSITY
 DRHO.G/C3   45 356 01 00:   DENSITY CORRECTION
 TEND.LBS    45 635 01 00:   TENSION FROM DENSITY LOG
 CNC .DEC    42 890 03 00:   NEUTRON PORISITY SANDSTONE
 GRR .GAPI   07 310 01 00:   GAMMA RAY FROM RESISTIVITY
 SPR .MV     07 010 01 00:   SPONTANEOUS POTENTIAL
 ILD .OHMM   07 120 46 00:   DEEP INDUCTION RESISTIVITY
 ILM .OHMM   07 120 44 00:   INDUCTION LOG MEDIUM RESISTIVITY
 SFL .OHMM   07 220 01 00:   SHALLOW FOCUSED LOG RESISTIVITY
 TENS.LBS    60 635 01 00:   TENSION FROM SONIC LOG
 DT  .US/F   60 520 00 00:   DELTA TIME
 TENR.LBS    07 635 01 00:   TENSION FROM RESISTIVITY
~PARAMETER INFORMATION
#MNEM.UNIT          VALUE    DESCRIPTION
#----------   ------------   ------------------------------
 EKB .F         5164.0000:   Kelly bushing
 EGL .F         5154.0000:   Ground level
 EDF .F            0.0000:   Drilling floor
 TD  .F         3985.0000:   Total depth
 DATE.        14-APR-1983:   Date logged
 CLNT.            A2DTECH:   Client Code
 SL  . 138' FNL & 1331' FEL:   Surface Location
 PD  .                 GL:   Permanent Datum
 EPD .F              5154:   Elevation Permanent Datum
 LMF .                 KB:   Log Measured From
 DMF .                 KB:   Drilling Measured From
 DD  .F              3985:   Depth driller
 DL  .F              3948:   Depth logger
 BLI .F              3945:   Bottom log interval
 CS1 .IN            8.625:   Casing size
 CBD1.      8.625" @ 442':   Casing driller 1
 CBL1.F               453:   Casing logger 1
 BS1 .IN            7.875:   Bit size
 DFT .                KCI:   Type fluid in hole
 DFD .                8.9:   Density
 DFV .                 40:   Viscosity
 DFPH.                8.5:   pH
 DFL .                 10:   Fluid loss
 MSS .           FLOWLINE:   Source of sample
 RMS .OHMM           0.38:   Rm
 MST .F                68:   Rm Meas. temp.
 RMF .OHMM           0.30:   Rmf
 MFST.F                68:   Rmf Meas. temp.
 RMC .OHMM           0.49:   Rmc
 MCST.F                68:   Rmc Meas. temp.
 MFSS.               MEAS:   Source Rmf.
 RMB .OHMM           0.22:   Rm. at BHT
 BHT .F               122:   BHT.
 TCS .HRS               4:   Time Circ. stopped
 MRT .F               122:   Maximum recorded temp.
 LUN .               6764:   Logging unit number
 LUL .              WLSTN:   Logging unit location
 ENGI.            QUICKEL:   Recorded By
 WITN.           JENNINGS:   Witnessed by
 ORIG.           5" PRINT:   Origin of data
 UWI .     49025109180000:   Unique Well ID
 DICO. A2D TECHNOLOGIES, INC.:   Digitizing Company
 DAPD.                 10:   Feet Above Permanent Datum
 BSD1.               3985:   Depth drilled with bit1
 MCSS.               CALC:   Source Rmc.
~OTHER INFORMATION
~A    DEPT    CALD       RHOB       DRHO       TEND        CNC         GRR       SPR        ILD        ILM        SFL       TENS         DT       TENR   
# ...
 2080.0000     8.3890     2.5140     0.0770   -68.0190     0.2990   100.3400   -39.0470     6.4710     6.6740     8.7090  -999.2500  -999.2500   -64.0170
 2080.5000     8.3900     2.5020     0.0890   -66.2010     0.2980    97.6850   -39.0830     6.6080     6.7870     8.7090  -999.2500  -999.2500   -63.7980
 2081.0000     8.3910     2.4970     0.0800   -65.7370     0.2890    97.6730   -39.1930     6.7000     6.8730     8.1710  -999.2500  -999.2500   -63.5780
 2081.5000     8.3920     2.4970     0.0690   -65.7370     0.2770    96.3280   -39.2860     6.6880     6.9350     6.9350  -999.2500  -999.2500   -63.3590
 2082.0000     8.3930     2.4990     0.0580   -65.7370     0.2650    96.9900   -39.3900     6.5620     6.7480     6.3310  -999.2500  -999.2500   -63.1390
 2082.5000     8.3940     2.5040     0.0510   -65.7370     0.2570    97.2270   -39.5160     6.4470     6.5660     6.3310  -999.2500  -999.2500   -62.9190
 2083.0000     8.3950     2.5080     0.0560   -65.7370     0.2580    97.5340   -39.6220     6.3740     6.5470     6.5060  -999.2500  -999.2500   -62.7000
 2083.5000     8.3960     2.5110     0.0650   -65.7370     0.2650    97.8090   -39.7370     6.3070     6.5100     6.5510  -999.2500  -999.2500   -62.4800
 2084.0000     8.3980     2.5100     0.0650   -65.7370     0.2760    95.8420   -39.8550     6.2730     6.4730     6.6010  -999.2500  -999.2500   -62.2610
 2084.5000     8.3990     2.5060     0.0550   -65.7370     0.2800    94.3160   -39.9630     6.4030     6.4470     6.8400  -999.2500  -999.2500   -62.0410
 2085.0000     8.4000     2.5010     0.0600   -65.7370     0.2740    93.7250   -40.0230     6.5030     6.5890     7.1270  -999.2500  -999.2500   -61.8210
 2085.5000     8.4010     2.4950     0.0570   -64.7170     0.2630    90.8610   -40.0190     6.6020     6.6970     7.5270  -999.2500  -999.2500   -61.6020
 2086.0000     8.4020     2.4870     0.0430   -62.9620     0.2550    88.1320   -40.0230     6.7010     6.8220     7.5270  -999.2500  -999.2500   -61.3820
 2086.5000     8.4030     2.4810     0.0290   -61.2080     0.2550    88.8580   -40.0180     6.7920     6.9610     7.1060  -999.2500  -999.2500   -61.1630
 2087.0000     8.4040     2.4810     0.0260   -59.4530     0.2600    91.5230   -39.8900     6.8760     7.1010     6.9350  -999.2500  -999.2500   -60.9430
 2087.5000     8.4050     2.4820     0.0230   -57.6990     0.2640    94.1230   -39.6350     6.9590     7.1990     7.0770  -999.2500  -999.2500   -60.7230
 2088.0000     8.4060     2.4850     0.0230   -55.9450     0.2610    95.8140   -39.3910     7.0620     7.2180     7.2690  -999.2500  -999.2500   -60.5040
 2088.5000     8.4070     2.4880     0.0320   -54.1900     0.2500    96.3280   -39.2320     7.0460     7.2380     7.5200  -999.2500  -999.2500   -60.2840
 2089.0000     8.4080     2.4910     0.0420   -52.4360     0.2410    95.9030   -39.1350     6.9980     7.2580     7.8760  -999.2500  -999.2500   -60.0640
 2089.5000     8.4090     2.4940     0.0510   -50.6810     0.2460    95.9480   -39.0720     6.7260     6.9100     8.1710  -999.2500  -999.2500   -59.8450
 2090.0000     8.4100     2.4940     0.0480   -48.9270     0.2600    99.3610   -38.9200     6.3380     6.6860     8.0230  -999.2500  -999.2500   -59.6250
 2090.5000     8.4100     2.4910     0.0340   -47.1730     0.2750   104.9810   -38.6360     5.8860     6.1730     7.2410  -999.2500  -999.2500   -59.4060
 2091.0000     8.4100     2.4880     0.0230   -46.4590     0.2910   108.4740   -38.3760     5.6190     5.8760     6.4470  -999.2500  -999.2500   -59.1860
 2091.5000     8.4100     2.4850     0.0260   -49.2900     0.3160   110.2880   -38.4010     5.3490     5.6750     5.8320  -999.2500  -999.2500   -58.9660
 2092.0000     8.4100     2.4820     0.0280   -52.1200     0.3420   111.8990   -38.8160     5.1340     5.4230     5.3240  -999.2500  -999.2500   -58.7470
 2092.5000     8.4100     2.4810     0.0400   -54.9500     0.3460   112.4760   -38.9850     5.1340     5.3330     5.0870  -999.2500  -999.2500   -58.5270
 2093.0000     8.4100     2.4820     0.0520   -57.7800     0.3270   112.6260   -38.4660     5.1570     5.3560     5.0410  -999.2500  -999.2500   -58.3080
 2093.5000     8.4100     2.4850     0.0800   -60.6100     0.3080   112.7100   -38.0250     5.2150     5.3780     5.4760  -999.2500  -999.2500   -58.0880
 2094.0000     8.4100     2.4890     0.1020   -63.4410     0.3110   112.8240   -38.0420     5.2720     5.4000     5.9390  -999.2500  -999.2500   -57.8680
 2094.5000     8.4100     2.5170     0.0790   -66.2710     0.3060   113.5870   -38.0560     5.3290     5.4220     6.8090  -999.2500  -999.2500   -57.6490
 2095.0000     8.4100     2.5280     0.0710   -69.1010     0.2910   114.5670   -38.0270     5.3730     5.5270     6.5700  -999.2500  -999.2500   -57.4290
 2095.5000     8.4100     2.5230     0.0950   -71.9310     0.2860   115.8090   -38.0540     5.4600     5.6280     5.9390  -999.2500  -999.2500   -57.2100
 2096.0000     8.4100     2.5030     0.1060   -74.7610     0.2870   116.8100   -38.0420     5.5300     5.7300     5.7660  -999.2500  -999.2500   -56.9900
 2096.5000     8.4100     2.4780     0.0810   -74.3590     0.3110   117.0410   -38.0310     5.6000     5.8310     5.5720  -999.2500  -999.2500   -56.7390
 2097.0000     8.4100     2.4620     0.0510   -72.3590     0.3160   115.5810   -37.9120     5.6720     5.9130     5.5720  -999.2500  -999.2500   -56.9380
 2097.5000     8.4100     2.4600     0.0430   -70.3590     0.3150   108.8780   -37.5340     5.7450     5.9940     5.6990  -999.2500  -999.2500   -57.1690
 2098.0000     8.4100     2.4630     0.0500   -68.3590     0.3050    99.9250   -37.2750     5.8180     6.1120     5.8320  -999.2500  -999.2500   -57.4000
 2098.5000     8.4100     2.4840     0.0590   -66.3590     0.2840    99.3130   -37.3940     5.8920     6.2870     6.3030  -999.2500  -999.2500   -57.6310
 2099.0000     8.4100     2.5060     0.0680   -64.3590     0.2810   105.4520   -37.5510     5.9650     6.4470     6.6860  -999.2500  -999.2500   -57.8630
 2099.5000     8.4100     2.5160     0.0760   -62.3590     0.2800   110.0530   -37.6950     6.0380     6.2360     7.9510  -999.2500  -999.2500   -58.0940
 2100.0000     8.4100     2.5020     0.0800   -60.3590     0.2830   107.6770   -37.8470     6.1040     5.9310     8.0230  -999.2500  -999.2500   -58.3250
 2100.5000     8.4100     2.4820     0.0730   -58.3590     0.2910   103.0670   -37.8340     6.0390     5.6230     6.5660  -999.2500  -999.2500   -58.5560
 2101.0000     8.4100     2.4830     0.0410   -56.3590     0.3050   101.6000   -37.8750     5.9790     5.7270     5.9390  -999.2500  -999.2500   -58.7870
 2101.5000     8.4100     2.4870     0.0320   -56.1840     0.3230   102.0820   -37.8100     5.9390     5.6110     5.8420  -999.2500  -999.2500   -59.0190
 2102.0000     8.4100     2.4940     0.0580   -56.7590     0.3160   105.0260   -37.3840     5.7230     5.4220     5.7270  -999.2500  -999.2500   -59.2500
 2102.5000     8.4100     2.4930     0.0700   -57.3340     0.3060   109.0910   -37.1160     5.5220     5.3730     5.5220  -999.2500  -999.2500   -59.4810
 2103.0000     8.4100     2.4870     0.0590   -57.9090     0.2980   114.3270   -37.2820     5.4050     5.2890     5.8640  -999.2500  -999.2500   -59.7120
 2103.5000     8.4100     2.4840     0.0320   -58.4830     0.2930   123.5940   -37.5570     5.2820     5.1770     6.1600  -999.2500  -999.2500   -59.9430
 2104.0000     8.4100     2.4810     0.0290   -59.0580     0.3000   136.3590   -37.5760     5.1810     5.0410     6.1600  -999.2500  -999.2500   -60.1740
 2104.5000     8.4100     2.4750     0.0460   -59.6330     0.3070   144.3100   -37.3840     5.1120     4.9790     5.9910  -999.2500  -999.2500   -60.4060
 2105.0000     8.4100     2.4530     0.1030   -60.2070     0.3040   141.7680   -37.0280     5.0530     4.9010     5.7010  -999.2500  -999.2500   -60.6370
 2105.5000     8.4100     2.4110     0.1020   -60.7820     0.3010   134.6520   -36.2010     4.9950     4.8220     5.4720  -999.2500  -999.2500   -60.8680
