~VERSION INFORMATION
 VERS.                2.0:   CWLS LOG ASCII STANDARD - VERSION 2.0
 WRAP.                 NO:   ONE LINE PER DEPTH STEP
~WELL INFORMATION
#MNEM.UNIT      DATA TYPE    INFORMATION
#----------   ------------   ------------------------------
 STRT.F          482.0000:   START DEPTH
 STOP.F         4000.0000:   STOP DEPTH
 STEP.F            0.5000:   STEP LENGTH
 NULL.          -999.2500:   NO VALUE
 COMP.    FENIX & SCISSON:   COMPANY
 WELL. FENIX  NPR 3 "LX" #56-10:   WELL
 FLD .              N P R:   FIELD
 LOC .      S10 T38N R78W:   LOCATION
 CNTY.            NATRONA:   COUNTY
 STAT.            WYOMING:   STATE
 CTRY. UNITED STATES OF AMERICA:   COUNTRY
 SRVC.       SCHLUMBERGER:   SERVICE COMPANY
 DATE.        11-JUL-1978:   LOGDATE
 API .     49025107100000:   API NUMBER
~CURVE INFORMATION
#MNEM.UNIT       API CODE    CURVE DESCRIPTION
#----------   ------------   ------------------------------
 DEPT.F                  :   
 GRD .GAPI   45 310 01 00:   GAMMA RAY FROM DENSITY LOG
 CALD.IN     45 280 60 00:   CALIPER FROM DENSITY LOG
 RHOB.G/C3   45 350 01 00:   BULK DENSITY
 NPHI.DEC    42 890 03 00:   NEUTRON POROSITY SANDSTONE
 DRHO.G/C3   45 356 01 00:   DENSITY CORRECTION
 TEND.LBS    45 635 01 00:   TENSION FROM DENSITY LOG
 SPR .MV     07 010 01 00:   SPONTANEOUS POTENTIAL
 TENR.LBS    07 635 01 00:   TENSION FROM RESISTIVITY
 ILD .OHMM   07 120 46 00:   DEEP INDUCTION RESISTIVITY
 ILM .OHMM   07 120 44 00:   INDUCTION LOG MEDIUM RESISTIVITY
 SFLU.OHMM   07 220 01 00:   SPHERICALLY FOCUSED LOG UNAVERAGED RESISTIVITY
~PARAMETER INFORMATION
#MNEM.UNIT          VALUE    DESCRIPTION
#----------   ------------   ------------------------------
 EKB .F         5212.0000:   Kelly bushing
 EGL .F         5202.0000:   Ground level
 EDF .F            0.0000:   Drilling floor
 TD  .F         4000.0000:   Total depth
 DATE.        11-JUL-1978:   Date logged
 CLNT.            A2DTECH:   Client Code
 SL  . 1144' FSL & 2183' FEL:   Surface Location
 PD  .                 GL:   Permanent Datum
 EPD .F              5202:   Elevation Permanent Datum
 LMF .                 KB:   Log Measured From
 DMF .                 KB:   Drilling Measured From
 DD  .F              4000:   Depth driller
 DL  .F              3990:   Depth logger
 BLI .F              3985:   Bottom log interval
 TLI .F               501:   Top log interval
 CS1 .IN            9.625:   Casing size
 CBD1.      9.625" @ 500':   Casing driller 1
 CBL1.F               501:   Casing logger 1
 BS1 .IN            7.875:   Bit size
 DFT .                FGM:   Type fluid in hole
 DFD .                9.1:   Density
 DFV .                 50:   Viscosity
 DFPH.                 12:   pH
 DFL .                4.4:   Fluid loss
 MSS .           MUD/TANK:   Source of sample
 RMS .OHMM           .714:   Rm
 MST .F                83:   Rm Meas. temp.
 RMF .OHMM           .585:   Rmf
 MFST.F                83:   Rmf Meas. temp.
 MFSS.               MEAS:   Source Rmf.
 RMB .OHMM            .42:   Rm. at BHT
 BHT .F               140:   BHT.
 TCS .HRS            1000:   Time Circ. stopped
 MRT .F               140:   Maximum recorded temp.
 LUN .               8035:   Logging unit number
 LUL .       ROCK SPRINGS:   Logging unit location
 ENGI.             MARTIN:   Recorded By
 WITN.           MCCINLEY:   Witnessed by
 ORIG.           5" PRINT:   Origin of data
 UWI .     49025107100000:   Unique Well ID
 DICO. A2D TECHNOLOGIES, INC.:   Digitizing Company
 DAPD.F                10:   Feet Above Permanent Datum
 BSD1.F              4000:   Depth drilled with bit1
 TLAB.HRS            1300:   Time logger at bottom
~OTHER INFORMATION
~A   DEPT       GRD      CALD       RHOB         NPHI     DRHO       TEND        SPR       TENR        ILD        ILM       SFLU   
# ...
 3715.0000   156.4710    10.5910     2.2940     0.4150     0.2260  1625.3970   -15.5160  1339.3650     2.4340     2.5600     3.0480
 3715.5000   153.9390    10.8330     2.2710     0.4300     0.2320  1626.2200   -15.5590  1339.6500     2.3260     2.4150     2.6680
 3716.0000   146.1190    10.6640     2.2590     0.4360     0.2400  1627.0439   -15.6010  1339.9340     2.2180     2.3280     2.4430
 3716.5000   138.9060    10.7530     2.2130     0.4420     0.2440  1627.8669   -15.6440  1340.2180     2.1090     2.2180     2.4050
 3717.0000   131.7820    10.9790     2.1700     0.4490     0.2410  1628.6899   -15.6870  1340.5020     2.0090     2.0840     2.3710
 3717.5000   123.9330    11.1730     2.1350     0.4550     0.2390  1629.5140   -15.7290  1340.7860     2.0290     2.1060     2.5640
 3718.0000   119.8250    11.3550     2.1300     0.4620     0.2370  1630.3370   -15.7720  1341.0699     2.1000     2.1860     2.7440
 3718.5000   120.4360    11.2720     2.1150     0.4520     0.2390  1631.1610   -15.8150  1341.3540     2.1700     2.2650     2.9240
 3719.0000   125.5670    11.0690     2.0930     0.4430     0.2440  1631.9840   -15.8580  1341.6379     2.2410     2.3440     3.1050
 3719.5000   128.2090    10.9920     2.0810     0.4300     0.2500  1632.8080   -15.9000  1341.9220     2.3120     2.4230     3.3010
 3720.0000   131.6340    11.1480     2.0870     0.4330     0.2500  1633.6310   -15.9430  1342.2061     2.3830     2.5030     3.1890
 3720.5000   131.8710    11.3370     2.1210     0.4400     0.2330  1634.4540   -15.9860  1342.4900     2.4540     2.5820     2.9560
 3721.0000   129.8980    11.2310     2.1690     0.4460     0.2140  1635.2780   -16.0290  1342.7740     2.5240     2.6610     3.2190
 3721.5000   128.0770    10.9490     2.2180     0.4540     0.1850  1636.1010   -16.0700  1343.0580     2.5990     2.7400     3.5020
 3722.0000   126.1900    10.6720     2.3040     0.4380     0.2260  1636.9250   -16.1170  1343.3420     2.5790     2.8200     3.7850
 3722.5000   124.3610    10.3460     2.3940     0.4230     0.2500  1637.7480   -16.1540  1343.6260     2.5570     2.9020     4.0400
 3723.0000   122.4200    10.4740     2.4700     0.4290     0.2500  1638.5710   -16.1880  1343.9100     2.5360     2.8030     3.9670
 3723.5000   120.5650    11.2940     2.4300     0.4390     0.2500  1639.3950   -16.0000  1344.1940     2.5140     2.6260     3.7820
 3724.0000   120.0710    12.0800     2.3690     0.4490     0.2500  1640.2180   -15.8040  1344.4780     2.5050     2.5520     3.5420
 3724.5000   124.7130    12.5230     2.3080     0.4600     0.2500  1641.0420   -15.6010  1344.7620     2.5050     2.5520     3.3010
 3725.0000   128.8750    12.3590     2.2460     0.4700     0.2500  1641.8650   -15.3960  1345.0460     2.5750     2.5990     3.1810
 3725.5000   132.8870    12.2340     2.1640     0.4730     0.2500  1642.6880   -15.2020  1345.3300     2.6370     2.7170     3.1810
 3726.0000   136.7880    11.7860     2.1730     0.4400     0.2500  1643.5120   -15.0180  1345.6140     2.7310     2.8150     3.5770
 3726.5000   134.3820    11.0810     2.1940     0.4180     0.2500  1644.3350   -15.1470  1345.8979     2.8260     2.9130     4.1150
 3727.0000   129.5960    10.3900     2.2040     0.4440     0.2370  1645.1591   -15.2850  1346.1830     2.9200     3.0110     4.1410
 3727.5000   124.4570     9.9910     2.1780     0.4660     0.1610  1645.9821   -15.4320  1346.4670     3.0110     4.1260     4.2540
 3728.0000   106.1820     9.8990     2.1460     0.4790     0.0860  1646.8250   -15.5730  1346.7510     5.1320     6.5540     4.3670
 3728.5000    89.3030     9.7430     2.2750     0.3920    -0.0140  1647.5590   -15.7280  1347.0350     7.1730     8.9810    20.8360
 3729.0000    69.4600     9.6330     2.4260     0.3220    -0.0040  1648.3110   -15.7800  1347.3190     9.2130    11.4090    57.1050
 3729.5000    61.9860     9.5410     2.6270     0.2580     0.0230  1649.0640   -15.7020  1347.6030    11.2530    13.8360    93.3730
 3730.0000    56.9840     9.4190     2.6080     0.1790     0.0460  1649.8160   -15.6370  1347.8870    13.2940    16.2640   148.3510
 3730.5000    59.4610     9.3890     2.5390     0.1500     0.0370  1650.5680   -15.5710  1348.1710    15.3340    18.6910   134.2850
 3731.0000    66.6880     9.3800     2.4620     0.1600     0.0250  1651.3199   -15.5040  1348.4550    17.5850    21.1190   105.2300
 3731.5000    86.3420     9.3840     2.4620     0.1790     0.0110  1652.0720   -15.4280  1348.7390    18.2440    22.7470    76.1760
 3732.0000   105.2120     9.3910     2.5080     0.1980     0.0070  1652.8240   -15.4590  1349.0229    17.9110    24.0360    47.1220
 3732.5000   121.5050     9.3940     2.5610     0.2140     0.0080  1653.5760   -15.6180  1349.3070    16.6410    19.8460    21.5260
 3733.0000   121.2610     9.3990     2.6150     0.2080     0.0280  1654.3280   -15.7650  1349.5909    15.7520    13.8890    22.9000
 3733.5000   120.6050     9.4040     2.6160     0.2040     0.0460  1655.0800   -15.9130  1349.8750    14.8640    12.4260    24.1280
 3734.0000   119.2620     9.4080     2.6150     0.1960     0.0520  1655.8320   -16.0630  1350.1591    13.2640    10.9620    24.9370
 3734.5000   119.9370     9.4120     2.6070     0.2100     0.0600  1656.5840   -16.2120  1350.4430    11.4100     9.4980    20.2670
 3735.0000   122.0970     9.4180     2.6210     0.2360     0.1210  1657.3361   -16.3600  1350.7271     9.5570     7.9770    15.3230
 3735.5000   124.2040     9.4090     2.6040     0.2620     0.1710  1658.0890   -16.5100  1351.0110     7.7030     7.7200    10.3790
 3736.0000   124.7200     9.3880     2.5650     0.2900     0.1620  1658.8409   -16.6590  1351.2950     6.8810     7.2640     8.9290
 3736.5000   122.6900     9.3680     2.5250     0.2930     0.1150  1659.5930   -16.8030  1351.5790     6.3680     6.8070     8.5230
 3737.0000   125.0700     9.3480     2.5390     0.2960     0.0920  1660.3450   -16.9660  1351.8630     6.0540     6.3510     8.2760
 3737.5000   129.6360     9.3280     2.5660     0.2950     0.1190  1661.0970   -16.9040  1352.1470     5.8360     6.1670     8.1250
 3738.0000   128.7720     9.3080     2.5940     0.2950     0.1460  1661.8490   -16.7240  1352.4310     5.8360     6.1670     8.6170
 3738.5000   127.0290     9.2880     2.6150     0.2970     0.1340  1662.6010   -16.5630  1352.7150     5.9440     6.1670     9.2310
 3739.0000   124.7110     9.2680     2.6140     0.2930     0.1310  1663.3530   -16.4030  1353.0000     6.0540     6.1670     9.8450
 3739.5000   122.0330     9.2600     2.6130     0.2870     0.1420  1664.1050   -16.2390  1353.2841     6.6370     6.4950    10.1740
 3740.0000   118.9160     9.2610     2.5970     0.2800     0.1360  1664.8571   -16.0780  1353.5680     6.9510     6.9160     9.5460
 3740.5000   115.2610     9.2610     2.5780     0.2780     0.1030  1665.6090   -15.9150  1353.8521     7.3270     7.3370     9.0720
 3741.0000   111.5060     9.2610     2.5600     0.2760     0.0730  1666.3610   -15.7540  1354.1360     7.7030     7.7590     9.6170
 3741.5000   110.2480     9.2610     2.5620     0.2730     0.0380  1667.1140   -15.5890  1354.4200     8.1470     8.1800    10.8200
 3742.0000   112.0180     9.2610     2.5710     0.2590     0.0330  1667.8660   -15.4300  1354.7040     8.6260     8.6020    12.0230
 3742.5000   113.9640     9.2610     2.5800     0.2460     0.0310  1668.6180   -15.2690  1354.9880     9.1050     9.0230    13.2260
 3743.0000   114.1280     9.2610     2.5890     0.2330     0.0310  1669.3700   -15.0890  1355.2720     9.5840     9.2410    14.1040
 3743.5000   111.2460     9.2630     2.5990     0.2260     0.0400  1670.1219   -15.0530  1355.5560    10.0630     9.2410    13.5890
 3744.0000   112.5220     9.2670     2.5980     0.2300     0.0500  1670.8740   -15.2590  1355.8400    10.5420     9.2410    12.8430
 3744.5000   114.6030     9.2700     2.5900     0.2470     0.0610  1671.6260   -15.4440  1356.1240    11.0210     9.2410    11.7350
 3745.0000   118.6270     9.2740     2.5800     0.2650     0.0560  1672.3781   -15.6330  1356.4080    11.5000     9.2410    13.0080
