~VERSION INFORMATION
 VERS.                2.0:   CWLS LOG ASCII STANDARD - VERSION 2.0
 WRAP.                 NO:   ONE LINE PER DEPTH STEP
~WELL INFORMATION
#MNEM.UNIT      DATA TYPE    INFORMATION
#----------   ------------   ------------------------------
 STRT.F           85.5000:   START DEPTH
 STOP.F         3267.0000:   STOP DEPTH
 STEP.F            0.5000:   STEP LENGTH
 NULL.          -999.2500:   NO VALUE
 COMP. LAWRENCE ALLISON & ASSOCIATES:   COMPANY
 WELL. LAWRENCE "X" #78-33:   WELL
 FLD .           N P R #3:   FIELD
 LOC .      S33 T39N R78W:   LOCATION
 CNTY.            NATRONA:   COUNTY
 STAT.            WYOMING:   STATE
 CTRY. UNITED STATES OF AMERICA:   COUNTRY
 SRVC.      DRESSER ATLAS:   SERVICE COMPANY
 DATE.        04-FEB-1986:   LOGDATE
 API .     49025110630000:   API NUMBER
~CURVE INFORMATION
#MNEM.UNIT       API CODE    CURVE DESCRIPTION
#----------   ------------   ------------------------------
 DEPT.F                  :   
 CNC .DEC    42 890 03 00:   NEUTRON PORISITY SANDSTONE
 DEN .G/C3   45 350 01 00:   BULK DENSITY
 DCOR.G/C3   45 356 01 00:   DENSITY CORRECTION
 TEND.LBS    45 635 01 00:   TENSION FROM DENSITY LOG
 GRR .GAPI   07 310 01 00:   GAMMA RAY FROM RESISTIVITY
 CALR.IN     07 280 01 00:   CALIPER FROM RESISTIVITY
 RILM.OHMM   07 120 44 00:   INDUCTION LOG MEDIUM RESISTIVITY
 RILD.OHMM   07 120 46 00:   DEEP INDUCTION RESISTIVITY
 RFOC.OHMM   07 220 04 00:   RESISTIVITY FOCUSED LOG RES.
 TENR.LBS    07 635 01 00:   TENSION FROM RESISTIVITY
 DT  .US/F   60 520 00 00:   DELTA TIME
 TENS.LBS    60 635 01 00:   TENSION FROM SONIC
 SPR .MV     07 010 01 00:   SPONTANEOUS POTENTIAL
~PARAMETER INFORMATION
#MNEM.UNIT          VALUE    DESCRIPTION
#----------   ------------   ------------------------------
 EKB .F            0.0000:   Kelly bushing
 EGL .F         5150.0000:   Ground level
 EDF .F         5161.0000:   Drilling floor
 TD  .F         3260.0000:   Total depth
 DATE.        04-FEB-1986:   Date logged
 CLNT.            A2DTECH:   Client Code
 SL  . 1200' FEL & 650' FEL:   Surface Location
 PD  .                 GL:   Permanent Datum
 DD  .F              3260:   Depth driller
 DL  .F              3260:   Depth logger
 BLI .F              3258:   Bottom log interval
 CS1 .IN            8.625:   Casing size
 CBD1.      8.625" @ 566':   Casing driller 1
 CBL1.F               566:   Casing logger 1
 BS1 .IN            7.875:   Bit size
 DFT .        POLYMER-KCL:   Type fluid in hole
 DFD .                9.0:   Density
 DFV .                 36:   Viscosity
 DFPH.                8.5:   pH
 DFL .                 14:   Fluid loss
 MSS .           FLOWLINE:   Source of sample
 RMS .OHMM          0.367:   Rm
 MST .F                65:   Rm Meas. temp.
 RMF .OHMM          0.275:   Rmf
 MFST.F                65:   Rmf Meas. temp.
 RMC .OHMM          0.459:   Rmc
 MCST.F                65:   Rmc Meas. temp.
 MFSS.               CALC:   Source Rmf.
 RMB .OHMM          0.227:   Rm. at BHT
 BHT .F               105:   BHT.
 TCS .HRS               6:   Time Circ. stopped
 MRT .F               105:   Maximum recorded temp.
 LUN .               6274:   Logging unit number
 LUL .           GILLETTE:   Logging unit location
 ENGI.             MILLER:   Recorded By
 WITN.             STRONG:   Witnessed by
 ORIG.           5" PRINT:   Origin of data
 UWI .     49025110630000:   Unique Well ID
 DICO. A2D TECHNOLOGIES, INC.:   Digitizing Company
 DAPD.                 11:   Feet Above Permanent Datum
 BSD1.               3260:   Depth drilled with bit1
 MCSS.               CALC:   Source Rmc.
 EPD .F              5150:   Elevation Permanent Datum
 LMF .                 KB:   Log Measured From
 DMF .                 KB:   Drilling Measured From
 TLI .                566:   Top log interval
~OTHER INFORMATION
~A   DEPT      CNC        DEN       DCOR       TEND         GRR      CALR       RILM       RILD       RFOC       TENR         DT       TENS        SPR   
# ...
 2165.5000  -999.2500  -999.2500  -999.2500  -999.2500   120.6990     9.0580     9.2690     9.9890    11.1440   -53.4170  -999.2500  -999.2500   -75.5310
 2166.0000  -999.2500  -999.2500  -999.2500  -999.2500   120.5980     9.0660     9.2690     9.8590    11.3530   -51.2700  -999.2500  -999.2500   -75.6340
 2166.5000  -999.2500  -999.2500  -999.2500  -999.2500   118.2650     9.0770     9.2290     9.7290    11.6690   -49.1220  -999.2500  -999.2500   -75.6550
 2167.0000  -999.2500  -999.2500  -999.2500  -999.2500   114.7210     9.0920     9.1740     9.5990    11.6960   -46.9740  -999.2500  -999.2500   -75.6390
 2167.5000  -999.2500  -999.2500  -999.2500  -999.2500   114.2590     9.1090     9.1180     9.4700    11.7250   -44.8260  -999.2500  -999.2500   -75.6490
 2168.0000  -999.2500  -999.2500  -999.2500  -999.2500   115.4420     9.1240     8.9090     9.3400    11.7550   -42.6780  -999.2500  -999.2500   -75.6450
 2168.5000  -999.2500  -999.2500  -999.2500  -999.2500   112.5910     9.1410     8.6270     9.2100    11.7770   -40.5300  -999.2500  -999.2500   -75.5900
 2169.0000  -999.2500  -999.2500  -999.2500  -999.2500   105.4570     9.1550     8.3460     9.0800    11.4560   -38.3830  -999.2500  -999.2500   -75.4800
 2169.5000  -999.2500  -999.2500  -999.2500  -999.2500   100.5480     9.1730     8.0730     8.9500    11.0290   -36.2350  -999.2500  -999.2500   -75.3570
 2170.0000  -999.2500  -999.2500  -999.2500  -999.2500   102.3810     9.1900     8.1150     8.8210    10.9020   -35.7780  -999.2500  -999.2500   -75.2500
 2170.5000  -999.2500  -999.2500  -999.2500  -999.2500   107.6790     9.1970     8.1570     8.8700    10.6620   -37.6070  -999.2500  -999.2500   -75.1700
 2171.0000  -999.2500  -999.2500  -999.2500  -999.2500   111.4080     9.2020     8.1980     9.0310     9.9950   -39.4370  -999.2500  -999.2500   -75.0940
 2171.5000  -999.2500  -999.2500  -999.2500  -999.2500   111.0820     9.2110     9.1000     9.1920     9.3410   -41.2670  -999.2500  -999.2500   -75.0240
 2172.0000  -999.2500  -999.2500  -999.2500  -999.2500   107.7440     9.2150     8.9780     9.3530     9.3770   -43.0960  -999.2500  -999.2500   -74.9390
 2172.5000  -999.2500  -999.2500  -999.2500  -999.2500   105.8890     9.2200     9.0380     9.5140    10.8400   -44.9260  -999.2500  -999.2500   -74.8580
 2173.0000  -999.2500  -999.2500  -999.2500  -999.2500   106.6090     9.2250     9.2690     9.6760    11.4250   -46.7560  -999.2500  -999.2500   -74.8730
 2173.5000  -999.2500  -999.2500  -999.2500  -999.2500   107.0070     9.2310     9.2000     9.8370    12.1980   -48.5850  -999.2500  -999.2500   -74.9250
 2174.0000  -999.2500  -999.2500  -999.2500  -999.2500   106.3230     9.2420     9.1080     9.9780    12.3320   -50.4150  -999.2500  -999.2500   -74.9500
 2174.5000  -999.2500  -999.2500  -999.2500  -999.2500   104.9340     9.2550     9.0160     9.8990    12.0830   -52.2440  -999.2500  -999.2500   -74.9980
 2175.0000  -999.2500  -999.2500  -999.2500  -999.2500   106.2030     9.2680     8.9340     9.8140    11.7370   -54.0740  -999.2500  -999.2500   -75.0290
 2175.5000  -999.2500  -999.2500  -999.2500  -999.2500   110.9360     9.2800     8.7880     9.7300    11.5950   -55.9040  -999.2500  -999.2500   -74.9550
 2176.0000  -999.2500  -999.2500  -999.2500  -999.2500   112.8360     9.2930     8.6550     9.6450    11.6690   -57.7330  -999.2500  -999.2500   -74.7730
 2176.5000  -999.2500  -999.2500  -999.2500  -999.2500   112.4950     9.3060     8.5320     9.6350    11.2140   -59.5630  -999.2500  -999.2500   -74.5700
 2177.0000  -999.2500  -999.2500  -999.2500  -999.2500   112.2510     9.3150     8.7240     9.6740    10.5360   -61.3930  -999.2500  -999.2500   -74.4040
 2177.5000  -999.2500  -999.2500  -999.2500  -999.2500   109.5330     9.3210     8.9340     9.7130     9.8860   -63.2220  -999.2500  -999.2500   -74.1840
 2178.0000  -999.2500  -999.2500  -999.2500  -999.2500   104.7700     9.3280     8.9040     9.7530    10.2260   -65.0000  -999.2500  -999.2500   -74.0750
 2178.5000  -999.2500  -999.2500  -999.2500  -999.2500    99.7440     9.3410     8.8690     9.7920    11.0090   -58.6500  -999.2500  -999.2500   -74.2400
 2179.0000  -999.2500  -999.2500  -999.2500  -999.2500    95.7780     9.3590     8.8340     9.8310    11.7930   -52.4750  -999.2500  -999.2500   -74.4350
 2179.5000  -999.2500  -999.2500  -999.2500  -999.2500    93.6990     9.3770     8.7990     9.8700    12.2740   -46.3000  -999.2500  -999.2500   -74.5780
 2180.0000  -999.2500  -999.2500  -999.2500  -999.2500    95.6900     9.3950     8.7710     9.7830    12.2870   -40.1250  -999.2500  -999.2500   -74.7260
 2180.5000  -999.2500  -999.2500  -999.2500  -999.2500    99.9960     9.4130     8.5410     9.6060    11.8740   -35.0000  -999.2500  -999.2500   -74.8640
 2181.0000  -999.2500  -999.2500  -999.2500  -999.2500   101.2060     9.4310     8.2990     9.4290    11.4610   -40.7800  -999.2500  -999.2500   -74.9680
 2181.5000  -999.2500  -999.2500  -999.2500  -999.2500   101.3580     9.4490     8.2050     9.2530    10.9400   -45.7200  -999.2500  -999.2500   -75.1280
 2182.0000  -999.2500  -999.2500  -999.2500  -999.2500   102.6880     9.4670     8.0790     9.1000    10.7410   -50.6600  -999.2500  -999.2500   -75.2300
 2182.5000  -999.2500  -999.2500  -999.2500  -999.2500   103.3890     9.4850     7.9540     8.9810    10.7850   -55.0000  -999.2500  -999.2500   -75.0010
 2183.0000  -999.2500  -999.2500  -999.2500  -999.2500   102.9250     9.5030     7.8280     8.8540    10.8400   -53.9740  -999.2500  -999.2500   -74.6990
 2183.5000  -999.2500  -999.2500  -999.2500  -999.2500   101.0420     9.5210     7.7030     8.7270    10.4310   -53.0590  -999.2500  -999.2500   -74.4280
 2184.0000  -999.2500  -999.2500  -999.2500  -999.2500    99.0120     9.5390     7.6000     8.6110    10.0630   -52.1440  -999.2500  -999.2500   -74.1500
 2184.5000  -999.2500  -999.2500  -999.2500  -999.2500    97.6540     9.5590     7.5220     8.5210     9.7960   -51.2300  -999.2500  -999.2500   -74.1010
 2185.0000  -999.2500  -999.2500  -999.2500  -999.2500    98.3840     9.5820     7.4430     8.4380     9.9000   -50.3150  -999.2500  -999.2500   -74.1940
 2185.5000  -999.2500  -999.2500  -999.2500  -999.2500   102.4230     9.6040     7.3650     8.3760     9.9780   -49.4000  -999.2500  -999.2500   -74.2570
 2186.0000  -999.2500  -999.2500  -999.2500  -999.2500   103.5450     9.6270     7.2860     8.3760     9.7960   -48.4850  -999.2500  -999.2500   -74.3390
 2186.5000  -999.2500  -999.2500  -999.2500  -999.2500   100.8380     9.6490     7.2080     8.3760     9.1000   -47.5700  -999.2500  -999.2500   -74.4270
 2187.0000  -999.2500  -999.2500  -999.2500  -999.2500   100.8090     9.6710     7.2490     8.4560     9.0750   -46.6560  -999.2500  -999.2500   -74.4760
 2187.5000  -999.2500  -999.2500  -999.2500  -999.2500   101.5730     9.6940     7.4570     8.5860     9.0510   -45.7410  -999.2500  -999.2500   -74.6010
 2188.0000  -999.2500  -999.2500  -999.2500  -999.2500   102.4990     9.7080     7.7100     8.7160     9.0260   -45.0000  -999.2500  -999.2500   -74.6190
 2188.5000  -999.2500  -999.2500  -999.2500  -999.2500   105.0310     9.7110     7.9500     8.9500     9.0610   -49.0550  -999.2500  -999.2500   -74.4070
 2189.0000  -999.2500  -999.2500  -999.2500  -999.2500   105.2710     9.7140     8.2550     9.2580     9.1840   -52.4620  -999.2500  -999.2500   -74.0700
 2189.5000  -999.2500  -999.2500  -999.2500  -999.2500   102.8140     9.7170     8.5610     9.5660     9.4870   -55.8690  -999.2500  -999.2500   -73.8730
 2190.0000  -999.2500  -999.2500  -999.2500  -999.2500    98.7880     9.7190     8.8660     9.9220     9.8850   -59.2760  -999.2500  -999.2500   -74.3720
 2190.5000  -999.2500  -999.2500  -999.2500  -999.2500    96.7950     9.7220     9.1720    10.5500     9.9890   -62.6830  -999.2500  -999.2500   -74.8390
 2191.0000  -999.2500  -999.2500  -999.2500  -999.2500    97.6630     9.7250     9.4410    11.1790     9.8860   -63.1770  -999.2500  -999.2500   -74.5500
