~VERSION INFORMATION
 VERS.                2.0:   CWLS LOG ASCII STANDARD - VERSION 2.0
 WRAP.                 NO:   ONE LINE PER DEPTH STEP
~WELL INFORMATION
#MNEM.UNIT      DATA TYPE    INFORMATION
#----------   ------------   ------------------------------
 STRT.F           58.0000:   START DEPTH
 STOP.F         5662.0000:   STOP DEPTH
 STEP.F            0.5000:   STEP LENGTH
 NULL.          -999.2500:   NO VALUE
 COMP. DEPARTMENT OF ENERGY:   COMPANY
 WELL. DEPARTMENT NPR 3 67 "X" #1-10:   WELL
 FLD .              NPR 3:   FIELD
 LOC .      S10 T38N R78W:   LOCATION
 CNTY.            NATRONA:   COUNTY
 STAT.            WYOMING:   STATE
 CTRY. UNITED STATES OF AMERICA:   COUNTRY
 SRVC.       SCHLUMBERGER:   SERVICE COMPANY
 DATE.        05-FEB-2002:   LOGDATE
 API .     49025230400000:   API NUMBER
~CURVE INFORMATION
#MNEM.UNIT       API CODE    CURVE DESCRIPTION
#----------   ------------   ------------------------------
 DEPT.F                  :   
 TEND.LBS    45 635 01 00:   TENSION FROM DENSITY LOG
 PEFZ.B/E    45 358 01 00:   HILT PHOTOELECTRIC FACTOR
 HDRA.G/C3   45 356 01 00:   DELTA RHO HIP TOOL
 NPHI.DEC    42 890 03 00:   NEUTRON POROSITY SANDSTONE
 TENS.LBS    60 635 01 00:   TENSION
 DT  .US/F   60 520 00 00:   DELTA TIME
 TENR.LBS    07 635 01 00:   TENSION FROM RESISTIVITY
 CALR.IN     07 280 01 00:   CALIPER FROM RESISTIVITY
 GRR .GAPI   07 310 01 00:   GAMMA RAY FROM RESISTIVITY
 RXOZ.OHMM   11 270 04 00:   STD. RES. INVADED ZONE RESISTIVITY
 HLLD.OHMM   11 220 10 00:   LATEROLOG DEEP RES.
 HLLS.OHMM   11 220 09 00:   LATEROLOG SHALLOW RES.
 HRLD.OHMM   11 120 46 00:   HIGH RESOULATION DEEP RESISTIVITY
 RHOZ.G/C3   45 350 01 00:   HILT BULK DENSITY
~PARAMETER INFORMATION
#MNEM.UNIT          VALUE    DESCRIPTION
#----------   ------------   ------------------------------
 EKB .F         5205.7000:   Kelly bushing
 EGL .F         5195.7000:   Ground level
 EDF .F            0.0000:   Drilling floor
 EPD .F         5195.7000:   Permanent datum
 TD  .F         5654.0000:   Total depth
 DATE.        05-FEB-2002:   Date logged
 CLNT.            A2DTECH:   Client Code
 SL  . 1503' FEL & 721' FSL:   Surface Location
 PD  .                 GL:   Permanent Datum
 DAPD.F                10:   Feet Above Permanent Datum
 DD  .F              5650:   Depth driller
 DL  .F              5654:   Depth logger
 BLI .F              5646:   Bottom log interval
 TLI .F               499:   Top log interval
 CS1 .IN            9.625:   Casing size
 CBD1.      9.625" @ 505':   Casing driller 1
 CBL1.F               499:   Casing logger 1
 BS1 .IN            8.875:   Bit size
 BSD1.F              5650:   Depth drilled with bit1
 DFT .           GEL/CHEM:   Type fluid in hole
 DFD .                9.2:   Density
 DFV .                 52:   Viscosity
 DFPH.                8.5:   pH
 DFL .                6.8:   Fluid loss
 MSS .           FLOWLINE:   Source of sample
 RMS .OHMM           .954:   Rm
 MST .F                57:   Rm Meas. temp.
 RMF .OHMM           .734:   Rmf
 MFST.F                57:   Rmf Meas. temp.
 MFSS.              PRESS:   Source Rmf.
 RMB .OHMM           .403:   Rm. at BHT
 BHT .F               143:   BHT.
 TLAB.HRS            1208:   Time logger at bottom
 MRT .F               143:   Maximum recorded temp.
 LUN .               2211:   Logging unit number
 LUL .             CASPER:   Logging unit location
 ENGI.           R. SROUR:   Recorded By
 WITN.        M. MILLIKEN:   Witnessed by
 ORIG.           5" PRINT:   Origin of data
 UWI .     49025230400000:   Unique Well ID
 DICO. A2D TECHNOLOGIES, INC.:   Digitizing Company
 RMC .               1.24:   Rmc
 MCST.                 57:   Rmc Meas. temp.
 MCSS.              PRESS:   Source Rmc.
 TCS .                200:   Time Circ. stopped
~OTHER INFORMATION
~A   DEPT     TEND       PEFZ       HDRA       NPHI       TENS         DT       TENR       CALR         GRR      RXOZ       HLLD       HLLS       HRLD       RHOZ   
# ...
 4247.5000  2221.2019     3.3470     0.0060     0.2160  1646.8740    68.8110  2254.2200    11.6250    89.8070     8.9080     7.0220     8.4100     6.8810     2.6050
 4248.0000  2213.5481     3.3310     0.0050     0.2190  1646.1379    68.8820  2254.2200    11.6400    91.2490     8.6360     6.9690     8.1540     6.6750     2.6110
 4248.5000  2205.8940     3.3140     0.0050     0.2260  1645.4030    68.6700  2254.2200    11.6560    91.5130     8.3640     6.8700     7.8980     6.4930     2.6130
 4249.0000  2199.0049     3.3010     0.0040     0.2380  1644.6670    68.6570  2254.2200    11.7010    91.2530     8.0920     6.4290     7.6420     6.2340     2.6180
 4249.5000  2209.3870     3.2840     0.0030     0.2630  1643.9320    68.7820  2254.2200    11.7340    90.3820     7.9580     6.0730     7.4670     5.8720     2.6240
 4250.0000  2218.8259     3.2660     0.0030     0.2560  1643.1970    69.2690  2251.3140    11.7680    88.4630     8.2300     6.4350     7.3800     6.0880     2.6150
 4250.5000  2228.2639     3.2530     0.0000     0.2430  1642.4611    69.9950  2247.1870    11.8020    85.5120     8.4650     6.7960     7.6110     6.3960     2.6070
 4251.0000  2237.7019     3.2540     0.0000     0.2340  1641.7910    70.7210  2243.0601    11.8410    83.9320     8.3880     7.0910     7.8200     6.6740     2.6100
 4251.5000  2240.2859     3.2540     0.0010     0.2320  1644.9580    71.3930  2238.9331    11.8490    83.8860     8.5680     7.2280     8.0300     7.1150     2.6170
 4252.0000  2243.3711     3.2540     0.0020     0.2230  1647.8669    71.2590  2234.8059    11.8650    84.0640     8.7070     7.3710     8.2400     7.0500     2.6180
 4252.5000  2246.4551     3.3000    -0.0010     0.2220  1650.7760    71.1360  2234.3589    11.8800    84.3860     8.8460     7.3250     8.3880     7.1150     2.6080
 4253.0000  2249.5400     3.3580     0.0050     0.2310  1653.6851    71.3700  2234.3589    11.9260    84.9310     8.8610     7.2620     8.2760     6.9900     2.5940
 4253.5000  2252.6240     3.5190     0.0210     0.2370  1656.5940    71.8920  2234.3589    11.9890    84.4770     8.3920     7.2000     8.1730     6.8340     2.5530
 4254.0000  2255.7090     3.6790     0.0580     0.2380  1659.5020    72.9850  2234.9661    11.9670    83.9460     7.3310     7.0240     7.8930     6.7450     2.5170
 4254.5000  2258.7939     3.7810     0.0810     0.2480  1662.4110    73.4190  2235.8511    12.3190    83.5770     5.2860     6.7240     7.5910     6.4320     2.4930
 4255.0000  2261.8779     3.8290     0.0900     0.2610  1665.3199    73.4370  2236.7361    12.3980    84.9710     4.3640     6.0900     7.3130     5.9800     2.4940
 4255.5000  2264.9629     3.8770     0.0830     0.2660  1668.2290    73.4760  2237.6211    12.4200    89.4570     4.1100     6.1710     7.2460     6.0140     2.4860
 4256.0000  2268.0471     3.9240     0.0890     0.2670  1671.1379    73.9890  2238.5049    12.4400    93.2110     4.7580     6.2890     7.2460     6.0900     2.4690
 4256.5000  2271.1321     3.9710     0.1000     0.2830  1674.0470    74.8760  2239.3899    12.4560    93.5170     4.0970     6.3750     7.2020     6.0190     2.4560
 4257.0000  2274.2161     4.0100     0.1090     0.2790  1676.9561    75.0200  2240.2749    12.5750    92.1330     3.4860     5.8720     7.0400     5.8680     2.4700
 4257.5000  2277.3010     3.9990     0.1060     0.2700  1679.8650    74.9840  2241.1599    13.3090    90.7050     3.7240     5.8180     6.9220     5.8180     2.4740
 4258.0000  2278.6069     3.9890     0.0960     0.2660  1681.1250    74.8350  2242.0449    13.4240    89.5290     4.1150     5.7130     6.7560     5.6770     2.4870
 4258.5000  2276.6089     4.0370     0.1030     0.2690  1679.9750    74.5280  2242.9299    12.9990    87.8290     4.4500     5.7610     6.9020     5.5580     2.5010
 4259.0000  2274.5520     4.0970     0.1150     0.2780  1678.8240    74.0040  2243.8149    13.0830    87.4020     4.9800     5.8630     7.0940     5.7690     2.5020
 4259.5000  2272.4961     4.1570     0.1300     0.2880  1677.6740    73.3070  2244.7000    13.0840    90.4600     4.4280     5.9800     7.3130     5.9260     2.4990
 4260.0000  2270.4390     4.2120     0.1540     0.2990  1676.5240    72.6100  2245.5840    13.0320    94.4720     3.9120     5.8440     7.0820     5.7420     2.4790
 4260.5000  2268.3831     4.2350     0.1790     0.3070  1675.3740    71.9130  2246.4690    13.2730    96.1470     3.2770     5.5360     6.6130     5.4080     2.4710
 4261.0000  2266.3269     4.2580     0.2040     0.3050  1674.2240    71.1940  2247.3540    13.5440    95.0620     3.1240     5.7330     6.7430     5.6090     2.4900
 4261.5000  2264.2700     4.3230     0.2220     0.3010  1673.0740    69.8180  2248.2390    13.4390    92.4710     3.2960     6.0330     6.9400     5.8440     2.5140
 4262.0000  2262.2141     4.3190     0.2230     0.2860  1671.9240    67.9390  2249.1240    13.3940    89.2250     3.2700     6.0210     7.2460     5.9260     2.5240
 4262.5000  2260.1580     4.2630     0.2240     0.2730  1670.7740    65.2420  2250.0090    13.5020    85.9560     3.4230     6.0050     7.1470     5.9260     2.5140
 4263.0000  2258.7061     4.2050     0.2240     0.2670  1669.6240    62.7820  2250.8940    13.6910    82.7240     3.3610     5.9890     6.9270     5.9260     2.4830
 4263.5000  2258.7061     4.1910     0.2180     0.2730  1668.4740    61.7220  2251.7791    13.7870    81.8340     2.9730     5.8200     6.7080     5.8100     2.4430
 4264.0000  2258.7061     4.1950     0.2080     0.2940  1667.3240    61.5420  2252.6631    13.9500    81.4710     2.6020     5.4620     6.4260     5.3400     2.3980
 4264.5000  2258.7061     4.2000     0.2010     0.3070  1666.1740    62.5660  2253.5481    14.3950    81.5310     2.2470     5.1190     6.1460     4.8900     2.3850
 4265.0000  2258.7061     4.2050     0.2060     0.3080  1665.0240    63.5820  2254.8821    14.5500    83.2130     2.5080     5.3030     6.3380     5.0250     2.4190
 4265.5000  2258.7061     4.2070     0.2110     0.3080  1663.8740    63.9890  2257.6350    14.6760    85.2890     2.6710     5.5070     6.5530     5.5070     2.4480
 4266.0000  2258.7061     4.1960     0.1970     0.3080  1662.7240    64.3960  2260.3879    14.3110    87.8130     3.1240     5.3850     6.5410     5.4010     2.4580
 4266.5000  2258.7061     4.1860     0.1880     0.3080  1661.8680    64.8030  2263.1411    14.6550    86.5150     2.9840     5.2130     6.5220     5.1660     2.4170
 4267.0000  2258.7061     4.1750     0.1910     0.3030  1663.5880    65.7220  2265.8940    14.6310    84.7060     3.3610     5.3660     6.5040     5.3440     2.3710
 4267.5000  2258.7061     4.1620     0.2010     0.2990  1665.3080    66.8590  2268.6470    13.8380    85.0990     2.6890     5.5070     6.4140     5.5070     2.3050
 4268.0000  2258.7061     4.1230     0.2120     0.3000  1667.0280    67.6820  2271.3999    13.7730    87.3430     2.1270     5.3080     6.2320     5.1330     2.3170
 4268.5000  2258.7061     4.0920     0.2150     0.3000  1668.7480    68.3080  2274.0811    14.5350    88.7350     2.1440     5.1190     6.0530     4.8280     2.3430
 4269.0000  2258.7061     4.1290     0.2090     0.3060  1670.4690    68.6410  2261.3701    15.2300    88.4700     2.3310     4.9350     5.9260     4.7140     2.3260
 4269.5000  2258.7061     4.1790     0.2080     0.3130  1672.1890    68.7640  2248.9819    14.9770    88.1920     1.9770     4.9480     6.0370     4.6610     2.3050
 4270.0000  2258.7061     4.2220     0.2150     0.3230  1673.9091    68.5040  2236.5940    15.1760    90.3270     1.9930     4.9640     6.1070     4.5870     2.2820
 4270.5000  2258.7061     4.2230     0.2220     0.3440  1675.6290    67.7320  2245.4360    15.5850    94.7070     1.9410     4.9800     6.1770     5.0090     2.2900
 4271.0000  2258.7061     4.1710     0.2590     0.3750  1677.3490    66.9590  2258.9509    15.3490    99.4180     2.0480     4.8950     6.2470     5.1210     2.3230
 4271.5000  2258.7061     4.1210     0.2870     0.3690  1679.0690    66.2190  2272.4651    15.1480   100.7580     2.1840     4.8460     6.2930     5.1990     2.3700
