~VERSION INFORMATION
 VERS.                2.0:   CWLS LOG ASCII STANDARD - VERSION 2.0
 WRAP.                 NO:   ONE LINE PER DEPTH STEP
~WELL INFORMATION
#MNEM.UNIT      DATA TYPE    INFORMATION
#----------   ------------   ------------------------------
 STRT.F            0.0000:   START DEPTH
 STOP.F         4044.0000:   STOP DEPTH
 STEP.F            0.5000:   STEP LENGTH
 NULL.          -999.2500:   NO VALUE
 COMP. LAWRENCE-ALLISON & ASSOC.:   COMPANY
 WELL. LAWRENCE "X" #24-34:   WELL
 FLD .           N P R #3:   FIELD
 LOC .      S34 T39N R78W:   LOCATION
 CNTY.            NATRONA:   COUNTY
 STAT.            WYOMING:   STATE
 CTRY. UNITED STATES OF AMERICA:   COUNTRY
 SRVC.      DRESSER ATLAS:   SERVICE COMPANY
 DATE.        29-MAR-1984:   LOGDATE
 API .     49025109660000:   API NUMBER
~CURVE INFORMATION
#MNEM.UNIT       API CODE    CURVE DESCRIPTION
#----------   ------------   ------------------------------
 DEPT.F                  :   
 DT  .US/F   60 520 00 00:   DELTA TIME
 TENS.LBS    60 635 01 00:   TENSION FROM SONIC
 GRR .GAPI   07 310 01 00:   GAMMA RAY FROM RESISTIVITY
 SPR .MV     07 010 01 00:   SPONTANEOUS POTENTIAL
 CALR.IN     07 280 01 00:   CALIPER FROM RESISTIVITY
 TENR.LBS    07 635 01 00:   TENSION FROM RESISTIVITY
 RSFL.OHMM   07 221 01 00:   AMPPLIFIED SHALLOW FOCUSED LOG RESISTIVITY
 RILD.OHMM   07 120 46 00:   DEEP INDUCTION RESISTIVITY
 RILM.OHMM   07 120 44 00:   INDUCTION LOG MEDIUM RESISTIVITY
 RHOB.G/C3   45 350 01 00:   BULK DENSITY
 DRHO.G/C3   45 356 01 00:   DENSITY CORRECTION
 TEND.LBS    45 635 01 00:   TENSION FROM DENSITY LOG
 NPHI.DEC    42 890 03 00:   NEUTRON POROSITY SANDSTONE
~PARAMETER INFORMATION
#MNEM.UNIT          VALUE    DESCRIPTION
#----------   ------------   ------------------------------
 EKB .F         5101.0000:   Kelly bushing
 EGL .F         5089.0000:   Ground level
 EDF .F         5100.0000:   Drilling floor
 TD  .F         4050.0000:   Total depth
 DATE.        29-MAR-1984:   Date logged
 CLNT.            A2DTECH:   Client Code
 SL  . 2415' FNL & 839' FWL:   Surface Location
 PD  .                 GL:   Permanent Datum
 EPD .F              5089:   Elevation Permanent Datum
 LMF .                 KB:   Log Measured From
 DMF .                 KB:   Drilling Measured From
 DD  .F              4050:   Depth driller
 DL  .F              4043:   Depth logger
 BLI .F              4041:   Bottom log interval
 CS1 .IN            8.625:   Casing size
 CBD1.       8.625 @ 673':   Casing driller 1
 CBL1.F               671:   Casing logger 1
 BS1 .IN            7.875:   Bit size
 DFT .            GEL-KCL:   Type fluid in hole
 DFD .                8.9:   Density
 DFV .                 45:   Viscosity
 DFPH.                  8:   pH
 DFL .               12.8:   Fluid loss
 MSS .           MUD TANK:   Source of sample
 RMS .OHMM           0.46:   Rm
 MST .F                71:   Rm Meas. temp.
 RMF .OHMM           0.31:   Rmf
 MFST.F                71:   Rmf Meas. temp.
 RMC .OHMM           0.55:   Rmc
 MCST.F                71:   Rmc Meas. temp.
 MFSS.               MEAS:   Source Rmf.
 RMB .OHMM           0.25:   Rm. at BHT
 BHT .F               139:   BHT.
 TCS .HRS               4:   Time Circ. stopped
 MRT .F               139:   Maximum recorded temp.
 LUN .               6302:   Logging unit number
 LUL .               CODY:   Logging unit location
 ENGI.              GETTY:   Recorded By
 WITN.           JENNINGS:   Witnessed by
 ORIG.           5" PRINT:   Origin of data
 UWI .     49025109660000:   Unique Well ID
 DICO. A2D TECHNOLOGIES, INC.:   Digitizing Company
 DAPD.                 12:   Feet Above Permanent Datum
 BSD1.               4050:   Depth drilled with bit1
 MCSS.               MEAS:   Source Rmc.
~OTHER INFORMATION
~A  DEPTH       DT       TENS        GRR        SPR       CALR       TENR       RSFL       RILD       RILM       RHOB       DRHO       TEND       NPHI
# ...
 2236.0000  -999.2500  -999.2500   105.6870   -18.9720     9.0470  -157.2090     3.1170     2.7920     2.9870  -999.2500  -999.2500  -999.2500  -999.2500
 2236.5000  -999.2500  -999.2500   108.9480   -19.0080     9.0170  -157.0330     3.2690     3.0890     3.1770  -999.2500  -999.2500  -999.2500  -999.2500
 2237.0000  -999.2500  -999.2500   110.5250   -19.0430     8.9900  -156.8570     3.4410     3.2990     3.3670  -999.2500  -999.2500  -999.2500  -999.2500
 2237.5000  -999.2500  -999.2500   108.7830   -19.0790     8.9760  -156.6810     3.9230     3.4730     3.5560  -999.2500  -999.2500  -999.2500  -999.2500
 2238.0000  -999.2500  -999.2500   107.0630   -19.1150     8.9630  -156.5040     4.4450     3.6460     3.7990  -999.2500  -999.2500  -999.2500  -999.2500
 2238.5000  -999.2500  -999.2500   103.9020   -19.1500     8.9510  -156.3280     4.7970     3.7850     3.7420  -999.2500  -999.2500  -999.2500  -999.2500
 2239.0000  -999.2500  -999.2500   100.6160   -19.1860     8.9940  -156.1520     4.5670     3.8510     3.6600  -999.2500  -999.2500  -999.2500  -999.2500
 2239.5000  -999.2500  -999.2500    98.3590   -19.2220     9.0420  -155.9760     4.2680     3.9070     3.6600  -999.2500  -999.2500  -999.2500  -999.2500
 2240.0000  -999.2500  -999.2500    97.3660   -19.2570     9.0900  -155.7990     3.8910     3.9070     3.6790  -999.2500  -999.2500  -999.2500  -999.2500
 2240.5000  -999.2500  -999.2500    99.3330   -19.2940     9.1270  -155.6230     3.5150     3.9070     3.7870  -999.2500  -999.2500  -999.2500  -999.2500
 2241.0000  -999.2500  -999.2500   101.8040   -19.3080     9.1030  -155.4470     3.3650     3.9210     3.8960  -999.2500  -999.2500  -999.2500  -999.2500
 2241.5000  -999.2500  -999.2500   104.1640   -19.3200     9.0810  -155.2710     3.7030     3.9350     3.9870  -999.2500  -999.2500  -999.2500  -999.2500
 2242.0000  -999.2500  -999.2500   104.7320   -19.3320     9.0580  -155.0940     4.1980     3.9460     4.0180  -999.2500  -999.2500  -999.2500  -999.2500
 2242.5000  -999.2500  -999.2500   105.0130   -19.3450     9.0350  -154.9180     4.6650     3.9400     4.0180  -999.2500  -999.2500  -999.2500  -999.2500
 2243.0000  -999.2500  -999.2500   105.0600   -19.3570     9.0130  -154.7420     4.3780     3.9800     4.0860  -999.2500  -999.2500  -999.2500  -999.2500
 2243.5000  -999.2500  -999.2500   103.0020   -19.3690     8.9900  -154.5660     4.1320     4.0520     4.1330  -999.2500  -999.2500  -999.2500  -999.2500
 2244.0000  -999.2500  -999.2500   100.7130   -19.3820     8.9720  -154.3890     4.1320     4.1570     4.1800  -999.2500  -999.2500  -999.2500  -999.2500
 2244.5000  -999.2500  -999.2500    98.3520   -19.3940     8.9920  -154.2130     4.4070     4.2490     4.2490  -999.2500  -999.2500  -999.2500  -999.2500
 2245.0000  -999.2500  -999.2500    96.9670   -19.4070     9.0130  -154.0370     4.6180     4.2490     4.0820  -999.2500  -999.2500  -999.2500  -999.2500
 2245.5000  -999.2500  -999.2500    95.8190   -19.4190     9.0330  -153.8600     4.7970     4.1130     3.7690  -999.2500  -999.2500  -999.2500  -999.2500
 2246.0000  -999.2500  -999.2500    94.6740   -19.4310     9.0530  -155.3190     4.3460     4.0120     3.6600  -999.2500  -999.2500  -999.2500  -999.2500
 2246.5000  -999.2500  -999.2500    94.6520   -19.4440     9.0740  -159.6080     3.9540     3.9100     3.6600  -999.2500  -999.2500  -999.2500  -999.2500
 2247.0000  -999.2500  -999.2500    98.1900   -19.4560     9.0940  -163.8800     3.5630     3.8080     3.7780  -999.2500  -999.2500  -999.2500  -999.2500
 2247.5000  -999.2500  -999.2500   103.4990   -19.4680     9.1010  -147.9810     3.3340     3.7290     3.8990  -999.2500  -999.2500  -999.2500  -999.2500
 2248.0000  -999.2500  -999.2500   108.4820   -19.4800     9.0510  -132.1450     4.0110     3.8610     4.0190  -999.2500  -999.2500  -999.2500  -999.2500
 2248.5000  -999.2500  -999.2500   108.3140   -19.4930     9.0020  -129.3780     4.5680     4.0210     4.1390  -999.2500  -999.2500  -999.2500  -999.2500
 2249.0000  -999.2500  -999.2500   106.9880   -19.5420     8.9530  -142.9210     5.1240     4.1700     4.2590  -999.2500  -999.2500  -999.2500  -999.2500
 2249.5000  -999.2500  -999.2500   105.5660   -19.7330     8.9040  -156.4630     5.4160     4.2890     4.3700  -999.2500  -999.2500  -999.2500  -999.2500
 2250.0000  -999.2500  -999.2500   105.3970   -19.9180     8.8690  -170.0060     4.9520     4.4650     4.5720  -999.2500  -999.2500  -999.2500  -999.2500
 2250.5000  -999.2500  -999.2500   105.3970   -20.1020     8.8700  -169.6720     4.7970     4.6410     4.7590  -999.2500  -999.2500  -999.2500  -999.2500
 2251.0000  -999.2500  -999.2500   105.4070   -20.2860     8.8700  -161.1110     5.0150     4.8170     4.9460  -999.2500  -999.2500  -999.2500  -999.2500
 2251.5000  -999.2500  -999.2500   103.9670   -20.4710     8.8700  -152.5500     5.2110     4.9500     5.2170  -999.2500  -999.2500  -999.2500  -999.2500
 2252.0000  -999.2500  -999.2500   101.2980   -20.6550     8.8720  -143.9890     5.4160     4.9790     5.2080  -999.2500  -999.2500  -999.2500  -999.2500
 2252.5000  -999.2500  -999.2500    98.6140   -20.8400     8.8760  -135.4270     5.3460     5.0280     5.1910  -999.2500  -999.2500  -999.2500  -999.2500
 2253.0000  -999.2500  -999.2500    95.9490   -21.0240     8.8800  -135.2910     5.2550     5.0380     5.1740  -999.2500  -999.2500  -999.2500  -999.2500
 2253.5000  -999.2500  -999.2500    94.1040   -21.2090     8.8840  -137.6250     5.2170     5.0480     5.1570  -999.2500  -999.2500  -999.2500  -999.2500
 2254.0000  -999.2500  -999.2500    96.1930   -21.3920     8.8880  -139.9600     5.3500     5.0580     5.1400  -999.2500  -999.2500  -999.2500  -999.2500
 2254.5000  -999.2500  -999.2500    96.7950   -21.5080     8.8930  -142.2950     5.4450     5.0680     5.1230  -999.2500  -999.2500  -999.2500  -999.2500
 2255.0000  -999.2500  -999.2500    95.2940   -21.5460     8.8970  -144.6300     5.5180     5.0730     5.1060  -999.2500  -999.2500  -999.2500  -999.2500
 2255.5000  -999.2500  -999.2500    94.1000   -21.5840     8.9010  -146.9650     5.4770     5.0390     5.0890  -999.2500  -999.2500  -999.2500  -999.2500
 2256.0000  -999.2500  -999.2500    94.5220   -21.6210     8.9050  -149.3000     5.4370     5.0150     5.0720  -999.2500  -999.2500  -999.2500  -999.2500
 2256.5000  -999.2500  -999.2500    97.0650   -21.6590     8.9090  -151.6350     5.3980     4.9920     5.0550  -999.2500  -999.2500  -999.2500  -999.2500
 2257.0000  -999.2500  -999.2500    95.7220   -21.6970     8.9130  -153.9700     5.3580     4.9070     5.0380  -999.2500  -999.2500  -999.2500  -999.2500
 2257.5000  -999.2500  -999.2500    93.8610   -21.6540     8.9170  -156.3050     5.3160     4.7580     4.9630  -999.2500  -999.2500  -999.2500  -999.2500
 2258.0000  -999.2500  -999.2500    94.6550   -21.5890     8.9210  -158.6400     5.0630     4.6100     4.7560  -999.2500  -999.2500  -999.2500  -999.2500
 2258.5000  -999.2500  -999.2500    98.8940   -21.5230     8.9250  -160.9740     4.7100     4.4520     4.5360  -999.2500  -999.2500  -999.2500  -999.2500
 2259.0000  -999.2500  -999.2500   104.7640   -21.4580     8.9300  -163.3090     4.3570     4.4750     4.5760  -999.2500  -999.2500  -999.2500  -999.2500
 2259.5000  -999.2500  -999.2500   107.1340   -21.3930     8.9090  -165.6440     4.1320     4.5180     4.6310  -999.2500  -999.2500  -999.2500  -999.2500
 2260.0000  -999.2500  -999.2500   103.5900   -21.3270     8.8810  -167.9790     4.6940     4.5610     4.6650  -999.2500  -999.2500  -999.2500  -999.2500
 2260.5000  -999.2500  -999.2500    99.1350   -21.2620     8.8520  -170.3140     5.1780     4.5780     4.5750  -999.2500  -999.2500  -999.2500  -999.2500
 2261.0000  -999.2500  -999.2500    97.0720   -21.1960     8.8330  -172.6490     5.5180     4.4030     4.4230  -999.2500  -999.2500  -999.2500  -999.2500
 2261.5000  -999.2500  -999.2500    98.6010   -21.1310     8.8500  -174.9840     5.0900     4.2260     4.2700  -999.2500  -999.2500  -999.2500  -999.2500
