~VERSION INFORMATION
 VERS.                2.0:   CWLS LOG ASCII STANDARD - VERSION 2.0
 WRAP.                 NO:   ONE LINE PER DEPTH STEP
~WELL INFORMATION
#MNEM.UNIT      DATA TYPE    INFORMATION
#----------   ------------   ------------------------------
 STRT.F          196.5000:   START DEPTH
 STOP.F         3219.0000:   STOP DEPTH
 STEP.F            0.5000:   STEP LENGTH
 NULL.          -999.2500:   NO VALUE
 COMP.    FENIX & SCISSON:   COMPANY
 WELL.  FENIX "AX" #73-15:   WELL
 FLD .              NPR 3:   FIELD
 LOC .      S15 T38N R78W:   LOCATION
 CNTY.            NATRONA:   COUNTY
 STAT.            WYOMING:   STATE
 CTRY. UNITED STATES OF AMERICA:   COUNTRY
 SRVC.       SCHLUMBERGER:   SERVICE COMPANY
 DATE.        30-AUG-1977:   LOGDATE
 API .     49025104270000:   API NUMBER
~CURVE INFORMATION
#MNEM.UNIT       API CODE    CURVE DESCRIPTION
#----------   ------------   ------------------------------
 DEPT.F                  :   
 NPHI.DEC    42 890 03 00:   NEUTRON POROSITY SANDSTONE
 CALD.IN     45 280 60 00:   CALIPER FROM DENSITY LOG
 GRD .GAPI   45 310 01 00:   GAMMA RAY FROM DENSITY LOG
 CORR.G/C3   45 356 01 00:   DENSITY CORRECTION
 RHOB.G/C3   45 350 01 00:   BULK DENSITY
 SPR .MV     07 010 01 00:   SPONTANEOUS POTENTIAL
 RILD.OHMM   07 120 46 00:   DEEP INDUCTION RESISTIVITY
 RILM.OHMM   07 120 44 00:   INDUCTION LOG MEDIUM RESISTIVITY
 LL8 .OHMM   07 220 08 00:   LATEROLOG-8 RES.
~PARAMETER INFORMATION
#MNEM.UNIT          VALUE    DESCRIPTION
#----------   ------------   ------------------------------
 EKB .F         5263.0000:   Kelly bushing
 EGL .F         5253.0000:   Ground level
 TD  .F         3220.0000:   Total depth
 CLNT.            A2DTECH:   Client Code
 SL  . 1650' FNL & 875' FEL:   Surface Location
 PD  .                 GL:   Permanent Datum
 EPD .F              5253:   Elevation Permanent Datum
 LMF .                 KB:   Log Measured From
 DMF .                 KB:   Drilling Measured From
 DAPD.F                10:   Feet Above Permanent Datum
 DATE.        30-AUG-1977:   Date Logged [DD-MMM-YYYY]
 DD  .F              3220:   Depth driller
 DL  .F              3219:   Depth logger
 BLI .F              3209:   Bottom log interval
 TLI .F               216:   Top log interval
 CS1 .IN            8.625:   Casing size
 CBL1.F               216:   Casing logger 1
 BS1 .IN            7.875:   Bit size
 BSD1.F              3220:   Depth drilled with bit1
 DFT .                FGM:   Type fluid in hole
 DFD .                8.9:   Density
 DFPH.                 11:   pH
 MSS .            MUDTANK:   Source of sample
 RMS .OHMM           0.40:   Rm
 MST .F                82:   Rm Meas. temp.
 RMF .OHMM           0.25:   Rmf
 MFST.F                72:   Rmf Meas. temp.
 MFSS.               MEAS:   Source Rmf.
 RMC .OHMM           0.60:   Rmc
 MCST.F                82:   Rmc Meas. temp.
 MCSS.               CALC:   Source Rmc.
 RMB .OHMM           0.27:   Rm. at BHT
 BHT .F               120:   BHT.
 MRT .F               120:   Maximum recorded temp.
 LUN .               5642:   Logging unit number
 LUL .               CSPR:   Logging unit location
 ENGI.                FIX:   Recorded By
 WITN.         RETTINGILL:   Witnessed by
 ORIG.           5" PRINT:   Origin of data
 UWI .     49025104270000:   Unique Well ID
 DICO. A2D TECHNOLOGIES, INC.:   Digitizing Company
 DFV .                 35:   Viscosity
 DFL .                8.4:   Fluid loss
 CBD1.      8.625" @ 216':   Casing driller 1
~OTHER INFORMATION
~A   DEPT       NPHI     CALD        GRD       CORR       RHOB        SPR       RILD       RILM        LL8   
# ...
 1401.0000     0.3452    11.4443    68.7190     0.0387     2.4136   -72.7255     7.7391     7.9020     8.2993
 1401.5000     0.3533    11.4465    70.0765     0.0668     2.4298   -72.7048     7.7915     7.9102     8.3045
 1402.0000     0.3788    11.4487    72.3229     0.0535     2.4468   -72.6841     7.8515     7.9183     8.3675
 1402.5000     0.3814    11.4509    71.6804     0.0414     2.4177   -72.6634     7.8551     7.9265     8.3738
 1403.0000     0.3781    11.4531    71.0379     0.0377     2.4201   -72.6428     7.7925     7.8797     8.3789
 1403.5000     0.3724    11.4553    70.3954     0.0469     2.4232   -72.6221     7.7340     7.8332     8.3249
 1404.0000     0.3617    11.4576    71.3084     0.0649     2.4352   -72.7534     7.6754     7.7870     8.2737
 1404.5000     0.3399    11.4449    71.9932     0.0561     2.4368   -72.9514     7.6169     7.6875     8.2204
 1405.0000     0.3015    11.4322    71.7952     0.0434     2.4302   -73.1657     7.5642     7.6954     8.0573
 1405.5000     0.2972    11.4344    72.0476     0.0503     2.4093   -73.1446     7.5063     7.5971     7.8417
 1406.0000     0.2960    11.4367    72.1185     0.0766     2.4087   -73.1239     7.4202     7.5000     7.5267
 1406.5000     0.3109    11.4389    68.7626     0.0640     2.4125   -73.1032     7.3232     7.4042     7.3253
 1407.0000     0.3343    11.4411    66.5614     0.0745     2.3953   -73.0825     7.1777     7.2106     7.2289
 1407.5000     0.3445    11.4434    69.4995     0.0627     2.3886   -73.0616     7.0839     6.9716     7.1326
 1408.0000     0.3492    11.4460    72.4444     0.0508     2.3791   -73.0408     6.9431     6.7576     7.0387
 1408.5000     0.3546    11.4483    72.6370     0.0884     2.4121   -73.0200     6.8051     6.5172     6.9460
 1409.0000     0.3630    11.4803    69.8797     0.0802     2.4030   -72.9992     6.7162     6.3894     6.9023
 1409.5000     0.3800    11.7359    67.3580     0.0871     2.3974   -72.9784     6.6680     6.3501     7.0529
 1410.0000     0.4040    12.1352    66.2711     0.0602     2.3750   -72.9576     6.4519     6.4472     7.3571
 1410.5000     0.4196    11.9638    66.5175     0.0708     2.3766   -73.0891     6.4563     6.6357     7.5687
 1411.0000     0.4294    11.8165    70.7639     0.0784     2.3992   -73.0633     6.6420     6.9252     7.8406
 1411.5000     0.4264    11.6702    74.5658     0.0513     2.4023   -73.1991     7.0249     7.3284     8.0662
 1412.0000     0.3972    11.5830    75.9233     0.0486     2.4143   -73.1732     7.3786     7.9185     8.5316
 1412.5000     0.3720    11.6001    79.2808     0.0503     2.4167   -73.1525     7.6967     8.2639     9.1500
 1413.0000     0.3615    11.4980    79.5272     0.0548     2.4138   -73.1319     7.9182     8.3882     9.4788
 1413.5000     0.3590    11.3954    79.7736     0.0609     2.4266   -73.1112     7.9237     8.2810     9.6172
 1414.0000     0.3641    11.3827    80.9088     0.0228     2.3938   -73.0905     7.7000     8.0066     9.6312
 1414.5000     0.3914    11.4153    77.3774     0.0184     2.3729   -73.0730     7.2360     7.6334     9.6185
 1415.0000     0.3991    11.7901    74.2905     0.0328     2.3670   -73.0492     6.5879     6.7405     9.3080
 1415.5000     0.4036    11.8966    72.9813     0.0231     2.3394   -73.0285     5.7403     5.9169     8.6897
 1416.0000     0.4081    11.7200    70.3388     0.0000     2.2727   -72.8565     5.0715     5.3000     7.8359
 1416.5000     0.4148    11.8414    59.6963    -0.0104     2.1806   -72.8013     5.5913     5.2412     7.3663
 1417.0000     0.4346    12.4994    53.0538     0.0107     2.0258   -72.6639     6.0796     5.8533     7.0704
 1417.5000     0.4509    12.4122    51.0780     0.0580     1.9038   -72.6432     6.6564     6.3246     6.8337
 1418.0000     0.4592    12.4442    52.6701     0.0971     1.7691   -72.6226     7.0890     6.7409     6.6498
 1418.5000     0.4595    13.1021    54.4734     0.1077     1.5984   -72.6040     6.8526     6.8410     7.3335
 1419.0000     0.4573    13.9985    54.9526     0.1123     1.5880   -72.5812     6.6229     6.8481     8.1992
 1419.5000     0.4524    14.0604    55.9443     0.1177     1.5911   -72.5605     6.7210     6.9586     9.2952
 1420.0000     0.4463    15.9686    57.6493     0.1268     1.5986   -72.5399     7.4098     7.5124    10.4648
 1420.5000     0.4341    15.9686    58.1179     0.1096     1.5830   -72.5192     7.1627     8.6409    11.2233
 1421.0000     0.4047    15.9686    59.0309     0.1007     1.5749   -72.4985     6.7348     9.3366    11.4663
 1421.5000     0.3861    15.9686    62.6107     0.1076     1.5720   -72.4779     6.8808     9.9491    11.4734
 1422.0000     0.3752    15.9686    64.4126     0.1183     1.5833   -72.4572     7.1279    10.0987    11.1664
 1422.5000     0.3677    15.9686    65.7701     0.1260     1.6965   -72.4365     7.3330    10.1091    10.5703
 1423.0000     0.3567    15.6806    66.6831     0.1327     1.8037   -72.4158     7.2874     9.3103     9.9368
 1423.5000     0.3280    14.6148    67.3740     0.1350     1.9544   -72.5473     6.6651     7.2579     9.1489
 1424.0000     0.2605    11.8752    63.6204     0.0766     2.0830   -72.5258     6.0538     6.1498     8.9661
 1424.5000     0.2556    11.9370    60.0890     0.0078     2.1726   -72.5051     5.6921     5.9445     8.9095
 1425.0000     0.2661    11.8797    61.2242     0.0304     2.1905   -72.4844     7.3074     7.0809     8.9771
 1425.5000     0.2942    12.1501    63.9291     0.0957     2.2155   -72.4638     7.4658     7.9214     9.1108
 1426.0000     0.3106    13.3538    65.0503     0.1130     2.1699   -72.5946     7.0571     8.1529     9.3755
 1426.5000     0.3362    15.9686    65.7412     0.1244     2.0308   -72.5737     6.5898     8.1609     9.6399
 1427.0000     0.3482    15.9686    66.2098     0.0923     1.9347   -72.5529     6.3227     8.1694     9.5790
 1427.5000     0.3523    15.9686    66.0117     0.2011     1.9334   -72.5321     6.0829     8.1779     9.4544
 1428.0000     0.3424    15.9686    65.5911     0.1739     1.9475   -72.6630     6.0451     8.1299     9.2014
 1428.5000     0.3394    15.9686    66.9489     0.1510     1.6872   -72.7244     6.2633     8.0819     8.8318
 1429.0000     0.3423    15.6234    66.2887     0.1513     1.6760   -72.7729     6.5333     8.0904     7.9457
 1429.5000     0.3504    15.9767    64.7562     0.1589     1.6910   -72.7515     6.9578     8.1552     8.4237
 1430.0000     0.3594    15.9767    63.8815     0.1482     1.7549   -72.7316     7.4602     8.1960     9.2241
 1430.5000     0.3685    15.9767    64.0954     0.1418     1.7611   -72.8622     6.5016     8.3207     9.3588
 1431.0000     0.3761    15.9767    65.7425     0.1156     1.7105   -72.9928     6.0710     8.4716     9.2998
 1431.5000     0.3817    15.9767    65.5444     0.1030     1.6209   -72.9670     6.0323     8.6589     9.1760
 1432.0000     0.3861    15.9767    64.6797     0.0918     1.5776   -72.9463     6.3811     8.6678     8.9940
 1432.5000     0.3913    15.9767    64.4756     0.1054     1.5696   -72.9256     6.7489     8.4978     8.8142
 1433.0000     0.3964    15.1346    66.7280     0.1123     1.5848   -72.9049     7.0887     8.2162     8.7573
 1433.5000     0.4014    15.5984    70.5299     0.1154     1.5871   -72.8843     7.3943     8.1091     8.8251
 1434.0000     0.3963    15.3920    73.6652     0.1335     1.5894   -72.7123     7.6070     8.2905     9.0162
 1434.5000     0.3764    15.2154    74.8005     0.1193     1.7460   -72.6916     7.5076     8.1279     9.2115
 1435.0000     0.3638    15.4862    75.7135     0.0714     1.9252   -72.6710     7.1082     7.8565     9.2172
 1435.5000     0.3614    15.5928    76.4044     0.0461     2.0826   -72.6503     6.7300     8.2014     8.9085
 1436.0000     0.3589    14.4623    76.6447     0.1501     2.2227   -72.4783     6.5961     8.3828     8.4329
 1436.5000     0.3541    13.3326    75.7860     0.2029     2.2798   -72.4577     6.8331     8.4499     8.2643
 1437.0000     0.3480    13.0057    74.9152     0.1461     2.3031   -72.4370     7.1772     8.4586     8.5613
