~VERSION INFORMATION
 VERS.                2.0:   CWLS LOG ASCII STANDARD - VERSION 2.0
 WRAP.                 NO:   ONE LINE PER DEPTH STEP
~WELL INFORMATION
#MNEM.UNIT      DATA TYPE    INFORMATION
#----------   ------------   ------------------------------
 STRT.F           44.0000:   START DEPTH
 STOP.F         6166.0000:   STOP DEPTH
 STEP.F            0.5000:   STEP LENGTH
 NULL.          -999.2500:   NO VALUE
 COMP.   TESORO PETROLEUM:   COMPANY
 WELL. TESORO 11X NPR #3-23:   WELL
 FLD .             TEAPOT:   FIELD
 LOC .      S23 T38N R78W:   LOCATION
 CNTY.            NATRONA:   COUNTY
 STAT.            WYOMING:   STATE
 CTRY. UNITED STATES OF AMERICA:   COUNTRY
 SRVC.       SCHLUMBERGER:   SERVICE COMPANY
 DATE.        29-OCT-1968:   LOGDATE
 API .     49025100170000:   API NUMBER
~CURVE INFORMATION
#MNEM.UNIT       API CODE    CURVE DESCRIPTION
#----------   ------------   ------------------------------
 DEPT.F                  :   
 SN  .OHMM   05 040 18 00:   SHORT NORMAL 18"
 RES .OHMM   05 000 00 00:   RESISTIVITY
 ILD .OHMM   05 120 46 00:   INDUCTION LOG DEEP RESISTIVITY
 SPR .MV     05 010 01 00:   SPONTANEOUS POTENTIAL FROM RES.
~PARAMETER INFORMATION
#MNEM.UNIT          VALUE    DESCRIPTION
#----------   ------------   ------------------------------
 EKB .F         5283.0000:   Kelly bushing
 EGL .F         5272.0000:   Ground level
 EDF .F            0.0000:   Drilling floor
 TD  .F         6171.0000:   Total depth
 CLNT.            A2DTECH:   Client Code
 SL  . 380' FNL & 380' FWL:   Surface Location
 PD  .                 GL:   Permanent Datum
 EPD .F              5272:   Elevation Permanent Datum
 LMF .                 KB:   Log Measured From
 DMF .                 KB:   Drilling Measured From
 DAPD.F                11:   Feet Above Permanent Datum
 DATE.        29-OCT-1968:   Date Logged [DD-MMM-YYYY]
 DD  .F              6171:   Depth driller
 DL  .F              6167:   Depth logger
 BLI .F              6166:   Bottom log interval
 TLI .F               975:   Top log interval
 CS1 .IN            10.75:   Casing size
 CBD1.      10.75" @ 975':   Casing driller 1
 CBL1.F               975:   Casing logger 1
 BS1 .IN            9.125:   Bit size
 BSD1.F              6171:   Depth drilled with bit1
 DFT .           GEL-CHEM:   Type fluid in hole
 DFD .                9.6:   Density
 DFV .                 61:   Viscosity
 DFPH.                 10:   pH
 DFL .                6.8:   Fluid loss
 MSS .           FLOWLINE:   Source of sample
 RMS .OHMM           0.89:   Rm
 MST .F                80:   Rm Meas. temp.
 RMF .OHMM           0.60:   Rmf
 MFST.F                80:   Rmf Meas. temp.
 MFSS.               MEAS:   Source Rmf.
 RMB .OHMM           0.45:   Rm. at BHT
 BHT .F               160:   BHT.
 TCS .HRS               4:   Time Circ. stopped
 MRT .F               160:   Maximum recorded temp.
 LUN .               7041:   Logging unit number
 LUL .               CSPR:   Logging unit location
 ENGI.            MANGOLD:   Recorded By
 WITN.                MAY:   Witnessed by
 ORIG.         2.5" PRINT:   Origin of data
 UWI .     49025100170000:   Unique Well ID
 DICO. A2D TECHNIOLOGIES,INC.:   Digitizing Company
~OTHER INFORMATION
~A  DEPTH       SN        RES        ILD        SPR
# ...
 2891.0000     4.8076  -999.2500     4.2008   -44.8385
 2891.5000     4.8103  -999.2500     4.2037   -44.5163
 2892.0000     4.8124  -999.2500     4.2067   -44.1941
 2892.5000     4.6629  -999.2500     4.2097   -44.1768
 2893.0000     4.5136  -999.2500     4.2497   -44.1268
 2893.5000     4.5159  -999.2500     4.4203   -43.8372
 2894.0000     4.5637  -999.2500     4.5228   -44.2216
 2894.5000     4.8904  -999.2500     4.6092   -44.7134
 2895.0000     5.2807  -999.2500     4.8333   -45.0000
 2895.5000     5.4344  -999.2500     5.1402   -45.3099
 2896.0000     5.7395  -999.2500     5.1431   -45.3659
 2896.5000     5.7429  -999.2500     5.4499   -45.4219
 2897.0000     6.0470  -999.2500     5.4529   -45.4778
 2897.5000     6.0492  -999.2500     5.7599   -45.5338
 2898.0000     6.0515  -999.2500     5.7629   -45.5898
 2898.5000     6.0542  -999.2500     5.7660   -45.6458
 2899.0000     5.9048  -999.2500     5.7690   -45.7018
 2899.5000     5.7555  -999.2500     5.7720   -45.7519
 2900.0000     5.7576  -999.2500     5.7756   -45.7317
 2900.5000     5.7598  -999.2500     5.7785   -45.7134
 2901.0000     5.7621  -999.2500     5.7813   -45.6951
 2901.5000     5.7644  -999.2500     5.6322   -45.6740
 2902.0000     5.7667  -999.2500     5.6353   -45.3517
 2902.5000     5.7692  -999.2500     5.6383   -45.0296
 2903.0000     5.7714  -999.2500     5.6413   -45.0122
 2903.5000     5.7735  -999.2500     5.4919   -44.6890
 2904.0000     5.7758  -999.2500     5.6547   -44.6707
 2904.5000     5.8304  -999.2500     5.6897   -44.6524
 2905.0000     5.9206  -999.2500     5.7246   -44.6341
 2905.5000     6.0108  -999.2500     5.7500   -44.1518
 2906.0000     6.0427  -999.2500     5.7473   -44.1503
 2906.5000     6.1179  -999.2500     6.0491   -44.2446
 2907.0000     6.3422  -999.2500     6.0470   -44.3304
 2907.5000     6.3408  -999.2500     6.0448   -44.4128
 2908.0000     6.3393  -999.2500     6.0426   -44.4991
 2908.5000     6.3379  -999.2500     6.2231   -44.5836
 2909.0000     6.4880  -999.2500     6.3423   -44.6681
 2909.5000     6.6381  -999.2500     6.3397   -44.7541
 2910.0000     6.6364  -999.2500     6.3374   -44.8371
 2910.5000     6.6346  -999.2500     6.3347   -44.9157
 2911.0000     6.6333  -999.2500     6.4845   -44.9181
 2911.5000     6.6318  -999.2500     6.6345   -44.9200
 2912.0000     6.6303  -999.2500     6.6322   -44.9189
 2912.5000     6.6288  -999.2500     6.6299   -44.9189
 2913.0000     6.6273  -999.2500     6.6277   -44.9190
 2913.5000     6.6258  -999.2500     6.6254   -44.9188
 2914.0000     6.6240  -999.2500     6.6231   -44.9188
 2914.5000     6.4711  -999.2500     6.6208   -44.9187
 2915.0000     6.4696  -999.2500     6.6181   -44.9187
 2915.5000     6.3167  -999.2500     6.4640   -44.9187
 2916.0000     6.2849  -999.2500     6.3099   -44.9187
 2916.5000     5.9071  -999.2500     6.3077   -44.9187
 2917.0000     5.7061  -999.2500     6.0015   -44.9187
 2917.5000     5.4012  -999.2500     5.9992   -44.9187
 2918.0000     5.3998  -999.2500     5.9970   -44.9187
 2918.5000     5.5499  -999.2500     5.9947   -44.9188
 2919.0000     5.5485  -999.2500     5.9924   -44.9189
 2919.5000     5.5470  -999.2500     5.9897   -44.9188
 2920.0000     5.3939  -999.2500     5.9876   -44.9190
 2920.5000     5.3924  -999.2500     5.9854   -44.9192
 2921.0000     5.3906  -999.2500     5.9832   -44.9185
 2921.5000     5.2377  -999.2500     5.9810   -44.9190
 2922.0000     5.2363  -999.2500     5.8267   -44.8718
 2922.5000     5.0833  -999.2500     5.6725   -44.8049
 2923.0000     5.0818  -999.2500     5.6702   -44.7384
 2923.5000     5.0803  -999.2500     5.6679   -44.6726
 2924.0000     5.0788  -999.2500     5.3613   -44.6064
 2924.5000     5.0158  -999.2500     5.3591   -44.5401
 2925.0000     4.7726  -999.2500     5.2050   -44.4741
 2925.5000     4.7711  -999.2500     5.0509   -44.4079
 2926.0000     4.6182  -999.2500     5.0405   -44.3413
 2926.5000     4.4652  -999.2500     4.7424   -44.2760
 2927.0000     4.4156  -999.2500     4.6986   -44.2098
 2927.5000     4.1591  -999.2500     4.4339   -44.1399
 2928.0000     4.0058  -999.2500     4.3566   -44.1021
 2928.5000     3.8528  -999.2500     4.1250   -44.1059
 2929.0000     3.8514  -999.2500     4.1228   -44.1057
 2929.5000     3.5470  -999.2500     3.8167   -44.1051
 2930.0000     3.5455  -999.2500     3.8145   -44.1056
 2930.5000     3.5439  -999.2500     3.8123   -44.1056
 2931.0000     3.5424  -999.2500     3.8100   -44.1056
 2931.5000     3.5406  -999.2500     3.8078   -44.1057
 2932.0000     3.5392  -999.2500     3.8055   -44.1057
 2932.5000     3.8408  -999.2500     3.8032   -44.1057
 2933.0000     3.8394  -999.2500     3.8005   -44.1057
 2933.5000     4.0772  -999.2500     3.9503   -44.1057
 2934.0000     4.4426  -999.2500     4.1003   -44.1057
 2934.5000     4.4409  -999.2500     4.0979   -44.1057
 2935.0000     4.5906  -999.2500     4.3997   -44.1055
 2935.5000     4.7407  -999.2500     4.3974   -44.1056
 2936.0000     4.7394  -999.2500     4.3951   -44.1057
 2936.5000     4.7379  -999.2500     4.3929   -44.1049
 2937.0000     4.5848  -999.2500     4.3906   -44.1061
 2937.5000     4.5833  -999.2500     4.3878   -44.1083
 2938.0000     4.5818  -999.2500     4.3857   -44.1473
 2938.5000     4.7315  -999.2500     4.5355   -44.1797
 2939.0000     4.7301  -999.2500     4.6854   -44.2145
 2939.5000     5.0317  -999.2500     4.6832   -44.2486
 2940.0000     5.0303  -999.2500     4.9849   -44.2827
 2940.5000     5.3319  -999.2500     5.0195   -44.3170
 2941.0000     5.5248  -999.2500     5.2846   -44.3512
 2941.5000     5.6321  -999.2500     5.2819   -44.3858
 2942.0000     5.8677  -999.2500     5.2796   -44.4192
 2942.5000     5.9318  -999.2500     5.5810   -44.4542
 2943.0000     5.9303  -999.2500     5.5788   -44.4901
 2943.5000     5.9288  -999.2500     5.5766   -44.4858
 2944.0000     5.9273  -999.2500     5.5745   -44.3838
 2944.5000     5.9258  -999.2500     5.5722   -44.2847
 2945.0000     5.9242  -999.2500     5.5699   -44.1835
 2945.5000     6.0742  -999.2500     5.5676   -44.0822
 2946.0000     6.2240  -999.2500     5.5653   -43.9821
 2946.5000     6.2226  -999.2500     5.6486   -43.8803
 2947.0000     6.3702  -999.2500     5.8647   -43.7793
 2947.5000     6.5228  -999.2500     6.1662   -43.7001
 2948.0000     6.8244  -999.2500     6.4680   -43.6997
 2948.5000     6.9463  -999.2500     6.7710   -43.6982
 2949.0000     7.4273  -999.2500     7.2406   -43.6988
 2949.5000     8.0316  -999.2500     7.6773   -43.6990
 2950.0000     8.7878  -999.2500     7.6748   -43.6989
 2950.5000     9.5439  -999.2500     7.6725   -43.6991
 2951.0000     9.6940  -999.2500     7.3663   -43.6991
 2951.5000     9.1596  -999.2500     7.0597   -43.6992
 2952.0000     8.5090  -999.2500     6.7536   -43.6992
 2952.5000     7.7764  -999.2500     6.4474   -43.6992
 2953.0000     7.4149  -999.2500     6.1413   -43.6992
 2953.5000     6.9590  -999.2500     5.8351   -43.6992
 2954.0000     6.8060  -999.2500     5.8328   -43.6992
 2954.5000     6.6366  -999.2500     5.8305   -43.6992
 2955.0000     6.5000  -999.2500     5.8283   -43.6992
 2955.5000     6.4985  -999.2500     5.8260   -43.6992
 2956.0000     6.6485  -999.2500     5.6714   -43.6992
 2956.5000     6.4952  -999.2500     5.5172   -43.6992
 2957.0000     6.3423  -999.2500     5.5151   -43.6991
 2957.5000     6.1894  -999.2500     5.2089   -43.6990
 2958.0000     5.8545  -999.2500     5.2067   -43.6990
 2958.5000     5.5803  -999.2500     5.2044   -43.6986
 2959.0000     5.2758  -999.2500     5.4017   -43.6991
 2959.5000     5.2742  -999.2500     5.5038   -43.6988
 2960.0000     5.5755  -999.2500     5.7345   -43.6968
 2960.5000     5.7256  -999.2500     5.9548   -43.7266
 2961.0000     6.1788  -999.2500     6.4085   -43.8126
 2961.5000     6.4804  -999.2500     6.5584   -43.8961
 2962.0000     6.7820  -999.2500     6.7082   -43.9806
 2962.5000     6.8371  -999.2500     7.0100   -44.0654
 2963.0000     7.0818  -999.2500     7.0076   -44.1492
 2963.5000     7.0801  -999.2500     7.0053   -44.2351
