~VERSION INFORMATION
 VERS.                2.0:   CWLS LOG ASCII STANDARD - VERSION 2.0
 WRAP.                 NO:   ONE LINE PER DEPTH STEP
~WELL INFORMATION
#MNEM.UNIT      DATA TYPE    INFORMATION
#----------   ------------   ------------------------------
 STRT.F         2299.0000:   START DEPTH
 STOP.F         3387.5000:   STOP DEPTH
 STEP.F            0.5000:   STEP LENGTH
 NULL.          -999.2500:   NO VALUE
 COMP. LAWRENCE ALLISON AND ASSOCIATES:   COMPANY
 WELL. 		  62-AX-3:   WELL
 FLD .                NPR:   FIELD
 LOC .       S3 T38N R78W:   LOCATION
 CNTY.            NATRONA:   COUNTY
 STAT.            WYOMING:   STATE
 CTRY. UNITED STATES OF AMERICA:   COUNTRY
 SRVC.      DRESSER ATLAS:   SERVICE COMPANY
 DATE.        14-JUN-1985:   LOGDATE
 API .     49025110330000:   API NUMBER
~CURVE INFORMATION
#MNEM.UNIT       API CODE    CURVE DESCRIPTION
#----------   ------------   ------------------------------
 DEPT.F                  :   
 NPHI.DEC    42 890 01 00:   NEUTRON POROSITY
 TEND.LBS    45 635 01 00:   TENSION
 RHOB.G/C3   45 350 01 00:   BULK DENSITY
 CORR.DEC    45 356 01 00:   CORRECTION
~PARAMETER INFORMATION
#MNEM.UNIT          VALUE    DESCRIPTION
#----------   ------------   ------------------------------
 EKB .F         5160.0000:   Kelly bushing
 EGL .F         5148.0000:   Ground level
 EDF .F            0.0000:   Drilling floor
 EPD .F         5148.0000:   Permanent datum
 TD  .F         3380.0000:   Total depth
 DATE.        14-JUN-1985:   Date logged
 CLNT.            A2DTECH:   Client Code
 PD  .                 GL:   Permanent Datum
 LMF .                 KB:   Log Measured From
 DMF .                 KB:   Drilling Measured From
 DL  .F              3380:   Depth logger
 BLI .F              3378:   Bottom log interval
 CS1 .IN            8.625:   Casing size
 CBD1.      8.625" @ 603':   Casing driller 1
 DFT .        KCL POLYMER:   Type fluid in hole
 ENGI.               MACK:   Recorded By
 WITN.             STRONG:   Witnessed by
 ORIG.       2.5"5" PRINT:   Origin of data
 UWI .     49025110330000:   Unique Well ID
 DICO. A2D TECHNOLOGIES, INC.:   Digitizing Company
 DAPD.F                12:   Feet Above Permanent Datum
 BS1 .IN            7.875:   Bit size
 DFD .                8.9:   Density
 DFV .                 46:   Viscosity
 DFPH.                8.5:   pH
 DFL .                9.6:   Fluid loss
 MSS .           FLOWLINE:   Source of sample
 RMS .OHMM           0.38:   Rm
 MST .F                74:   Rm Meas. temp.
 RMF .OHMM           0.29:   Rmf
 MFST.F                74:   Rmf Meas. temp.
 MFSS.               MEAS:   Source Rmf.
 RMC .OHMM           0.23:   Rmc
 MCST.F               120:   Rmc Meas. temp.
 MCSS.               MEAS:   Source Rmc.
 RMB .OHMM           0.23:   Rm. at BHT
 BHT .F               120:   BHT.
 TCS .                  8:   Time Circ. stopped
 MRT .                122:   Maximum recorded temp.
 LUN .            HL-6274:   Logging unit number
 LUL .               GLTE:   Logging unit location
~OTHER INFORMATION
~A     DEPTH         CORR         NPHI         RHOB         TEND
# ...
   2423.0000      -0.0190       0.2999       2.4530       0.2028
   2423.5000      -0.0170       0.3078       2.4580       0.2036
   2424.0000      -0.0150       0.3009       2.4640       0.2036
   2424.5000      -0.0120       0.2810       2.4800       0.2036
   2425.0000      -0.0090       0.2720       2.4920       0.2036
   2425.5000      -0.0060       0.2689       2.5000       0.2036
   2426.0000       0.0070       0.2631       2.5160       0.2036
   2426.5000       0.0130       0.2610       2.5350       0.2036
   2427.0000       0.0140       0.2711       2.5410       0.2036
   2427.5000       0.0160       0.2812       2.5420       0.1985
   2428.0000       0.0100       0.2778       2.5370       0.1936
   2428.5000       0.0020       0.2715       2.5240       0.1936
   2429.0000       0.0060       0.2720       2.5100       0.1936
   2429.5000       0.0130       0.2767       2.5070       0.1936
   2430.0000       0.0240       0.2761       2.5070       0.1999
   2430.5000       0.0360       0.2675       2.5390       0.2148
   2431.0000       0.0250       0.2603       2.5560       0.2234
   2431.5000       0.0140       0.2647       2.5720       0.2234
   2432.0000       0.0040       0.2728       2.5720       0.2234
   2432.5000       0.0150       0.2739       2.5730       0.2210
   2433.0000       0.0210       0.2686       2.5800       0.2106
   2433.5000       0.0230       0.2600       2.5900       0.2001
   2434.0000       0.0240       0.2551       2.5940       0.1896
   2434.5000       0.0270       0.2472       2.5890       0.1871
   2435.0000       0.0390       0.2355       2.5820       0.1947
   2435.5000       0.0510       0.2399       2.5780       0.2024
   2436.0000       0.0590       0.2390       2.5800       0.2100
   2436.5000       0.0460       0.2487       2.5940       0.2177
   2437.0000       0.0320       0.2786       2.5960       0.2228
   2437.5000       0.0020       0.2843       2.5890       0.2203
   2438.0000       0.0110       0.2809       2.5810       0.2177
   2438.5000       0.0290       0.2817       2.5770       0.2152
   2439.0000       0.0360       0.2808       2.5740       0.2126
   2439.5000       0.0440       0.2727       2.5700       0.2100
   2440.0000       0.0500       0.2514       2.5670       0.2075
   2440.5000       0.0240       0.2410       2.5740       0.2049
   2441.0000       0.0010       0.2397       2.5750       0.2039
   2441.5000      -0.0170       0.2432       2.5760       0.2046
   2442.0000      -0.0090       0.2462       2.5750       0.2053
   2442.5000       0.0050       0.2434       2.5670       0.2060
   2443.0000       0.0150       0.2370       2.5590       0.2067
   2443.5000       0.0220       0.2370       2.5530       0.2074
   2444.0000       0.0250       0.2387       2.5520       0.2080
   2444.5000       0.0160       0.2476       2.5550       0.2087
   2445.0000       0.0090       0.2775       2.5580       0.2094
   2445.5000       0.0020       0.2951       2.5620       0.2101
   2446.0000       0.0000       0.2857       2.5640       0.2108
   2446.5000       0.0030       0.2725       2.5660       0.2115
   2447.0000       0.0120       0.2682       2.5690       0.2122
   2447.5000       0.0190       0.2694       2.5700       0.2129
   2448.0000       0.0200       0.2717       2.5700       0.2135
   2448.5000       0.0130       0.2731       2.5660       0.2334
   2449.0000       0.0050       0.2752       2.5590       0.2198
   2449.5000       0.0010       0.2786       2.5520       0.2073
   2450.0000       0.0090       0.2777       2.5440       0.2036
   2450.5000       0.0090       0.2695       2.5370       0.2039
   2451.0000       0.0020       0.2616       2.5330       0.2071
   2451.5000      -0.0080       0.2576       2.5310       0.2104
   2452.0000      -0.0190       0.2648       2.5300       0.2136
   2452.5000      -0.0220       0.2641       2.5350       0.2168
   2453.0000      -0.0070       0.2574       2.5390       0.2200
   2453.5000       0.0050       0.2499       2.5480       0.2234
   2454.0000       0.0180       0.2585       2.5590       0.2126
   2454.5000       0.0230       0.2678       2.5620       0.2010
   2455.0000       0.0180       0.2896       2.5570       0.1936
   2455.5000       0.0100       0.2937       2.5510       0.1936
   2456.0000       0.0030       0.2846       2.5450       0.1936
   2456.5000      -0.0010       0.2672       2.5380       0.1936
   2457.0000       0.0020       0.2608       2.5360       0.1936
   2457.5000       0.0040       0.2605       2.5360       0.1936
   2458.0000       0.0010       0.2610       2.5340       0.1936
   2458.5000      -0.0060       0.2645       2.5330       0.1936
   2459.0000      -0.0120       0.2728       2.5370       0.1936
   2459.5000      -0.0110       0.2794       2.5350       0.1936
   2460.0000      -0.0100       0.2709       2.5340       0.1936
   2460.5000      -0.0090       0.2660       2.5320       0.1936
   2461.0000      -0.0060       0.2663       2.5310       0.1936
   2461.5000      -0.0020       0.2713       2.5330       0.2000
   2462.0000       0.0010       0.2832       2.5380       0.2077
   2462.5000       0.0000       0.2936       2.5440       0.2126
   2463.0000      -0.0030       0.2946       2.5420       0.2087
   2463.5000      -0.0060       0.2857       2.5390       0.2049
   2464.0000      -0.0050       0.2703       2.5360       0.2010
   2464.5000       0.0100       0.2654       2.5470       0.1972
   2465.0000       0.0250       0.2636       2.5570       0.1936
   2465.5000       0.0220       0.2608       2.5610       0.2000
   2466.0000       0.0190       0.2599       2.5550       0.2059
   2466.5000       0.0170       0.2637       2.5460       0.2117
   2467.0000       0.0200       0.2706       2.5410       0.2112
   2467.5000       0.0200       0.2741       2.5460       0.2078
   2468.0000       0.0190       0.2708       2.5570       0.2045
   2468.5000       0.0180       0.2664       2.5690       0.2018
   2469.0000       0.0180       0.2649       2.5720       0.1993
   2469.5000       0.0190       0.2672       2.5620       0.1968
   2470.0000       0.0240       0.2617       2.5490       0.1943
   2470.5000       0.0540       0.2563       2.5360       0.1951
   2471.0000       0.0400       0.2526       2.5290       0.1971
   2471.5000       0.0190       0.2549       2.5280       0.1991
   2472.0000      -0.0020       0.2591       2.5260       0.2011
   2472.5000      -0.0060       0.2593       2.5360       0.2031
   2473.0000      -0.0080       0.2595       2.5410       0.2015
   2473.5000      -0.0050       0.2623       2.5360       0.1988
   2474.0000      -0.0020       0.2735       2.5310       0.1961
   2474.5000       0.0020       0.2803       2.5220       0.1934
   2475.0000       0.0000       0.2784       2.5120       0.1907
   2475.5000      -0.0030       0.2748       2.5050       0.1880
   2476.0000      -0.0060       0.2723       2.5050       0.1853
   2476.5000      -0.0080       0.2728       2.5140       0.1872
   2477.0000      -0.0080       0.2736       2.5270       0.1992
   2477.5000      -0.0120       0.2724       2.5390       0.2127
   2478.0000      -0.0300       0.2666       2.5440       0.2234
   2478.5000      -0.0260       0.2660       2.5380       0.2087
   2479.0000      -0.0190       0.2710       2.5310       0.2089
   2479.5000      -0.0100       0.2802       2.5240       0.2173
   2480.0000      -0.0020       0.2972       2.5180       0.2211
   2480.5000       0.0070       0.3021       2.5110       0.2120
   2481.0000       0.0100       0.3070       2.5090       0.2029
   2481.5000       0.0120       0.3120       2.5100       0.1938
   2482.0000       0.0140       0.3029       2.5100       0.1848
   2482.5000       0.0100       0.2855       2.5260       0.1889
   2483.0000       0.0120       0.2845       2.5420       0.1948
   2483.5000       0.0140       0.2914       2.5450       0.2007
   2484.0000       0.0170       0.3035       2.5420       0.2036
   2484.5000       0.0060       0.3119       2.5290       0.2036
