~VERSION INFORMATION
 VERS.                2.0:   CWLS LOG ASCII STANDARD - VERSION 2.0
 WRAP.                 NO:   ONE LINE PER DEPTH STEP
~WELL INFORMATION
#MNEM.UNIT      DATA TYPE    INFORMATION
#----------   ------------   ------------------------------
 STRT.F          466.5000:   START DEPTH
 STOP.F         3184.0000:   STOP DEPTH
 STEP.F            0.5000:   STEP LENGTH
 NULL.          -999.2500:   NO VALUE
 COMP. LAWRENCE ALLISON AND ASSOCIATES:   COMPANY
 WELL. LAWRENCE 66 "X" #3-28:   WELL
 FLD .              N P R:   FIELD
 LOC .      S28 T39N R78W:   LOCATION
 CNTY.            NATRONA:   COUNTY
 STAT.            WYOMING:   STATE
 CTRY. UNITED STATES OF AMERICA:   COUNTRY
 SRVC.      DRESSER ATLAS:   SERVICE COMPANY
 DATE.        16-APR-1986:   LOGDATE
 API .     49025111340000:   API NUMBER
~CURVE INFORMATION
#MNEM.UNIT       API CODE    CURVE DESCRIPTION
#----------   ------------   ------------------------------
 DEPT.F                  :   
 RHOB.G/C3   45 350 01 00:   BULK DENSITY
 CORR.G/C3   45 356 01 00:   DENSITY CORRECTION
 TEND.LBS    45 635 01 00:   TENSION FROM DENSITY LOG
 NPHI.DEC    42 890 03 00:   NEUTRON POROSITY SANDSTONE
 DT  .US/F   60 520 00 00:   DELTA TIME
 TENS.LBS    51 635 01 00:   TENSION
 CALR.IN     07 280 01 00:   CALIPER FROM RESISTIVITY
 SPR .MV     07 010 01 00:   SPONTANEOUS POTENTIAL
 TENR.LBS    07 635 01 00:   TENSION FROM RESISTIVITY
 RFOC.OHMM   07 220 04 00:   RESISTIVITY FOCUSED LOG RES.
 GRR .GAPI   07 310 01 00:   GAMMA RAY FROM RESISTIVITY
 RILD.OHMM   07 120 46 00:   DEEP INDUCTION RESISTIVITY
 RILM.OHMM   07 120 44 00:   INDUCTION LOG MEDIUM RESISTIVITY
~PARAMETER INFORMATION
#MNEM.UNIT          VALUE    DESCRIPTION
#----------   ------------   ------------------------------
 EKB .F         5071.0000:   Kelly bushing
 EGL .F         5059.0000:   Ground level
 TD  .F         3176.0000:   Total depth
 DATE.        16-APR-1986:   Date logged
 CLNT.            A2DTECH:   Client Code
 SL  . 1685' FEL & 1915'FSL:   Surface Location
 PD  .                 GL:   Permanent Datum
 EPD .F              5059:   Elevation Permanent Datum
 LMF .                 KB:   Log Measured From
 DD  .F              3176:   Depth driller
 DL  .F              3176:   Depth logger
 BLI .F              3174:   Bottom log interval
 TLI .F               480:   Top log interval
 CS1 .IN            8.625:   Casing size
 BS1 .IN            7.875:   Bit size
 DFT .        POLYMER KCL:   Type fluid in hole
 DFD .                  9:   Density
 DFV .                 40:   Viscosity
 DFPH.                8.5:   pH
 DFL .               10.2:   Fluid loss
 MSS .           FLOWLINE:   Source of sample
 RMS .OHMM           .226:   Rm
 MST .F                65:   Rm Meas. temp.
 RMF .OHMM           .169:   Rmf
 MFST.F                65:   Rmf Meas. temp.
 RMC .OHMM           .283:   Rmc
 MCST.F                65:   Rmc Meas. temp.
 MFSS.               CALC:   Source Rmf.
 MCSS.               CALC:   Source Rmc.
 RMB .OHMM           .118:   Rm. at BHT
 BHT .F               125:   BHT.
 TCS .HRS               5:   Time Circ. stopped
 MRT .F               125:   Maximum recorded temp.
 LUN .               6264:   Logging unit number
 LUL .           GILLETTE:   Logging unit location
 ENGI.             MILLER:   Recorded By
 WITN.             STRONG:   Witnessed by
 ORIG.           5" PRINT:   Origin of data
 UWI .     49025111340000:   Unique Well ID
 DICO. A2D TECHNOLOGIES, INC.:   Digitizing Company
 DMF .                 KB:   Drilling Measured From
 DAPD.F                12:   Feet Above Permanent Datum
 CBD1.      8.625" @ 475':   Casing driller 1
 CBL1.F               480:   Casing logger 1
 BSD1.F              3176:   Depth drilled with bit1
~OTHER INFORMATION
~A   DEPT     RHOB       CORR       TEND       NPHI         DT       TENS       CALR        SPR       TENR       RFOC         GRR      RILD       RILM   
# ...
 2078.5000  -999.2500  -999.2500  -999.2500  -999.2500  -999.2500  -999.2500    10.3890   -84.7820   -40.5000     7.7100    97.0530     5.9600     5.7450
 2079.0000  -999.2500  -999.2500  -999.2500  -999.2500  -999.2500  -999.2500    10.4100   -84.5570   -61.8000     6.8270    97.7650     5.9950     5.7140
 2079.5000  -999.2500  -999.2500  -999.2500  -999.2500  -999.2500  -999.2500    10.4140   -84.7000  -115.0000     6.1240    95.8840     6.0310     5.6890
 2080.0000  -999.2500  -999.2500  -999.2500  -999.2500  -999.2500  -999.2500    10.4170   -84.8360  -127.7500     6.3540    93.9780     6.0660     5.7350
 2080.5000  -999.2500  -999.2500  -999.2500  -999.2500  -999.2500  -999.2500    10.4200   -85.2250  -114.0000     6.2410    92.0810     6.1010     5.7750
 2081.0000  -999.2500  -999.2500  -999.2500  -999.2500  -999.2500  -999.2500    10.4240   -85.8060   -66.6360     6.0120    90.7940     6.1370     5.8140
 2081.5000  -999.2500  -999.2500  -999.2500  -999.2500  -999.2500  -999.2500    10.4270   -86.3870   -43.6500     6.1520    92.0460     6.1720     5.8480
 2082.0000  -999.2500  -999.2500  -999.2500  -999.2500  -999.2500  -999.2500    10.4310   -86.9090   -69.7000     6.5500    93.2500     6.4120     6.2230
 2082.5000  -999.2500  -999.2500  -999.2500  -999.2500  -999.2500  -999.2500    10.4400   -86.8380   -95.0000     7.1030    93.8110     6.5920     6.5320
 2083.0000  -999.2500  -999.2500  -999.2500  -999.2500  -999.2500  -999.2500    10.4500   -86.7780   -65.2220     7.6550    93.1100     6.5370     6.4940
 2083.5000  -999.2500  -999.2500  -999.2500  -999.2500  -999.2500  -999.2500    10.4590   -86.7170   -45.0000     8.2230    92.0920     6.4980     6.3570
 2084.0000  -999.2500  -999.2500  -999.2500  -999.2500  -999.2500  -999.2500    10.4680   -86.8410   -73.9200     7.5580    88.6750     6.3890     5.9770
 2084.5000  -999.2500  -999.2500  -999.2500  -999.2500  -999.2500  -999.2500    10.4770   -87.0470  -126.3570     6.0680    84.7580     6.1450     5.7300
 2085.0000  -999.2500  -999.2500  -999.2500  -999.2500  -999.2500  -999.2500    10.4870   -87.2560  -143.7060     6.1130    83.1600     5.9420     5.6720
 2085.5000  -999.2500  -999.2500  -999.2500  -999.2500  -999.2500  -999.2500    10.4960   -87.4660   -94.6710     6.1810    82.7330     5.8770     5.6140
 2086.0000  -999.2500  -999.2500  -999.2500  -999.2500  -999.2500  -999.2500    10.5050   -87.6750   -45.6350     5.7950    82.8690     5.7950     5.5630
 2086.5000  -999.2500  -999.2500  -999.2500  -999.2500  -999.2500  -999.2500    10.5060   -87.6610     5.0000     6.0310    86.4570     5.8070     5.5340
 2087.0000  -999.2500  -999.2500  -999.2500  -999.2500  -999.2500  -999.2500    10.4980   -87.6160    -0.4400     6.4130    88.4380     5.8240     5.5860
 2087.5000  -999.2500  -999.2500  -999.2500  -999.2500  -999.2500  -999.2500    10.4900   -87.5700   -14.3330     6.3310    89.9030     5.8410     5.6240
 2088.0000  -999.2500  -999.2500  -999.2500  -999.2500  -999.2500  -999.2500    10.4820   -87.5220   -28.2270     6.2310    91.1030     5.8580     5.6630
 2088.5000  -999.2500  -999.2500  -999.2500  -999.2500  -999.2500  -999.2500    10.4740   -87.3720   -26.1000     6.1320    91.3790     5.8750     5.6890
 2089.0000  -999.2500  -999.2500  -999.2500  -999.2500  -999.2500  -999.2500    10.4660   -87.0960    -8.7330     6.0680    91.0610     5.8920     5.6070
 2089.5000  -999.2500  -999.2500  -999.2500  -999.2500  -999.2500  -999.2500    10.4580   -86.8230    -5.0000     6.2380    90.6860     5.9020     5.5460
 2090.0000  -999.2500  -999.2500  -999.2500  -999.2500  -999.2500  -999.2500    10.4500   -86.5720   -22.3330     6.1620    94.7400     5.8370     5.4840
 2090.5000  -999.2500  -999.2500  -999.2500  -999.2500  -999.2500  -999.2500    10.4500   -86.0830   -85.0000     6.0710   101.6020     5.7910     5.4220
 2091.0000  -999.2500  -999.2500  -999.2500  -999.2500  -999.2500  -999.2500    10.4500   -85.8260  -127.0890     5.9790   106.9730     5.7420     5.3610
 2091.5000  -999.2500  -999.2500  -999.2500  -999.2500  -999.2500  -999.2500    10.4490   -85.5420  -150.2440     5.9180   111.7080     5.6410     5.2900
 2092.0000  -999.2500  -999.2500  -999.2500  -999.2500  -999.2500  -999.2500    10.4460   -86.0010  -155.0000     5.8480   117.0670     5.5350     5.2110
 2092.5000  -999.2500  -999.2500  -999.2500  -999.2500  -999.2500  -999.2500    10.4440   -86.6560  -139.9600     5.8650   123.5360     5.4290     5.1330
 2093.0000  -999.2500  -999.2500  -999.2500  -999.2500  -999.2500  -999.2500    10.4410   -87.3160  -106.6160     5.8910   131.4810     5.3200     5.0540
 2093.5000  -999.2500  -999.2500  -999.2500  -999.2500  -999.2500  -999.2500    10.4380   -87.9730   -73.2720     5.9160   133.3200     5.1930     4.9760
 2094.0000  -999.2500  -999.2500  -999.2500  -999.2500  -999.2500  -999.2500    10.4360   -88.6330   -39.9280     5.9420   124.7030     5.0650     4.8980
 2094.5000  -999.2500  -999.2500  -999.2500  -999.2500  -999.2500  -999.2500    10.4330   -89.0260    -6.5840     5.9570   115.0180     4.9380     4.8190
 2095.0000  -999.2500  -999.2500  -999.2500  -999.2500  -999.2500  -999.2500    10.4310   -89.2460    -7.3640     5.7460   114.2730     4.8200     4.7410
 2095.5000  -999.2500  -999.2500  -999.2500  -999.2500  -999.2500  -999.2500    10.4160   -89.4640   -26.3090     5.4950   113.3710     4.7760     4.6880
 2096.0000  -999.2500  -999.2500  -999.2500  -999.2500  -999.2500  -999.2500    10.3950   -89.6820   -45.0000     5.1880   112.5300     4.9140     4.8240
 2096.5000  -999.2500  -999.2500  -999.2500  -999.2500  -999.2500  -999.2500    10.3750   -89.8940   -15.0000     5.2360   113.7300     5.0420     4.9500
 2097.0000  -999.2500  -999.2500  -999.2500  -999.2500  -999.2500  -999.2500    10.3370   -89.9020    19.9330     5.3690   117.9650     5.1700     5.0750
 2097.5000  -999.2500  -999.2500  -999.2500  -999.2500  -999.2500  -999.2500    10.2960   -89.9030    31.1380     5.5640   122.1220     5.3520     5.2550
 2098.0000  -999.2500  -999.2500  -999.2500  -999.2500  -999.2500  -999.2500    10.2390   -89.8940    38.3240     6.1700   123.3230     5.5990     5.5210
 2098.5000  -999.2500  -999.2500  -999.2500  -999.2500  -999.2500  -999.2500    10.1870   -89.3460    45.5100     6.8400   119.3440     5.9630     5.9540
 2099.0000  -999.2500  -999.2500  -999.2500  -999.2500  -999.2500  -999.2500    10.1760   -88.7430    52.6970     7.0860   116.3990     6.3260     6.3870
 2099.5000  -999.2500  -999.2500  -999.2500  -999.2500  -999.2500  -999.2500    10.1650   -88.1420    59.8830     7.3190   115.9520     6.6900     6.8200
 2100.0000  -999.2500  -999.2500  -999.2500  -999.2500  -999.2500  -999.2500    10.1550   -87.5410    65.0000     7.5530   115.8000     7.0540     7.2950
 2100.5000  -999.2500  -999.2500  -999.2500  -999.2500  -999.2500  -999.2500    10.1450   -86.9420    44.2360     7.7100   115.8060     7.2640     7.3370
 2101.0000  -999.2500  -999.2500  -999.2500  -999.2500  -999.2500  -999.2500    10.1340   -86.3330    25.0000     7.6770   115.2020     7.3260     7.3830
 2101.5000  -999.2500  -999.2500  -999.2500  -999.2500  -999.2500  -999.2500    10.1280   -85.9030    20.7250     7.6520   113.4930     7.3800     7.4300
 2102.0000  -999.2500  -999.2500  -999.2500  -999.2500  -999.2500  -999.2500    10.1250   -85.3990    16.3830     7.6390   110.7180     7.4310     7.4760
 2102.5000  -999.2500  -999.2500  -999.2500  -999.2500  -999.2500  -999.2500    10.1220   -84.9030    16.6140     7.9670   107.9410     7.1990     7.4990
 2103.0000  -999.2500  -999.2500  -999.2500  -999.2500  -999.2500  -999.2500    10.1190   -84.4120    18.9820     8.0730   111.2790     6.9820     7.1840
 2103.5000  -999.2500  -999.2500  -999.2500  -999.2500  -999.2500  -999.2500    10.1160   -84.1600    21.3500     7.6770   115.8490     6.7650     6.9940
 2104.0000  -999.2500  -999.2500  -999.2500  -999.2500  -999.2500  -999.2500    10.1130   -84.3940    23.7180     7.2420   120.1180     6.5480     6.8040
