~VERSION INFORMATION
 VERS.                2.0:   CWLS LOG ASCII STANDARD - VERSION 2.0
 WRAP.                 NO:   ONE LINE PER DEPTH STEP
~WELL INFORMATION
#MNEM.UNIT      DATA TYPE    INFORMATION
#----------   ------------   ------------------------------
 STRT.F          448.5000:   START DEPTH
 STOP.F         4490.5000:   STOP DEPTH
 STEP.F            0.5000:   STEP LENGTH
 NULL.          -999.2500:   NO VALUE
 COMP.  FENIX AND SCISSON:   COMPANY
 WELL. FENIX AND SCISSON NPR 3 #11-10:   WELL
 FLD .              NPR-3:   FIELD
 LOC .      S10 T38N R78W:   LOCATION
 CNTY.            NATRONA:   COUNTY
 STAT.            WYOMING:   STATE
 CTRY. UNITED STATES OF AMERICA:   COUNTRY
 SRVC.              WELEX:   SERVICE COMPANY
 DATE.        22-DEC-1978:   LOGDATE
 API .     49025107450000:   API NUMBER
~CURVE INFORMATION
#MNEM.UNIT       API CODE    CURVE DESCRIPTION
#----------   ------------   ------------------------------
 DEPT.F                  :   
 SPR .MV     07 010 01 00:   SPONTANEOUS POTENTIAL
 ILM .OHMM   07 120 44 00:   INDUCTION LOG MEDIUM
 ILD .OHMM   07 120 46 00:   DEEP RESISTIVITY
 SGRD.OHMM   07 220 01 00:   SHALLOW SHORT GUARD RESISTIVITY
 TENR.LBS    07 635 01 00:   TENSION FROM RESISTIVITY
 NPHI.DEC    42 890 03 00:   NEUTRON POROSITY SANDSTONE
 CALD.IN     45 280 60 00:   CALIPER FROM DENSITY LOG
 GRD .GAPI   45 310 01 00:   GAMMA RAY FROM DENSITY LOG
 RHOB.G/C3   45 350 01 00:   BULK DENSITY
 DRHO.G/C3   45 356 01 00:   DENSITY CORRECTION
 TEND.LBS    45 635 01 00:   TENSION FROM DENSITY
~PARAMETER INFORMATION
#MNEM.UNIT          VALUE    DESCRIPTION
#----------   ------------   ------------------------------
 EKB .F         5275.0000:   Kelly bushing
 EGL .F         5265.0000:   Ground level
 EDF .F            0.0000:   Drilling floor
 EPD .F         5265.0000:   Permanent datum
 TD  .F         4500.0000:   Total depth
 DATE.        22-DEC-1978:   Date logged
 CLNT.            A2DTECH:   Client Code
 SL  . 300' FNL & 500' FWL:   Surface Location
 DD  .F              4500:   Depth driller
 DL  .F              4481:   Depth logger
 BLI .F              4479:   Bottom log interval
 TLI .F               450:   Top log interval
 CS1 .IN            8.625:   Casing size
 CBD1.      8.625" @ 500':   Casing driller 1
 CBL1.F               473:   Casing logger 1
 BS1 .IN            7.875:   Bit size
 BSD1.F              4500:   Depth drilled with bit1
 DFT .               LSND:   Type fluid in hole
 DFD .                8.7:   Density
 DFV .                 49:   Viscosity
 DFPH.               11.0:   pH
 DFL .                7.6:   Fluid loss
 MSS .           FLOWLINE:   Source of sample
 RMS .OHMM            1.1:   Rm
 MST .F                86:   Rm Meas. temp.
 RMF .OHMM           0.73:   Rmf
 MFST.F                86:   Rmf Meas. temp.
 RMC .OHMM           1.68:   Rmc
 MCST.F                86:   Rmc Meas. temp.
 MFSS.               CALC:   Source Rmf.
 MCSS.               CALC:   Source Rmc.
 RMB .OHMM           0.72:   Rm. at BHT
 BHT .F               130:   BHT.
 TCS .HRS             3.5:   Time Circ. stopped
 MRT .F               130:   Maximum recorded temp.
 LUN .               9685:   Logging unit number
 LUL .             CASPER:   Logging unit location
 ENGI.            BENTSEN:   Recorded By
 WITN.           DINSMORE:   Witnessed by
 ORIG.           5" PRINT:   Origin of data
 UWI .     49025107450000:   Unique Well ID
 DICO. A2D TECHNOLOGIES, INC.:   Digitizing Company
~OTHER INFORMATION
~A  DEPTH      SPR        ILM        ILD       SGRD       TENR       NPHI       CALD        GRD       RHOB       DRHO       TEND
# ...
 3132.5000   -59.4296     5.8610     5.6240     7.0136  1374.1025     0.3045    10.2734   120.4076     2.5157     0.0252  1661.3795
 3133.0000   -59.4163     5.9892     5.7913     7.2688  1371.9301     0.3027    10.2755   120.5767     2.5120     0.0179  1659.9697
 3133.5000   -59.4006     5.9945     5.9276     7.5937  1369.7289     0.3011    10.2776   120.7529     2.5188     0.0121  1658.6726
 3134.0000   -59.2396     5.9998     5.9226     7.8060  1367.5861     0.2990    10.2796   121.0335     2.5264     0.0139  1672.7318
 3134.5000   -59.2268     5.9585     5.8429     7.6964  1380.4738     0.2966    10.2817   121.4837     2.5333     0.0216  1671.3644
 3135.0000   -59.2140     5.8786     5.7643     7.6021  1378.0122     0.2977    10.2838   122.5323     2.5424     0.0309  1670.1180
 3135.5000   -59.0530     5.8111     5.6868     7.4739  1375.7527     0.2998    10.3011   123.4639     2.5552     0.0387  1668.8115
 3136.0000   -59.0400     5.8162     5.6676     7.2702  1373.4940     0.3027    10.3179   124.8426     2.5478     0.0434  1667.7660
 3136.5000   -59.0267     5.7731     5.6420     7.0988  1375.0513     0.3049    10.3347   126.2366     2.5343     0.0391  1681.5637
 3137.0000   -59.0133     5.7370     5.5999     7.0053  1384.0363     0.3076    10.3517   126.4823     2.5238     0.0333  1680.2571
 3137.5000   -58.9815     5.7133     5.6044     6.9130  1381.7775     0.3103    10.3552   125.4937     2.5164     0.0245  1678.9506
 3138.0000   -58.8385     5.7046     5.6089     6.8591  1379.5182     0.3126    10.3732   124.8131     2.5112     0.0178  1677.9236
 3138.5000   -58.8252     5.6689     5.6133     6.8463  1377.2593     0.3132    10.3875   124.1321     2.5030     0.0099  1676.6171
 3139.0000   -58.8474     5.6503     5.5791     6.8495  1375.0000     0.3123    10.3896   123.6453     2.4963     0.0071  1690.4893
 3139.5000   -58.9467     5.6555     5.5447     6.9313  1380.1715     0.3092    10.3917   123.5589     2.4911     0.0073  1689.3552
 3140.0000   -58.9333     5.6405     5.5106     7.1490  1385.5420     0.3065    10.3938   123.7295     2.4972     0.0106  1687.9694
 3140.5000   -58.9200     5.6268     5.4954     7.4725  1391.9183     0.3073    10.3958   124.1572     2.5032     0.0153  1686.9424
 3141.0000   -58.9067     5.6320     5.4821     7.4775  1396.0842     0.3127    10.3979   125.0060     2.5093     0.0170  1685.7568
 3141.5000   -58.8933     5.6372     5.4872     7.2736  1393.8257     0.3138    10.4000   125.9625     2.5101     0.0173  1684.4224
 3142.0000   -58.8800     5.6423     5.4917     7.0752  1391.5663     0.3138    10.4021   126.2234     2.5065     0.0175  1683.2090
 3142.5000   -58.8667     5.6475     5.4963     6.9534  1389.3075     0.3131    10.4045   124.9196     2.5043     0.0177  1682.1589
 3143.0000   -58.8533     5.6527     5.5008     6.8618  1387.0481     0.3122    10.4064   123.3559     2.4998     0.0180  1680.9595
 3143.5000   -58.8400     5.6981     5.5178     6.8031  1384.3835     0.3112    10.4085   122.2192     2.4931     0.0151  1679.7552
 3144.0000   -58.8267     5.7032     5.5622     6.8577  1382.2120     0.3108    10.4104   121.3391     2.4887     0.0064  1678.5419
 3144.5000   -58.8133     5.7082     5.5913     6.9608  1380.0396     0.3105    10.4125   120.7161     2.4729    -0.0025  1677.2354
 3145.0000   -58.8000     5.7928     5.6132     7.2638  1392.9272     0.3101    10.4142   120.3502     2.4610    -0.0068  1676.1621
 3145.5000   -58.7867     5.7980     5.6583     7.6855  1390.7548     0.3090    10.3979   120.1501     2.4648     0.0010  1674.9624
 3146.0000   -58.7733     5.8031     5.6833     7.9098  1388.5547     0.3071    10.3890   120.1661     2.4739     0.0042  1673.6885
 3146.5000   -58.7576     5.8084     5.6881     7.4803  1386.2950     0.3051    10.3911   120.4467     2.4664     0.0045  1672.5636
 3147.0000   -58.8929     5.8133     5.6928     7.2862  1384.0364     0.3030    10.3860   121.2939     2.4710     0.0077  1671.1685
 3147.5000   -58.8801     5.7738     5.6725     7.2028  1382.0669     0.3053    10.3804   122.3770     2.4778     0.0185  1670.0483
 3148.0000   -58.8672     5.7376     5.6629     7.2710  1394.9547     0.3124    10.3732   123.3784     2.4817     0.0277  1668.7417
 3148.5000   -58.8544     5.7017     5.6397     7.3207  1389.1066     0.3164    10.3697   124.5120     2.4795     0.0340  1682.9874
 3149.0000   -58.8415     5.6758     5.6333     7.3290  1375.0000     0.3202    10.3718   125.4436     2.4683     0.0387  1681.4939
 3149.5000   -58.8281     5.6582     5.6000     7.3223  1372.7406     0.3241    10.3890   126.3793     2.4510     0.0389  1680.1874
 3150.0000   -58.8114     5.5971     5.4995     7.2432  1370.5275     0.3282    10.3909   126.8598     2.4335     0.0256  1679.1608
 3150.5000   -58.7557     5.5681     5.3742     7.0905  1368.4108     0.3327    10.3962   126.2964     2.4233     0.0063  1677.8042
 3151.0000   -58.6999     5.5334     5.2453     6.9418  1366.2941     0.3344    10.4019   125.7736     2.4212    -0.0056  1676.3995
 3151.5000   -58.6441     5.3875     5.1124     6.8009  1364.1774     0.3315    10.4076   124.6733     2.4250    -0.0039  1674.9950
 3152.0000   -58.5989     5.3186     5.0192     6.7040  1362.0607     0.3257    10.4122   123.4452     2.4718     0.0114  1673.5903
 3152.5000   -58.7586     5.2505     4.9637     6.6403  1359.9440     0.3213    10.4138   122.1061     2.4869     0.0131  1672.1858
 3153.0000   -58.8563     5.2193     4.9445     6.5748  1357.8313     0.3180    10.4155   121.2412     2.4750     0.0088  1670.7812
 3153.5000   -58.8794     5.1883     4.9614     6.4861  1363.2039     0.3194    10.4171   120.3764     2.4690     0.0044  1669.3766
 3154.0000   -58.9689     5.1575     5.0019     6.3060  1368.6743     0.3217    10.4187   119.4858     2.4721     0.0138  1667.9720
 3154.5000   -59.0001     5.1269     5.0290     6.0181  1366.5663     0.3222    10.4110   118.8253     2.4835     0.0245  1666.5674
 3155.0000   -59.0815     5.1318     5.0342     5.8729  1364.4576     0.3212    10.3967   118.3794     2.4919     0.0277  1665.1628
 3155.5000   -59.0637     5.1734     5.0394     5.8570  1362.3492     0.3193    10.3939   118.0417     2.4965     0.0294  1663.7582
 3156.0000   -59.0459     5.2136     5.0447     6.0219  1360.2411     0.3183    10.3958   118.0730     2.4981     0.0282  1662.3536
 3156.5000   -59.0281     5.2242     5.0499     6.3208  1358.1324     0.3197    10.3974   118.1887     2.4937     0.0238  1660.9491
 3157.0000   -59.0104     5.3041     5.0371     6.5481  1356.0240     0.3231    10.3988   118.5581     2.4877     0.0196  1659.5444
 3157.5000   -58.9926     5.3805     5.0067     6.7074  1353.9160     0.3264    10.4004   118.7230     2.4818     0.0152  1658.1399
 3158.0000   -58.9748     5.4298     4.9961     6.8206  1351.8073     0.3285    10.4021   117.9275     2.4781     0.0124  1656.7352
 3158.5000   -59.0387     5.5128     5.0218     6.8475  1349.6989     0.3265    10.4037   116.6474     2.4752     0.0111  1655.3307
 3159.0000   -59.0874     5.5893     5.0627     6.9486  1347.5901     0.3191    10.4053   115.6096     2.4745     0.0131  1653.9260
 3159.5000   -59.1594     5.6435     5.1268     6.9543  1345.4817     0.3126    10.4070   115.3860     2.4754     0.0181  1652.5215
 3160.0000   -59.2000     5.7099     5.1814     7.0084  1342.9609     0.3089    10.4086   115.6452     2.4785     0.0283  1651.1169
 3160.5000   -59.1822     5.7155     5.2236     6.8701  1355.9615     0.3074    10.4103   116.7923     2.4801     0.0346  1649.7123
 3161.0000   -59.1644     5.7331     5.2663     6.6880  1368.9611     0.3075    10.4039   118.1629     2.4794     0.0393  1648.3077
 3161.5000   -59.1467     5.7666     5.3092     6.6474  1366.9004     0.3074    10.3987   119.8056     2.4705     0.0410  1646.9031
 3162.0000   -59.2391     5.7723     5.3525     6.8938  1364.8407     0.3057    10.4104   120.6805     2.4630     0.0412  1645.4985
 3162.5000   -59.2593     5.7930     5.3962     7.3912  1362.7800     0.3036    10.4168   119.9326     2.4594     0.0414  1644.0939
