~VERSION INFORMATION
 VERS.                2.0:   CWLS LOG ASCII STANDARD - VERSION 2.0
 WRAP.                 NO:   ONE LINE PER DEPTH STEP
~WELL INFORMATION
#MNEM.UNIT      DATA TYPE    INFORMATION
#----------   ------------   ------------------------------
 STRT.F            0.0000:   START DEPTH
 STOP.F         3205.0000:   STOP DEPTH
 STEP.F            0.5000:   STEP LENGTH
 NULL.          -999.2500:   NO VALUE
 COMP. LAWRENCE-ALLISON AND ASSOCIATES:   COMPANY
 WELL. LAWRENCE "X" #64-28:   WELL
 FLD .          N.P.R. #3:   FIELD
 LOC .      S28 T39N R78W:   LOCATION
 CNTY.            NATRONA:   COUNTY
 STAT.            WYOMING:   STATE
 CTRY. UNITED STATES OF AMERICA:   COUNTRY
 SRVC.      DRESSER ATLAS:   SERVICE COMPANY
 DATE.        25-MAY-1986:   LOGDATE
 API .     49025110730000:   API NUMBER
~CURVE INFORMATION
#MNEM.UNIT       API CODE    CURVE DESCRIPTION
#----------   ------------   ------------------------------
 DEPT.F                  :   
 GRR .GAPI   07 310 01 00:   GAMMA RAY FROM RESISTIVITY
 SPR .MV     07 010 01 00:   SPONTANEOUS POTENTIAL
 RILD.OHMM   07 120 46 00:   DEEP INDUCTION RESISTIVITY
 RILM.OHMM   07 120 44 00:   INDUCTION LOG MEDIUM RESISTIVITY
 RSFL.OHMM   07 221 01 00:   AMPPLIFIED SHALLOW FOCUSED LOG RESISTIVITY
 TENR.LBS    07 635 01 00:   TENSION FROM RESISTIVITY
 CNC .DEC    42 890 03 00:   NEUTRON POROSITY SANDSTONE
 CALD.IN     45 280 60 00:   CALIPER FROM DENSITY LOG
 DEN .G/C3   45 350 01 00:   BULK DENSITY
 CORR.G/C3   45 356 01 00:   DENSITY CORRECTION
 TEND.LBS    45 635 01 00:   TENSION FROM DENSITY LOG
~PARAMETER INFORMATION
#MNEM.UNIT          VALUE    DESCRIPTION
#----------   ------------   ------------------------------
 EKB .F         5070.0000:   Kelly bushing
 EGL .F         5058.0000:   Ground level
 TD  .F         3205.0000:   Total depth
 DATE.        25-MAY-1986:   Date logged
 CLNT.            A2DTECH:   Client Code
 SL  . 2248' FNL & 1636' FEL:   Surface Location
 PD  .                 GL:   Permanent Datum
 EPD .F              5058:   Elevation Permanent Datum
 LMF .                 KB:   Log Measured From
 DMF .                 KB:   Drilling Measured From
 DAPD.F                12:   Feet Above Permanent Datum
 DD  .F              3205:   Depth driller
 DL  .F              3203:   Depth logger
 BLI .F              3201:   Bottom log interval
 CS1 .IN            8.625:   Casing size
 CBD1.      8.625" @ 476':   Casing driller 1
 CBL1.F               478:   Casing logger 1
 BS1 .IN            7.875:   Bit size
 BSD1.F              3205:   Depth drilled with bit1
 DFT .        POLYMER-KCL:   Type fluid in hole
 DFD .                  9:   Density
 DFV .                 37:   Viscosity
 DFPH.                8.5:   pH
 DFL .                 10:   Fluid loss
 MSS .           FLOWLINE:   Source of sample
 RMS .OHMM           0.31:   Rm
 MST .F                69:   Rm Meas. temp.
 RMF .OHMM           0.25:   Rmf
 MFST.F                69:   Rmf Meas. temp.
 RMC .OHMM           0.39:   Rmc
 MCST.F                69:   Rmc Meas. temp.
 MFSS.               MEAS:   Source Rmf.
 MCSS.               CALC:   Source Rmc.
 RMB .OHMM           0.19:   Rm. at BHT
 BHT .F               115:   BHT.
 TCS .HRS               4:   Time Circ. stopped
 MRT .F               115:   Maximum recorded temp.
 LUN .            HL-6274:   Logging unit number
 LUL .           GILLETTE:   Logging unit location
 ENGI.             RAUTIO:   Recorded By
 WITN.             STRONG:   Witnessed by
 ORIG.           5" PRINT:   Origin of data
 UWI .     49025110730000:   Unique Well ID
 DICO. A2D TECHNOLOGIES, INC.:   Digitizing Company
~OTHER INFORMATION
~A    DEPT     GRR        SPR       RILD       RILM       RSFL       TENR        CNC       CALD        DEN       CORR       TEND   
# ...
 1189.5000    93.8520   -51.9680     7.7650     7.8780     8.6620   -27.9940  -999.2500  -999.2500  -999.2500  -999.2500  -999.2500
 1190.0000    92.9380   -51.7640     7.6780     7.8230     8.7160   -22.9540  -999.2500  -999.2500  -999.2500  -999.2500  -999.2500
 1190.5000    92.1370   -51.6230     7.5910     7.7680     8.7850   -17.9140  -999.2500  -999.2500  -999.2500  -999.2500  -999.2500
 1191.0000    92.3760   -52.0350     7.5050     7.7120     8.6450   -12.8740  -999.2500  -999.2500  -999.2500  -999.2500  -999.2500
 1191.5000    91.2350   -52.5530     7.4180     7.6540     8.4480    -7.8340  -999.2500  -999.2500  -999.2500  -999.2500  -999.2500
 1192.0000    89.4860   -53.0430     7.3830     7.6480     8.2520    -2.7940  -999.2500  -999.2500  -999.2500  -999.2500  -999.2500
 1192.5000    91.6140   -53.5860     7.3940     7.6420     8.1460     2.2460  -999.2500  -999.2500  -999.2500  -999.2500  -999.2500
 1193.0000    92.8910   -53.4330     7.4050     7.6350     8.1170     0.8460  -999.2500  -999.2500  -999.2500  -999.2500  -999.2500
 1193.5000    90.2390   -52.8370     7.4150     7.6290     8.0880    -5.7280  -999.2500  -999.2500  -999.2500  -999.2500  -999.2500
 1194.0000    90.5180   -52.5210     7.4260     7.6230     8.2900   -12.3010  -999.2500  -999.2500  -999.2500  -999.2500  -999.2500
 1194.5000    95.4350   -52.2190     7.4370     7.6170     8.4990   -18.8750  -999.2500  -999.2500  -999.2500  -999.2500  -999.2500
 1195.0000    99.2180   -52.0210     7.4450     7.6110     8.5860   -25.4490  -999.2500  -999.2500  -999.2500  -999.2500  -999.2500
 1195.5000    99.9540   -52.3190     7.4300     7.6040     8.3660   -21.0670  -999.2500  -999.2500  -999.2500  -999.2500  -999.2500
 1196.0000    99.4470   -52.6100     7.4170     7.5980     8.0140   -16.6840  -999.2500  -999.2500  -999.2500  -999.2500  -999.2500
 1196.5000   100.2490   -52.5710     7.4050     7.5920     8.0530   -12.3010  -999.2500  -999.2500  -999.2500  -999.2500  -999.2500
 1197.0000   100.2090   -52.5300     7.3920     7.5860     8.3190    -7.9190  -999.2500  -999.2500  -999.2500  -999.2500  -999.2500
 1197.5000    95.3050   -52.5090     7.3770     7.6120     8.6250    -5.4890  -999.2500  -999.2500  -999.2500  -999.2500  -999.2500
 1198.0000    89.1400   -52.4540     7.4220     7.6550     8.5680   -11.2050  -999.2500  -999.2500  -999.2500  -999.2500  -999.2500
 1198.5000    85.8190   -52.4430     7.4740     7.6990     8.4800   -15.7870  -999.2500  -999.2500  -999.2500  -999.2500  -999.2500
 1199.0000    87.4460   -52.3920     7.5260     7.7420     8.3390   -20.3680  -999.2500  -999.2500  -999.2500  -999.2500  -999.2500
 1199.5000    91.9360   -52.2200     7.5840     7.7850     8.2380   -25.4490  -999.2500  -999.2500  -999.2500  -999.2500  -999.2500
 1200.0000    95.8910   -52.0370     7.6140     7.8290     8.3140   -21.9450  -999.2500  -999.2500  -999.2500  -999.2500  -999.2500
 1200.5000    98.5790   -51.9080     7.6480     7.8680     8.5730   -16.8880  -999.2500  -999.2500  -999.2500  -999.2500  -999.2500
 1201.0000    95.0380   -51.7260     7.6830     7.8680     8.7730   -11.8320  -999.2500  -999.2500  -999.2500  -999.2500  -999.2500
 1201.5000    89.9540   -51.6150     7.7170     7.8680     8.8300    -5.4890  -999.2500  -999.2500  -999.2500  -999.2500  -999.2500
 1202.0000    90.3760   -51.7480     7.7510     7.9170     8.7240    -7.0610  -999.2500  -999.2500  -999.2500  -999.2500  -999.2500
 1202.5000    91.7350   -51.8980     7.7850     8.0060     8.6180    -9.1690  -999.2500  -999.2500  -999.2500  -999.2500  -999.2500
 1203.0000    93.7250   -52.0010     7.8200     8.0950     8.5120   -11.2770  -999.2500  -999.2500  -999.2500  -999.2500  -999.2500
 1203.5000    94.9790   -52.2030     7.8540     8.1850     8.5970   -13.3860  -999.2500  -999.2500  -999.2500  -999.2500  -999.2500
 1204.0000    94.1320   -52.4060     7.8540     8.2190     8.8170   -15.4690  -999.2500  -999.2500  -999.2500  -999.2500  -999.2500
 1204.5000    94.8760   -52.6720     7.8310     8.1730     9.0310    -5.4890  -999.2500  -999.2500  -999.2500  -999.2500  -999.2500
 1205.0000    94.5640   -53.0180     7.8070     8.1270     8.9560    -8.9820  -999.2500  -999.2500  -999.2500  -999.2500  -999.2500
 1205.5000    92.4890   -53.0840     7.7840     8.0820     8.8820   -13.1990  -999.2500  -999.2500  -999.2500  -999.2500  -999.2500
 1206.0000    90.8570   -52.8360     7.7610     8.0360     8.8090   -17.4150  -999.2500  -999.2500  -999.2500  -999.2500  -999.2500
 1206.5000    88.5720   -52.5460     7.7380     7.9900     8.8550   -21.6320  -999.2500  -999.2500  -999.2500  -999.2500  -999.2500
 1207.0000    87.6130   -52.3040     7.7150     7.9440     8.9480   -25.4490  -999.2500  -999.2500  -999.2500  -999.2500  -999.2500
 1207.5000    89.6470   -52.0980     7.6920     7.8990     8.8660   -21.4930  -999.2500  -999.2500  -999.2500  -999.2500  -999.2500
 1208.0000    92.3950   -52.0080     7.6690     7.8920     8.6630   -17.8790  -999.2500  -999.2500  -999.2500  -999.2500  -999.2500
 1208.5000    92.9590   -52.1240     7.6920     7.9700     8.4680   -14.2640  -999.2500  -999.2500  -999.2500  -999.2500  -999.2500
 1209.0000    90.5950   -52.1990     7.8060     8.0480     8.5760   -10.6500  -999.2500  -999.2500  -999.2500  -999.2500  -999.2500
 1209.5000    89.0170   -52.0800     7.9200     8.1260     8.7220    -7.0360  -999.2500  -999.2500  -999.2500  -999.2500  -999.2500
 1210.0000    90.6980   -51.9410     8.0140     8.2040     8.7850    -5.4890  -999.2500  -999.2500  -999.2500  -999.2500  -999.2500
 1210.5000    93.4760   -51.8160     7.9580     8.2820     8.7850    -5.4890  -999.2500  -999.2500  -999.2500  -999.2500  -999.2500
 1211.0000    94.4990   -51.8720     7.9110     8.2770     8.7850    -5.4890  -999.2500  -999.2500  -999.2500  -999.2500  -999.2500
 1211.5000    91.4350   -52.1340     7.8630     8.2170     9.0380    -5.4890  -999.2500  -999.2500  -999.2500  -999.2500  -999.2500
 1212.0000    85.9880   -52.3280     7.8160     8.1570     9.1980    -5.4890  -999.2500  -999.2500  -999.2500  -999.2500  -999.2500
 1212.5000    82.5790   -52.5980     7.7690     8.0880     9.0650    -3.6870  -999.2500  -999.2500  -999.2500  -999.2500  -999.2500
 1213.0000    83.8360   -52.7860     7.7240     8.0790     8.7640    -0.8760  -999.2500  -999.2500  -999.2500  -999.2500  -999.2500
 1213.5000    91.9350   -52.5270     7.8100     8.0700     8.5460     1.9350  -999.2500  -999.2500  -999.2500  -999.2500  -999.2500
 1214.0000    99.3290   -52.2140     7.8680     8.0600     8.6230     4.4910  -999.2500  -999.2500  -999.2500  -999.2500  -999.2500
 1214.5000    97.1440   -52.0060     7.8250     8.0500     8.6840    -0.1080  -999.2500  -999.2500  -999.2500  -999.2500  -999.2500
 1215.0000    95.1880   -51.8480     7.7920     8.0400     8.7440    -4.3250  -999.2500  -999.2500  -999.2500  -999.2500  -999.2500
 1215.5000    96.2870   -51.9260     7.7590     8.0310     8.7770    -8.5410  -999.2500  -999.2500  -999.2500  -999.2500  -999.2500
 1216.0000    90.8310   -52.0340     7.7240     8.0210     8.7520   -12.7580  -999.2500  -999.2500  -999.2500  -999.2500  -999.2500
 1216.5000    86.2140   -52.1000     7.7420     8.0110     8.7270   -13.7490  -999.2500  -999.2500  -999.2500  -999.2500  -999.2500
 1217.0000    88.1320   -52.2180     7.7610     8.0020     8.7030    -8.9300  -999.2500  -999.2500  -999.2500  -999.2500  -999.2500
 1217.5000    93.0770   -52.2740     7.7800     7.9920     8.6780    -4.1110  -999.2500  -999.2500  -999.2500  -999.2500  -999.2500
 1218.0000    96.8420   -52.4260     7.7960     7.9820     8.6530     0.7080  -999.2500  -999.2500  -999.2500  -999.2500  -999.2500
 1218.5000    94.7820   -52.7550     7.7960     7.9730     8.6290     4.4910  -999.2500  -999.2500  -999.2500  -999.2500  -999.2500
 1219.0000    89.2720   -53.0260     7.7960     7.9630     8.6040   -15.4690  -999.2500  -999.2500  -999.2500  -999.2500  -999.2500
 1219.5000    87.2490   -52.9890     7.7960     7.9530     8.5790   -15.4690  -999.2500  -999.2500  -999.2500  -999.2500  -999.2500
