~VERSION INFORMATION
 VERS.                2.0:   CWLS LOG ASCII STANDARD - VERSION 2.0
 WRAP.                 NO:   ONE LINE PER DEPTH STEP
~WELL INFORMATION
#MNEM.UNIT      DATA TYPE    INFORMATION
#----------   ------------   ------------------------------
 STRT.F            0.0000:   START DEPTH
 STOP.F         1064.0000:   STOP DEPTH
 STEP.F            0.5000:   STEP LENGTH
 NULL.          -999.2500:   NO VALUE
 COMP.  JOHN BROWN E. & C:   COMPANY
 WELL. JOHN BROWN NPR 3-1 "X" #68-2:   WELL
 FLD .                NPR:   FIELD
 LOC .       S2 T38N R78W:   LOCATION
 CNTY.            NATRONA:   COUNTY
 STAT.            WYOMING:   STATE
 CTRY. UNITED STATES OF AMERICA:   COUNTRY
 SRVC.     ATLAS WIRELINE:   SERVICE COMPANY
 DATE.        25-JAN-1992:   LOGDATE
 API .     49025224850000:   API NUMBER
~CURVE INFORMATION
#MNEM.UNIT       API CODE    CURVE DESCRIPTION
#----------   ------------   ------------------------------
 DEPT.F                  :   
 GRR .GAPI   07 310 01 00:   GAMMA RAY FROM RESISTIVITY
 TENR.LBS    07 635 01 00:   TENSION
 RILD.OHMM   07 120 46 00:   INDUCTION LOG DEEP RESISTIVITY
 RILM.OHMM   07 120 44 00:   INDUCTION LOG MEDIUM RESISTIVITY
~PARAMETER INFORMATION
#MNEM.UNIT          VALUE    DESCRIPTION
#----------   ------------   ------------------------------
 EKB .F         5197.0000:   Kelly bushing
 EGL .F         5187.0000:   Ground level
 TD  .F         1060.0000:   Total depth
 DATE.        25-JAN-1992:   Date logged
 CLNT.            A2DTECH:   Client Code
 PD  .                 GL:   Permanent Datum
 EPD .F               518:   Elevation Permanent Datum
 LMF .                 KB:   Log Measured From
 DMF .                 KB:   Drilling Measured From
 DAPD.F                10:   Feet Above Permanent Datum
 DD  .F              1060:   Depth driller
 DL  .F              1057:   Depth logger
 BLI .F              1055:   Bottom log interval
 CS1 .IN            10.75:   Casing size
 CBD1.       10.75" @ 50':   Casing driller 1
 CBL1.F                50:   Casing logger 1
 BS1 .IN             8.75:   Bit size
 BSD1.F              1060:   Depth drilled with bit1
 DFT .                AIR:   Type fluid in hole
 LUN .            HL-6307:   Logging unit number
 LUL .             CASPER:   Logging unit location
 ENGI.             ZIEGER:   Recorded By
 WITN.             STRONG:   Witnessed by
 ORIG.           5" PRINT:   Origin of data
 UWI .     49025224850000:   Unique Well ID
 DICO. A2D TECHNOLOGIES, INC.:   Digitizing Company
~OTHER INFORMATION
~A    DEPT      GRR      TENR       RILD       RILM   
# ...
  730.0000   135.0700   -28.9590     6.3270     6.1120
  730.5000   134.3010   -28.8250     6.2540     6.0900
  731.0000   132.4470   -28.6920     6.1190     6.0370
  731.5000   130.6570   -28.5580     5.9310     5.8990
  732.0000   129.1310   -28.4250     5.6250     5.7470
  732.5000   127.7260   -28.2910     5.3020     5.3060
  733.0000   127.1180   -28.1580     4.9790     4.9000
  733.5000   126.5540   -28.0240     4.6470     4.6420
  734.0000   125.9890   -27.8910     4.6040     4.4490
  734.5000   125.7150   -27.7570     4.6040     4.3160
  735.0000   125.7120   -27.6240     4.6040     4.4510
  735.5000   125.6860   -27.4900     4.6630     4.5610
  736.0000   126.7360   -27.3570     4.7720     4.7660
  736.5000   128.1190   -27.2230     5.0670     4.9860
  737.0000   129.5230   -27.0900     5.3620     5.2060
  737.5000   129.8150   -26.9570     5.5960     5.4260
  738.0000   129.2070   -26.8230     5.8100     5.6470
  738.5000   128.9420   -26.6900     6.0230     5.8670
  739.0000   128.9450   -26.5560     6.1590     6.0960
  739.5000   128.2010   -26.4230     6.2700     6.3140
  740.0000   126.9310   -26.2890     6.3710     6.3790
  740.5000   126.7330   -26.1560     6.4270     6.4450
  741.0000   129.0970   -26.0220     6.4840     6.5100
  741.5000   132.5980   -25.8890     6.5400     6.5760
  742.0000   134.0040   -25.7550     6.6840     6.6410
  742.5000   132.4480   -25.6220     6.8280     6.7070
  743.0000   131.8250   -25.4880     6.9130     6.7720
  743.5000   132.6080   -25.3550     6.9130     6.8380
  744.0000   133.1790   -25.2210     6.9130     6.8710
  744.5000   131.9960   -25.0880     6.9130     6.8980
  745.0000   130.8480   -24.9540     6.9130     6.9250
  745.5000   129.7930   -24.8210     6.9740     6.9520
  746.0000   130.0450   -24.6880     7.0470     6.9790
  746.5000   131.8880   -24.5540     7.1190     7.0060
  747.0000   133.3070   -24.4210     7.1730     7.0330
  747.5000   132.0580   -24.3790     7.1610     7.0600
  748.0000   130.0140   -24.5860     7.1510     7.0870
  748.5000   126.0900   -24.7940     7.1410     7.1070
  749.0000   122.7320   -25.0020     7.1310     7.0650
  749.5000   119.9560   -25.2090     7.1220     7.0320
  750.0000   120.2250   -25.4170     7.1070     7.0000
  750.5000   125.6750   -25.6240     7.1180     6.9410
  751.0000   129.4180   -25.8320     7.1380     6.8240
  751.5000   128.9040   -26.0400     7.1600     6.7080
  752.0000   128.8640   -26.2470     7.1730     6.5910
  752.5000   130.4050   -26.4550     7.0050     6.4740
  753.0000   131.2710   -26.6620     6.8550     6.3570
  753.5000   131.1170   -26.8700     6.6820     6.2400
  754.0000   131.7430   -27.0780     6.4880     6.1060
  754.5000   134.1870   -27.2850     6.2940     5.9560
  755.0000   132.4070   -27.4930     6.0580     5.8000
  755.5000   129.1090   -27.7010     5.6040     5.5490
  756.0000   127.1230   -27.9080     5.1500     5.2880
  756.5000   127.9860   -28.1160     4.6600     4.7210
  757.0000   127.5640   -28.3230     4.1120     4.1380
  757.5000   126.9270   -28.5310     3.5640     3.5540
  758.0000   128.1320   -28.7390     3.0580     2.9710
  758.5000   130.4420   -28.9460     2.7230     2.5280
  759.0000   132.7970   -29.1540     2.3880     2.3100
  759.5000   132.9070   -29.3620     2.2530     2.1390
  760.0000   128.6290   -29.5690     2.2120     2.1340
  760.5000   121.4680   -29.7770     2.2010     2.1270
  761.0000   120.2750   -29.9840     2.1990     2.1190
  761.5000   123.3360   -30.1920     2.2760     2.4390
  762.0000   129.0710   -30.4000     2.4210     2.8230
  762.5000   132.8200   -30.6070     2.8230     3.2070
  763.0000   135.6880   -30.8150     3.2240     3.5910
  763.5000   139.0130   -31.0220     3.6250     3.9740
  764.0000   139.5110   -31.2300     4.0270     4.3580
  764.5000   138.3130   -31.4380     4.4240     4.6460
  765.0000   137.0880   -31.6450     4.8190     4.8260
  765.5000   137.0250   -31.8530     5.2140     5.0050
  766.0000   137.9420   -32.0610     5.4790     5.1840
  766.5000   140.1630   -32.2680     5.6850     5.3170
  767.0000   141.6360   -32.4760     5.7470     5.3740
  767.5000   140.1170   -32.6830     5.6730     5.4370
  768.0000   138.6560   -32.8910     5.4880     5.3230
  768.5000   137.9670   -33.0990     5.2880     5.1120
  769.0000   141.4030   -33.3060     5.0790     4.8680
  769.5000   145.7300   -33.5140     4.8510     4.6230
  770.0000   147.7030   -33.7220     4.6240     4.3780
  770.5000   149.1650   -33.9290     4.3970     4.1210
  771.0000   149.1810   -34.1370     4.1590     4.0990
  771.5000   146.8350   -34.3530     4.1240     4.0580
  772.0000   144.1340   -34.1710     4.0450     4.0080
  772.5000   141.7450   -33.9810     4.0690     4.0910
  773.0000   139.9900   -33.7920     4.1650     4.3160
  773.5000   141.6130   -33.6020     4.4200     4.5410
  774.0000   146.2060   -33.4120     4.6750     4.7660
  774.5000   150.8240   -33.2220     4.9300     4.9910
  775.0000   152.0140   -33.0330     5.1840     5.2160
  775.5000   151.1320   -32.8430     5.4390     5.4410
  776.0000   149.1170   -32.6530     5.6750     5.6660
  776.5000   144.9300   -32.4630     5.8840     5.8910
  777.0000   143.9050   -32.2740     6.0930     6.1160
  777.5000   145.0680   -32.0840     6.3020     6.3050
  778.0000   146.3060   -31.8940     6.4850     6.4440
  778.5000   146.7920   -31.7040     6.5400     6.5840
  779.0000   144.8800   -31.5150     6.5610     6.6620
  779.5000   141.2050   -31.3250     6.5810     6.6620
  780.0000   140.7700   -31.1350     6.6010     6.5150
  780.5000   145.2360   -30.9450     6.4650     6.3750
  781.0000   146.2640   -30.7550     6.3370     6.2350
  781.5000   143.9550   -30.5660     6.2450     6.0950
  782.0000   140.0830   -30.3760     6.0720     5.9550
  782.5000   137.3950   -30.1860     5.8760     5.8150
  783.0000   139.3710   -29.9960     5.6800     5.6250
  783.5000   145.9550   -29.8070     5.4840     5.4180
  784.0000   149.1340   -29.6170     5.2270     5.1880
  784.5000   146.8650   -29.4270     4.9100     4.9570
  785.0000   144.5030   -29.2370     4.5930     4.7270
  785.5000   144.7170   -29.0480     4.2830     4.4960
  786.0000   149.0270   -28.8580     4.0080     4.1590
  786.5000   153.3420   -28.6680     4.0080     4.2690
  787.0000   150.9590   -28.4780     4.3560     4.4740
  787.5000   145.5870   -28.2890     4.4420     4.6790
  788.0000   140.3460   -28.0990     4.5570     4.8840
  788.5000   139.9710   -27.9090     4.7990     5.0960
  789.0000   142.7320   -27.7190     5.0490     5.4090
  789.5000   145.4490   -27.5290     5.5440     5.7340
  790.0000   144.2290   -27.3400     6.0180     6.0590
  790.5000   140.9810   -27.1500     6.1600     6.1870
  791.0000   139.0670   -26.9600     6.3040     6.2450
  791.5000   140.9950   -26.7700     6.4230     6.3190
  792.0000   146.8250   -26.5810     6.4360     6.3930
  792.5000   152.4540   -26.3910     6.4500     6.4670
  793.0000   150.9200   -26.2010     6.4630     6.5400
  793.5000   149.9690   -26.0110     6.4760     6.5270
  794.0000   149.9090   -25.8220     6.4900     6.5130
  794.5000   149.8300   -25.6320     6.5030     6.5000
  795.0000   149.7570   -25.4420     6.5170     6.4870
  795.5000   149.6870   -25.2520     6.5300     6.4740
  796.0000   149.6310   -25.0630     6.5400     6.4600
  796.5000   148.7720   -24.8730     6.5010     6.4470
  797.0000   147.5240   -24.6830     6.4630     6.4340
  797.5000   146.7730   -24.4930     6.4260     6.4210
  798.0000   145.9730   -24.3030     6.3880     6.4070
  798.5000   144.5120   -24.1140     6.3610     6.3940
  799.0000   144.1050   -23.9240     6.4160     6.3810
  799.5000   145.0500   -23.7340     6.4590     6.3680
  800.0000   145.8910   -23.5440     6.5020     6.4160
  800.5000   144.6280   -23.3550     6.5400     6.3960
  801.0000   145.9410   -23.1650     6.4800     6.3690
  801.5000   150.2870   -22.9750     6.2960     6.2350
  802.0000   155.0260   -22.7850     6.1220     6.0590
  802.5000   157.4550   -22.5960     5.9480     5.8820
