~VERSION INFORMATION
 VERS.                2.0:   CWLS LOG ASCII STANDARD - VERSION 2.0
 WRAP.                 NO:   ONE LINE PER DEPTH STEP
~WELL INFORMATION
#MNEM.UNIT      DATA TYPE    INFORMATION
#----------   ------------   ------------------------------
 STRT.F            5.5000:   START DEPTH
 STOP.F         3006.0000:   STOP DEPTH
 STEP.F            0.5000:   STEP LENGTH
 NULL.          -999.2500:   NO VALUE
 COMP.    FENIX & SCISSON:   COMPANY
 WELL.  FENIX "AX" #28-28:   WELL
 FLD .  TEAPOT DOME NPR-3:   FIELD
 LOC .      S28 T39N R78W:   LOCATION
 CNTY.            NATRONA:   COUNTY
 STAT.            WYOMING:   STATE
 CTRY. UNITED STATES OF AMERICA:   COUNTRY
 SRVC.           BIRDWELL:   SERVICE COMPANY
 DATE.        23-JAN-1980:   LOGDATE
 API .     49025107960000:   API NUMBER
~CURVE INFORMATION
#MNEM.UNIT       API CODE    CURVE DESCRIPTION
#----------   ------------   ------------------------------
 DEPT.F                  :   
 GRD .GAPI   45 310 01 00:   GAMMA RAY FROM DENSITY LOG
 CALD.IN     45 280 60 00:   CALIPER FROM DENSITY LOG
 DPHI.DEC    45 890 12 00:   DENSITY POROSITY SANDSTONE
 NPHI.DEC    42 890 03 00:   NEUTRON POROSITY SANDSTONE
 CORR.G/C3   45 356 01 00:   DENSITY CORRECTION
 SPR .MV     05 010 01 00:   SPONTANEOUS POTENTIAL FROM RES.
 ILD .OHMM   05 120 40 00:   INDUCTION LOG DEEP RESISTIVITY
 SN  .OHMM   05 040 16 00:   SHORT NORMAL 16"
~PARAMETER INFORMATION
#MNEM.UNIT          VALUE    DESCRIPTION
#----------   ------------   ------------------------------
 EKB .F         5120.0000:   Kelly bushing
 EGL .F         5110.0000:   Ground level
 EDF .F         5119.0000:   Drilling floor
 EPD .F         5110.0000:   Permanent datum
 TD  .F         3006.0000:   Total depth
 CLNT.            A2DTECH:   Client Code
 SL  . 600' FSL & 1300' FWL:   Surface Location
 PD  .                 GL:   Permanent Datum
 DAPD.F                 9:   Feet Above Permanent Datum
 DATE.        23-JAN-1980:   Date Logged [DD-MMM-YYYY]
 DD  .F              3006:   Depth driller
 DL  .F              3006:   Depth logger
 BLI .F              3006:   Bottom log interval
 TLI .F                10:   Top log interval
 CS1 .IN            8.625:   Casing size
 CBD1.      8.625" @ 440':   Casing driller 1
 CBL1.F               460:   Casing logger 1
 BS1 .IN            7.875:   Bit size
 BSD1.F              3006:   Depth drilled with bit1
 DFT .       GEL MUD FULL:   Type fluid in hole
 DFD .                  9:   Density
 DFV .                 46:   Viscosity
 DFPH.                 11:   pH
 DFL .               17.2:   Fluid loss
 MSS .           MUD TANK:   Source of sample
 RMS .OHMM            1.9:   Rm
 MST .F                60:   Rm Meas. temp.
 RMF .OHMM            .73:   Rmf
 MFST.F                62:   Rmf Meas. temp.
 MFSS.               MEAS:   Source Rmf.
 RMC .OHMM            .95:   Rmc
 MCST.F                62:   Rmc Meas. temp.
 TCS .HRS               5:   Time Circ. stopped
 MRT .F               110:   Maximum recorded temp.
 LUN .               3029:   Logging unit number
 LUL .             CASPER:   Logging unit location
 ENGI.           T. WOLFF:   Recorded By
 WITN.           DINSMORE:   Witnessed by
 ORIG.           5" PRINT:   Origin of data
 UWI .     49025107960000:   Unique Well ID
 DICO. A2D TECHNOLOGIES, INC.:   Digitizing Company
~OTHER INFORMATION
~A    DEPT      GRD      CALD       DPHI         NPHI     CORR        SPR        ILD         SN   
# ...
  613.0000   103.3575     9.1442     0.2282     0.0880     0.0310   -27.1429    10.1788    11.0124
  613.5000   101.5988     9.1464     0.2447     0.0868     0.0312   -23.5329    10.1171    11.0227
  614.0000    99.7002     9.1486     0.2407     0.0850     0.0360   -21.8453    10.1308    11.0312
  614.5000   101.5141     9.1508     0.2374     0.0783     0.0468   -22.1513    10.0716    11.0397
  615.0000    99.3080     9.1530     0.2331     0.0774     0.0435   -23.2639    10.0136    11.1273
  615.5000    99.0291     9.1551     0.2337     0.0840     0.0321   -26.4223    10.0940    11.2157
  616.0000   100.5395     9.1573     0.2313     0.0851     0.0308   -26.7163    10.1050    11.3856
  616.5000   100.4146     9.1298     0.2301     0.0845     0.0326   -28.7545    10.1162    11.3944
  617.0000    99.6971     9.1023     0.2366     0.0764     0.0585   -31.4725    10.1274    11.3221
  617.5000    96.7573     9.1046     0.2504     0.0640     0.0723   -33.2066    10.1407    11.1703
  618.0000    99.4472     9.1221     0.2665     0.0604     0.0604   -33.4704    10.1518    11.0992
  618.5000   105.6926     9.1089     0.2677     0.0774     0.0410   -32.8104    10.1628    11.1080
  619.0000   102.4565     9.1116     0.2559     0.0852     0.0367   -32.3159    10.1739    11.1166
  619.5000    98.0353     9.1138     0.2478     0.0833     0.0370   -31.7887    10.1850    11.2050
  620.0000    99.9160     9.1303     0.2352     0.0779     0.0372   -30.2795    10.1960    11.4564
  620.5000   102.2356     9.1330     0.2330     0.0749     0.0374   -27.4521    10.2778    11.7152
  621.0000   101.3699     9.1352     0.2339     0.0760     0.0379   -24.2974    10.3603    11.8927
  621.5000    96.3561     9.1522     0.2372     0.0793     0.0394   -22.6388    10.5158    12.0729
  622.0000    94.8978     9.1544     0.2386     0.0844     0.0381   -22.9727    10.6736    12.1688
  622.5000    91.6618     9.1566     0.2355     0.0894     0.0353   -23.7333    10.7593    12.1782
  623.0000    90.9442     9.1588     0.2337     0.0927     0.0340   -23.2634    10.8456    12.0986
  623.5000    92.0045     9.1313     0.2391     0.0938     0.0358   -23.1045    10.9326    12.1102
  624.0000    96.1758     9.1335     0.2537     0.0929     0.0420   -23.4392    11.0205    12.1196
  624.5000    98.1373     9.1213     0.2582     0.0785     0.0498   -26.1388    11.1091    12.0427
  625.0000    98.4445     9.1235     0.2570     0.0805     0.0485   -29.8825    11.1213    11.9663
  625.5000   100.9671     9.1257     0.2551     0.0877     0.0412   -31.7867    11.2131    11.8902
  626.0000   102.1945     9.1279     0.2485     0.0936     0.0278   -31.6781    11.1451    11.7310
  626.5000    95.8532     9.1301     0.2335     0.0930     0.0250   -30.2829    11.0804    11.6566
  627.0000    93.6542     9.1322     0.2265     0.0900     0.0331   -29.8804    10.9433    11.5827
  627.5000    93.0790     9.1344     0.2264     0.0827     0.0316   -28.3201    10.8021    11.5916
  628.0000    97.2561     9.1366     0.2292     0.0737     0.0348   -25.1272    10.5950    11.4362
  628.5000   100.5386     9.1536     0.2333     0.0749     0.0320   -22.7158    10.4611    11.4472
  629.0000    99.3766     9.1558     0.2348     0.0769     0.0322   -20.8690    10.3289    11.2916
  629.5000    99.9924     9.1580     0.2319     0.0718     0.0355   -21.5274    10.3401    11.3025
  630.0000   103.7193     9.1453     0.2272     0.0699     0.0297   -21.4987    10.2773    11.2286
  630.5000   103.2980     9.1481     0.2289     0.0789     0.0329   -21.0467    10.2201    11.2145
  631.0000    99.1314     9.1349     0.2379     0.0732     0.0467   -21.9785    10.2316    11.0866
  631.5000    99.2906     9.1376     0.2403     0.0732     0.0409   -25.8719    10.2427    11.0163
  632.0000   100.1084     9.1398     0.2366     0.0848     0.0275   -28.8937    10.2540    10.9464
  632.5000    94.9522     9.1419     0.2333     0.0817     0.0280   -29.5876    10.1944    10.8789
  633.0000    96.6050     9.1287     0.2372     0.0766     0.0446   -31.3219    10.1353    10.8100
  633.5000    99.8875     9.1161     0.2509     0.0775     0.0283   -30.8763    10.1491    10.7791
  634.0000   101.3864     9.1188     0.2473     0.0810     0.0254   -28.2874    10.0902    10.6666
  634.5000    98.3043     9.1210     0.2424     0.0792     0.0332   -25.5307    10.0290    10.5937
  635.0000    98.9201     9.1232     0.2403     0.0780     0.0244   -24.2861     9.8367    10.4635
  635.5000   100.5729     9.1254     0.2352     0.0863     0.0200   -22.4608     9.7124    10.3232
  636.0000   102.0776     9.1276     0.2327     0.0890     0.0264   -22.1269     9.5236    10.3332
  636.5000    99.1378     9.1298     0.2359     0.0865     0.0266   -20.9664     9.3386    10.2657
  637.0000    97.8277     9.1325     0.2669     0.0868     0.0238   -20.9311     9.1571    10.2006
  637.5000   101.4321     9.1346     0.2797     0.0886     0.0150   -23.1329     9.1015    10.2111
  638.0000   100.3984     9.1368     0.2763     0.0906     0.0046   -26.5998     8.9884    10.1437
  638.5000   100.8661     9.1390     0.2649     0.0938     0.0080   -28.4327     8.8753    10.0096
  639.0000   102.8152     9.1412     0.2571     0.0914     0.0144   -29.6640     8.8236     9.8754
  639.5000   105.8013     9.1434     0.2573     0.0848     0.0159   -31.4592     8.7726     9.8125
  640.0000   102.8616     9.1455     0.2582     0.0833     0.0101   -31.4266     8.7217     9.6812
  640.5000    94.2922     9.1477     0.2576     0.0853     0.0073   -28.9424     8.6711     9.6887
  641.0000    93.4207     9.1499     0.2512     0.0841     0.0075   -26.1346     8.6829     9.6963
  641.5000    97.1534     9.1521     0.2347     0.0864     0.0047   -24.0622     8.6924     9.7039
  642.0000    99.2507     9.1543     0.2350     0.0927     0.0049   -23.2913     8.7018     9.7826
  642.5000    98.8294     9.1565     0.2424     0.0898     0.0127   -21.9371     8.7113     9.8602
  643.0000   101.5556     9.1592     0.2433     0.0821     0.0174   -22.4966     8.7208     9.8678
  643.5000   101.8446     9.1614     0.2353     0.0824     0.0192   -23.5671     8.7908     9.8754
  644.0000   105.4234     9.1635     0.2221     0.0820     0.0179   -25.4669     8.8003     9.8128
  644.5000   105.1445     9.1657     0.2213     0.0817     0.0181   -27.5313     8.8099     9.7487
  645.0000   106.0624     9.1679     0.2266     0.0832     0.0183   -29.9852     8.8195     9.5514
  645.5000   109.1967     9.1547     0.2431     0.0921     0.0035   -34.0022     8.7080     9.4234
  646.0000   106.9976     9.1574     0.2541     0.0945     0.0098   -33.2366     8.5975     9.2310
  646.5000   106.2743     9.1442     0.2613     0.0872     0.0130   -31.1404     8.2580     9.0425
  647.0000   106.1552     9.1470     0.2909     0.0842     0.0132   -27.1155     7.9315     8.8577
  647.5000   105.8815     9.1491     0.2912     0.0866     0.0135   -25.1677     7.6699     8.5540
  648.0000   109.7571     9.1513     0.2822     0.0913     0.0107   -24.4068     7.4660     8.3167
  648.5000   112.3101     9.1684     0.2734     0.0928     0.0048   -23.9427     7.3178     8.0344
  649.0000   112.6183     9.1706     0.2728     0.0962     0.0051   -23.4786     7.2321     7.9282
  649.5000   111.4622     9.1733     0.2728     0.0978     0.0053   -22.5694     7.1407     7.8764
  650.0000   105.7037     9.1901     0.2730     0.0981     0.0161   -23.2938     7.0505     7.7040
  650.5000   106.0296     9.1921     0.2718     0.0980     0.0254   -23.7199     6.9149     7.5628
  651.0000   104.8147     9.1942     0.2675     0.1043     0.0256   -22.8106     6.7610     7.4028
  651.5000   104.2881     9.2111     0.2561     0.1090     0.0319   -30.7076     6.6040     7.3030
  652.0000   106.0933     9.2280     0.2494     0.1132     0.0457   -32.8616     6.4311     7.2046
  652.5000   105.8134     9.2300     0.2512     0.1135     0.0836   -32.8378     6.1768     7.1076
  653.0000   108.0631     9.2321     0.2591     0.1056     0.1457   -31.9286     6.0151     6.9137
