~VERSION INFORMATION
 VERS.                2.0:   CWLS LOG ASCII STANDARD - VERSION 2.0
 WRAP.                 NO:   ONE LINE PER DEPTH STEP
~WELL INFORMATION
#MNEM.UNIT      DATA TYPE    INFORMATION
#----------   ------------   ------------------------------
 STRT.F            5.0000:   START DEPTH
 STOP.F         4012.0000:   STOP DEPTH
 STEP.F            0.5000:   STEP LENGTH
 NULL.          -999.2500:   NO VALUE
 COMP.   LAWRENCE ALLISON:   COMPANY
 WELL. LAWRENCE "X" 51 #1-15:   WELL
 FLD .                NPR:   FIELD
 LOC .      S15 T38N R78W:   LOCATION
 CNTY.            NATRONA:   COUNTY
 STAT.            WYOMING:   STATE
 CTRY. UNITED STATES OF AMERICA:   COUNTRY
 SRVC.      DRESSER ATLAS:   SERVICE COMPANY
 DATE.        03-JUN-1985:   LOGDATE
 API .     49025110270000:   API NUMBER
~CURVE INFORMATION
#MNEM.UNIT       API CODE    CURVE DESCRIPTION
#----------   ------------   ------------------------------
 DEPT.F                  :   
 NPHI.DEC    42 890 03 00:   NEUTRON POROSITY SANDSTONE
 RHOB.G/C3   45 350 01 00:   BULK DENSITY
 CORR.G/C3   45 356 01 00:   DENSITY CORRECTION
 TEND.LBS    45 635 01 00:   TENSION FROM DENSITY LOG
 CALD.IN     45 280 60 00:   CALIPER FROM DENSITY LOG
 GRR .GAPI   07 310 01 00:   GAMMA RAY FROM RESISTIVITY
 SPR .MV     07 010 01 00:   SPONTANEOUS POTENTIAL
 RSFL.OHMM   07 220 01 00:   SPHERICALLY FOCUSED LOG RES.
 RILD.OHMM   07 120 46 00:   DEEP INDUCTION RESISTIVITY
 RILM.OHMM   07 120 44 00:   INDUCTION LOG MEDIUM RESISTIVITY
 TENR.LBS    07 635 01 00:   TENSION
~PARAMETER INFORMATION
#MNEM.UNIT          VALUE    DESCRIPTION
#----------   ------------   ------------------------------
 EKB .F         5235.0000:   Kelly bushing
 EGL .F         5222.0000:   Ground level
 EDF .F            0.0000:   Drilling floor
 TD  .F         4010.0000:   Total depth
 DATE.        03-JUN-1985:   Date logged
 CLNT.            A2DTECH:   Client Code
 SL  . 202' FNL & 2478' FEL:   Surface Location
 PD  .                 GL:   Permanent Datum
 EPD .F              5222:   Elevation Permanent Datum
 LMF .                 KB:   Log Measured From
 DMF .                 KB:   Drilling Measured From
 DAPD.F                13:   Feet Above Permanent Datum
 DD  .F              4010:   Depth driller
 DL  .F              4005:   Depth logger
 BLI .F              4003:   Bottom log interval
 CS1 .IN            8.625:   Casing size
 CBD1.      8.625" @ 605':   Casing driller 1
 CBL1.F               608:   Casing logger 1
 BS1 .IN            7.875:   Bit size
 BSD1.F              4010:   Depth drilled with bit1
 DFT .            KCL/GEL:   Type fluid in hole
 DFD .                  9:   Density
 DFV .                 45:   Viscosity
 DFPH.                  8:   pH
 DFL .                9.8:   Fluid loss
 MSS .           FLOWLINE:   Source of sample
 RMS .OHMM            .40:   Rm
 MST .F                65:   Rm Meas. temp.
 RMF .OHMM            .32:   Rmf
 MFST.F                65:   Rmf Meas. temp.
 RMC .OHMM            .50:   Rmc
 MCST.F                65:   Rmc Meas. temp.
 MFSS.               MEAS:   Source Rmf.
 MCSS.               CALC:   Source Rmc.
 RMB .OHMM            .20:   Rm. at BHT
 BHT .F               130:   BHT.
 TCS .HRS               3:   Time Circ. stopped
 MRT .F               130:   Maximum recorded temp.
 LUN .               6274:   Logging unit number
 LUL .               GLTE:   Logging unit location
 ENGI.             RAUTIO:   Recorded By
 WITN.             STRONG:   Witnessed by
 ORIG.     2.5", 5" PRINT:   Origin of data
 UWI .     49025110270000:   Unique Well ID
 DICO. A2D TECHNOLOGIES, INC.:   Digitizing Company
~OTHER INFORMATION
~A    DEPT    NPHI       RHOB       CORR       TEND       CALD        GRR        SPR       RSFL       RILD       RILM       TENR   
# ...
 1743.5000  -999.2500  -999.2500  -999.2500  -999.2500  -999.2500   104.2530   -84.8880     8.4530     7.7540     7.8480   -83.3560
 1744.0000  -999.2500  -999.2500  -999.2500  -999.2500  -999.2500   104.5950   -84.7220     8.3760     7.8310     7.9310   -81.3440
 1744.5000  -999.2500  -999.2500  -999.2500  -999.2500  -999.2500   106.1470   -84.6440     8.6290     7.9070     8.0130   -79.3320
 1745.0000  -999.2500  -999.2500  -999.2500  -999.2500  -999.2500   106.1660   -84.7680     8.8350     7.9840     8.0950   -77.3200
 1745.5000  -999.2500  -999.2500  -999.2500  -999.2500  -999.2500   107.2440   -84.8880     9.0410     8.0610     8.1780   -75.3080
 1746.0000  -999.2500  -999.2500  -999.2500  -999.2500  -999.2500   109.8380   -85.0070     9.2470     8.0730     8.2230   -73.2960
 1746.5000  -999.2500  -999.2500  -999.2500  -999.2500  -999.2500   110.6480   -85.1290     9.4410     8.1050     8.1980   -71.2840
 1747.0000  -999.2500  -999.2500  -999.2500  -999.2500  -999.2500   109.0840   -85.3120     9.3420     8.1430     8.1780   -69.2720
 1747.5000  -999.2500  -999.2500  -999.2500  -999.2500  -999.2500   107.5500   -85.7450     9.2940     8.1480     8.1590   -67.2600
 1748.0000  -999.2500  -999.2500  -999.2500  -999.2500  -999.2500   107.1340   -86.1660     9.1840     8.1470     8.1390   -65.2480
 1748.5000  -999.2500  -999.2500  -999.2500  -999.2500  -999.2500   107.2180   -86.5840     9.1000     8.1480     8.1190   -65.2160
 1749.0000  -999.2500  -999.2500  -999.2500  -999.2500  -999.2500   110.5660   -86.6550     9.0900     8.1300     8.0990   -65.4610
 1749.5000  -999.2500  -999.2500  -999.2500  -999.2500  -999.2500   114.6420   -86.3380     9.0800     8.0960     8.0790   -65.7070
 1750.0000  -999.2500  -999.2500  -999.2500  -999.2500  -999.2500   118.7520   -86.0230     9.0690     8.0610     8.0590   -65.9530
 1750.5000  -999.2500  -999.2500  -999.2500  -999.2500  -999.2500   122.6580   -85.6940     9.0590     8.0260     8.0400   -66.1990
 1751.0000  -999.2500  -999.2500  -999.2500  -999.2500  -999.2500   123.7460   -85.6090     9.0480     7.9910     8.0200   -66.4450
 1751.5000  -999.2500  -999.2500  -999.2500  -999.2500  -999.2500   123.7710   -85.5510     9.0370     7.9560     8.0000   -66.6900
 1752.0000  -999.2500  -999.2500  -999.2500  -999.2500  -999.2500   121.6470   -85.4950     9.0270     7.9220     7.9800   -66.9360
 1752.5000  -999.2500  -999.2500  -999.2500  -999.2500  -999.2500   117.8300   -85.4380     9.0160     7.8870     7.9600   -67.1820
 1753.0000  -999.2500  -999.2500  -999.2500  -999.2500  -999.2500   116.2630   -85.3810     9.0060     7.8520     7.9400   -67.4280
 1753.5000  -999.2500  -999.2500  -999.2500  -999.2500  -999.2500   116.8610   -85.3230     8.9950     7.8170     7.9210   -67.6740
 1754.0000  -999.2500  -999.2500  -999.2500  -999.2500  -999.2500   119.0970   -85.2660     8.9840     7.7810     7.9010   -67.9190
 1754.5000  -999.2500  -999.2500  -999.2500  -999.2500  -999.2500   117.5710   -85.2600     8.9740     7.8170     7.8810   -68.1650
 1755.0000  -999.2500  -999.2500  -999.2500  -999.2500  -999.2500   117.3160   -85.5620     8.9630     7.8810     7.8610   -68.4110
 1755.5000  -999.2500  -999.2500  -999.2500  -999.2500  -999.2500   119.3770   -85.8640     8.9530     7.9450     7.8530   -68.6570
 1756.0000  -999.2500  -999.2500  -999.2500  -999.2500  -999.2500   120.0350   -86.1640     8.9420     8.0080     7.9880   -68.9030
 1756.5000  -999.2500  -999.2500  -999.2500  -999.2500  -999.2500   115.9410   -86.4110     8.9330     8.0720     8.0860   -69.1480
 1757.0000  -999.2500  -999.2500  -999.2500  -999.2500  -999.2500   113.6260   -86.2300     8.9710     8.1360     8.1840   -69.3940
 1757.5000  -999.2500  -999.2500  -999.2500  -999.2500  -999.2500   111.2070   -86.0430     9.0160     8.2640     8.2820   -69.6400
 1758.0000  -999.2500  -999.2500  -999.2500  -999.2500  -999.2500   108.8140   -85.8580     9.0160     8.4520     8.4180   -69.8860
 1758.5000  -999.2500  -999.2500  -999.2500  -999.2500  -999.2500   107.7580   -85.6730     9.1820     8.6410     8.6080   -70.1320
 1759.0000  -999.2500  -999.2500  -999.2500  -999.2500  -999.2500   108.9050   -85.4890     9.3810     8.8300     8.7980   -70.3770
 1759.5000  -999.2500  -999.2500  -999.2500  -999.2500  -999.2500   109.1400   -85.5390     9.5800     8.9340     8.9880   -70.6230
 1760.0000  -999.2500  -999.2500  -999.2500  -999.2500  -999.2500   108.9440   -85.8400     9.7790     8.9340     9.0160   -70.8690
 1760.5000  -999.2500  -999.2500  -999.2500  -999.2500  -999.2500   109.8910   -86.1390     9.8860     8.8250     9.0160   -71.1150
 1761.0000  -999.2500  -999.2500  -999.2500  -999.2500  -999.2500   112.0690   -86.4380     9.8860     8.7710     8.8460   -71.3610
 1761.5000  -999.2500  -999.2500  -999.2500  -999.2500  -999.2500   111.9580   -86.6050     9.7960     8.6900     8.7140   -71.6060
 1762.0000  -999.2500  -999.2500  -999.2500  -999.2500  -999.2500   110.7070   -86.5010     9.7040     8.5590     8.5830   -71.8520
 1762.5000  -999.2500  -999.2500  -999.2500  -999.2500  -999.2500   111.3810   -86.3990     9.5700     8.4110     8.4510   -72.0980
 1763.0000  -999.2500  -999.2500  -999.2500  -999.2500  -999.2500   115.3830   -86.2960     9.4360     8.2630     8.3200   -72.3440
 1763.5000  -999.2500  -999.2500  -999.2500  -999.2500  -999.2500   119.2050   -86.1940     9.3010     8.0730     8.1880   -72.5900
 1764.0000  -999.2500  -999.2500  -999.2500  -999.2500  -999.2500   120.3820   -86.0920     9.1840     8.1030     8.0730   -72.8360
 1764.5000  -999.2500  -999.2500  -999.2500  -999.2500  -999.2500   118.5700   -85.9900     9.1500     8.1620     8.1570   -73.0810
 1765.0000  -999.2500  -999.2500  -999.2500  -999.2500  -999.2500   115.4210   -85.8860     9.1000     8.2210     8.2490   -73.3270
 1765.5000  -999.2500  -999.2500  -999.2500  -999.2500  -999.2500   115.2750   -85.7470     9.1000     8.2800     8.3400   -73.5730
 1766.0000  -999.2500  -999.2500  -999.2500  -999.2500  -999.2500   117.2550   -85.4720     9.1380     8.3380     8.4530   -73.8190
 1766.5000  -999.2500  -999.2500  -999.2500  -999.2500  -999.2500   121.7360   -85.2050     9.2460     8.3760     8.3520   -74.0650
 1767.0000  -999.2500  -999.2500  -999.2500  -999.2500  -999.2500   122.7730   -84.9390     9.3540     8.1920     8.2030   -74.3100
 1767.5000  -999.2500  -999.2500  -999.2500  -999.2500  -999.2500   122.3180   -84.6730     9.4620     7.9990     8.0540   -74.5560
 1768.0000  -999.2500  -999.2500  -999.2500  -999.2500  -999.2500   118.8690   -84.4110     9.5290     7.8530     7.9050   -74.8020
 1768.5000  -999.2500  -999.2500  -999.2500  -999.2500  -999.2500   112.6470   -84.2050     9.5290     7.7810     7.7560   -74.9320
 1769.0000  -999.2500  -999.2500  -999.2500  -999.2500  -999.2500   108.1120   -84.0590     9.3550     7.7170     7.6070   -74.5820
 1769.5000  -999.2500  -999.2500  -999.2500  -999.2500  -999.2500   105.2860   -83.9070     8.7520     7.6100     7.4580   -74.2320
 1770.0000  -999.2500  -999.2500  -999.2500  -999.2500  -999.2500   105.8260   -83.7580     8.1520     7.5690     7.3630   -73.8820
 1770.5000  -999.2500  -999.2500  -999.2500  -999.2500  -999.2500   112.5550   -83.6850     7.5690     7.7020     7.4750   -73.5320
 1771.0000  -999.2500  -999.2500  -999.2500  -999.2500  -999.2500   119.9770   -84.1050     7.7350     7.7960     7.6130   -73.1820
 1771.5000  -999.2500  -999.2500  -999.2500  -999.2500  -999.2500   124.9000   -84.5230     8.1450     7.8910     7.7500   -72.8320
 1772.0000  -999.2500  -999.2500  -999.2500  -999.2500  -999.2500   126.5820   -84.9400     8.5550     7.9850     7.8880   -72.4820
 1772.5000  -999.2500  -999.2500  -999.2500  -999.2500  -999.2500   121.9720   -85.3540     8.9640     8.0790     8.0250   -72.1320
 1773.0000  -999.2500  -999.2500  -999.2500  -999.2500  -999.2500   120.7060   -85.6100     9.3550     8.1730     8.1630   -71.7820
 1773.5000  -999.2500  -999.2500  -999.2500  -999.2500  -999.2500   120.4140   -85.2730     9.5290     8.2230     8.3000   -71.4320
