~VERSION INFORMATION
 VERS.                2.0:   CWLS LOG ASCII STANDARD - VERSION 2.0
 WRAP.                 NO:   ONE LINE PER DEPTH STEP
~WELL INFORMATION
#MNEM.UNIT      DATA TYPE    INFORMATION
#----------   ------------   ------------------------------
 STRT.F          500.0000:   START DEPTH
 STOP.F         4646.0000:   STOP DEPTH
 STEP.F            0.5000:   STEP LENGTH
 NULL.          -999.2500:   NO VALUE
 COMP.    FENIX & SCISSON:   COMPANY
 WELL. LAWRENCE NPR 3 "X" #34-10:   WELL
 FLD .                NPR:   FIELD
 LOC .      S10 T38N R78W:   LOCATION
 CNTY.            NATRONA:   COUNTY
 STAT.            WYOMING:   STATE
 CTRY. UNITED STATES OF AMERICA:   COUNTRY
 SRVC.              WELEX:   SERVICE COMPANY
 DATE.        12-OCT-1979:   LOGDATE
 API .     49025109290000:   API NUMBER
~CURVE INFORMATION
#MNEM.UNIT       API CODE    CURVE DESCRIPTION
#----------   ------------   ------------------------------
 DEPT.F                  :   
 SPR .MV     07 010 01 00:   SPONTANEOUS POTENTIAL
 SGRD.OHMM   07 220 05 00:   SHALLOW GUARD LOG RESISTIVITY
 ILD .OHMM   07 120 46 00:   DEEP INDUCTION RESISTIVITY
 ILM .OHMM   07 120 44 00:   INDUCTION LOG MEDIUM RESISTIVITY
 TEND.LBS    45 635 01 00:   TENSION FROM DENSITY LOG
 CORR.G/C3   45 356 01 00:   DENSITY CORRECTION
 RHOB.G/C3   45 350 01 00:   BULK DENSITY
 NPHI.DEC    42 890 03 00:   NEUTRON POROSITY SANDSTONE
 GRD .GAPI   45 310 01 00:   GAMMA RAY FROM DENSITY LOG
 CALD.IN     45 280 60 00:   CALIPER FROM DENSITY LOG
~PARAMETER INFORMATION
#MNEM.UNIT          VALUE    DESCRIPTION
#----------   ------------   ------------------------------
 EKB .F         5234.0000:   Kelly bushing
 EGL .F         5224.0000:   Ground level
 EDF .F            0.0000:   Drilling floor
 TD  .F         4650.0000:   Total depth
 DATE.        12-OCT-1979:   Date logged
 CLNT.            A2DTECH:   Client Code
 SL  . 2055' FNL & 1509' FWL:   Surface Location
 PD  .                 GL:   Permanent Datum
 DD  .F              4650:   Depth driller
 DL  .F              4646:   Depth logger
 BLI .F              4644:   Bottom log interval
 CS1 .IN              500:   Casing size
 CBD1.      8.625" @ 500':   Casing driller 1
 CBL1.F               502:   Casing logger 1
 BS1 .IN            7.875:   Bit size
 DFT .           CHEM/GEL:   Type fluid in hole
 DFD .                8.8:   Density
 DFV .                 62:   Viscosity
 DFPH.               11.2:   pH
 DFL .                4.5:   Fluid loss
 MSS .            MUD/PIT:   Source of sample
 RMS .OHMM           1.18:   Rm
 MST .F                60:   Rm Meas. temp.
 RMF .OHMM            .94:   Rmf
 MFST.F                60:   Rmf Meas. temp.
 RMC .OHMM           1.41:   Rmc
 MCST.F                60:   Rmc Meas. temp.
 MFSS.               MEAS:   Source Rmf.
 RMB .OHMM            .81:   Rm. at BHT
 BHT .F                87:   BHT.
 TCS .HRS               2:   Time Circ. stopped
 MRT .F                87:   Maximum recorded temp.
 LUN .               1892:   Logging unit number
 LUL .             CASPER:   Logging unit location
 ENGI.               REIN:   Recorded By
 WITN.           DINSMORE:   Witnessed by
 ORIG.           5" PRINT:   Origin of data
 UWI .     49025109290000:   Unique Well ID
 DICO. A2D TECHNOLOGIES, INC.:   Digitizing Company
 DAPD.                 10:   Feet Above Permanent Datum
 BSD1.F              4650:   Depth drilled with bit1
 MCSS.               MEAS:   Source Rmc.
 EPD .F              5224:   Elevation Permanent Datum
 LMF .                 KB:   Log Measured From
 DMF .                 KB:   Drilling Measured From
 TLI .F               500:   Top log interval
~OTHER INFORMATION
~A   DEPT      SPR         SGRD      ILD         ILM      TEND         CORR       RHOB       NPHI       GRD        CALD 
# ...
 1036.0000   -38.5100     6.9260     6.5230     6.6670  1610.2729     0.1680     2.4790     0.0960    82.5800    10.6250
 1036.5000   -38.8040     6.9100     6.5020     6.6520  1611.6121     0.1680     2.4730     0.0980    83.1520    10.6300
 1037.0000   -39.0350     6.8940     6.4810     6.6370  1611.6121     0.1670     2.4680     0.1030    82.7380    10.6340
 1037.5000   -39.0670     6.8780     6.4610     6.6210  1611.6121     0.1670     2.4620     0.1070    82.0940    10.6390
 1038.0000   -39.1020     6.8640     6.4400     6.6060  1611.6121     0.1660     2.4560     0.1110    83.0730    10.6430
 1038.5000   -39.1380     7.0560     6.3850     6.5910  1611.6121     0.1650     2.4620     0.1100    84.2930    10.6480
 1039.0000   -39.1730     6.7380     6.3190     6.5750  1611.6121     0.1640     2.4710     0.1060    85.5200    10.6520
 1039.5000   -39.2100     6.7680     6.2520     6.5600  1611.6121     0.1640     2.4790     0.1000    86.7550    10.6570
 1040.0000   -39.1430     6.8010     6.1960     6.5220  1611.6121     0.1640     2.4860     0.0960    87.6280    10.6610
 1040.5000   -39.0240     6.7010     6.1710     6.4710  1611.6121     0.1630     2.4820     0.0950    87.9640    10.6660
 1041.0000   -38.9020     6.5850     6.1470     6.4200  1611.6121     0.1630     2.4790     0.0970    86.6500    10.6700
 1041.5000   -38.7060     6.5550     6.1230     6.3690  1611.6121     0.1630     2.4770     0.0990    85.3300    10.6750
 1042.0000   -38.3600     6.5550     6.0980     6.3170  1611.6121     0.1600     2.4770     0.1000    84.0110    10.6800
 1042.5000   -38.0190     6.5550     6.0840     6.3060  1611.6121     0.1580     2.4740     0.1020    82.6760    10.6730
 1043.0000   -37.8230     6.5550     6.0770     6.2940  1611.6121     0.1540     2.4720     0.1030    82.4160    10.6630
 1043.5000   -37.8240     6.5550     6.0710     6.2820  1611.6121     0.1480     2.4630     0.1070    83.7010    10.6530
 1044.0000   -37.8240     6.5220     6.0640     6.2700  1611.6121     0.1410     2.4540     0.1150    85.6560    10.6430
 1044.5000   -37.8230     6.4860     6.0570     6.2580  1611.6121     0.1340     2.4440     0.1220    87.6310    10.6320
 1045.0000   -37.8290     6.4350     6.0500     6.2460  1611.6121     0.1280     2.4380     0.1260    89.5880    10.6220
 1045.5000   -38.0090     6.4450     6.0430     6.2340  1611.6121     0.1210     2.4300     0.1320    90.8440    10.6120
 1046.0000   -38.2000     6.4620     6.0360     6.2230  1611.6121     0.1150     2.4210     0.1370    90.7680    10.6020
 1046.5000   -38.3900     6.4790     6.0290     6.2110  1611.6121     0.1080     2.4130     0.1410    89.3710    10.5920
 1047.0000   -38.5800     6.4980     6.0220     6.1990  1611.6121     0.1010     2.4040     0.1440    87.9320    10.5820
 1047.5000   -38.7690     6.5310     6.0150     6.1870  1611.6121     0.0990     2.4030     0.1420    86.4850    10.5810
 1048.0000   -38.9590     6.5640     6.0080     6.1750  1611.6121     0.1020     2.4070     0.1370    87.1700    10.5810
 1048.5000   -39.1500     6.5960     6.0010     6.1630  1611.6121     0.1080     2.4170     0.1320    88.5520    10.5810
 1049.0000   -39.2640     6.6780     5.9940     6.1510  1611.6121     0.1150     2.4260     0.1260    89.9310    10.5810
 1049.5000   -39.3330     6.8280     5.9870     6.1450  1611.6121     0.1220     2.4350     0.1200    91.3090    10.5810
 1050.0000   -39.4020     6.9920     5.9730     6.2350  1611.6121     0.1280     2.4460     0.1170    92.6880    10.5810
 1050.5000   -39.4710     6.9100     6.0330     6.3070  1611.6121     0.1350     2.4540     0.1140    94.0600    10.5810
 1051.0000   -39.5410     6.8010     6.0330     6.3780  1611.6121     0.1380     2.4560     0.1120    95.4590    10.5810
 1051.5000   -39.6140     6.9260     6.0330     6.4870  1611.6121     0.1410     2.4580     0.1090    94.7430    10.5810
 1052.0000   -39.4980     7.2190     6.2480     6.7340  1611.6121     0.1420     2.4610     0.1070    92.6430    10.5810
 1052.5000   -39.3490     7.5110     6.5090     6.9810  1611.6121     0.1380     2.4640     0.1050    90.5170    10.5810
 1053.0000   -39.2000     7.8040     6.7700     7.2280  1611.6121     0.1330     2.4680     0.1030    88.3900    10.5810
 1053.5000   -39.0510     8.1030     7.0310     7.4740  1611.6121     0.1290     2.4730     0.1010    86.2650    10.5810
 1054.0000   -38.9020     8.0390     7.2910     7.5660  1611.6121     0.1280     2.4780     0.0990    84.1410    10.5810
 1054.5000   -38.7540     7.9750     7.5520     7.6160  1611.6121     0.1310     2.4900     0.0870    82.0240    10.5810
 1055.0000   -38.6190     7.9100     7.7380     7.6660  1611.6121     0.1340     2.5030     0.0800    80.7350    10.5700
 1055.5000   -38.6490     7.8450     7.8540     7.7150  1611.6121     0.1370     2.5170     0.0730    80.5270    10.5540
 1056.0000   -38.6990     7.7800     7.9820     7.7650  1612.7130     0.1410     2.5240     0.0730    79.4330    10.5380
 1056.5000   -38.7480     7.7150     8.1100     7.8150  1616.4091     0.1380     2.5240     0.0730    78.2160    10.5210
 1057.0000   -38.7980     7.6670     8.2390     7.8650  1620.1060     0.1350     2.5230     0.0750    77.0080    10.5050
 1057.5000   -38.9070     7.8090     8.4070     7.9150  1623.8020     0.1380     2.5170     0.0790    75.8020    10.4890
 1058.0000   -39.0730     7.6670     8.3630     7.9640  1627.4990     0.1410     2.5100     0.0820    74.5940    10.4720
 1058.5000   -39.2400     7.7130     8.3240     8.0140  1631.1949     0.1380     2.5040     0.0850    73.3910    10.4560
 1059.0000   -39.4060     7.8090     8.2840     8.0640  1631.6320     0.1340     2.5020     0.0860    72.1740    10.4400
 1059.5000   -39.5790     7.7380     8.2540     8.1140  1631.6320     0.1310     2.5000     0.0870    72.2230    10.4240
 1060.0000   -39.6600     7.8100     8.4520     8.1780  1631.6320     0.1320     2.4990     0.0860    73.1960    10.4070
 1060.5000   -39.7150     7.8820     8.6110     8.1670  1631.6320     0.1370     2.4990     0.0850    74.1780    10.4100
 1061.0000   -39.7700     7.8350     8.7700     8.1520  1631.6320     0.1430     2.5000     0.0850    75.1610    10.4230
 1061.5000   -39.8170     7.7730     8.8040     8.1380  1631.6320     0.1490     2.5010     0.0860    74.8700    10.4370
 1062.0000   -39.7560     7.7110     8.8040     8.1230  1631.6320     0.1460     2.5020     0.0870    73.6640    10.4500
 1062.5000   -39.6940     7.6670     8.7000     8.1080  1631.6320     0.1420     2.4980     0.0910    75.7880    10.4640
 1063.0000   -39.6330     7.7460     8.6020     8.0930  1631.6320     0.1370     2.4880     0.0960    78.0000    10.4770
 1063.5000   -39.5720     7.8090     8.5040     8.0780  1631.6320     0.1310     2.4780     0.1020    79.1900    10.4910
 1064.0000   -39.5110     7.7930     8.4070     8.0630  1631.6320     0.1260     2.4680     0.1060    76.9540    10.5040
 1064.5000   -39.4490     7.7760     8.3910     8.0480  1631.6320     0.1200     2.4670     0.1040    76.8320    10.5180
 1065.0000   -39.3880     7.7590     8.3740     8.0330  1631.6320     0.1150     2.4700     0.1010    76.8440    10.5310
 1065.5000   -39.3270     7.7420     8.3580     8.0190  1631.6320     0.1150     2.4730     0.1020    76.6760    10.5450
 1066.0000   -39.2660     7.7070     8.3420     8.0040  1631.6320     0.1150     2.4760     0.1030    75.7370    10.5580
 1066.5000   -39.2050     7.6660     8.3250     7.9890  1631.6320     0.1150     2.4730     0.1040    74.8140    10.5720
 1067.0000   -39.1430     7.6250     8.3090     7.9740  1631.6320     0.1150     2.4710     0.1040    73.8640    10.5850
 1067.5000   -39.0810     7.5960     8.2930     7.9560  1631.6320     0.1150     2.4720     0.1040    73.6410    10.5990
 1068.0000   -39.0260     7.6730     8.2760     7.9640  1631.6320     0.1190     2.4740     0.1040    74.9820    10.6120
 1068.5000   -39.1150     7.7320     8.2600     7.9760  1631.6320     0.1220     2.4720     0.1060    77.2770    10.6260
 1069.0000   -39.2090     7.7920     8.2440     7.9880  1631.6320     0.1240     2.4690     0.1080    79.5850    10.6400
