~VERSION INFORMATION
 VERS.                2.0:   CWLS LOG ASCII STANDARD - VERSION 2.0
 WRAP.                 NO:   ONE LINE PER DEPTH STEP
~WELL INFORMATION
#MNEM.UNIT      DATA TYPE    INFORMATION
#----------   ------------   ------------------------------
 STRT.F           10.0000:   START DEPTH
 STOP.F         3234.0000:   STOP DEPTH
 STEP.F            0.5000:   STEP LENGTH
 NULL.          -999.2500:   NO VALUE
 COMP. LAWRENCE ALLISON & ASSOSCIATES:   COMPANY
 WELL. 		  38-X-10:   WELL
 FLD .             NPR #3:   FIELD
 LOC .      S10 T38N R78W:   LOCATION
 CNTY.            NATRONA:   COUNTY
 STAT.            WYOMING:   STATE
 CTRY. UNITED STATES OF AMERICA:   COUNTRY
 SRVC.      DRESSER ATLAS:   SERVICE COMPANY
 DATE.        02-AUG-1986:   LOGDATE
 API .       490251120600:   API NUMBER
~CURVE INFORMATION
#MNEM.UNIT       API CODE    CURVE DESCRIPTION
#----------   ------------   ------------------------------
 DEPT.F                  :   
 GRR .GAPI   07 310 01 00:   GAMMA RAY FROM RESISTIVITY
 SPR .MV     07 010 01 00:   SPONTANEOUS POTENTIAL
 TENR.LBS    07 635 01 00:   TENSION FROM RESISTIVITY
 RILM.OHMM   07 120 44 00:   RESISTIVITY INDUCTION LOG MEDIUM
 CNC .DEC    42 890 03 00:   NEUTRON POROSITY SANDSTONE
 CALD.IN     45 280 60 00:   CALIPER FROM DENSITY LOG
 GRD .GAPI   45 310 01 00:   GAMMA RAY FROM DENSITY LOG
 RHOB.G/C3   45 350 01 00:   BULK DENSITY
 TEND.LBS    45 635 01 00:   TENSION FORM DENSITY LOG
 CORR.G/C3   45 356 01 00:   DENSITY CORRECTION
 RILD.OHMM   07 120 46 00:   RESISTIVITY INDUCTION LOG DEEP
 RFOC.OHMM   07 220 04 00:   RESISTIVITY FOCUSED
~PARAMETER INFORMATION
#MNEM.UNIT          VALUE    DESCRIPTION
#----------   ------------   ------------------------------
 EKB .F         5224.0000:   Kelly bushing
 EGL .F         5212.0000:   Ground level
 EDF .F            0.0000:   Drilling floor
 TD  .F         3231.0000:   Total depth
 CLNT.            A2DTECH:   Client Code
 SL  . 296' FSL & 1435' FWL:   Surface Location
 PD  .                 GL:   Permanent Datum
 EPD .F              5212:   Elevation Permanent Datum
 LMF .                 KB:   Log Measured From
 DMF .                 KB:   Drilling Measured From
 DAPD.F                12:   Feet Above Permanent Datum
 DATE.        02-AUG-1986:   Date Logged [DD-MMM-YYYY]
 DD  .F              3230:   Depth driller
 DL  .F              3231:   Depth logger
 BLI .F              3229:   Bottom log interval
 TLI .F                11:   Top log interval
 CS1 .IN            8.625:   Casing size
 CBD1.      8.625" @ 626':   Casing driller 1
 CBL1.F               626:   Casing logger 1
 BS1 .IN            7.875:   Bit size
 BSD1.F              3230:   Depth drilled with bit1
 DFT .            KCL-GEL:   Type fluid in hole
 DFD .                  9:   Density
 DFV .                 36:   Viscosity
 DFPH.               10.5:   pH
 DFL .                 12:   Fluid loss
 MSS .           FLOWLINE:   Source of sample
 RMS .OHMM          0.263:   Rm
 MST .F               100:   Rm Meas. temp.
 RMF .OHMM          0.197:   Rmf
 MFST.F               100:   Rmf Meas. temp.
 MFSS.               MEAS:   Source Rmf.
 RMC .OHMM          0.329:   Rmc
 MCST.F               100:   Rmc Meas. temp.
 MCSS.               CALC:   Source Rmc.
 RMB .OHMM          0.193:   Rm. at BHT
 BHT .F               136:   BHT.
 TCS .HRS               5:   Time Circ. stopped
 MRT .F               136:   Maximum recorded temp.
 LUN .            HL-6274:   Logging unit number
 LUL .           GILLETTE:   Logging unit location
 ENGI.            PANASUK:   Recorded By
 WITN.             STRONG:   Witnessed by
 ORIG.        2" 5" PRINT:   Origin of data
 UWI .       490251120600:   Unique Well ID
 DICO. A2D TECHNOLOGIES, INC.:   Digitizing Company
~OTHER INFORMATION
~A   DEPT       GRR       SPR       TENR       RILM        CNC       CALD        GRD       RHOB       TEND       CORR       RILD       RFOC   
# ...
 2558.0000   127.0780   -40.2480   -58.7411     6.1387     0.2754    10.0496   126.5377     2.5495   -34.0323    -0.0053     6.1208     7.2070
 2558.5000   124.6421   -40.1038   -58.5963     6.1382     0.2769    10.0493   125.0063     2.5502   -26.6465    -0.0053     6.1200     7.5618
 2559.0000   126.2009   -40.1096   -66.0406     6.1806     0.2784    10.0490   124.1150     2.5540   -49.4173     0.0098     6.1620     7.7756
 2559.5000   132.7978   -40.1154   -80.9653     6.3106     0.2799    10.0487   128.0389     2.5571   -64.6219     0.0265     6.2486     7.8300
 2560.0000   135.8164   -40.2727  -103.4792     6.4434     0.2808    10.0484   131.9635     2.5571   -64.7662     0.0507     6.3786     7.5618
 2560.5000   134.8957   -40.4315   -65.5338     6.6249     0.2690    10.0481   134.3782     2.5586   -49.8504     0.0582     6.5126     6.9065
 2561.0000   133.6720   -40.4373   -50.2833     6.6707     0.2653    10.0478   133.4682     2.5609   -42.4646     0.0371     6.6494     6.8585
 2561.5000   133.9636   -40.4432   -42.5856     6.7198     0.2666    10.0324   133.1631     2.5616   -42.6450     0.0159     6.7421     7.6147
 2562.0000   134.8847   -40.4490   -42.4409     6.8106     0.2662    10.0472   133.4625     2.5548   -50.3195    -0.0008     6.8356     8.0515
 2562.5000   136.3615   -40.4548   -42.2961     6.8576     0.2662    10.0469   134.3659     2.5510   -42.9338     0.0174     6.8825     8.2792
 2563.0000   136.3498   -40.3091   -42.1151     6.8096     0.2677    10.0466   135.5708     2.5495   -35.5479     0.0083     6.8335     8.3371
 2563.5000   135.4291   -40.3164   -41.9703     6.8091     0.2710    10.0463   136.4742     2.5502   -28.1621    -0.0129     6.6912     8.2792
 2564.0000   133.9023   -40.1692   -41.8255     6.7145     0.2778    10.0460   134.3442     2.5510   -35.8727    -0.0159     6.5518     8.1078
 2564.5000   133.5877   -40.1765   -41.6807     6.6212     0.2822    10.0457   134.0508     2.5495   -36.0170    -0.0008     6.3708     7.8300
 2565.0000   133.2425   -40.3338   -41.5359     6.4839     0.2816    10.0453   132.2352     2.5403   -36.1446     0.0068     6.1947     7.4570
 2565.5000   131.1373   -40.4912   -41.3897     6.2616     0.2801    10.0451   129.8154     2.5312   -36.3057    -0.0083     6.0235     7.1515
 2566.0000   130.9576   -40.8000   -41.2102     6.0051     0.2786    10.0448   130.7189     2.5304   -43.9803    -0.0144     5.9807     6.9065
 2566.5000   131.4200   -40.3263   -41.0654     5.9977     0.2753    10.0445   130.7339     2.5327   -44.1265    -0.0025     6.1065     7.0061
 2567.0000   131.1024   -40.0541   -40.9206     6.1742     0.2665    10.0442   129.1666     2.5365   -36.7388     0.0295     6.2781     7.3027
 2567.5000   127.7574   -40.0613   -40.7759     6.3920     0.2558    10.0439   127.0841     2.5449   -36.9192     0.0371     6.3655     7.5618
 2568.0000   125.8909   -39.9156   -40.6310     6.5265     0.2507    10.0436   125.5706     2.5510   -29.4974     0.0159     6.3646     7.8300
 2568.5000   126.2161   -40.0730   -48.6515     6.3027     0.2486    10.0432   126.1720     2.5533   -22.1116     0.0008     6.1455     8.0515
 2569.0000   128.3257   -40.0788   -55.4472     6.0867     0.2522    10.0430   127.3775     2.5430   -14.7590    -0.0098     5.9342     8.2792
 2569.5000   131.9504   -39.9331   -40.1605     5.9605     0.2564    10.0427   130.1122     2.5335   -14.9097    -0.0053     5.7702     8.1592
 2570.0000   140.1206   -39.9404   -24.9100     5.7510     0.2610    10.0424   137.0387     2.5327    -7.5566     0.0053     5.5330     7.5092
 2570.5000   157.3817   -39.9462   -24.7652     5.2945     0.2704    10.0421   153.6521     2.5342   -30.2913     0.0174     5.2688     6.8109
 2571.0000   163.2123   -40.1035   -47.2790     5.1131     0.2740    10.0568   162.1084     2.5297   -53.0260     0.0265     5.2315     6.1345
 2571.5000   161.5980   -40.1093   -63.1432     5.5196     0.2710    10.0566   161.1992     2.5167   -60.6644     0.0265     5.5306     5.7614
 2572.0000   154.0106   -40.1152   -77.2010     5.7546     0.2631    10.0563   140.6525     2.5084   -38.2544     0.0189     5.8065     5.9216
 2572.5000   132.1808   -40.1212   -39.2556     5.9997     0.2453    10.0560   121.5559     2.5190   -15.8085    -0.0023     6.0537     6.3820
 2573.0000   118.8358   -40.2798   -24.0051     6.2607     0.2309    10.0557   112.2472     2.5365    -8.4227    -0.0265     6.2677     8.1078
 2573.5000   110.9454   -40.2856   -23.8603     6.6129     0.2327    10.0402   110.1295     2.5533   -16.1332    -0.0038     6.5346     9.1919
 2574.0000   112.3384   -40.2914   -23.7155     6.8945     0.2436    10.0399   112.5435     2.5616   -31.3378     0.0038     6.8268     9.2562
 2574.5000   117.8890   -40.2972   -31.1236     7.2383     0.2473    10.0396   117.0724     2.5563   -31.4822    -0.0038     7.1524     8.8153
 2575.0000   121.5137   -40.3030   -38.5317     7.4942     0.2388    10.0393   121.2991     2.5540   -31.6265    -0.0053     7.4051     8.5133
 2575.5000   122.1110   -40.3091   -38.3507     7.6518     0.2297    10.0390   119.4828     2.5624   -24.2408     0.0083     7.6668     8.2792
 2576.0000   118.4601   -40.3161   -45.7588     7.3895     0.2333    10.0387   114.9482     2.5700   -24.4212     0.0598     7.6737     8.3954
 2576.5000   114.5060   -40.3219   -45.6140     7.1362     0.2342    10.0384   112.5284     2.5761   -17.0354     0.0703     7.3975     8.7541
 2577.0000   112.9823   -40.3278   -45.4683     6.8916     0.2348    10.0381   114.0360     2.5715   -17.1797     0.0265     6.9994     8.9391
 2577.5000   117.2102   -40.3336   -45.2883     6.7019     0.2336    10.0378   116.4501     2.5616   -32.3843    -0.0325     6.6651     8.8153
 2578.0000   122.9562   -40.3394   -45.1435     6.5174     0.2343    10.0375   119.5165     2.5616   -40.0602    -0.0371     6.4811     8.1558
 2578.5000   124.4597   -40.1937   -44.9987     6.6577     0.2394    10.0372   123.3922     2.5616   -47.7693     0.0053     6.8999     7.3027
 2579.0000   122.9329   -40.0480   -44.8539     6.6078     0.2427    10.0369   121.5766     2.5601   -40.3475     0.0129     6.7090     7.0035
 2579.5000   120.1853   -40.0553   -44.7091     6.4708     0.2499    10.0366   120.0632     2.5548   -25.4316     0.0068     6.5236     7.6147
 2580.0000   118.0583   -39.9081   -44.0543     6.4704     0.2557    10.0363   120.6645     2.5525   -18.0459     0.0068     6.5227     7.9955
 2580.5000   127.4406   -39.9154   -21.7248     6.4699     0.2578    10.0511   122.7764     2.5486   -10.6961     0.0083     6.4765     8.2792
 2581.0000   129.5502   -39.7697    -6.4742     6.5147     0.2581    10.0508   127.4494     2.5342   -10.8434     0.0159     6.5210     7.7131
 2581.5000   127.4173   -39.7770    -6.3295     6.6578     0.2539    10.0521   128.2087     2.5327   -18.5510     0.0234     6.7984     7.1515
 2582.0000   122.5572   -39.7828    -6.1846     6.8868     0.2432    10.0654   120.6522     2.5358   -33.7557     0.0053     6.9897     7.6679
 2582.5000   116.4387   -39.6356   -13.5952     7.1801     0.2345    10.0651   114.6070     2.5457   -33.9000     0.0023     7.1865     8.3954
 2583.0000   113.1371   -39.4899   -21.0008     7.3823     0.2348    10.0799   110.0724     2.5540   -34.0443     0.0023     7.3887     8.7541
 2583.5000   110.7013   -39.6487   -28.3728     7.5903     0.2360    10.0795   108.8610     2.5564   -26.6586     0.0098     7.5964     9.0646
 2584.0000   110.0865   -39.6545   -43.3337     7.7506     0.2375    10.0792   110.0659     2.5601   -19.2728     0.0204     7.7023     9.3287
 2584.5000   112.4962   -39.6606   -50.7780     7.7493     0.2456    10.0941   112.4799     2.5647   -19.4532     0.0234     7.7552     9.3862
 2585.0000   114.9088   -39.6676   -58.1860     7.7488     0.2538    10.0975   113.3841     2.5662   -27.1277     0.0083     7.8084     9.2562
 2585.5000   114.2699   -39.8250   -42.8994     7.7483     0.2556    10.1086   112.7763     2.5670   -34.8022     0.0113     7.8071     9.0646
