~VERSION INFORMATION
 VERS.                2.0:   CWLS LOG ASCII STANDARD - VERSION 2.0
 WRAP.                 NO:   ONE LINE PER DEPTH STEP
~WELL INFORMATION
#MNEM.UNIT      DATA TYPE    INFORMATION
#----------   ------------   ------------------------------
 STRT.F            0.0000:   START DEPTH
 STOP.F         1071.5000:   STOP DEPTH
 STEP.F            0.5000:   STEP LENGTH
 NULL.          -999.2500:   NO VALUE
 COMP.       FLUOR DANIEL:   COMPANY
 WELL.     FLUOR X #82-22:   WELL
 FLD .                NPR:   FIELD
 LOC .      S22 T38N R78W:   LOCATION
 CNTY.            NATRONA:   COUNTY
 STAT.            WYOMING:   STATE
 CTRY. UNITED STATES OF AMERICA:   COUNTRY
 SRVC.      WESTERN ATLAS:   SERVICE COMPANY
 DATE.        19-SEP-1994:   LOGDATE
 API .     49025226520000:   API NUMBER
~CURVE INFORMATION
#MNEM.UNIT       API CODE    CURVE DESCRIPTION
#----------   ------------   ------------------------------
 DEPT.F                  :   
 GRR .GAPI   07 310 01 00:   GAMMA RAY FROM RESISTIVITY
 TENR.LBS    07 635 01 00:   TENSION
 ILD .OHMM   07 120 46 00:   INDUCTION LOG DEEP RESISTIVITY
 ILM .OHMM   07 120 44 00:   INDUCTION LOG MEDIUM RESISTIVITY
~PARAMETER INFORMATION
#MNEM.UNIT          VALUE    DESCRIPTION
#----------   ------------   ------------------------------
 EKB .F         5288.0000:   Kelly bushing
 EGL .F         5278.0000:   Ground level
 EDF .F         5287.0000:   Drilling floor
 EPD .F         5278.0000:   Permanent datum
 TD  .F         1062.0000:   Total depth
 DATE.        19-SEP-1994:   Date logged
 CLNT.            A2DTECH:   Client Code
 SL  . 937' FNL & 347' FEL:   Surface Location
 PD  .                 GL:   Permanent Datum
 LMF .                 KB:   Log Measured From
 DMF .                 KB:   Drilling Measured From
 DAPD.F                10:   Feet Above Permanent Datum
 DD  .F              1060:   Depth driller
 DL  .F              1062:   Depth logger
 BLI .F              1054:   Bottom log interval
 CS1 .IN            9.625:   Casing size
 CBD1.       9.625" @ 77':   Casing driller 1
 CBL1.F                78:   Casing logger 1
 BS1 .IN             8.75:   Bit size
 BSD1.F              1060:   Depth drilled with bit1
 DFT .                AIR:   Type fluid in hole
 LUN .            HL 6530:   Logging unit number
 LUL .             CASPER:   Logging unit location
 ENGI.      PAT RASMUSSEN:   Recorded By
 WITN.        GARY STRONG:   Witnessed by
 ORIG.           5" PRINT:   Origin of data
 UWI .     49025226520000:   Unique Well ID
 DICO. A2D TECHNOLOGIES, INC.:   Digitizing Company
~OTHER INFORMATION
~A    DEPT      GRR      TENR        ILD        ILM   
# ...
  438.0000   120.9200   -32.3710     7.0180     6.9870
  438.5000   121.4100   -24.4620     7.0520     6.9530
  439.0000   121.4920   -16.5530     6.9820     6.9240
  439.5000   119.6740   -16.6380     6.9320     6.8950
  440.0000   117.9200   -21.5340     6.8810     6.8660
  440.5000   117.1640   -26.4300     6.8310     6.8360
  441.0000   120.6370   -31.3260     6.7800     6.8070
  441.5000   125.1620   -32.9000     6.7300     6.7780
  442.0000   128.1650   -31.3430     6.6790     6.7490
  442.5000   126.2270   -29.7850     6.6290     6.7200
  443.0000   123.3190   -28.2270     6.5780     6.6910
  443.5000   121.0280   -26.6690     6.5320     6.6620
  444.0000   121.9040   -25.1110     6.4940     6.6330
  444.5000   124.3840   -23.6420     6.4550     6.6040
  445.0000   126.7810   -23.6420     6.4160     6.5740
  445.5000   127.4010   -23.6420     6.3770     6.5420
  446.0000   127.2780   -23.6420     6.3380     6.4750
  446.5000   126.9950   -23.6420     6.3000     6.4090
  447.0000   126.7110   -23.6420     6.2610     6.3420
  447.5000   126.4270   -23.6420     6.2220     6.2760
  448.0000   126.3960   -23.6420     6.1830     6.2100
  448.5000   127.2080   -23.6420     6.1440     6.1430
  449.0000   129.9190   -23.6420     6.1060     6.0800
  449.5000   132.2510   -23.6420     6.0670     6.2110
  450.0000   130.1610   -24.2470     6.0280     6.3640
  450.5000   128.6820   -26.3070     6.1760     6.5170
  451.0000   128.2410   -28.3670     6.3450     6.6690
  451.5000   123.8050   -30.4270     6.5140     6.8220
  452.0000   119.0070   -32.4870     6.6820     6.9750
  452.5000   116.5470   -29.9740     6.8510     7.1840
  453.0000   119.1190   -20.8840     7.0190     7.1730
  453.5000   122.4330   -11.7940     7.1880     7.1560
  454.0000   124.0570    -3.5210     7.3570     7.1390
  454.5000   123.5090    -5.8600     7.5250     7.1220
  455.0000   121.7450    -8.0060     7.6940     7.1040
  455.5000   119.3620   -10.1530     7.8090     7.0860
  456.0000   116.9380   -12.2990     7.7100     7.0670
  456.5000   117.4080   -13.8860     7.6370     7.0230
  457.0000   118.4530   -14.6440     7.4710     6.8810
  457.5000   119.0570   -15.4010     7.1810     6.7390
  458.0000   116.0710   -16.1590     6.8920     6.6090
  458.5000   110.3110   -16.9160     6.3660     6.2140
  459.0000   107.7290   -17.6740     5.5800     5.6570
  459.5000   106.9800   -18.4310     4.7250     4.8670
  460.0000   107.0510   -19.1890     3.8700     4.0770
  460.5000   111.3150   -19.9460     3.1280     3.2860
  461.0000   117.6570   -20.7040     2.4180     2.4960
  461.5000   129.6590   -21.4610     2.0460     2.0840
  462.0000   141.6330   -22.2190     1.7420     1.7780
  462.5000   150.8730   -22.9760     1.6150     1.6010
  463.0000   153.3410   -23.4640     1.5570     1.5570
  463.5000   150.2430   -21.9920     1.5960     1.6080
  464.0000   145.6890   -20.5200     1.6370     1.7050
  464.5000   142.2570   -19.0490     1.8280     2.0510
  465.0000   139.4490   -17.5770     2.0560     2.6060
  465.5000   133.0430   -16.1050     2.4810     3.4590
  466.0000   121.7460   -14.6340     3.1020     4.3130
  466.5000   112.7370   -13.1620     4.2860     5.1660
  467.0000   109.1470   -11.6900     5.4710     6.0190
  467.5000   108.6840   -10.2180     6.6550     6.9230
  468.0000   108.2950    -8.7470     7.8810     8.4180
  468.5000   106.9510    -7.2750     9.1660     9.7600
  469.0000   103.8810    -5.8030    10.4980    10.0130
  469.5000    96.3940    -4.3320    11.0020    10.2670
  470.0000    90.7210    -3.8560    10.8000    10.4070
  470.5000    86.8260    -4.6030     9.5360     8.5540
  471.0000    88.4350    -5.3490     8.3410     7.3650
  471.5000    92.2860    -6.0960     7.1470     6.1870
  472.0000    96.4700    -6.8430     5.9520     4.9590
  472.5000   106.2230    -7.5890     4.7350     4.3450
  473.0000   117.4700    -8.3360     4.5230     4.0820
  473.5000   125.8280    -9.0820     4.3360     4.2300
  474.0000   124.6550    -9.8290     4.2360     4.5850
  474.5000   117.3670   -10.5750     4.3610     4.9130
  475.0000   109.6440   -11.3220     4.5200     5.5880
  475.5000   103.4940   -12.0680     5.2100     6.2160
  476.0000   103.6790   -12.8150     5.9740     6.8450
  476.5000   101.4630   -13.5610     6.7390     7.4730
  477.0000    99.2440   -14.3080     7.5030     8.1040
  477.5000    99.5620   -15.0540     8.2180     8.5740
  478.0000    99.9440   -15.8010     8.7270     9.0460
  478.5000    99.2090   -16.5470     9.2540     9.4860
  479.0000    98.2710   -17.2940     9.7590     9.9000
  479.5000    97.7470   -18.0400    10.2640    10.2880
  480.0000    97.6310   -18.7870    10.7530    10.6760
  480.5000    98.7720   -19.5330    11.0560    11.0340
  481.0000    99.3640   -20.2800    11.2080    11.3120
  481.5000    98.3670   -21.0260    11.4170    11.2850
  482.0000    94.8620   -21.7730    11.4080    11.2380
  482.5000    91.2320   -22.5190    11.3920    11.1920
  483.0000    91.6000   -23.2660    11.3760    11.1460
  483.5000    93.7990   -24.6100    11.3600    11.1040
  484.0000    97.2690   -27.8290    11.3440    11.1730
  484.5000   100.7230   -31.0490    11.3280    11.2340
  485.0000   104.1530   -31.6130    11.3120    11.2960
  485.5000   107.7160   -19.7260    11.4550    11.3570
  486.0000   108.8000    -7.8390    11.6010    11.4170
  486.5000   105.3820    -4.7140    11.7390    11.6320
  487.0000   101.6990    -6.5870    11.9080    11.8410
  487.5000   100.9030    -8.4600    12.0680    12.0700
  488.0000   103.1440   -10.3330    12.2280    12.2160
  488.5000   106.9010   -12.2060    12.3890    12.3780
  489.0000   106.8350   -14.0790    12.5490    12.5400
  489.5000   102.6870   -15.9520    12.7090    12.7010
  490.0000    98.6970   -17.8250    12.8690    12.8630
  490.5000    96.5230   -19.6980    13.0300    13.0250
  491.0000    95.5030   -21.5710    13.1900    13.1870
  491.5000    94.9260   -23.4440    13.2650    13.3480
  492.0000    97.1260   -23.6420    13.2980    13.4130
  492.5000   102.1690   -23.6420    13.3310    13.4660
  493.0000   107.0690   -23.6420    13.3650    13.5200
  493.5000   107.8070   -23.6420    13.4960    13.5730
  494.0000   108.0200   -23.6420    13.6310    13.6450
  494.5000   108.7890   -23.6420    13.7660    13.7860
  495.0000   109.6960   -23.6420    13.9010    13.9280
  495.5000   110.4530   -23.6420    14.0360    14.0690
  496.0000   108.7620   -23.6420    14.1710    14.2110
  496.5000   104.5670   -23.6420    14.3060    14.3520
  497.0000    97.6470   -23.6420    14.4280    14.4940
  497.5000    90.2570   -23.6420    14.5260    14.5610
  498.0000    82.7240   -23.6420    14.6250    14.6040
  498.5000    81.6760   -23.6420    14.6830    14.6630
  499.0000    88.4170   -23.6420    14.7170    14.5880
  499.5000    95.4320   -23.6420    14.7500    14.4720
  500.0000    98.7480   -23.6420    14.7830    14.3550
  500.5000    99.9770   -23.6420    14.8170    14.2380
  501.0000   100.8510   -23.6420    14.8500    14.1210
  501.5000   103.8960   -23.6420    14.8830    13.9990
  502.0000   103.5790   -23.6420    14.9170    14.2310
  502.5000   103.7010   -23.6420    14.9370    14.4730
  503.0000   104.9380   -23.6420    14.5280    14.6630
  503.5000   105.9980   -23.6420    14.2330    14.1900
  504.0000   103.7380   -23.6420    13.5630    13.4060
  504.5000    98.2130   -23.6420    12.6880    12.4620
  505.0000    95.3850   -23.6420    11.8500    11.5530
  505.5000    98.8400   -23.6420    11.1030    10.7250
  506.0000   105.7580   -23.6420    10.3560     9.8970
  506.5000   114.3990   -23.6420     9.6090     9.0690
  507.0000   123.3230   -23.6420     8.8610     8.2410
  507.5000   127.1800   -23.6420     8.1140     7.4130
  508.0000   129.8770   -23.6420     7.3670     7.0380
  508.5000   131.8910   -23.6420     6.7240     6.6890
  509.0000   131.4390   -23.6420     6.4220     6.3710
  509.5000   131.0390   -23.6420     6.0240     6.0800
  510.0000   131.0930   -23.6420     6.0340     6.1070
  510.5000   134.8380   -23.6420     6.0470     6.1460
