~VERSION INFORMATION
 VERS.                2.0:   CWLS LOG ASCII STANDARD - VERSION 2.0
 WRAP.                 NO:   ONE LINE PER DEPTH STEP
~WELL INFORMATION
#MNEM.UNIT      DATA TYPE    INFORMATION
#----------   ------------   ------------------------------
 STRT.F            0.0000:   START DEPTH
 STOP.F         3474.0000:   STOP DEPTH
 STEP.F            0.5000:   STEP LENGTH
 NULL.          -999.2500:   NO VALUE
 COMP. LAWRENCE ALLISON & ASSOCIATES:   COMPANY
 WELL. LAWRENCE ALLISON #13-AX-14:   WELL
 FLD .            WILDCAT:   FIELD
 LOC .      S14 T38N R78W:   LOCATION
 CNTY.            NATRONA:   COUNTY
 STAT.            WYOMING:   STATE
 CTRY. UNITED STATES OF AMERICA:   COUNTRY
 SRVC.      DRESSER ATLAS:   SERVICE COMPANY
 DATE.        31-MAR-1986:   LOGDATE
 API .     49025110640000:   API NUMBER
~CURVE INFORMATION
#MNEM.UNIT       API CODE    CURVE DESCRIPTION
#----------   ------------   ------------------------------
 DEPT.F                  :   
 TEND.LBS    45 635 01 00:   TENSION FROM DENSITY LOG
 RHOB.G/C3   45 350 01 00:   BULK DENSITY
 CORR.G/C3   45 356 01 00:   DENSITY CORRECTION
 CALD.IN     45 280 60 00:   CALIPER FROM DENSITY LOG
 NPHI.DEC    42 890 00 00:   NEUTRON POROSITY
 TENR.LBS    07 635 01 00:   TENSION FROM RESISTIVITY
 RFOC.OHMM   07 220 01 00:   RESISTIVITY FOCUSED LOG RES.
 RILD.OHMM   07 120 46 00:   DEEP INDUCTION RESISTIVITY
 RILM.OHMM   07 120 44 00:   INDUCTION LOG MEDIUM RESISTIVITY
 GRR .GAPI   07 310 01 00:   GAMMA RAY FROM RESISTIVITY
 SPR .MV     07 010 01 00:   SPONTANEOUS POTENTIAL
 TENS.LBS    60 635 01 00:   TENSION FROM SONIC LOG
 DT  .US/F   60 520 00 00:   DELTA TIME
~PARAMETER INFORMATION
#MNEM.UNIT          VALUE    DESCRIPTION
#----------   ------------   ------------------------------
 EKB .F         5251.0000:   Kelly bushing
 EGL .F         5239.2000:   Ground level
 EDF .F         5248.1000:   Drilling floor
 TD  .F         3456.0000:   Total depth
 DATE.        31-MAR-1986:   Date logged
 CLNT.            A2DTECH:   Client Code
 SL  . 238' FWL & 1739' FNL:   Surface Location
 PD  .                 GL:   Permanent Datum
 EPD .F            5239.2:   Elevation Permanent Datum
 LMF .                 KB:   Log Measured From
 DMF .                 KB:   Drilling Measured From
 DAPD.F              11.8:   Feet Above Permanent Datum
 DD  .F              3450:   Depth driller
 DL  .F              3456:   Depth logger
 BLI .F              3450:   Bottom log interval
 CS1 .IN            8.625:   Casing size
 CBD1.      8.625" @ 689':   Casing driller 1
 CBL1.F               692:   Casing logger 1
 BS1 .IN            7.875:   Bit size
 BSD1.F              3450:   Depth drilled with bit1
 DFT .        POLYMER/KCL:   Type fluid in hole
 DFD .                9.1:   Density
 DFV .                 38:   Viscosity
 DFPH.                8.5:   pH
 DFL .               11.2:   Fluid loss
 MSS .           FLOWLINE:   Source of sample
 RMS .OHMM            .29:   Rm
 MST .F                65:   Rm Meas. temp.
 RMF .OHMM           .235:   Rmf
 MFST.F                65:   Rmf Meas. temp.
 RMC .OHMM           .378:   Rmc
 MCST.F                65:   Rmc Meas. temp.
 MFSS.               MEAS:   Source Rmf.
 MCSS.               MEAS:   Source Rmc.
 RMB .OHMM           .163:   Rm. at BHT
 BHT .F               115:   BHT.
 TCS .HRS               3:   Time Circ. stopped
 MRT .F               115:   Maximum recorded temp.
 LUN .            HL-6274:   Logging unit number
 LUL .           GILLETTE:   Logging unit location
 ENGI.             RAUTIO:   Recorded By
 WITN.             STRONG:   Witnessed by
 ORIG.           5" PRINT:   Origin of data
 UWI .     49025110640000:   Unique Well ID
 DICO. A2D TECHNOLOGIES, INC.:   Digitizing Company
~OTHER INFORMATION
~A    DEPT    TEND       RHOB       CORR       CALD       NPHI       TENR       RFOC       RILD       RILM          GRR      SPR       TENS         DT   
# ...
 3354.0000   -40.0630     2.4110    -0.0080     8.8040     0.2960   -14.9550     3.5430     2.4530     2.4910   133.1630   -15.5860    17.4900    90.2010
 3354.5000   -39.6130     2.4180     0.0020     8.8070     0.3000   -13.7330     3.5510     2.3410     2.3890   137.2150   -14.9450    18.2440    90.3000
 3355.0000   -39.1630     2.4170     0.0110     8.8100     0.3050   -12.5110     3.5550     2.2280     2.2870   140.1240   -13.9280    18.9990    90.9580
 3355.5000   -38.7130     2.4020     0.0230     8.8130     0.3090   -11.2890     3.1800     2.1460     2.1850   142.4150   -12.9410    19.7530    93.4720
 3356.0000   -38.2640     2.3750     0.0400     8.8060     0.3130   -10.0670     2.7900     2.0860     2.1300   145.0130   -11.9780    20.5080    95.9860
 3356.5000   -37.8140     2.3470     0.0530     8.7980     0.3140    -8.8450     2.5250     2.0270     2.1070   146.0480   -12.2550    21.2620    97.1070
 3357.0000   -37.3640     2.3550     0.0430     8.7890     0.3130    -7.6230     2.7690     1.9680     2.0830   145.2910   -12.7070    22.0160    97.1070
 3357.5000   -36.9140     2.3740     0.0290     8.7800     0.3090    -6.4010     3.0100     1.9090     2.0610   146.0100   -13.1620    22.7710    95.7680
 3358.0000   -36.4640     2.3920     0.0160     8.7760     0.3010    -5.1780     2.9860     1.8490     1.9890   147.3370   -13.6160    23.5250    94.3290
 3358.5000   -36.0150     2.3930     0.0100     8.7820     0.3090    -3.9560     2.8820     1.7900     1.9230   149.2190   -14.0670    24.2800    94.0410
 3359.0000   -35.5650     2.3870     0.0140     8.7880     0.3220    -2.7340     2.7900     1.7310     1.8580   152.1700   -14.5240    25.0340    94.4970
 3359.5000   -35.1150     2.3840     0.0160     8.7930     0.3280    -1.5120     2.7670     1.6860     1.7940   155.2850   -14.9120    26.3780    94.9540
 3360.0000   -34.5560     2.3870     0.0100     8.7790     0.3250    -0.2900     2.7440     1.6820     1.7940   159.7660   -15.3100    27.9990    95.7840
 3360.5000   -33.6980     2.3930     0.0040     8.7620     0.3180     0.9320     2.6330     1.7040     1.8280   168.4440   -15.7080    29.6210    96.8010
 3361.0000   -32.8390     2.3950     0.0070     8.7460     0.3110     2.1540     2.5230     1.7780     1.8970   174.2380   -16.1070    31.2420    97.8170
 3361.5000   -31.9800     2.3980     0.0130     8.7390     0.3050     3.3760     2.4110     1.8600     2.0370   168.4710   -16.5180    32.8630    98.8090
 3362.0000   -31.1210     2.4170     0.0190     8.7480     0.2880     4.5980     2.7220     2.0570     2.3200   148.9810   -16.6420    34.4840    97.1320
 3362.5000   -30.2630     2.4440     0.0180     8.7550     0.2750     5.8200     3.4420     2.2870     2.6720   131.3890   -16.9450    36.1060    94.0710
 3363.0000   -29.4040     2.4730     0.0110     8.7550     0.2630     7.0420     4.1620     2.5180     3.0230   128.1160   -17.2410    37.7270    91.0100
 3363.5000   -28.5450     2.4880     0.0040     8.7550     0.2560     8.2640     4.9670     2.7600     3.3750   128.0820   -17.5340    39.3480    87.9480
 3364.0000   -27.6860     2.4890     0.0020     8.7550     0.2570     9.4860     5.6740     3.0890     3.6880   127.0370   -17.8270    40.9700    85.2970
 3364.5000   -26.8280     2.4890     0.0010     8.7550     0.2580    10.7080     5.7470     3.4190     3.7520   125.2450   -18.1210    42.5910    84.9090
 3365.0000   -25.9690     2.4880     0.0010     8.7550     0.2580    11.9300     5.2610     3.7260     3.8210   125.3460   -18.4140    44.2120    86.0760
 3365.5000   -25.1100     2.4890     0.0000     8.7550     0.2700    13.1520     4.8670     3.7870     3.8910   127.9180   -18.7110    45.6820    88.0540
 3366.0000   -24.7750     2.4880     0.0000     8.7550     0.2810    14.3750     4.6570     3.8220     3.9610   132.2070   -19.0040    46.8450    89.9290
 3366.5000   -24.7750     2.4870     0.0140     8.7550     0.2910    15.5970     4.5610     3.8270     3.9800   136.6380   -18.6660    48.0090    90.9010
 3367.0000   -24.7750     2.4860     0.0220     8.7550     0.2870    20.9630     4.6040     3.8270     3.9910   137.1900   -18.2670    49.1720    90.8010
 3367.5000   -24.7750     2.4870     0.0220     8.7530     0.2770    27.1440     4.8680     3.8270     4.0020   133.7980   -17.2930    50.3360    89.7930
 3368.0000   -24.7750     2.4900     0.0170     8.7420     0.2670    33.3250     5.2940     3.8270     4.0450   128.3070   -16.2370    51.4990    88.4740
 3368.5000   -24.7750     2.4940     0.0120     8.7310     0.2670    33.3200     5.6940     4.0470     4.2200   125.6980   -15.5500    52.6630    87.2220
 3369.0000   -24.7750     2.4970     0.0110     8.7200     0.2670    29.0200     5.4870     4.2760     4.3760   122.0390   -15.1400    53.8260    86.1560
 3369.5000   -24.7750     2.4980     0.0150     8.7090     0.2640    24.7200     5.4870     4.3260     4.5330   116.7270   -14.4800    54.9900    85.0910
 3370.0000   -24.7750     2.4980     0.0130     8.6980     0.2570    20.4200     5.7820     4.3960     4.6890   110.5320   -13.7900    56.1530    83.6600
 3370.5000   -24.7750     2.4970     0.0050     8.6920     0.2530    15.7970     6.1300     4.4990     4.8460   105.8330   -13.6490    57.3170    82.0120
 3371.0000   -24.7750     2.4970    -0.0010     8.6860     0.2490    18.8470     6.3060     4.6630     5.0030   104.5330   -13.6440    58.4800    80.5110
 3371.5000   -24.7750     2.4970     0.0000     8.6800     0.2420    22.1430     6.4860     4.8270     5.1440   104.4150   -13.4940    59.6440    79.5900
 3372.0000   -24.7750     2.4980     0.0060     8.6780     0.2340    25.4400     6.7260     4.9910     5.2390   104.2990   -13.2150    60.8070    79.2350
 3372.5000   -24.7750     2.5000     0.0070     8.6900     0.2290    28.7360     6.9480     5.1440     5.2880   104.7070   -12.9270    61.9710    78.7950
 3373.0000   -24.7750     2.5010     0.0050     8.6820     0.2280    32.0330     6.9770     5.0960     5.3370   106.7170   -12.8230    63.1340    78.6470
 3373.5000   -24.7750     2.5030     0.0030     8.6530     0.2290    35.3290     6.5980     5.0040     5.1620   107.9440   -12.7020    64.2980    78.5890
 3374.0000   -24.7750     2.5050     0.0070     8.6240     0.2280    34.8920     6.2970     4.8630     4.9960   109.4130   -12.5870    65.1600    78.8610
 3374.5000   -24.7750     2.5000     0.0020     8.5960     0.2270    33.7420     6.1680     4.7210     4.8310   111.5160   -12.4710    63.9240    79.1520
 3375.0000   -24.7750     2.4900    -0.0040     8.5790     0.2280    32.5920     6.1370     4.5800     4.6650   114.4970   -12.4450    62.6880    79.4420
 3375.5000   -24.7750     2.4800    -0.0100     8.5790     0.2300    31.4420     5.8740     4.4370     4.4990   117.0060   -12.6350    61.4510    80.1030
 3376.0000   -24.7750     2.4760    -0.0090     8.5780     0.2360    30.2920     5.4050     4.4040     4.4160   119.8850   -12.8630    60.2150    81.1410
 3376.5000   -24.7750     2.4700    -0.0040     8.5680     0.2410    29.1420     4.9370     4.3710     4.6170   120.2730   -13.0890    58.9790    82.0790
 3377.0000   -24.7750     2.4630     0.0010     8.5500     0.2470    27.9920     4.8210     4.3560     4.7770   117.0510   -13.1830    57.7430    82.6930
 3377.5000   -24.7750     2.4590     0.0070     8.5320     0.2490    26.8420     5.4550     4.4090     4.9370   112.8610   -12.9450    56.5070    82.3470
 3378.0000   -24.7750     2.4670     0.0060     8.5140     0.2500    26.1350     6.2970     4.5090     5.0970   111.1160   -12.7110    55.3050    81.5920
 3378.5000   -24.7750     2.4850     0.0010     8.4990     0.2500    28.7460     6.5400     4.6090     5.1440   111.8170   -12.6590    61.4070    80.7130
 3379.0000   -24.7750     2.4980     0.0010     8.4940     0.2490    31.3570     6.3970     4.7080     5.1120   112.2840   -12.8140    67.3410    79.8590
 3379.5000   -24.7750     2.4950    -0.0030     8.4880     0.2480    33.9690     6.1870     4.8080     5.0820   110.9700   -12.9700    73.2750    79.8680
