~VERSION INFORMATION
 VERS.                2.0:   CWLS LOG ASCII STANDARD - VERSION 2.0
 WRAP.                 NO:   ONE LINE PER DEPTH STEP
~WELL INFORMATION
#MNEM.UNIT      DATA TYPE    INFORMATION
#----------   ------------   ------------------------------
 STRT.F          448.5000:   START DEPTH
 STOP.F         4490.5000:   STOP DEPTH
 STEP.F            0.5000:   STEP LENGTH
 NULL.          -999.2500:   NO VALUE
 COMP.  FENIX AND SCISSON:   COMPANY
 WELL. FENIX AND SCISSON NPR 3 #11-10:   WELL
 FLD .              NPR-3:   FIELD
 LOC .      S10 T38N R78W:   LOCATION
 CNTY.            NATRONA:   COUNTY
 STAT.            WYOMING:   STATE
 CTRY. UNITED STATES OF AMERICA:   COUNTRY
 SRVC.              WELEX:   SERVICE COMPANY
 DATE.        22-DEC-1978:   LOGDATE
 API .     49025107450000:   API NUMBER
~CURVE INFORMATION
#MNEM.UNIT       API CODE    CURVE DESCRIPTION
#----------   ------------   ------------------------------
 DEPT.F                  :   
 SPR .MV     07 010 01 00:   SPONTANEOUS POTENTIAL
 ILM .OHMM   07 120 44 00:   INDUCTION LOG MEDIUM
 ILD .OHMM   07 120 46 00:   DEEP RESISTIVITY
 SGRD.OHMM   07 220 01 00:   SHALLOW SHORT GUARD RESISTIVITY
 TENR.LBS    07 635 01 00:   TENSION FROM RESISTIVITY
 NPHI.DEC    42 890 03 00:   NEUTRON POROSITY SANDSTONE
 CALD.IN     45 280 60 00:   CALIPER FROM DENSITY LOG
 GRD .GAPI   45 310 01 00:   GAMMA RAY FROM DENSITY LOG
 RHOB.G/C3   45 350 01 00:   BULK DENSITY
 DRHO.G/C3   45 356 01 00:   DENSITY CORRECTION
 TEND.LBS    45 635 01 00:   TENSION FROM DENSITY
~PARAMETER INFORMATION
#MNEM.UNIT          VALUE    DESCRIPTION
#----------   ------------   ------------------------------
 EKB .F         5275.0000:   Kelly bushing
 EGL .F         5265.0000:   Ground level
 EDF .F            0.0000:   Drilling floor
 EPD .F         5265.0000:   Permanent datum
 TD  .F         4500.0000:   Total depth
 DATE.        22-DEC-1978:   Date logged
 CLNT.            A2DTECH:   Client Code
 SL  . 300' FNL & 500' FWL:   Surface Location
 DD  .F              4500:   Depth driller
 DL  .F              4481:   Depth logger
 BLI .F              4479:   Bottom log interval
 TLI .F               450:   Top log interval
 CS1 .IN            8.625:   Casing size
 CBD1.      8.625" @ 500':   Casing driller 1
 CBL1.F               473:   Casing logger 1
 BS1 .IN            7.875:   Bit size
 BSD1.F              4500:   Depth drilled with bit1
 DFT .               LSND:   Type fluid in hole
 DFD .                8.7:   Density
 DFV .                 49:   Viscosity
 DFPH.               11.0:   pH
 DFL .                7.6:   Fluid loss
 MSS .           FLOWLINE:   Source of sample
 RMS .OHMM            1.1:   Rm
 MST .F                86:   Rm Meas. temp.
 RMF .OHMM           0.73:   Rmf
 MFST.F                86:   Rmf Meas. temp.
 RMC .OHMM           1.68:   Rmc
 MCST.F                86:   Rmc Meas. temp.
 MFSS.               CALC:   Source Rmf.
 MCSS.               CALC:   Source Rmc.
 RMB .OHMM           0.72:   Rm. at BHT
 BHT .F               130:   BHT.
 TCS .HRS             3.5:   Time Circ. stopped
 MRT .F               130:   Maximum recorded temp.
 LUN .               9685:   Logging unit number
 LUL .             CASPER:   Logging unit location
 ENGI.            BENTSEN:   Recorded By
 WITN.           DINSMORE:   Witnessed by
 ORIG.           5" PRINT:   Origin of data
 UWI .     49025107450000:   Unique Well ID
 DICO. A2D TECHNOLOGIES, INC.:   Digitizing Company
~OTHER INFORMATION
~A  DEPTH      SPR        ILM        ILD       SGRD       TENR       NPHI       CALD        GRD       RHOB       DRHO       TEND
# ...
 3925.5000   -50.8726     5.0217     4.4641     8.3335  1630.2000     0.2782     9.0445   124.9462     2.2842     0.0574  1922.4467
 3926.0000   -50.8563     5.6933     4.5607     6.9448  1629.5132     0.2784     8.9840   125.2560     2.3302     0.0561  1922.9806
 3926.5000   -50.9281     5.4670     4.6273     7.7191  1628.8264     0.2751     8.9863   127.0203     2.3295     0.0397  1923.5144
 3927.0000   -51.0647     5.1775     4.6948    10.5837  1628.1396     0.2717     8.9941   129.2951     2.3236     0.0233  1924.0482
 3927.5000   -51.1037     4.9374     4.7634    10.0566  1627.4529     0.2728     9.0124   131.7049     2.3109     0.0115  1924.5822
 3928.0000   -51.1896     4.7740     4.9003     6.6349  1626.7660     0.2764     9.0381   133.0827     2.3027     0.0162  1925.1160
 3928.5000   -51.3261     4.7129     5.0466     4.4097  1626.0792     0.2788     9.0553   134.0134     2.3119     0.0269  1925.6498
 3929.0000   -51.3511     4.9822     5.2317     6.2060  1625.3925     0.2776     9.0577   134.7220     2.3135     0.0436  1926.1837
 3929.5000   -51.5674     5.4618     5.3834    10.2626  1624.7057     0.2737     9.0600   135.4967     2.3031     0.0574  1926.7175
 3930.0000   -51.6148     5.8732     5.5092    12.0464  1624.0189     0.2698     9.0624   136.4938     2.3062     0.0756  1927.2513
 3930.5000   -51.5961     6.3155     5.6798    10.1090  1623.3322     0.2672     9.0354   137.3943     2.3033     0.0939  1927.7853
 3931.0000   -51.5803     6.7613     5.8907     8.9521  1622.6454     0.2666     9.0079   137.7832     2.2906     0.1061  1928.3191
 3931.5000   -51.5645     7.0450     6.0992     9.7154  1621.9586     0.2672     8.9953   137.6608     2.2636     0.1077  1928.8529
 3932.0000   -51.2524     7.0370     6.2687    10.2398  1621.2719     0.2670     8.9818   137.0267     2.2426     0.0854  1929.3868
 3932.5000   -51.2366     6.8170     6.3819     9.9986  1620.5851     0.2656     8.9700   135.9945     2.2315     0.0795  1929.9207
 3933.0000   -51.0716     6.5371     6.4171     9.4342  1619.8983     0.2676     8.9966   134.8357     2.2285     0.1008  1930.4545
 3933.5000   -50.8968     6.2686     6.3886     8.9358  1619.2115     0.2713     9.0588   133.8215     2.2475     0.1055  1930.9884
 3934.0000   -50.5956     5.9947     6.2674     9.0065  1618.5248     0.2727     9.1413   132.9025     2.2724     0.0876  1931.5222
 3934.5000   -50.5642     5.7244     6.0948     9.3324  1617.8380     0.2706     9.1852   131.5817     2.2755     0.0607  1932.0560
 3935.0000   -50.3951     5.4716     5.8701     9.6035  1617.1512     0.2688     9.2051   130.9476     2.2410     0.0473  1932.5900
 3935.5000   -50.2504     5.2094     5.5492     9.4151  1616.4645     0.2684     9.2074   132.1018     2.2110     0.0339  1933.1238
 3936.0000   -50.2341     4.9928     5.1879     7.6574  1615.7777     0.2699     9.2005   135.3057     2.2277     0.0115  1933.6576
 3936.5000   -50.2178     4.8117     4.7960     4.2235  1615.0909     0.2714     9.2282   140.0304     2.2195    -0.0019  1934.1915
 3937.0000   -50.1630     4.6306     4.3688     4.5757  1614.4042     0.2719     9.2670   143.6505     2.2219    -0.0062  1934.7253
 3937.5000   -50.0370     4.4459     4.0068    10.9874  1613.7174     0.2729     9.2470   151.0409     2.2543    -0.0045  1935.2592
 3938.0000   -50.0207     4.1764     3.7404    12.1362  1613.0306     0.2785     9.2047   153.3129     2.2845     0.0017  1935.7931
 3938.5000   -50.1096     3.7823     3.5439     5.7033  1612.3439     0.2847     9.1920   152.0081     2.3516     0.0124  1936.3269
 3939.0000   -50.3418     3.4365     3.3559     4.6186  1611.6571     0.2877     9.2241   143.2990     2.3735     0.0201  1936.8607
 3939.5000   -50.5403     3.2512     3.1885     4.7408  1610.9703     0.2844     9.2264   127.0673     2.3639     0.0294  1937.3947
 3940.0000   -50.6963     3.1017     3.0287     3.9459  1610.2836     0.2784     9.2288   120.3861     2.3595     0.0371  1937.9285
 3940.5000   -50.7514     3.0140     2.9481     3.4343  1609.5967     0.2717     9.2312   117.7157     2.3558     0.0433  1938.4623
 3941.0000   -50.8879     3.2538     2.9096     2.9167  1608.9099     0.2653     9.2384   117.0247     2.3514     0.0480  1938.9962
 3941.5000   -50.9437     3.6999     2.9931     4.6269  1608.2231     0.2610     9.2567   119.2499     2.3282     0.0331  1939.5310
 3942.0000   -51.0129     4.2373     3.1655     7.8948  1607.5364     0.2593     9.2818   122.6298     2.3140     0.0062  1940.0812
 3942.5000   -51.1494     4.7114     3.3478     9.6896  1606.8496     0.2623     9.3081   125.4749     2.3013    -0.0163  1940.6313
 3943.0000   -51.1911     5.0609     3.6479     8.6355  1606.1628     0.2693     9.3084   127.4485     2.2984    -0.0281  1941.1815
 3943.5000   -51.1748     5.2306     4.0321     7.3113  1605.4761     0.2745     9.3149   128.8108     2.3053    -0.0310  1941.7317
 3944.0000   -51.1585     5.2493     4.3823     7.8464  1604.7893     0.2742     9.3332   129.9496     2.3310    -0.0308  1942.2819
 3944.5000   -51.2511     5.1475     4.6024     8.1745  1604.1025     0.2735     9.3546   130.4177     2.3416    -0.0276  1942.8320
 3945.0000   -51.2741     5.0410     4.7626     7.6496  1603.4158     0.2735     9.3717   128.0928     2.3485    -0.0244  1943.3822
 3945.5000   -51.2578     4.9923     4.8562     7.6634  1602.7290     0.2737     9.3740   125.3808     2.3501    -0.0197  1943.9324
 3946.0000   -51.2388     5.0002     4.8944     5.7507  1602.0422     0.2721     9.3762   123.8522     2.3457    -0.0195  1944.4825
 3946.5000   -51.3711     5.0620     4.9152     4.0542  1601.3555     0.2660     9.3624   123.2831     2.3382    -0.0193  1945.0327
 3947.0000   -51.3554     5.1625     4.8638     5.5967  1600.6687     0.2618     9.3464   124.4094     2.3271    -0.0207  1945.5829
 3947.5000   -51.3396     5.2798     4.7855     7.7267  1599.9819     0.2580     9.3239   126.5697     2.3242    -0.0189  1946.1331
 3948.0000   -51.3238     5.4259     4.7907     8.2882  1599.2952     0.2573     9.3308   128.8228     2.3250    -0.0158  1946.6832
 3948.5000   -51.3080     5.5606     4.8902     8.1256  1598.6084     0.2612     9.3491   131.5418     2.3296    -0.0111  1947.2334
 3949.0000   -51.1407     5.6868     5.0357     7.9113  1597.9216     0.2661     9.3805   134.5301     2.3373    -0.0033  1947.7836
 3949.5000   -50.9716     5.8009     5.1685     7.9739  1597.2349     0.2695     9.4077   137.6729     2.3432     0.0043  1948.3337
 3950.0000   -50.8161     5.8467     5.2687     8.0927  1596.6030     0.2701     9.3988   141.6177     2.3487     0.0060  1948.9285
 3950.5000   -50.8378     5.7708     5.3534     7.0908  1596.5979     0.2696     9.3805   145.5890     2.3527     0.0031  1948.2871
 3951.0000   -50.8578     5.6803     5.4416     7.2963  1596.5928     0.2642     9.3694   150.6300     2.3460     0.0033  1947.5894
 3951.5000   -50.8778     5.5898     5.5526     7.9351  1596.5876     0.2587     9.3713   156.7135     2.3244     0.0034  1946.8915
 3952.0000   -50.9467     5.5045     5.5913     8.3943  1596.5825     0.2571     9.3733   159.3877     2.2966     0.0080  1946.1936
 3952.5000   -51.0074     5.4718     5.5813     8.4018  1596.5774     0.2568     9.3752   162.0829     2.2607     0.0157  1945.4957
 3953.0000   -50.9867     5.4438     5.5090     8.4093  1596.5723     0.2586     9.3771   163.0395     2.2239     0.0263  1944.7979
 3953.5000   -50.9659     5.4507     5.4580     8.2978  1596.5671     0.2631     9.3586   163.7239     2.2000     0.0325  1944.1000
 3954.0000   -50.9452     5.4569     5.4645     8.1253  1596.5621     0.2702     9.3401   163.9449     2.1542     0.0356  1943.4021
 3954.5000   -50.8362     5.4630     5.4709     7.8376  1596.5570     0.2768     9.3238   164.0820     2.1310     0.0252  1942.7042
 3955.0000   -50.7556     5.4516     5.4510     7.4164  1596.5519     0.2807     9.3554   164.8659     2.1259    -0.0063  1942.0063
 3955.5000   -50.7348     5.3163     5.3256     7.0634  1596.5468     0.2806     9.4166   167.1722     2.1260    -0.0408  1941.3085
