~VERSION INFORMATION
 VERS.                2.0:   CWLS LOG ASCII STANDARD - VERSION 2.0
 WRAP.                 NO:   ONE LINE PER DEPTH STEP
~WELL INFORMATION
#MNEM.UNIT      DATA TYPE    INFORMATION
#----------   ------------   ------------------------------
 STRT.F           10.0000:   START DEPTH
 STOP.F         3180.0000:   STOP DEPTH
 STEP.F            0.5000:   STEP LENGTH
 NULL.          -999.2500:   NO VALUE
 COMP. LAWRENCE - ALLISON WEST:   COMPANY
 WELL. LAWRENCE ALLISON NPR 3 "AX" #17-2:   WELL
 FLD .                NPR:   FIELD
 LOC .       S2 T38N R78W:   LOCATION
 CNTY.            NATRONA:   COUNTY
 STAT.            WYOMING:   STATE
 CTRY. UNITED STATES OF AMERICA:   COUNTRY
 SRVC.      DRESSER ATLAS:   SERVICE COMPANY
 DATE.        16-FEB-1987:   LOGDATE
 API .     49025111210000:   API NUMBER
~CURVE INFORMATION
#MNEM.UNIT       API CODE    CURVE DESCRIPTION
#----------   ------------   ------------------------------
 DEPT.F                  :   
 DEN .LBS    45 350 01 00:   BULK DENSITY
 CORR.G/C3   45 356 01 00:   DENSITY CORRECTION
 TEND.LBS    45 635 01 00:   TENSION FROM DENSITY LOG
 CNC .DEC    42 890 01 00:   NEUTRON PORISITY LIMESTONE
 CALR.IN     07 280 01 00:   CALIPER FROM RESISTIVITY
 SPR .MV     07 010 01 00:   SPONTANEOUS POTENTIAL
 GRR .GAPI   07 310 01 00:   GAMMA RAY FROM RESISTIVITY
 RFOC.OHMM   07 220 04 00:   RESISTIVITY FOCUSED LOG RES.
 ILD .OHMM   07 120 46 00:   DEEP INDUCTION RESISTIVITY
 ILM .OHMM   07 120 44 00:   INDUCTION LOG MEDIUM RESISTIVITY
 TENR.LBS    07 635 01 00:   TENSION FROM RESISTIVITY
~PARAMETER INFORMATION
#MNEM.UNIT          VALUE    DESCRIPTION
#----------   ------------   ------------------------------
 EKB .F         5141.0000:   Kelly bushing
 EGL .F         5129.0000:   Ground level
 EDF .F            0.0000:   Drilling floor
 EPD .F            0.0000:   Permanent datum
 TD  .F         3161.0000:   Total depth
 DATE.        16-FEB-1987:   Date logged
 CLNT.            A2DTECH:   Client Code
 SL  . 1125' FSL & 220' FWL:   Surface Location
 PD  .                 GL:   Permanent Datum
 DAPD.F                12:   Feet Above Permanent Datum
 DD  .F              3161:   Depth driller
 DL  .F              3158:   Depth logger
 BLI .F              3156:   Bottom log interval
 TLI .F                12:   Top log interval
 CS1 .IN            8.625:   Casing size
 CBD1.      8.625" @ 626':   Casing driller 1
 CBL1.F               626:   Casing logger 1
 BS1 .IN            7.875:   Bit size
 BSD1.F              3161:   Depth drilled with bit1
 DFT .        KCL/POLYMER:   Type fluid in hole
 DFD .                8.8:   Density
 DFV .                 39:   Viscosity
 DFPH.                 10:   pH
 DFL .                8.4:   Fluid loss
 MSS .           FLOWLINE:   Source of sample
 RMS .OHMM           .292:   Rm
 MST .F                82:   Rm Meas. temp.
 RMF .OHMM           .231:   Rmf
 MFST.F                82:   Rmf Meas. temp.
 RMC .OHMM           .365:   Rmc
 MCST.F                82:   Rmc Meas. temp.
 MFSS.               MEAS:   Source Rmf.
 MCSS.               CALC:   Source Rmc.
 RMB .OHMM           .203:   Rm. at BHT
 BHT .F               118:   BHT.
 TCS .HRS               3:   Time Circ. stopped
 MRT .F               118:   Maximum recorded temp.
 LUN .            HL-6274:   Logging unit number
 LUL .           GALLETTE:   Logging unit location
 ENGI.            PANASUK:   Recorded By
 WITN.             STRONG:   Witnessed by
 ORIG.           5" PRINT:   Origin of data
 UWI .     49025111210000:   Unique Well ID
 DICO. A2D TECHNOLOGIES, INC.:   Digitizing Company
~OTHER INFORMATION
~A   DEPT      DEN       CORR       TEND        CNC       CALR        SPR          GRR     RFOC        ILD        ILM       TENR   
# ...
 2633.0000     2.3979     0.0032   -63.7478     0.1925     8.4104    22.1116    73.3084    18.3330    23.0187    19.4218   -85.0000
 2633.5000     2.3959    -0.0028   -63.7973     0.1917     8.4104    21.3147    70.1211    19.0203    23.2316    19.4218   -85.0000
 2634.0000     2.3939    -0.0068   -63.8469     0.1909     8.4104    20.9163    66.1371    19.1961    23.4464    19.4218   -85.0000
 2634.5000     2.3850    -0.0208   -63.8964     0.1909     8.3905    19.9203    64.1450    19.3735    23.4464    19.4218   -85.0000
 2635.0000     2.3840    -0.0328   -63.9558     0.1917     8.3905    19.5219    63.3482    19.1961    22.5988    19.4218   -85.0000
 2635.5000     2.3870    -0.0368   -64.0053     0.1945     8.3905    19.3227    64.5434    19.1961    22.8078    19.4218   -85.0000
 2636.0000     2.3960    -0.0308   -64.0548     0.1981     8.3706    19.1235    68.1291    19.1961    22.5988    19.0679   -85.0000
 2636.5000     2.4169    -0.0028   -64.1043     0.1993     8.3706    18.7251    71.3163    19.1961    23.0187    18.8933   -85.0000
 2637.0000     2.4249     0.0072   -74.1536     0.1965     8.3706    17.9283    75.3004    19.1961    23.2316    18.7204   -85.0000
 2637.5000     2.4259     0.0072   -64.2033     0.1877     8.3706    17.7291    77.2924    18.3330    24.3258    20.9044   -75.0000
 2638.0000     2.4339     0.0152   -64.2528     0.1773     8.3706    17.5299    74.5036    20.6623    25.2382    22.7080   -75.0000
 2638.5000     2.4599     0.0133   -64.3023     0.1724     8.3706    17.5299    72.9100    21.6350    26.6714    23.5588   -85.0000
 2639.0000     2.4924     0.0133   -64.3518     0.1537     8.3706    17.5299    71.3163    26.2461    27.6718    24.4415   -95.0000
 2639.5000     2.5229     0.0213   -64.4013     0.1484     8.3706    17.7291    71.3163    37.2307    28.7097    25.1251   -95.0000
 2640.0000     2.5349     0.0273   -64.4508     0.1440     8.3706    17.9283    71.3163    33.8735    31.1895    26.3073   -65.0000
 2640.5000     2.5349     0.0273   -64.5003     0.1392     8.3905    18.3267    72.1131    31.8401    32.0629    26.5503   -65.0000
 2641.0000     2.5289     0.0173   -64.5498     0.1392     8.3905    18.7552    70.9179    30.6896    34.1970    27.2929   -75.0000
 2641.5000     2.5113    -0.0007   -64.5993     0.1392     8.3708    18.9243    67.7307    30.4086    34.8324    27.7995   -85.0000
 2642.0000     2.4999    -0.0007   -64.6488     0.1360     8.3706    18.9243    64.9418    29.5808    34.8324    27.7995   -75.0000
 2642.5000     2.5154     0.0033   -64.6983     0.1392     8.3905    19.7211    63.3482    28.2508    29.5136    26.7955   -65.0000
 2643.0000     2.5279     0.0054   -64.7478     0.1472     8.3905    20.1195    64.1450    28.5119    37.1508    25.3572   -65.0000
 2643.5000     2.5219     0.0034   -64.7973     0.1600     8.3905    20.5179    64.9418    27.4817    40.7330    21.2924   -65.0000
 2644.0000     2.4750    -0.0006   -64.8468     0.1744     8.3905    21.5139    66.5355    25.5316    26.1849    18.8933   -65.0000
 2644.5000     2.4220    -0.0026   -64.8963     0.1904     8.3905    21.9124    66.9339    22.4993    23.8821    18.7204   -65.0000
 2645.0000     2.4090    -0.0026   -64.9458     0.1912     8.3777    21.1155    66.5355    18.1651    23.6632    18.5490   -75.0000
 2645.5000     2.4150     0.0014   -64.9953     0.1940     8.3706    20.9163    66.5355    17.8339    22.8078    18.5490   -75.0000
 2646.0000     2.4260     0.0034   -65.0547     0.1972     8.3706    20.9163    66.9339    17.5088    21.9832    18.2110   -75.0000
 2646.5000     2.4380     0.0054   -65.1042     0.1968     8.3706    21.1155    73.7068    19.3735    21.5822    17.8792   -75.0000
 2647.0000     2.4340     0.0034   -65.1537     0.1968     8.3905    21.3147    77.6908    20.0998    20.9943    17.5533   -75.0000
 2647.5000     2.4241    -0.0145   -65.2032     0.1968     8.3905    21.7131    79.2845    20.6623    21.1885    17.5533   -85.0000
 2648.0000     2.4101    -0.0225   -65.2527     0.1964     8.3905    21.9124    75.6988    20.6623    22.5988    17.8792   -85.0000
 2648.5000     2.3941    -0.0125   -75.2922     0.1944     8.3905    22.5100    71.7147    19.0203    23.2316    18.3792   -85.0000
 2649.0000     2.3831    -0.0065   -75.3417     0.1912     8.3905    22.9084    68.9259    18.5025    23.4464    18.5490   -85.0000
 2649.5000     2.3771    -0.0065   -75.3912     0.1880     8.3706    23.5060    66.5355    18.3330    24.1029    18.5490   -75.0000
 2650.0000     2.3791    -0.0085   -75.4407     0.1884     8.3706    23.5060    64.9418    19.0203    24.3258    18.7204   -75.0000
 2650.5000     2.3831    -0.0045   -75.4902     0.1916     8.3706    23.6609    61.3625    19.1679    24.3258    19.1596   -75.0000
 2651.0000     2.3811    -0.0025   -75.5397     0.1936     8.3509    23.7069    60.5624    19.3735    24.3258    19.6012   -75.0000
 2651.5000     2.3771    -0.0085   -75.5892     0.1956     8.3311    23.7078    60.9623    19.3735    24.1029    19.7823   -85.0000
 2652.0000     2.3761    -0.0164   -75.6387     0.1976     8.2913    23.3109    62.5572    19.0203    23.8821    19.7823  -105.0000
 2652.5000     2.3841    -0.0224   -75.6882     0.2064     8.3512    22.5153    67.7370    19.0203    23.4464    19.4218  -105.0000
 2653.0000     2.3941    -0.0204   -75.7377     0.2112     8.3513    21.3215    72.5182    18.3330    23.0187    18.7204  -105.0000
 2653.5000     2.3971    -0.0104   -75.7872     0.2132     8.3514    20.3268    75.3074    17.9988    21.3948    18.3792   -95.0000
 2654.0000     2.3971    -0.0044   -75.8367     0.2128     8.3356    19.9297    76.1049    17.1895    20.6114    17.5533   -95.0000
 2654.5000     2.3961    -0.0104   -75.8862     0.2032     8.3317    19.3340    76.9024    16.7216    20.0499    16.9194  -105.0000
 2655.0000     2.3922    -0.0224   -75.9357     0.2008     8.3318    18.7373    76.9033    16.5684    19.8662    16.4591  -105.0000
 2655.5000     2.3922    -0.0284   -75.9852     0.1984     8.3120    18.5395    76.5060    16.5684    20.0499    16.4591  -105.0000
 2656.0000     2.3942    -0.0224   -76.0347     0.1972     8.3121    18.5407    75.7105    16.2663    20.4225    17.5533   -95.0000
 2656.5000     2.4042    -0.0044   -76.0842     0.1956     8.3122    18.5419    74.1187    16.1174    21.1885    19.0679   -95.0000
 2657.0000     2.4231    -0.0004   -76.1436     0.1776     8.3123    18.5432    72.5269    16.8761    21.1885    20.3356   -95.0000
 2657.5000     2.4491    -0.0023   -76.1931     0.1608     8.3123    18.7435    70.5372    18.6735    21.1885    21.0975   -95.0000
 2658.0000     2.4671    -0.0043   -76.2426     0.1580     8.3125    18.9441    68.9458    29.5808    19.1480    19.4218   -85.0000
 2658.5000     2.4681    -0.0043   -76.2921     0.1628     8.3127    19.5425    65.7619    33.9582    19.8662    18.5490   -75.0000
 2659.0000     2.4461     0.0157   -76.3416     0.1764     8.2928    19.7423    64.5689    27.9921    20.0499    17.7155   -75.0000
 2659.5000     2.4212     0.0317   -76.3911     0.1935     8.2930    19.7440    66.1625    18.6735    20.0499    17.0757   -75.0000
 2660.0000     2.4062     0.0417   -76.4407     0.1975     8.2931    19.7452    73.7264    15.5350    19.5038    16.7646   -75.0000
 2660.5000     2.3942     0.0057   -76.4902     0.1991     8.2733    19.5474    75.3212    15.3927    18.6265    16.4591   -85.0000
 2661.0000     2.4012    -0.0103   -76.5397     0.1991     8.2733    19.5486    75.3222    15.3927    17.7886    16.1591   -95.0000
 2661.5000     2.4102    -0.0123   -76.5892     0.1963     8.2735    19.7488    76.5173    15.6786    17.4641    15.7195   -95.0000
 2662.0000     2.4142    -0.0043   -76.6387     0.1859     8.2736    19.7500    78.5084    16.8761    17.1455    15.8647   -95.0000
 2662.5000     2.4152     0.0017   -76.6882     0.1843     8.2936    20.3482    79.3053    17.0321    17.1455    15.8647   -95.0000
 2663.0000     2.4142    -0.0002   -76.7377     0.1835     8.3064    20.5484    78.5103    17.5088    17.4641    16.1591   -95.0000
