~VERSION INFORMATION
 VERS.                2.0:   CWLS LOG ASCII STANDARD - VERSION 2.0
 WRAP.                 NO:   ONE LINE PER DEPTH STEP
~WELL INFORMATION
#MNEM.UNIT      DATA TYPE    INFORMATION
#----------   ------------   ------------------------------
 STRT.F          500.0000:   START DEPTH
 STOP.F         4646.0000:   STOP DEPTH
 STEP.F            0.5000:   STEP LENGTH
 NULL.          -999.2500:   NO VALUE
 COMP.    FENIX & SCISSON:   COMPANY
 WELL. LAWRENCE NPR 3 "X" #34-10:   WELL
 FLD .                NPR:   FIELD
 LOC .      S10 T38N R78W:   LOCATION
 CNTY.            NATRONA:   COUNTY
 STAT.            WYOMING:   STATE
 CTRY. UNITED STATES OF AMERICA:   COUNTRY
 SRVC.              WELEX:   SERVICE COMPANY
 DATE.        12-OCT-1979:   LOGDATE
 API .     49025109290000:   API NUMBER
~CURVE INFORMATION
#MNEM.UNIT       API CODE    CURVE DESCRIPTION
#----------   ------------   ------------------------------
 DEPT.F                  :   
 SPR .MV     07 010 01 00:   SPONTANEOUS POTENTIAL
 SGRD.OHMM   07 220 05 00:   SHALLOW GUARD LOG RESISTIVITY
 ILD .OHMM   07 120 46 00:   DEEP INDUCTION RESISTIVITY
 ILM .OHMM   07 120 44 00:   INDUCTION LOG MEDIUM RESISTIVITY
 TEND.LBS    45 635 01 00:   TENSION FROM DENSITY LOG
 CORR.G/C3   45 356 01 00:   DENSITY CORRECTION
 RHOB.G/C3   45 350 01 00:   BULK DENSITY
 NPHI.DEC    42 890 03 00:   NEUTRON POROSITY SANDSTONE
 GRD .GAPI   45 310 01 00:   GAMMA RAY FROM DENSITY LOG
 CALD.IN     45 280 60 00:   CALIPER FROM DENSITY LOG
~PARAMETER INFORMATION
#MNEM.UNIT          VALUE    DESCRIPTION
#----------   ------------   ------------------------------
 EKB .F         5234.0000:   Kelly bushing
 EGL .F         5224.0000:   Ground level
 EDF .F            0.0000:   Drilling floor
 TD  .F         4650.0000:   Total depth
 DATE.        12-OCT-1979:   Date logged
 CLNT.            A2DTECH:   Client Code
 SL  . 2055' FNL & 1509' FWL:   Surface Location
 PD  .                 GL:   Permanent Datum
 DD  .F              4650:   Depth driller
 DL  .F              4646:   Depth logger
 BLI .F              4644:   Bottom log interval
 CS1 .IN              500:   Casing size
 CBD1.      8.625" @ 500':   Casing driller 1
 CBL1.F               502:   Casing logger 1
 BS1 .IN            7.875:   Bit size
 DFT .           CHEM/GEL:   Type fluid in hole
 DFD .                8.8:   Density
 DFV .                 62:   Viscosity
 DFPH.               11.2:   pH
 DFL .                4.5:   Fluid loss
 MSS .            MUD/PIT:   Source of sample
 RMS .OHMM           1.18:   Rm
 MST .F                60:   Rm Meas. temp.
 RMF .OHMM            .94:   Rmf
 MFST.F                60:   Rmf Meas. temp.
 RMC .OHMM           1.41:   Rmc
 MCST.F                60:   Rmc Meas. temp.
 MFSS.               MEAS:   Source Rmf.
 RMB .OHMM            .81:   Rm. at BHT
 BHT .F                87:   BHT.
 TCS .HRS               2:   Time Circ. stopped
 MRT .F                87:   Maximum recorded temp.
 LUN .               1892:   Logging unit number
 LUL .             CASPER:   Logging unit location
 ENGI.               REIN:   Recorded By
 WITN.           DINSMORE:   Witnessed by
 ORIG.           5" PRINT:   Origin of data
 UWI .     49025109290000:   Unique Well ID
 DICO. A2D TECHNOLOGIES, INC.:   Digitizing Company
 DAPD.                 10:   Feet Above Permanent Datum
 BSD1.F              4650:   Depth drilled with bit1
 MCSS.               MEAS:   Source Rmc.
 EPD .F              5224:   Elevation Permanent Datum
 LMF .                 KB:   Log Measured From
 DMF .                 KB:   Drilling Measured From
 TLI .F               500:   Top log interval
~OTHER INFORMATION
~A   DEPT      SPR         SGRD      ILD         ILM      TEND         CORR       RHOB       NPHI       GRD        CALD 
# ...
  768.0000   -36.8220     7.0800     6.1010     6.4220  1551.5520     0.1110     2.4390     0.1230    98.0450     9.9360
  768.5000   -36.7490     7.0500     6.0480     6.3640  1551.5520     0.1120     2.4430     0.1200    99.1860     9.9440
  769.0000   -36.6730     7.0200     5.9710     6.3070  1551.5520     0.1120     2.4470     0.1170    99.2100     9.9530
  769.5000   -36.5620     6.9910     5.9240     6.2470  1551.5520     0.1110     2.4510     0.1140   100.6460     9.9610
  770.0000   -36.3840     6.9610     5.8770     6.1770  1551.5520     0.1250     2.4550     0.1130   103.4490     9.9700
  770.5000   -36.2060     6.9310     5.8300     6.1070  1551.5520     0.1240     2.4590     0.1110   101.9460     9.9780
  771.0000   -36.0290     6.7840     5.7830     6.0370  1551.5520     0.1230     2.4640     0.1070   100.1390     9.9870
  771.5000   -35.8510     6.6180     5.7360     5.9660  1551.5520     0.1270     2.4690     0.1040    98.3510     9.9960
  772.0000   -35.6740     6.4530     5.6890     5.8960  1551.5520     0.1340     2.4770     0.1000    96.5910    10.0020
  772.5000   -35.4930     6.2870     5.6420     5.8260  1551.5520     0.1360     2.4840     0.0960    96.3960    10.0010
  773.0000   -35.5120     6.1210     5.5950     5.7560  1551.5520     0.1340     2.4850     0.0930    98.1530     9.9990
  773.5000   -35.6390     6.0060     5.5520     5.6860  1551.5520     0.1340     2.4900     0.0900    99.8780     9.9980
  774.0000   -35.7690     5.9490     5.4570     5.6160  1551.5520     0.1400     2.4960     0.0880   101.6380     9.9960
  774.5000   -35.8980     5.8920     5.3700     5.5460  1551.5520     0.1460     2.5030     0.0840   100.8760     9.9950
  775.0000   -36.0280     5.8350     5.2820     5.4760  1551.5520     0.1520     2.5090     0.0810   100.0570     9.9930
  775.5000   -36.1580     5.7780     5.1950     5.4050  1551.5520     0.1570     2.5140     0.0770   102.3730     9.9920
  776.0000   -36.2880     5.7210     5.1080     5.3350  1551.5520     0.1620     2.5150     0.0800   104.6530     9.9900
  776.5000   -36.4200     5.6630     5.0200     5.2650  1551.5520     0.1600     2.5060     0.0850   106.9810     9.9890
  777.0000   -36.3490     5.6040     4.9330     5.1960  1549.8120     0.1570     2.4970     0.0920   105.1140     9.9880
  777.5000   -36.2620     5.4880     4.8450     5.1320  1546.2700     0.1510     2.4880     0.0990   102.7310     9.9860
  778.0000   -36.1750     5.3660     4.7580     5.0680  1542.7290     0.1520     2.4790     0.1050   100.3500     9.9850
  778.5000   -36.0890     5.2440     4.6700     5.0040  1539.1870     0.1520     2.4690     0.1120    98.3550     9.9830
  779.0000   -36.0500     5.1220     4.5750     4.9400  1535.6460     0.1490     2.4590     0.1190    98.4410     9.9850
  779.5000   -36.1500     5.0170     4.5630     4.8760  1532.1050     0.1460     2.4490     0.1240    96.5350    10.0020
  780.0000   -36.2440     5.2770     4.5490     4.8350  1532.0909     0.1430     2.4390     0.1280    94.5010    10.0180
  780.5000   -36.3400     5.5530     4.5330     5.0140  1532.7570     0.1380     2.4290     0.1330    95.6890    10.0350
  781.0000   -36.4200     5.8140     4.5670     5.1580  1533.4240     0.1340     2.4170     0.1420    97.0310    10.0510
  781.5000   -36.2730     5.8220     4.6220     5.1320  1534.0909     0.1260     2.4030     0.1470    98.7500    10.0680
  782.0000   -36.1230     5.8300     4.6770     5.1100  1534.7581     0.1180     2.3890     0.1520   100.5090    10.0840
  782.5000   -35.9750     5.8370     4.7310     5.3510  1535.4250     0.1230     2.3840     0.1510   102.2710    10.1010
  783.0000   -35.8270     5.8450     4.7860     5.3330  1536.0920     0.1290     2.4050     0.1330   103.9750    10.1180
  783.5000   -35.6790     5.8530     4.8400     5.3020  1536.7590     0.1340     2.4370     0.1200   104.6880    10.1340
  784.0000   -35.5330     5.8600     4.8950     5.4510  1537.4260     0.1400     2.4620     0.1080   105.2260    10.1510
  784.5000   -35.4710     5.8680     4.9500     5.4260  1538.0930     0.1460     2.4720     0.1060   103.7170    10.1670
  785.0000   -35.6200     5.8750     5.0040     5.3780  1538.7600     0.1490     2.4710     0.1040   101.5960    10.1810
  785.5000   -35.7650     5.8830     5.0170     5.3290  1539.4260     0.1510     2.4770     0.1020    99.4520    10.1730
  786.0000   -35.9100     5.8910     5.0170     5.2800  1540.0930     0.1520     2.4810     0.0990    97.2880    10.1650
  786.5000   -36.0560     5.8980     5.0170     5.2540  1540.7600     0.1510     2.4800     0.0970    97.0410    10.1580
  787.0000   -36.2010     5.9060     5.0170     5.2540  1541.4270     0.1490     2.4840     0.0950    97.9200    10.1500
  787.5000   -36.3470     5.9130     5.0170     5.2540  1542.0940     0.1470     2.4860     0.0940    96.2700    10.1420
  788.0000   -36.4920     5.9200     5.0280     5.2540  1542.7610     0.1450     2.4890     0.0940    94.5560    10.1340
  788.5000   -36.6380     5.9500     5.0470     5.3100  1543.4280     0.1430     2.4880     0.0940    92.8400    10.1270
  789.0000   -36.7830     5.9850     5.0660     5.3670  1544.0950     0.1420     2.4850     0.0950    93.5610    10.1190
  789.5000   -36.9270     6.0200     5.0850     5.4510  1544.7620     0.1400     2.4790     0.0970    96.6170    10.1110
  790.0000   -37.0100     6.0550     5.1050     5.4380  1545.4290     0.1380     2.4730     0.1030    95.7610    10.1040
  790.5000   -36.9530     6.0900     5.1240     5.4130  1546.0950     0.1370     2.4670     0.1100    93.8860    10.0890
  791.0000   -36.8990     6.1250     5.1430     5.3880  1546.7620     0.1380     2.4660     0.1130    92.3380    10.0720
  791.5000   -36.8460     6.1450     5.1580     5.3630  1547.4290     0.1410     2.4710     0.1080    93.7940    10.0560
  792.0000   -36.6910     6.0820     5.1540     5.3380  1548.0959     0.1450     2.4770     0.1040    95.3300    10.0390
  792.5000   -36.4930     6.0220     5.1500     5.3130  1548.7629     0.1490     2.4820     0.0980    96.8740    10.0220
  793.0000   -36.2920     5.9620     5.1450     5.3020  1549.4301     0.1540     2.4880     0.0930    98.4750    10.0060
  793.5000   -36.0910     5.9020     5.1410     5.3020  1550.0970     0.1530     2.4900     0.0910    98.1750     9.9890
  794.0000   -35.8910     5.8650     5.1370     5.3020  1550.7640     0.1500     2.4890     0.0910    97.3390     9.9830
  794.5000   -35.6860     5.8580     5.1320     5.2930  1551.4310     0.1470     2.4880     0.0920    96.4940     9.9860
  795.0000   -35.7030     5.8520     5.1280     5.2830  1551.5520     0.1440     2.4870     0.0930    96.0050     9.9880
  795.5000   -35.8060     5.8450     5.1240     5.2730  1551.5520     0.1410     2.4860     0.0940    96.0550     9.9910
  796.0000   -35.9110     5.8380     5.1190     5.2630  1551.5520     0.1410     2.4850     0.0940    96.1560     9.9940
  796.5000   -36.0160     5.8310     5.1150     5.2520  1551.5520     0.1430     2.4880     0.0920    96.2590     9.9960
  797.0000   -36.1210     5.8240     5.1110     5.2420  1551.5520     0.1450     2.4920     0.0900    96.3580     9.9990
  797.5000   -36.2250     5.8170     5.0060     5.2320  1551.5520     0.1440     2.4950     0.0910    96.9340    10.0010
  798.0000   -36.3300     5.7960     4.8880     5.2220  1551.5520     0.1440     2.4940     0.0950    97.8770    10.0170
  798.5000   -36.4350     5.7410     4.7910     5.2110  1551.5520     0.1420     2.4870     0.0980    98.8240    10.0360
  799.0000   -36.5400     5.7080     5.0080     5.2050  1551.5520     0.1360     2.4800     0.1020    99.7700    10.0540
  799.5000   -36.6440     5.7080     5.1100     5.2540  1551.5520     0.1290     2.4730     0.1060   100.6990    10.0730
  800.0000   -36.7490     5.7080     5.1070     5.2880  1551.5520     0.1220     2.4670     0.1100   100.4080    10.0920
  800.5000   -36.8540     5.7080     5.1050     5.3230  1551.5520     0.1210     2.4600     0.1130    98.7770    10.1110
  801.0000   -36.9590     5.7090     5.1030     5.3510  1551.5520     0.1240     2.4560     0.1150    97.1520    10.1300
