~VERSION INFORMATION
 VERS.                2.0:   CWLS LOG ASCII STANDARD - VERSION 2.0
 WRAP.                 NO:   ONE LINE PER DEPTH STEP
~WELL INFORMATION
#MNEM.UNIT      DATA TYPE    INFORMATION
#----------   ------------   ------------------------------
 STRT.F          196.0000:   START DEPTH
 STOP.F         3430.0000:   STOP DEPTH
 STEP.F            0.5000:   STEP LENGTH
 NULL.          -999.2500:   NO VALUE
 COMP.    FENIX $ SCISSON:   COMPANY
 WELL.   FENIX "A" #23-10:   WELL
 FLD .              N P R:   FIELD
 LOC .      S10 T38N R78W:   LOCATION
 CNTY.            NATRONA:   COUNTY
 STAT.            WYOMING:   STATE
 CTRY. UNITED STATES OF AMERICA:   COUNTRY
 SRVC.              WELEX:   SERVICE COMPANY
 DATE.        23-JUL-1977:   LOGDATE
 API .     49025103990000:   API NUMBER
~CURVE INFORMATION
#MNEM.UNIT       API CODE    CURVE DESCRIPTION
#----------   ------------   ------------------------------
 DEPT.F                  :   
 SPR .MV     07 010 01 00:   SPONTANEOUS POTENTIAL
 GURD.OHMM   07 220 05 00:   GUARD LOG RESISTIVITY
 FORX.OHMM   07 220 00 00:   FORMATION FACTOR
 NPHI.DEC    42 890 03 00:   NEUTRON POROSITY SANDSTONE
 CALD.IN     45 280 60 00:   CALIPER FROM DENSITY LOG
 CORR.G/C3   45 356 01 00:   DENSITY CORRECTION
 GRD .GAPI   45 310 01 00:   GAMMA RAY FROM DENSITY LOG
 RHOB.G/C3   45 350 01 00:   BULK DENSITY
~PARAMETER INFORMATION
#MNEM.UNIT          VALUE    DESCRIPTION
#----------   ------------   ------------------------------
 EKB .F         5251.0000:   Kelly bushing
 EGL .F         5241.0000:   Ground level
 EDF .F            0.0000:   Drilling floor
 EPD .F         5241.0000:   Permanent datum
 TD  .F         3430.0000:   Total depth
 DATE.        23-JUL-1977:   Date logged
 CLNT.            A2DTECH:   Client Code
 SL  . 1650' FNL & 990' FWL:   Surface Location
 PD  .                 GL:   Permanent Datum
 DD  .F              3430:   Depth driller
 DL  .F              3430:   Depth logger
 BLI .F              3428:   Bottom log interval
 CS1 .IN            8.625:   Casing size
 CBD1.      8.625" @ 220':   Casing driller 1
 BS1 .IN            7.875:   Bit size
 DFT .            KCL MUD:   Type fluid in hole
 DFD .                8.9:   Density
 DFV .                 33:   Viscosity
 DFPH.                  8:   pH
 DFL .                  8:   Fluid loss
 MSS .           FLOWLINE:   Source of sample
 RMS .OHMM            .49:   Rm
 MST .F                94:   Rm Meas. temp.
 RMF .OHMM            .46:   Rmf
 MFST.F                90:   Rmf Meas. temp.
 RMC .OHMM            .40:   Rmc
 MCST.F                90:   Rmc Meas. temp.
 MFSS.               FANN:   Source Rmf.
 RMB .OHMM            .15:   Rm. at BHT
 BHT .F               122:   BHT.
 TCS .HRS               6:   Time Circ. stopped
 MRT .F               122:   Maximum recorded temp.
 LUN .               8611:   Logging unit number
 LUL .             CASPER:   Logging unit location
 ENGI.            C. DOAK:   Recorded By
 WITN.      B. HARRINGTON:   Witnessed by
 ORIG.           5" PRINT:   Origin of data
 UWI .     49025103990000:   Unique Well ID
 DICO. A2D TECHNOLOGIES, INC.:   Digitizing Company
 DAPD.                 10:   Feet Above Permanent Datum
 BSD1.               3430:   Depth drilled with bit1
 MCSS.                KIT:   Source Rmc.
 TLI .                200:   Top log interval
~OTHER INFORMATION
~A   DEPT      SPR         GURD     FORX       NPHI       CALD       CORR        GRD       RHOB   
# ...
 1249.0000   -82.6470     9.5430    11.7370     0.3050     9.7180     0.0390   115.4490     2.4350
 1249.5000   -82.6470     9.6920    12.2310     0.3010     9.7060     0.0370   113.3610     2.4370
 1250.0000   -82.6470     9.8600    11.8980     0.2970     9.6950     0.0370   111.2850     2.4430
 1250.5000   -82.6470    10.0290    12.3440     0.2920     9.6830     0.0390   109.1990     2.4480
 1251.0000   -82.6470    10.1770    11.6810     0.2860     9.6720     0.0420   108.7760     2.4490
 1251.5000   -82.6470    10.0840    11.6810     0.2820     9.6600     0.0440   109.9230     2.4500
 1252.0000   -82.6470    10.0840    12.8060     0.2800     9.6480     0.0470   111.0700     2.4530
 1252.5000   -82.6470    10.2940    12.7800     0.2800     9.6370     0.0490   112.2260     2.4570
 1253.0000   -82.6470    10.4780    12.7450     0.2820     9.6250     0.0510   113.3860     2.4610
 1253.5000   -82.6470    10.6560    12.6930     0.2840     9.6130     0.0540   114.5580     2.4640
 1254.0000   -82.6470    10.6560    12.7450     0.2860     9.6020     0.0560   115.6610     2.4680
 1254.5000   -82.6470    10.6560    12.8930     0.2890     9.5900     0.0580   114.0440     2.4740
 1255.0000   -82.6470    10.6560    12.9240     0.2910     9.5790     0.0610   112.2700     2.4810
 1255.5000   -82.6470    10.5750    12.4400     0.2940     9.5670     0.0630   110.4840     2.4870
 1256.0000   -82.6470    10.4420    12.0730     0.2960     9.5550     0.0660   110.2220     2.4930
 1256.5000   -82.6470    10.3130    12.0080     0.2990     9.5440     0.0660   112.2980     2.4950
 1257.0000   -82.6470    10.0800    12.2310     0.3010     9.5340     0.0640   113.8780     2.4890
 1257.5000   -82.6470     9.8470    12.1270     0.3040     9.5350     0.0620   115.4710     2.4830
 1258.0000   -82.6470     9.7200    11.8980     0.3060     9.5350     0.0590   117.0640     2.4860
 1258.5000   -82.6470     9.8030    11.9300     0.3090     9.5350     0.0570   116.9440     2.4840
 1259.0000   -82.6470     9.8990    12.0000     0.3110     9.5350     0.0550   116.0530     2.4800
 1259.5000   -82.6470     9.9950    12.1190     0.3140     9.5350     0.0530   115.1580     2.4770
 1260.0000   -82.6470    10.0910    12.2310     0.3170     9.5350     0.0500   114.2650     2.4740
 1260.5000   -82.6470    10.1770    12.2310     0.3180     9.5220     0.0480   114.1450     2.4720
 1261.0000   -82.6260    10.1700    12.2310     0.3150     9.5080     0.0460   114.9840     2.4700
 1261.5000   -82.6020    10.1560    12.2310     0.3130     9.4940     0.0430   115.9530     2.4670
 1262.0000   -82.5780    10.1420    12.1780     0.3150     9.4800     0.0410   116.9250     2.4650
 1262.5000   -82.5550    10.1280    12.1190     0.3170     9.4650     0.0390   117.8970     2.4610
 1263.0000   -82.5310    10.1140    12.0080     0.3190     9.4510     0.0370   118.8650     2.4570
 1263.5000   -82.5080    10.1010    12.0710     0.3170     9.4360     0.0350   119.5850     2.4550
 1264.0000   -82.4840    10.0870    12.2310     0.3140     9.4350     0.0330   118.5130     2.4530
 1264.5000   -82.4610     9.9920    11.7890     0.3120     9.4350     0.0340   117.4160     2.4500
 1265.0000   -82.4370     9.8700    11.7890     0.3090     9.4340     0.0340   116.3260     2.4450
 1265.5000   -82.4130     9.8320    12.0080     0.3080     9.4340     0.0350   115.2340     2.4500
 1266.0000   -82.3900     9.7940    11.5750     0.3100     9.4330     0.0350   114.1390     2.4510
 1266.5000   -82.3660     9.7560    11.8980     0.3120     9.4320     0.0360   113.0630     2.4450
 1267.0000   -82.3430     9.7200    11.7040     0.3140     9.4320     0.0360   112.3640     2.4500
 1267.5000   -82.3190     9.7510    11.5750     0.3160     9.4310     0.0360   113.8750     2.4560
 1268.0000   -82.2950     9.7810    12.1190     0.3160     9.4300     0.0370   115.3420     2.4540
 1268.5000   -82.2720     9.8100    12.5730     0.3190     9.4300     0.0370   116.5480     2.4500
 1269.0000   -82.2560     9.9000    12.1400     0.3230     9.4290     0.0350   116.3730     2.4450
 1269.5000   -82.2860     9.9920    11.5750     0.3280     9.4290     0.0310   116.2430     2.4210
 1270.0000   -82.3150     9.9020    11.3640     0.3320     9.4280     0.0320   116.3690     2.4290
 1270.5000   -82.3450     9.8320    11.5750     0.3370     9.4270     0.0360   117.5520     2.4440
 1271.0000   -82.3740     9.7620    11.2300     0.3390     9.4270     0.0400   118.7090     2.4590
 1271.5000   -82.4030     9.6920    11.0550     0.3360     9.4260     0.0440   119.8590     2.4720
 1272.0000   -82.4320     9.6220    11.4690     0.3320     9.4250     0.0480   119.9020     2.4720
 1272.5000   -82.4610     9.5520    11.3970     0.3270     9.4250     0.0510   118.5370     2.4710
 1273.0000   -82.4900     9.4820    11.2600     0.3190     9.4240     0.0500   117.1830     2.4720
 1273.5000   -82.5190     9.4120    11.4690     0.3120     9.4230     0.0480   115.8200     2.4740
 1274.0000   -82.5480     9.2830    11.4030     0.3040     9.4230     0.0470   114.4510     2.4750
 1274.5000   -82.5780     9.2830    11.2600     0.3010     9.4220     0.0460   113.1050     2.4760
 1275.0000   -82.6070     9.2830    11.2950     0.3040     9.4220     0.0440   113.1350     2.4750
 1275.5000   -82.6360     9.2830    11.5750     0.3070     9.4210     0.0430   113.3150     2.4740
 1276.0000   -82.6610     9.2830    11.5110     0.3110     9.4200     0.0410   111.5230     2.4720
 1276.5000   -82.6970     9.3370    11.3640     0.3140     9.4200     0.0400   109.5170     2.4740
 1277.0000   -82.7330     9.4640    11.3640     0.3180     9.4190     0.0390   107.8200     2.4740
 1277.5000   -82.7680     9.5900    12.1190     0.3210     9.4180     0.0370   108.1630     2.4660
 1278.0000   -82.8030     9.7170    13.5930     0.3200     9.4180     0.0360   108.5240     2.4590
 1278.5000   -82.8390     9.8930    14.4320     0.3180     9.4170     0.0330   108.8790     2.4590
 1279.0000   -82.8740    10.2050    11.5750     0.3120     9.4170     0.0300   109.2330     2.4570
 1279.5000   -82.9090    10.3660    11.8820     0.3050     9.4160     0.0280   109.5860     2.4420
 1280.0000   -82.9450    10.2620    12.0080     0.2990     9.4160     0.0250   109.9360     2.4320
 1280.5000   -82.9800    10.0840    11.6810     0.2990     9.4230     0.0230   109.8660     2.4290
 1281.0000   -83.0150    10.0960    12.0080     0.2940     9.4320     0.0240   109.0720     2.4260
 1281.5000   -83.0330    10.1190    10.7540     0.2920     9.4410     0.0280   108.3050     2.4280
 1282.0000   -82.9810    10.1430    11.8980     0.2910     9.4500     0.0320   107.5870     2.4390
 1282.5000   -82.9290    10.1660    11.4690     0.2910     9.4590     0.0360   106.9400     2.4490
 1283.0000   -82.8780    10.2500    12.3440     0.2920     9.4680     0.0400   107.5410     2.4590
 1283.5000   -82.8260    10.4610    12.4580     0.2930     9.4770     0.0440   108.1180     2.4690
 1284.0000   -82.7750    10.5580    12.2550     0.2950     9.4860     0.0480   108.7080     2.4790
 1284.5000   -82.7230    10.5180    11.8980     0.2980     9.4960     0.0520   109.2990     2.4830
 1285.0000   -82.6720    10.4780    12.4030     0.2990     9.5050     0.0560   109.8900     2.4890
 1285.5000   -82.6200    10.4610    12.8060     0.2990     9.5140     0.0550   110.4810     2.4960
 1286.0000   -82.5680    10.9060    12.0080     0.2940     9.5230     0.0500   111.0720     2.4930
 1286.5000   -82.5170    11.6230    12.3440     0.2890     9.5320     0.0460   111.6550     2.4820
 1287.0000   -82.4650    11.4050    11.9910     0.2860     9.5380     0.0420   112.2400     2.4710
 1287.5000   -82.4140    10.9690    11.6810     0.2850     9.5540     0.0370   111.5420     2.4590
 1288.0000   -82.3620    10.5580    12.5880     0.2850     9.5570     0.0330   109.5390     2.4490
 1288.5000   -82.3110    10.8780    12.9490     0.2830     9.5780     0.0330   107.5380     2.4400
 1289.0000   -82.2590    11.1800    13.2500     0.2810     9.6000     0.0360   105.5270     2.4480
