~VERSION INFORMATION
 VERS.                2.0:   CWLS LOG ASCII STANDARD - VERSION 2.0
 WRAP.                 NO:   ONE LINE PER DEPTH STEP
~WELL INFORMATION
#MNEM.UNIT      DATA TYPE    INFORMATION
#----------   ------------   ------------------------------
 STRT.F           31.5000:   START DEPTH
 STOP.F         3370.0000:   STOP DEPTH
 STEP.F            0.5000:   STEP LENGTH
 NULL.          -999.2500:   NO VALUE
 COMP. LAWRENCE ALLISON & ASSOC - WEST:   COMPANY
 WELL. LAWRENCE "AX" #46-34:   WELL
 FLD .             NPR #3:   FIELD
 LOC .      S34 T39N R78W:   LOCATION
 CNTY.            NATRONA:   COUNTY
 STAT.            WYOMING:   STATE
 CTRY. UNITED STATES OF AMERICA:   COUNTRY
 SRVC.       SCHLUMBERGER:   SERVICE COMPANY
 DATE.        30-APR-1986:   LOGDATE
 API .     49025111380000:   API NUMBER
~CURVE INFORMATION
#MNEM.UNIT       API CODE    CURVE DESCRIPTION
#----------   ------------   ------------------------------
 DEPT.F                  :   
 TENR.LBS    07 635 01 00:   TENSION FROM RESISTIVITY
 GRR .GAPI   07 310 01 00:   GAMMA RAY FROM RESISTIVITY
 CALR.IN     07 280 01 00:   CALIPER FROM RESISTIVITY
 SPR .MV     07 010 01 00:   SPONTANEOUS POTENTIAL
 TEND.LBS    45 635 01 00:   TENSION FROM DENSITY LOG
 DEN .G/C3   45 350 01 00:   BULK DENSITY
 CORR.G/C3   45 356 01 00:   DENSITY CORRECTION
 CNC .DEC    42 890 03 00:   NEUTRON PORISITY SANDSTONE
 RFOC.OHMM   07 220 04 00:   RESISTIVITY FOCUSED LOG
 RILD.OHMM   07 120 46 00:   RESISTIVITY INDUCTION LOG DEEP
 RILM.OHMM   07 120 44 00:   RESISTIVITY INDUCTION LOG MEDIUM
~PARAMETER INFORMATION
#MNEM.UNIT          VALUE    DESCRIPTION
#----------   ------------   ------------------------------
 EKB .F         5094.0000:   Kelly bushing
 EGL .F         5082.0000:   Ground level
 EDF .F            0.0000:   Drilling floor
 TD  .F         3370.0000:   Total depth
 DATE.        30-APR-1986:   Date logged
 CLNT.            A2DTECH:   Client Code
 SL  . 2462' FWL & 1545' FSL:   Surface Location
 PD  .                 GL:   Permanent Datum
 EPD .F              5082:   Elevation Permanent Datum
 LMF .                 KB:   Log Measured From
 DMF .                 KB:   Drilling Measured From
 DAPD.F                12:   Feet Above Permanent Datum
 DD  .F              3370:   Depth driller
 DL  .F              3369:   Depth logger
 BLI .F              3367:   Bottom log interval
 CS1 .IN            8.625:   Casing size
 CBD1.      8.625" @ 642':   Casing driller 1
 CBL1.F               642:   Casing logger 1
 BS1 .IN            7.875:   Bit size
 BSD1.F              3370:   Depth drilled with bit1
 DFT .        POLYMER/KCL:   Type fluid in hole
 DFD .                8.9:   Density
 DFV .                 36:   Viscosity
 DFPH.                8.5:   pH
 DFL .               10.2:   Fluid loss
 MSS .           FLOWLINE:   Source of sample
 RMS .OHMM           .319:   Rm
 MST .F                79:   Rm Meas. temp.
 RMF .OHMM            .24:   Rmf
 MFST.F                79:   Rmf Meas. temp.
 RMC .OHMM            .40:   Rmc
 MCST.F                79:   Rmc Meas. temp.
 MFSS.               CALC:   Source Rmf.
 MCSS.               CALC:   Source Rmc.
 RMB .OHMM            .21:   Rm. at BHT
 BHT .F               117:   BHT.
 TCS .HRS               4:   Time Circ. stopped
 MRT .F               117:   Maximum recorded temp.
 LUN .            HL-6264:   Logging unit number
 LUL .           GILLETTE:   Logging unit location
 ENGI.     P. M. FAHLSING:   Recorded By
 WITN.             STRONG:   Witnessed by
 ORIG.        2" 5" PRINT:   Origin of data
 UWI .     49025111380000:   Unique Well ID
 DICO. A2D TECHNOLOGIES, INC.:   Digitizing Company
 TLI .                  0:   Top log interval
~OTHER INFORMATION
~A   DEPT     TENR        GRR       CALR        SPR       TEND        DEN       CORR        CNC       RFOC       RILD       RILM   
# ...
 2075.0000   -76.4790   136.5440     8.8500   -85.5020  -999.2500  -999.2500  -999.2500  -999.2500     9.3750     7.3600     7.1690
 2075.5000   -94.5340   138.2780     8.8480   -85.6780  -999.2500  -999.2500  -999.2500  -999.2500     9.2390     7.2640     7.0750
 2076.0000   -79.9630   139.2670     8.8390   -85.8360  -999.2500  -999.2500  -999.2500  -999.2500     9.1040     7.1680     6.9810
 2076.5000   -66.0660   137.0880     8.8300   -86.0000  -999.2500  -999.2500  -999.2500  -999.2500     8.9880     7.0670     6.9600
 2077.0000   -54.4130   134.7180     8.8300   -86.1690  -999.2500  -999.2500  -999.2500  -999.2500     9.0280     7.1070     7.0010
 2077.5000   -54.4130   132.2780     8.8300   -86.2950  -999.2500  -999.2500  -999.2500  -999.2500     9.1000     7.1490     7.0420
 2078.0000   -54.4130   132.1400     8.8300   -86.3040  -999.2500  -999.2500  -999.2500  -999.2500     9.1720     7.1910     7.0840
 2078.5000   -54.4130   135.4810     8.8300   -86.0990  -999.2500  -999.2500  -999.2500  -999.2500     9.2440     7.2330     7.1320
 2079.0000   -54.4130   135.4230     8.8300   -85.6990  -999.2500  -999.2500  -999.2500  -999.2500     9.3160     7.2660     7.2060
 2079.5000   -56.7650   131.9010     8.8300   -85.3880  -999.2500  -999.2500  -999.2500  -999.2500     9.3880     7.3780     7.2960
 2080.0000   -59.5950   128.1390     8.8300   -85.0290  -999.2500  -999.2500  -999.2500  -999.2500     9.5600     7.4700     7.3860
 2080.5000   -62.4260   127.0970     8.8300   -84.7480  -999.2500  -999.2500  -999.2500  -999.2500     9.7860     7.5620     7.4700
 2081.0000   -64.4430   129.9410     8.8300   -84.3590  -999.2500  -999.2500  -999.2500  -999.2500     9.8180     7.6090     7.4860
 2081.5000   -61.2150   133.0330     8.8300   -84.1380  -999.2500  -999.2500  -999.2500  -999.2500     9.7600     7.6360     7.5110
 2082.0000   -56.5830   135.6130     8.8300   -84.6610  -999.2500  -999.2500  -999.2500  -999.2500     9.7010     7.6610     7.5350
 2082.5000   -54.4130   138.7190     8.8300   -85.0200  -999.2500  -999.2500  -999.2500  -999.2500     9.6420     7.6860     7.5590
 2083.0000   -64.4430   140.8900     8.8300   -85.2520  -999.2500  -999.2500  -999.2500  -999.2500     9.5840     7.7100     7.5830
 2083.5000   -54.4130   140.1760     8.8300   -85.6220  -999.2500  -999.2500  -999.2500  -999.2500     9.5250     7.7350     7.6080
 2084.0000   -60.3110   137.5840     8.8300   -85.8700  -999.2500  -999.2500  -999.2500  -999.2500     9.5750     7.7600     7.6320
 2084.5000   -64.4430   135.1660     8.8300   -86.2230  -999.2500  -999.2500  -999.2500  -999.2500     9.7050     7.7840     7.6560
 2085.0000   -61.2800   135.0270     8.8300   -86.4810  -999.2500  -999.2500  -999.2500  -999.2500     9.8580     7.8090     7.6800
 2085.5000   -57.3610   136.2070     8.8300   -86.4640  -999.2500  -999.2500  -999.2500  -999.2500     9.7470     7.8340     7.7050
 2086.0000   -44.3830   136.0720     8.8300   -86.3460  -999.2500  -999.2500  -999.2500  -999.2500     9.7140     7.8590     7.7290
 2086.5000   -44.3830   133.6800     8.8300   -86.3160  -999.2500  -999.2500  -999.2500  -999.2500     9.6780     7.8830     7.7510
 2087.0000   -49.3360   130.6300     8.8300   -86.4550  -999.2500  -999.2500  -999.2500  -999.2500     9.7980     7.8590     7.6710
 2087.5000   -53.2560   128.9460     8.8300   -86.6220  -999.2500  -999.2500  -999.2500  -999.2500     9.9770     7.7820     7.5950
 2088.0000   -57.1750   128.6390     8.8300   -86.5540  -999.2500  -999.2500  -999.2500  -999.2500    10.1360     7.7050     7.5200
 2088.5000   -61.0950   131.2750     8.8300   -86.1580  -999.2500  -999.2500  -999.2500  -999.2500    10.0480     7.6280     7.4440
 2089.0000   -64.4430   133.9980     8.8300   -85.7100  -999.2500  -999.2500  -999.2500  -999.2500     9.9700     7.5510     7.3680
 2089.5000   -64.4430   134.4020     8.8300   -85.3090  -999.2500  -999.2500  -999.2500  -999.2500     9.8920     7.4740     7.2930
 2090.0000   -64.4430   131.7340     8.8300   -84.8660  -999.2500  -999.2500  -999.2500  -999.2500     9.9240     7.3970     7.2170
 2090.5000   -64.4430   130.1170     8.8300   -84.4600  -999.2500  -999.2500  -999.2500  -999.2500    10.1360     7.3200     7.1420
 2091.0000   -61.0000   135.4460     8.8300   -84.0210  -999.2500  -999.2500  -999.2500  -999.2500     9.4530     7.2430     7.0670
 2091.5000   -54.4130   143.6960     8.8300   -83.7070  -999.2500  -999.2500  -999.2500  -999.2500     8.5990     7.2080     7.0890
 2092.0000   -54.4130   148.6580     8.8300   -83.8230  -999.2500  -999.2500  -999.2500  -999.2500     8.1940     7.2310     7.1120
 2092.5000   -54.4130   144.6150     8.8300   -84.1290  -999.2500  -999.2500  -999.2500  -999.2500     8.7420     7.2540     7.1320
 2093.0000   -54.4130   138.3180     8.8300   -84.4140  -999.2500  -999.2500  -999.2500  -999.2500     9.1850     7.2870     7.1800
 2093.5000   -54.4130   133.2670     8.8300   -84.7180  -999.2500  -999.2500  -999.2500  -999.2500     9.4440     7.3330     7.2250
 2094.0000   -54.4130   129.2560     8.8300   -85.0050  -999.2500  -999.2500  -999.2500  -999.2500     9.5080     7.3790     7.2700
 2094.5000   -54.4130   128.3480     8.8300   -85.3080  -999.2500  -999.2500  -999.2500  -999.2500     9.5720     7.4250     7.3160
 2095.0000   -54.4130   131.6960     8.8300   -85.4960  -999.2500  -999.2500  -999.2500  -999.2500     9.6360     7.4710     7.3610
 2095.5000   -54.4130   135.8790     8.8300   -85.4940  -999.2500  -999.2500  -999.2500  -999.2500     9.6780     7.5170     7.4060
 2096.0000   -56.5900   134.7070     8.8300   -85.4630  -999.2500  -999.2500  -999.2500  -999.2500     9.6930     7.5630     7.4510
 2096.5000   -58.4770   130.8690     8.8300   -85.4410  -999.2500  -999.2500  -999.2500  -999.2500     9.7140     7.6090     7.4480
 2097.0000   -60.3640   126.8410     8.8300   -85.4160  -999.2500  -999.2500  -999.2500  -999.2500     9.7340     7.5710     7.4100
 2097.5000   -62.2520   124.1570     8.8300   -85.3860  -999.2500  -999.2500  -999.2500  -999.2500     9.7540     7.5320     7.3710
 2098.0000   -64.1390   122.8450     8.8300   -85.3710  -999.2500  -999.2500  -999.2500  -999.2500     9.7750     7.4930     7.3330
 2098.5000   -66.0260   121.8300     8.8300   -85.3290  -999.2500  -999.2500  -999.2500  -999.2500     9.7950     7.4540     7.2950
 2099.0000   -67.9130   120.4540     8.8300   -85.3260  -999.2500  -999.2500  -999.2500  -999.2500     9.8150     7.4150     7.2560
 2099.5000   -69.8000   121.0650     8.8300   -85.2860  -999.2500  -999.2500  -999.2500  -999.2500     9.8360     7.3760     7.2180
 2100.0000   -71.6870   126.2800     8.8300   -85.0550  -999.2500  -999.2500  -999.2500  -999.2500     9.8580     7.3330     7.1970
 2100.5000   -73.5740   132.5550     8.8300   -84.8230  -999.2500  -999.2500  -999.2500  -999.2500     9.9430     7.3330     7.1950
 2101.0000   -60.7430   136.5560     8.8300   -84.6460  -999.2500  -999.2500  -999.2500  -999.2500    10.0370     7.3330     7.1920
 2101.5000   -49.4200   135.5530     8.8300   -84.4210  -999.2500  -999.2500  -999.2500  -999.2500    10.1360     7.3330     7.1900
 2102.0000   -47.4260   134.6430     8.8300   -84.1070  -999.2500  -999.2500  -999.2500  -999.2500     9.8430     7.3330     7.1870
 2102.5000   -55.9180   136.7660     8.8300   -84.0960  -999.2500  -999.2500  -999.2500  -999.2500     9.5890     7.3330     7.1840
 2103.0000   -64.4430   138.8620     8.8300   -84.4350  -999.2500  -999.2500  -999.2500  -999.2500     9.9060     7.3330     7.1820
 2103.5000   -64.4430   140.5430     8.8300   -84.7130  -999.2500  -999.2500  -999.2500  -999.2500    10.0810     7.3330     7.1790
 2104.0000   -64.4430   140.9260     8.8300   -84.9980  -999.2500  -999.2500  -999.2500  -999.2500     9.8340     7.3330     7.1760
 2104.5000   -64.4430   139.6610     8.8290   -85.2770  -999.2500  -999.2500  -999.2500  -999.2500     9.5870     7.3330     7.1740
 2105.0000   -58.1520   136.7460     8.8280   -85.5630  -999.2500  -999.2500  -999.2500  -999.2500     9.5770     7.3330     7.1710
