~VERSION INFORMATION
 VERS.                2.0:   CWLS LOG ASCII STANDARD - VERSION 2.0
 WRAP.                 NO:   ONE LINE PER DEPTH STEP
~WELL INFORMATION
#MNEM.UNIT      DATA TYPE    INFORMATION
#----------   ------------   ------------------------------
 STRT.F          208.0000:   START DEPTH
 STOP.F         2950.0000:   STOP DEPTH
 STEP.F            0.5000:   STEP LENGTH
 NULL.          -999.2500:   NO VALUE
 COMP.    FENIX & SCISSON:   COMPANY
 WELL.     FENIX A #56-28:   WELL
 FLD .                NPR:   FIELD
 LOC .      S28 T39N R78W:   LOCATION
 CNTY.            NATRONA:   COUNTY
 STAT.            WYOMING:   STATE
 CTRY. UNITED STATES OF AMERICA:   COUNTRY
 SRVC.              WELEX:   SERVICE COMPANY
 DATE.        20-AUG-1977:   LOGDATE
 API .     49025104140000:   API NUMBER
~CURVE INFORMATION
#MNEM.UNIT       API CODE    CURVE DESCRIPTION
#----------   ------------   ------------------------------
 DEPT.F                  :   
 SPR .MV     07 010 01 00:   SPONTANEOUS POTENTIAL
 RILM.OHMM   07 120 44 00:   INDUCTION LOG MEDIUM RESISTIVITY
 RILD.OHMM   07 120 46 00:   INDUCTION LOG DEEP RESISTIVITY
 SGRD.OHMM   07 220 05 00:   SHALLOW GUARD LOG RESISTIVITY
 CALD.IN     45 280 60 00:   CALIPER FROM DENSITY LOG
 DCOR.G/C3   45 356 01 00:   DENSITY CORRECTION
 GRD .GAPI   45 310 01 00:   GAMMA RAY FROM DENSITY LOG
 RHOB.G/C3   45 350 01 00:   BULK DENSITY
~PARAMETER INFORMATION
#MNEM.UNIT          VALUE    DESCRIPTION
#----------   ------------   ------------------------------
 EKB .F         5088.0000:   Kelly bushing
 EGL .F         5078.0000:   Ground level
 EDF .F            0.0000:   Drilling floor
 EPD .F         5078.0000:   Permanent datum
 TD  .F         2960.0000:   Total depth
 DATE.        20-AUG-1977:   Date logged
 CLNT.            A2DTECH:   Client Code
 SL  . 1650' FSL & 2310' FEL:   Surface Location
 PD  .                 GL:   Permanent Datum
 LMF .                 KB:   Log Measured From
 DMF .                 KB:   Drilling Measured From
 DAPD.F                10:   Feet Above Permanent Datum
 DD  .F              2960:   Depth driller
 DL  .F              2952:   Depth logger
 BLI .F              2950:   Bottom log interval
 TLI .F               210:   Top log interval
 CS1 .IN            8.625:   Casing size
 CBD1.      8.625" @ 215':   Casing driller 1
 CBL1.F               218:   Casing logger 1
 BS1 .IN            7.875:   Bit size
 BSD1.F              2960:   Depth drilled with bit1
 DFT .            KCL MUD:   Type fluid in hole
 DFD .                8.9:   Density
 DFV .                 60:   Viscosity
 DFPH.                 11:   pH
 DFL .                7.2:   Fluid loss
 MSS .           FLOWLINE:   Source of sample
 RMS .OHMM            .78:   Rm
 MST .F                81:   Rm Meas. temp.
 RMF .OHMM            .46:   Rmf
 MFST.F                81:   Rmf Meas. temp.
 RMC .OHMM           1.66:   Rmc
 MCST.F                81:   Rmc Meas. temp.
 MFSS.               CALC:   Source Rmf.
 MCSS.               CALC:   Source Rmc.
 RMB .OHMM            .56:   Rm. at BHT
 BHT .F               112:   BHT.
 TCS .HRS             2.5:   Time Circ. stopped
 MRT .F               112:   Maximum recorded temp.
 LUN .               8611:   Logging unit number
 LUL .             CASPER:   Logging unit location
 ENGI.             C DOAK:   Recorded By
 WITN.       B HARRINGTON:   Witnessed by
 ORIG.           5" PRINT:   Origin of data
 UWI .     49025104140000:   Unique Well ID
 DICO. A2D TECHNOLOGIES, INC.:   Digitizing Company
~OTHER INFORMATION
~A   DEPT      SPR       RILM       RILD       SGRD         CALD     DCOR        GRD       RHOB   
# ...
 2557.0000   -67.8220    18.3250    10.2590    16.1430     8.8710     0.0150   109.8310     2.4290
 2557.5000   -67.9400    19.0180    10.2940    16.5110     8.8390     0.0150   108.5330     2.4270
 2558.0000   -67.9030    18.7650    10.3290    16.9640     8.8070     0.0140   107.2530     2.4350
 2558.5000   -67.8700    18.3160    10.3640    17.6750     8.8250     0.0140   106.1050     2.4420
 2559.0000   -67.8380    17.6750    10.3930    16.5490     8.8440     0.0130   105.9190     2.4450
 2559.5000   -67.8050    17.9870    10.3420    15.1270     8.8320     0.0130   105.7580     2.4460
 2560.0000   -67.7720    18.5310    10.2980    16.2430     8.8200     0.0140   105.5950     2.4470
 2560.5000   -67.7370    19.1930    10.2550    19.3690     8.8090     0.0160   105.4270     2.4510
 2561.0000   -67.6970    18.6620    10.2110    18.8570     8.7970     0.0180   105.1800     2.4560
 2561.5000   -67.6560    17.9870    10.1670    17.5510     8.7850     0.0200   104.6750     2.4620
 2562.0000   -67.6140    17.3110    10.1240    16.1280     8.7740     0.0220   104.1830     2.4680
 2562.5000   -67.5720    17.0130    10.0800    14.7170     8.7690     0.0240   103.6850     2.4750
 2563.0000   -67.4050    16.9700    10.0250    14.9890     8.7840     0.0270   103.1900     2.4730
 2563.5000   -67.0400    16.9270    10.0710    14.8860     8.7980     0.0290   101.7410     2.4680
 2564.0000   -66.6780    16.8840    10.1560    14.5830     8.8120     0.0230    99.3180     2.4560
 2564.5000   -66.3120    17.9020    10.2410    15.8340     8.8260     0.0240    96.2490     2.4440
 2565.0000   -66.1980    18.9090    10.3270    16.8110     8.8400     0.0230    92.8490     2.4250
 2565.5000   -66.2280    20.0920    10.4420    17.2560     8.8540     0.0180    90.3960     2.4060
 2566.0000   -66.2590    19.9090    10.6620    17.8370     8.8590     0.0120    88.8590     2.3870
 2566.5000   -66.2910    20.6850    10.8820    17.2490     8.8400     0.0110    89.1840     2.3980
 2567.0000   -66.3230    20.8410    11.1010    17.6480     8.8220     0.0150    89.6540     2.4120
 2567.5000   -66.3550    21.4220    11.3210    18.3340     8.8060     0.0180    90.1200     2.4260
 2568.0000   -66.4510    22.7470    11.5410    17.1960     8.8100     0.0200    90.2200     2.4360
 2568.5000   -66.6310    24.8010    11.7290    17.6750     8.8160     0.0180    89.9530     2.4330
 2569.0000   -66.8090    24.3800    11.8200    24.3510     8.8210     0.0150    89.6890     2.4300
 2569.5000   -66.9860    23.4430    11.9110    21.9990     8.8230     0.0120    88.5770     2.4260
 2570.0000   -67.1730    22.5070    12.0320    18.5080     8.7920     0.0100    86.6280     2.4320
 2570.5000   -67.6750    21.8170    11.8540    17.4290     8.7670     0.0070    84.7290     2.4220
 2571.0000   -68.1710    21.9230    11.5830    16.2770     8.7810     0.0050    82.0010     2.4150
 2571.5000   -68.6630    22.0070    11.2480    17.7740     8.7950     0.0040    79.9270     2.4320
 2572.0000   -69.1530    20.5420    10.8810    24.3510     8.7800     0.0100    84.6450     2.4570
 2572.5000   -69.5410    18.8510    10.5130    20.0070     8.7520     0.0160    91.3230     2.4820
 2573.0000   -69.6240    17.1590    10.1460    14.9170     8.8030     0.0210    97.6620     2.5010
 2573.5000   -69.7130    15.4670     9.7780    14.1480     8.7960     0.0270   104.3040     2.5010
 2574.0000   -69.8030    13.9310     9.4110    13.5050     8.7790     0.0310   106.0910     2.4960
 2574.5000   -69.8920    13.2030     9.0430    13.0740     8.7790     0.0290   105.2930     2.4910
 2575.0000   -69.9520    12.3870     8.6760    12.7370     8.8320     0.0250   104.5070     2.4860
 2575.5000   -70.0090    11.9510     8.3730    12.3680     8.8300     0.0210   104.1880     2.4780
 2576.0000   -70.0650    11.6900     8.2210    12.4420     8.8100     0.0170   105.3060     2.4710
 2576.5000   -70.1210    11.5350     8.1000    12.5240     8.8400     0.0110   106.3850     2.4640
 2577.0000   -70.1770    11.3800     8.0430    12.6070     8.8820     0.0080   107.4610     2.4570
 2577.5000   -70.2340    11.2260     8.0270    12.7120     8.8430     0.0050   108.5810     2.4500
 2578.0000   -70.2920    11.1830     8.0090    12.4810     8.8050     0.0020   108.2770     2.4440
 2578.5000   -70.3320    11.1830     7.9920    12.8270     8.8050    -0.0010   107.4810     2.4540
 2579.0000   -70.3730    11.1830     7.9740    13.4300     8.8430     0.0030   106.6830     2.4630
 2579.5000   -70.4140    11.1750     7.9570    13.0740     8.8820     0.0070   106.3390     2.4720
 2580.0000   -70.4550    11.1180     7.9400    12.5900     8.8630     0.0120   107.3090     2.4820
 2580.5000   -70.5060    11.0620     7.9220    12.1950     8.8400     0.0160   108.2470     2.4780
 2581.0000   -70.6150    11.0050     7.9050    11.9390     8.8170     0.0180   109.2020     2.4710
 2581.5000   -70.7250    10.7540     7.8660    12.0500     8.8090     0.0140   108.6150     2.4640
 2582.0000   -70.8340    10.4990     7.8110    12.1700     8.8170     0.0100   107.8940     2.4570
 2582.5000   -70.9430    10.6200     7.7550    12.3420     8.8240     0.0060   107.1800     2.4500
 2583.0000   -71.0530    10.6770     7.7000    12.5140     8.8320     0.0020   106.4680     2.4420
 2583.5000   -71.1620    10.6160     7.6450    12.6860     8.8390    -0.0010   106.4950     2.4380
 2584.0000   -71.2710    10.2690     7.5890    12.8290     8.8470    -0.0010   107.2620     2.4360
 2584.5000   -71.3810     9.2270     7.5390    11.9860     8.8540    -0.0010   108.0280     2.4420
 2585.0000   -71.4900     9.5710     7.5150    11.2670     8.8620     0.0000   108.8090     2.4480
 2585.5000   -71.5990     9.3970     7.4900    10.3930     8.8540     0.0050   109.6000     2.4540
 2586.0000   -71.6400     9.4680     7.4660    10.9350     8.8400     0.0090   108.6790     2.4600
 2586.5000   -71.5650     9.6200     7.4410    11.5720     8.8260     0.0130   107.5910     2.4660
 2587.0000   -71.4930     9.7920     7.4070    11.9800     8.8120     0.0170   106.4960     2.4670
 2587.5000   -71.4200     9.9640     7.4430    12.3870     8.8100     0.0180   105.3620     2.4680
 2588.0000   -71.3450    10.2010     7.5050    12.7120     8.8200     0.0200   104.8690     2.4690
 2588.5000   -71.2810    10.1850     7.5670    12.2550     8.8300     0.0210   104.3840     2.4720
 2589.0000   -71.4280    10.1540     7.6290    11.8140     8.8400     0.0230   104.5540     2.4750
 2589.5000   -71.5830    10.1150     7.6910    11.9530     8.8490     0.0240   105.3690     2.4780
 2590.0000   -71.7370    10.1760     7.7520    12.4810     8.8590     0.0250   106.6450     2.4800
 2590.5000   -71.8910    10.2810     7.8250    12.3620     8.8690     0.0270   107.8740     2.4830
 2591.0000   -72.0450    10.3870     7.7650    12.0320     8.8790     0.0280   109.1000     2.4850
 2591.5000   -72.1990    10.4880     7.6930    12.1880     8.8820     0.0270   110.3890     2.4830
 2592.0000   -72.3480    10.4020     7.6200    12.4810     8.8770     0.0240   111.8370     2.4810
 2592.5000   -72.4960    10.3180     7.5480    12.2390     8.8730     0.0210   113.3800     2.4790
 2593.0000   -72.6440    10.2340     7.4760    11.6000     8.8690     0.0180   114.9300     2.4770
 2593.5000   -72.7910     9.9150     7.4070    11.9400     8.8640     0.0150   116.4830     2.4780
 2594.0000   -72.9390     9.4670     7.2800    12.4810     8.8600     0.0170   118.0350     2.4800
 2594.5000   -73.0860     9.0820     7.1600    12.3330     8.8550     0.0190   119.5720     2.4810
 2595.0000   -73.2340     8.7300     7.0390    11.3770     8.8510     0.0200   120.5730     2.4830
 2595.5000   -73.3860     8.3790     6.9190    10.1110     8.8470     0.0200   120.0870     2.4840
 2596.0000   -73.5020     8.0570     6.7980    10.2160     8.8520     0.0190   119.6380     2.4800
 2596.5000   -73.6100     7.7690     6.6640    10.3730     8.8660     0.0180   119.1860     2.4770
 2597.0000   -73.7170     7.4800     6.5230    10.0890     8.8800     0.0170   118.7270     2.4740
