~VERSION INFORMATION
 VERS.                2.0:   CWLS LOG ASCII STANDARD - VERSION 2.0
 WRAP.                 NO:   ONE LINE PER DEPTH STEP
~WELL INFORMATION
#MNEM.UNIT      DATA TYPE    INFORMATION
#----------   ------------   ------------------------------
 STRT.F            8.0000:   START DEPTH
 STOP.F         3021.0000:   STOP DEPTH
 STEP.F            0.5000:   STEP LENGTH
 NULL.          -999.2500:   NO VALUE
 COMP. LAWRENCE ALLISON & ASSOCIATES W:   COMPANY
 WELL. LAWRENCE ALLISON #68-28:   WELL
 FLD .              NPR 3:   FIELD
 LOC .      S28 T39N R78W:   LOCATION
 CNTY.            NATRONA:   COUNTY
 STAT.            WYOMING:   STATE
 CTRY. UNITED STATES OF AMERICA:   COUNTRY
 SRVC.      DRESSER ATLAS:   SERVICE COMPANY
 DATE.        19-DEC-1986:   LOGDATE
 API .     49025111580000:   API NUMBER
~CURVE INFORMATION
#MNEM.UNIT       API CODE    CURVE DESCRIPTION
#----------   ------------   ------------------------------
 DEPT.F                  :   
 SPR .MV     07 010 01 00:   SPONTANEOUS POTENTIAL
 TENR.LBS    07 635 01 00:   TENSION FROM RESISTIVITY
 RILD.OHMM   07 120 46 00:   DEEP INDUCTION RESISTIVITY
 RILM.OHMM   07 120 44 00:   INDUCTION LOG MEDIUM RESISTIVITY
 RFOC.OHMM   07 220 04 00:   RESISTIVITY FOCUSED LOG RES.
 CALD.IN     45 280 60 00:   CALIPER FROM DENSITY LOG
 CORR.G/C3   45 356 01 00:   DENSITY CORRECTION
 RHOB.G/C3   45 350 01 00:   BULK DENSITY
 CNC .DEC    42 890 03 00:   NEUTRON POROSITY SANDSTONE
 GRR .GAPI   07 310 01 00:   GAMMA RAY FROM RESISTIVITY
~PARAMETER INFORMATION
#MNEM.UNIT          VALUE    DESCRIPTION
#----------   ------------   ------------------------------
 EKB .F         5106.0000:   Kelly bushing
 EGL .F         5094.0000:   Ground level
 EDF .F            0.0000:   Drilling floor
 EPD .F         5094.0000:   Permanent datum
 TD  .F         3010.0000:   Total depth
 CLNT.            A2DTECH:   Client Code
 SL  . 1559'EL & 533' FSL:   Surface Location
 DATE.        19-DEC-1986:   Date Logged [DD-MMM-YYYY]
 DD  .F              3003:   Depth driller
 DL  .F              3010:   Depth logger
 BLI .F              3007:   Bottom log interval
 TLI .F                 0:   Top log interval
 CS1 .              8.625:   Casing size
 CBD1.      8.625" @ 389':   Casing driller 1
 CBL1.IN              405:   Casing logger 1
 BS1 .IN            7.875:   Bit size
 BSD1.F              3003:   Depth drilled with bit1
 DFT .        KCL POLYMER:   Type fluid in hole
 DFD .                9.0:   Density
 DFV .                 42:   Viscosity
 DFPH.                9.3:   pH
 DFL .                8.8:   Fluid loss
 MSS .           FLOWLINE:   Source of sample
 RMS .OHMM          0.484:   Rm
 MST .F                68:   Rm Meas. temp.
 RMF .OHMM          0.392:   Rmf
 MFST.F                68:   Rmf Meas. temp.
 MFSS.               MEAS:   Source Rmf.
 RMC .OHMM          0.605:   Rmc
 MCST.F                68:   Rmc Meas. temp.
 MCSS.               CALC:   Source Rmc.
 RMB .OHMM          0.269:   Rm. at BHT
 BHT .F               122:   BHT.
 TCS .HRS             3.5:   Time Circ. stopped
 MRT .F               122:   Maximum recorded temp.
 LUN .            HL-6274:   Logging unit number
 LUL .           GILLETTE:   Logging unit location
 ENGI.             RAUTIO:   Recorded By
 WITN.             STRONG:   Witnessed by
 ORIG.        2" 5" PRINT:   Origin of data
 UWI .     49025111580000:   Unique Well ID
 DICO. A2D TECHNOLOGIES, INC.:   Digitizing Company
~OTHER INFORMATION
~A    DEPT     SPR       TENR       RILD       RILM       RFOC       CALD       CORR       RHOB        CNC        GRR   
# ...
 1080.0000   -35.6001   -85.1326     8.7565     8.7181     9.7643  -999.2500  -999.2500  -999.2500  -999.2500   107.1055
 1080.5000   -35.7527   -77.2045     8.6960     8.7827     9.8241  -999.2500  -999.2500  -999.2500  -999.2500   103.1836
 1081.0000   -36.0589   -77.0526     8.8254     8.9758     9.6819  -999.2500  -999.2500  -999.2500  -999.2500   101.3195
 1081.5000   -36.2115   -76.9006     9.1518     9.2448     9.5421  -999.2500  -999.2500  -999.2500  -999.2500   104.1594
 1082.0000   -36.3619   -76.7486     9.3544     9.5107     9.4044  -999.2500  -999.2500  -999.2500  -999.2500   106.0511
 1082.5000   -36.3572   -76.5941     9.3594     9.4438     9.4713  -999.2500  -999.2500  -999.2500  -999.2500   107.6406
 1083.0000   -36.0321   -76.4385     9.4274     9.3774     9.6765  -999.2500  -999.2500  -999.2500  -999.2500   109.8500
 1083.5000   -35.7238   -76.2547     9.5080     9.3790     9.8158  -999.2500  -999.2500  -999.2500  -999.2500   112.6853
 1084.0000   -35.7183   -76.1027     9.6396     9.6545    10.0284  -999.2500  -999.2500  -999.2500  -999.2500   114.2640
 1084.5000   -35.7137   -75.9507     9.8530     9.9380    10.2460  -999.2500  -999.2500  -999.2500  -999.2500   105.2103
 1085.0000   -35.7091   -75.7988     9.9271    10.0113    10.3931  -999.2500  -999.2500  -999.2500  -999.2500   105.8547
 1085.5000   -35.7046   -75.6468     9.9299     9.7987    10.3913  -999.2500  -999.2500  -999.2500  -999.2500   106.4991
 1086.0000   -35.8571   -75.4948     9.7906     9.6599    10.1678  -999.2500  -999.2500  -999.2500  -999.2500   106.2046
 1086.5000   -36.0086   -75.3428     9.7223     9.7311     9.9491  -999.2500  -999.2500  -999.2500  -999.2500   101.8411
 1087.0000   -36.0028   -67.4148     9.7961     9.8028     9.8055  -999.2500  -999.2500  -999.2500  -999.2500    97.1647
 1087.5000   -35.9982   -67.2628     9.7989     9.8042     9.8749  -999.2500  -999.2500  -999.2500  -999.2500    94.3662
 1088.0000   -36.1498   -67.1073     9.8725     9.8056     9.9453  -999.2500  -999.2500  -999.2500  -999.2500    98.8666
 1088.5000   -36.3011   -66.9209     9.8753     9.8070    10.0157  -999.2500  -999.2500  -999.2500  -999.2500   104.9332
 1089.0000   -36.2964   -66.7689     9.8072     9.7380     9.8708  -999.2500  -999.2500  -999.2500  -999.2500   109.1365
 1089.5000   -36.2917   -66.6170     9.8100     9.7397     9.7986  -999.2500  -999.2500  -999.2500  -999.2500   106.0250
 1090.0000   -36.2862   -66.4650     9.8844     9.7411     9.7972  -999.2500  -999.2500  -999.2500  -999.2500    98.5317
 1090.5000   -35.9696   -66.3130     9.9587     9.7425     9.8666  -999.2500  -999.2500  -999.2500  -999.2500    95.7332
 1091.0000   -35.6530   -73.9751    10.1061     9.8143     9.9365  -999.2500  -999.2500  -999.2500  -999.2500    96.3776
 1091.5000   -35.3364   -73.7851    10.1821     9.8866    10.0066  -999.2500  -999.2500  -999.2500  -999.2500    98.5869
 1092.0000   -35.3319   -73.6331    10.2586     9.9594     9.9334  -999.2500  -999.2500  -999.2500  -999.2500   102.6742
 1092.5000   -35.3273   -73.4811    10.1871     9.8890     9.8607  -999.2500  -999.2500  -999.2500  -999.2500   105.5095
 1093.0000   -35.4798   -73.3282     9.9727     9.7493     9.6486  -999.2500  -999.2500  -999.2500  -999.2500   104.9020
 1093.5000   -35.6303   -73.1726     9.8327     9.6113     9.6473  -999.2500  -999.2500  -999.2500  -999.2500   103.3554
 1094.0000   -35.7816   -72.9872     9.6948     9.6127     9.7858  -999.2500  -999.2500  -999.2500  -999.2500   102.7479
 1094.5000   -36.0890   -72.8352     9.7677     9.6224     9.9264  -999.2500  -999.2500  -999.2500  -999.2500   104.4072
 1095.0000   -36.2404   -72.6833     9.8412     9.6849    10.0714  -999.2500  -999.2500  -999.2500  -999.2500   100.2854
 1095.5000   -36.5467   -72.5313     9.7732     9.5477    10.2136  -999.2500  -999.2500  -999.2500  -999.2500    92.7920
 1096.0000   -36.6993   -72.3793     9.5676     9.3453    10.2118  -999.2500  -999.2500  -999.2500  -999.2500    87.8026
 1096.5000   -37.0055   -72.2273     9.2983     9.1469     9.9922  -999.2500  -999.2500  -999.2500  -999.2500    86.5645
 1097.0000   -37.1581   -72.0754     9.0366     8.9527     9.5683  -999.2500  -999.2500  -999.2500  -999.2500    94.7252
 1097.5000   -37.1524   -71.9234     8.8452     8.8256     9.2286  -999.2500  -999.2500  -999.2500  -999.2500   100.0644
 1098.0000   -36.9918   -71.7714     8.6591     8.7006     8.9653  -999.2500  -999.2500  -999.2500  -999.2500   111.0375
 1098.5000   -36.8312   -71.6174     8.6615     8.7021     8.7725  -999.2500  -999.2500  -999.2500  -999.2500   113.5598
 1099.0000   -36.8266   -71.4619     8.7266     8.7034     8.7083  -999.2500  -999.2500  -999.2500  -999.2500   110.7613
 1099.5000   -36.5100   -71.2775     8.7922     8.7046     8.7071  -999.2500  -999.2500  -999.2500  -999.2500   100.4511
 1100.0000   -36.1934   -78.9016     8.9869     8.9602     8.8321  -999.2500  -999.2500  -999.2500  -999.2500    99.5305
 1100.5000   -35.7072   -78.7496     9.2582     9.2287     9.0953  -999.2500  -999.2500  -999.2500  -999.2500   106.8979
 1101.0000   -35.2209   -78.5976     9.3894     9.4262     9.4205  -999.2500  -999.2500  -999.2500  -999.2500   112.3383
 1101.5000   -34.9305   -78.4456     8.9306     8.9000     9.5562  -999.2500  -999.2500  -999.2500  -999.2500   115.5528
 1102.0000   -35.0831   -78.3048     8.6170     8.5249     8.9549  -999.2500  -999.2500  -999.2500  -999.2500   114.3192
 1102.5000   -35.3894   -78.1229     8.4954     8.5261     8.5750  -999.2500  -999.2500  -999.2500  -999.2500   111.8337
 1103.0000   -35.6979   -77.9722     8.4984     8.5889     8.5738  -999.2500  -999.2500  -999.2500  -999.2500   110.4231
 1103.5000   -36.1602   -77.8214     8.5623     8.5901     8.5726  -999.2500  -999.2500  -999.2500  -999.2500   108.5085
 1104.0000   -36.3128   -77.6707     8.6267     8.5913     8.6336  -999.2500  -999.2500  -999.2500  -999.2500   102.8063
 1104.5000   -36.1077   -77.5199     8.6291     8.6547     8.6945  -999.2500  -999.2500  -999.2500  -999.2500    99.5174
 1105.0000   -36.5835   -77.3692     8.5816     8.4338     8.7561  -999.2500  -999.2500  -999.2500  -999.2500    97.7368
 1105.5000   -37.0270   -77.2162     8.6412     8.5538     8.6921  -999.2500  -999.2500  -999.2500  -999.2500    99.5835
 1106.0000   -37.3299   -77.0300     8.6388     8.6138     8.6908  -999.2500  -999.2500  -999.2500  -999.2500   103.8361
 1106.5000   -36.8505   -76.8793     8.8251     8.6736     8.7524  -999.2500  -999.2500  -999.2500  -999.2500   106.8820
 1107.0000   -36.5294   -76.7285     8.8865     8.7970     8.8144  -999.2500  -999.2500  -999.2500  -999.2500   104.1964
 1107.5000   -36.2083   -76.5778     9.0130     8.9215     9.0056  -999.2500  -999.2500  -999.2500  -999.2500    99.0976
 1108.0000   -36.1991   -84.2030     9.0756     8.9190     9.0691  -999.2500  -999.2500  -999.2500  -999.2500   100.3336
 1108.5000   -36.1900   -84.0523     9.1387     8.9809     9.0678  -999.2500  -999.2500  -999.2500  -999.2500   104.2845
 1109.0000   -36.1809   -83.9016     9.1355     9.0433     9.1321  -999.2500  -999.2500  -999.2500  -999.2500   103.1072
 1109.5000   -36.0156   -83.7480     9.1330     9.0402     9.1308  -999.2500  -999.2500  -999.2500  -999.2500    99.1339
 1110.0000   -36.0044   -83.5624     8.9997     9.0376     8.9990  -999.2500  -999.2500  -999.2500  -999.2500    98.0377
 1110.5000   -36.3073   -83.4116     8.8685     8.9059     8.8691  -999.2500  -999.2500  -999.2500  -999.2500   104.4093
 1111.0000   -36.4565   -83.2609     8.7391     8.7761     8.8034  -999.2500  -999.2500  -999.2500  -999.2500   106.2486
 1111.5000   -36.6034   -83.1101     8.6115     8.6482     8.6771  -999.2500  -999.2500  -999.2500  -999.2500   103.5630
 1112.0000   -36.5920   -82.9594     8.6086     8.4610     8.6133  -999.2500  -999.2500  -999.2500  -999.2500   102.0768
 1112.5000   -36.5829   -82.8086     8.6062     8.3979     8.5503  -999.2500  -999.2500  -999.2500  -999.2500   104.5267
 1113.0000   -36.5738   -82.6579     8.6038     8.3955     8.4878  -999.2500  -999.2500  -999.2500  -999.2500   109.3826
