~VERSION INFORMATION
 VERS.                2.0:   CWLS LOG ASCII STANDARD - VERSION 2.0
 WRAP.                 NO:   ONE LINE PER DEPTH STEP
~WELL INFORMATION
#MNEM.UNIT      DATA TYPE    INFORMATION
#----------   ------------   ------------------------------
 STRT.F          200.0000:   START DEPTH
 STOP.F         3124.0000:   STOP DEPTH
 STEP.F            0.5000:   STEP LENGTH
 NULL.          -999.2500:   NO VALUE
 COMP.    FENIX & SCISSON:   COMPANY
 WELL. FENIX SCISSON #18-27:   WELL
 FLD .                NPR:   FIELD
 LOC .      S27 T39N R78W:   LOCATION
 CNTY.            NATRONA:   COUNTY
 STAT.            WYOMING:   STATE
 CTRY. UNITED STATES OF AMERICA:   COUNTRY
 SRVC.              WELEX:   SERVICE COMPANY
 DATE.        26-SEP-1977:   LOGDATE
 API .     49025104210000:   API NUMBER
~CURVE INFORMATION
#MNEM.UNIT       API CODE    CURVE DESCRIPTION
#----------   ------------   ------------------------------
 DEPT.F                  :   
 CALD.IN     45 280 60 00:   CALIPER FROM DENSITY LOG
 GRD .GAPI   45 310 01 00:   GAMMA RAY FROM DENSITY LOG
 RHOB.G/C3   45 350 01 00:   BULK DENSITY
 CORR.G/C3   45 356 01 00:   DENSITY CORRECTION
 NPHI.DEC    42 890 03 00:   NEUTRON POROSITY SANDSTONE
 SPR .MV     07 010 01 00:   SPONTANEOUS POTENTIAL
 GURD.OHMM   07 220 05 00:   GUARD LOG RESISTIVITY
 ILD .OHMM   07 120 46 00:   DEEP INDUCTION RESISTIVITY
 ILM .OHMM   07 120 44 00:   INDUCTION LOG MEDIUM RESISTIVITY
 TENR.LBS    07 635 01 00:   TENSION FROM RESISTIVITY
~PARAMETER INFORMATION
#MNEM.UNIT          VALUE    DESCRIPTION
#----------   ------------   ------------------------------
 EKB .F         5080.0000:   Kelly bushing
 EGL .F         5070.0000:   Ground level
 EDF .F            0.0000:   Drilling floor
 EPD .F            0.0000:   Permanent datum
 TD  .F         3117.0000:   Total depth
 DATE.        26-SEP-1977:   Date logged
 CLNT.            A2DTECH:   Client Code
 SL  . 330' FSL & 1650' FWL:   Surface Location
 PD  .                 GL:   Permanent Datum
 DAPD.F                10:   Feet Above Permanent Datum
 DD  .F              3115:   Depth driller
 DL  .F              3117:   Depth logger
 BLI .F              3115:   Bottom log interval
 TLI .F               200:   Top log interval
 CS1 .IN            8.625:   Casing size
 CBD1.      8.625" @ 219':   Casing driller 1
 CBL1.F               220:   Casing logger 1
 BS1 .IN            7.875:   Bit size
 BSD1.F              3115:   Depth drilled with bit1
 DFT .            KCL MUD:   Type fluid in hole
 DFD .                9.1:   Density
 DFV .                 35:   Viscosity
 DFPH.                 11:   pH
 DFL .               17.2:   Fluid loss
 MSS .           FLOWLINE:   Source of sample
 RMS .OHMM            .59:   Rm
 MST .F                98:   Rm Meas. temp.
 RMF .OHMM            .56:   Rmf
 MFST.F                98:   Rmf Meas. temp.
 RMC .OHMM            .24:   Rmc
 MCST.F                98:   Rmc Meas. temp.
 MFSS.               MEAS:   Source Rmf.
 MCSS.               MEAS:   Source Rmc.
 RMB .OHMM            .48:   Rm. at BHT
 BHT .F               116:   BHT.
 TCS .HRS               4:   Time Circ. stopped
 MRT .F               116:   Maximum recorded temp.
 LUN .               8611:   Logging unit number
 LUL .             CASPER:   Logging unit location
 ENGI.            C. DOAK:   Recorded By
 WITN.         PETTINGILL:   Witnessed by
 ORIG.           5" PRINT:   Origin of data
 UWI .     49025104210000:   Unique Well ID
 DICO. A2D TECHNOLOGIES, INC.:   Digitizing Company
~OTHER INFORMATION
~A   DEPT     CALD        GRD       RHOB       CORR         NPHI      SPR       GURD        ILD        ILM        TENR  
# ...
  769.5000     8.6126   119.2009     2.4631     0.0289     0.3704   -66.1829     7.4958     4.9903     5.7956   430.2649
  770.0000     8.6129   114.4579     2.4642     0.0269     0.3692   -66.7681     7.4293     4.9455     5.6916   429.9143
  770.5000     8.6133   117.0339     2.4652     0.0269     0.3680   -66.1700     7.3633     4.9017     5.6411   429.5636
  771.0000     8.6136   114.2667     2.4662     0.0250     0.3668   -66.1636     7.3653     4.8582     5.5910   429.2130
  771.5000     8.6140   108.7313     2.4672     0.0230     0.3636   -66.1571     7.3439     4.8595     5.5925   428.8623
  772.0000     8.6143   106.5586     2.4672     0.0211     0.3613   -66.1520     7.3459     4.8607     5.5428   428.5116
  772.5000     8.6146   103.0017     2.4652     0.0211     0.3569   -66.1455     7.3479     4.8620     5.5443   428.1609
  773.0000     8.6348   104.9823     2.4583     0.0211     0.3505   -66.1391     7.3499     4.8631     5.5457   427.8103
  773.5000     8.6351   108.9419     2.4543     0.0212     0.3482   -66.1326     7.2851     4.8646     5.5472   427.4596
  774.0000     8.6355   112.9009     2.4534     0.0172     0.3478   -66.5205     7.2550     4.8659     5.5487   427.1089
  774.5000     8.6358   110.5309     2.4544     0.0173     0.3537   -65.9226     7.2232     4.8672     5.5502   426.7581
  775.0000     8.6164   110.9291     2.4604     0.0173     0.3541   -66.1133     7.2239     4.8682     5.5514   426.4776
  775.5000     8.6301   116.6697     2.4733     0.0173     0.3534   -66.1068     7.4276     4.9144     5.5528   426.1273
  776.0000     8.6369   117.8594     2.4793     0.0154     0.3534   -65.9032     7.6370     5.0532     5.5543   425.7765
  776.5000     8.6372   113.1151     2.4694     0.0094     0.3526   -66.0940     7.7806     5.0543     5.5558   425.4258
  777.0000     8.6574   111.3377     2.4654     0.0075     0.3518   -66.0875     7.7827     5.0556     5.5573   425.0751
  777.5000     8.6577   110.5495     2.4565     0.0055     0.3498   -66.0811     7.6432     5.0567     5.5079   434.7010
  778.0000     8.6581   104.6176     2.4515     0.0075     0.3486   -66.0746     7.4376     5.0583     5.5094   424.3736
  778.5000     8.6782   103.6314     2.4396     0.0056     0.3466   -66.0682     7.3712     5.0597     5.5109   424.0228
  779.0000     8.6984   109.5698     2.4317     0.0016     0.3454   -66.0617     7.1730     5.0610     5.5123   423.6720
  779.5000     8.6987   111.5511     2.4188     0.0017     0.3439   -66.0553     7.1093     5.0623     5.5138   423.3212
  780.0000     8.6990   108.7847     2.4287     0.0037     0.3443   -65.6546     7.1764     5.0637     5.5153   442.9249
  780.5000     8.6994   107.4028     2.4456     0.0057     0.3475   -66.0424     7.1787     5.1117     5.5677   422.6196
  781.0000     8.7591   108.7911     2.4566     0.0157     0.3546   -66.0360     7.1807     4.9742     5.6206   432.3164
  781.5000     8.7594   110.1782     2.4616     0.0197     0.3586   -66.0308     7.2485     4.9578     5.6740   431.9657
  782.0000     8.7598   107.6101     2.4646     0.0217     0.3677   -65.8272     7.3851     4.9414     5.7285   431.6150
  782.5000     8.7600   104.2485     2.4676     0.0237     0.3753   -66.0179     7.4553     4.8876     5.7291   431.2643
  783.0000     8.7238   110.5843     2.4676     0.0238     0.3789   -65.8144     7.5954     4.8889     5.7297   420.9357
  783.5000     8.7015   114.9426     2.4676     0.0258     0.3765   -65.8079     7.6676     4.8902     5.7518   430.5628
  784.0000     8.7018   109.9976     2.4676     0.0258     0.3737   -65.8015     7.6696     4.8912     5.7739   420.2340
  784.5000     8.6428   109.4071     2.4657     0.0259     0.3733   -65.7951     7.6717     4.8925     5.7961   429.8613
  785.0000     8.6234   110.3992     2.4607     0.0219     0.3709   -65.7886     7.7441     4.8938     5.8184   429.5106
  785.5000     8.6039   111.1934     2.4557     0.0200     0.3698   -65.5851     7.8176     4.9403     5.8408   429.0901
  786.0000     8.6241   110.9994     2.4548     0.0200     0.3710   -66.1699     7.8197     5.0331     5.8633   428.8095
  786.5000     8.6243   110.4088     2.4528     0.0200     0.3714   -65.7693     7.8219     5.0809     5.8859   428.4587
  787.0000     8.6247   112.9845     2.4498     0.0181     0.3722   -65.7629     7.8961     5.1291     5.9031   428.1781
  787.5000     8.6251   114.9691     2.4429     0.0161     0.3745   -65.5594     8.0446     5.1305     5.9595   427.8273
  788.0000     8.6255   114.3766     2.4409     0.0102     0.3738   -65.5530     8.0468     5.1318     5.9608   407.5188
  788.5000     8.6258   113.7867     2.4459     0.0162     0.3694   -65.5465     8.1232     5.1327     6.0174   427.1257
  789.0000     8.6259   111.4146     2.4648     0.0202     0.3634   -65.5401     8.1254     5.1346     6.0190   436.7539
  789.5000     8.6661   107.6569     2.4758     0.0262     0.3559   -65.5337     8.1276     5.1359     6.0203   436.4032
  790.0000     8.6664   106.6696     2.4788     0.0282     0.3460   -65.3302     8.1298     5.2322     6.0219   426.0732
  790.5000     8.6668   105.8809     2.4778     0.0262     0.3376   -65.3238     8.1320     5.3798     6.0792   425.7224
  791.0000     8.6671   104.4983     2.4729     0.0243     0.3345   -65.3186     8.2092     5.5315     6.1369   425.3715
  791.5000     8.6675   107.0769     2.4709     0.0243     0.3289   -65.1152     8.2110     5.6875     6.2525   435.0002
  792.0000     8.6678   105.8909     2.4699     0.0243     0.3277   -64.9117     8.1381     5.7412     6.3702   424.6698
  792.5000     8.6682   102.7265     2.4759     0.0224     0.3257   -65.1023     8.1403     5.9034     6.5504   424.3190
  793.0000     8.6685   100.1553     2.4799     0.0244     0.3261   -64.8989     8.4472     6.0144     6.6737   434.0181
  793.5000     8.6689   100.3569     2.4819     0.0205     0.3269   -64.8925     8.9280     6.1275     6.8618   423.6874
  794.0000     8.6692   101.3498     2.4749     0.0225     0.3222   -64.6891    10.2491     6.3003     6.9906   423.3365
  794.5000     8.7092   103.9279     2.4730     0.0186     0.3186   -64.4857    11.0333     6.4185     7.1880   422.9856
  795.0000     8.7433   103.3352     2.4670     0.0166     0.3162   -64.4792    10.9743     6.6604     7.3913   422.6347
  795.5000     8.7495    99.6589     2.4641     0.0166     0.3139   -64.2758    10.9379     6.9110     7.4612   432.2642
  796.0000     8.7696    97.6838     2.4631     0.0087     0.3115   -64.2694    10.8402     7.1063     7.6719   431.9134
  796.5000     8.7897    93.8276     2.4641     0.0087     0.3103   -64.2630    10.7447     7.3068     7.7452   431.5625
  797.0000     8.7901    95.6156     2.4671     0.0167     0.3095   -64.2566    10.8480     7.4001     7.8911   431.2117
  797.5000     8.7704    99.2829     2.4711     0.0207     0.3107   -64.4472    10.8491     7.4013     7.9661   430.8609
  798.0000     8.8106   101.3747     2.4781     0.0228     0.3095   -64.4408    10.8539     7.4033     8.0419   420.5292
  798.5000     8.7911   101.1779     2.4811     0.0248     0.3071   -64.2375    10.8557     7.4053     8.0436   420.1782
  799.0000     8.8033    98.0117     2.4831     0.0248     0.3040   -64.0341    10.8586     7.4073     8.1201   419.8974
  799.5000     8.8117    98.0147     2.4920     0.0290     0.3016   -64.0277    10.9618     7.4093     8.1973   419.5465
  800.0000     8.7724    97.4255     2.5000     0.0328     0.2913   -64.0226    10.8640     7.4793     8.2752   369.2891
  800.5000     8.7729    96.9171     2.5029     0.0355     0.2878   -64.0150    11.0849     7.5485     8.3489   425.3986
  801.0000     8.7732    96.8404     2.5050     0.0369     0.2877   -64.0167    11.2754     7.6212     8.5100   428.8360
  801.5000     8.7936    98.7277     2.5001     0.0310     0.2921   -63.8172    11.3811     7.6227     8.5902   428.6808
  802.0000     8.7941    98.5347     2.4872     0.0291     0.2964   -64.2086    11.7008     7.6242     8.6713   408.5652
  802.5000     8.7947    98.7377     2.4853     0.0272     0.3084   -63.8121    11.7026     7.5559     8.6729   428.3705
