~VERSION INFORMATION
 VERS.                2.0:   CWLS LOG ASCII STANDARD - VERSION 2.0
 WRAP.                 NO:   ONE LINE PER DEPTH STEP
~WELL INFORMATION
#MNEM.UNIT      DATA TYPE    INFORMATION
#----------   ------------   ------------------------------
 STRT.F          500.0000:   START DEPTH
 STOP.F         2517.0000:   STOP DEPTH
 STEP.F            0.5000:   STEP LENGTH
 NULL.          -999.2500:   NO VALUE
 COMP.    FENIX & SCISSON:   COMPANY
 WELL. FENIX & SCISSON SHX #46-33:   WELL
 FLD .  TEAPOT DOME NPR-3:   FIELD
 LOC .      S33 T39N R78W:   LOCATION
 CNTY.            NATRONA:   COUNTY
 STAT.            WYOMING:   STATE
 CTRY. UNITED STATES OF AMERICA:   COUNTRY
 SRVC.           BIRDWELL:   SERVICE COMPANY
 DATE.        04-APR-1979:   LOGDATE
 API .     49025107670000:   API NUMBER
~CURVE INFORMATION
#MNEM.UNIT       API CODE    CURVE DESCRIPTION
#----------   ------------   ------------------------------
 DEPT.F                  :   
 GRD .GAPI   45 310 01 00:   GAMMA RAY FROM DENSITY LOG
 CALD.IN     45 280 60 00:   CALIPER FROM DENSITY LOG
 CORR.G/C3   45 356 01 00:   DENSITY CORRECTION
 RHOB.G/C3   45 350 01 00:   BULK DENSITY
~PARAMETER INFORMATION
#MNEM.UNIT          VALUE    DESCRIPTION
#----------   ------------   ------------------------------
 EKB .F         5217.0000:   Kelly bushing
 EGL .F         5207.0000:   Ground level
 EDF .F            0.0000:   Drilling floor
 TD  .F         2630.0000:   Total depth
 CLNT.            A2DTECH:   Client Code
 SL  . 1955' FSL & 1970' FWL:   Surface Location
 PD  .                 GL:   Permanent Datum
 EPD .F              5207:   Elevation Permanent Datum
 LMF .                 KB:   Log Measured From
 DMF .                 KB:   Drilling Measured From
 DAPD.                 10:   Feet Above Permanent Datum
 DATE.        04-APR-1979:   Date Logged [DD-MMM-YYYY]
 DD  .F              2630:   Depth driller
 DL  .F              2517:   Depth logger
 BLI .F              2517:   Bottom log interval
 TLI .F               504:   Top log interval
 CS1 .              9.625:   Casing size
 CBD1.      9.625" @ 300':   Casing driller 1
 CBL1.IN              306:   Casing logger 1
 BS1 .IN            7.875:   Bit size
 BSD1.F              2630:   Depth drilled with bit1
 DFT .                OIL:   Type fluid in hole
 LUL .             CASPER:   Logging unit location
 ENGI.            ROLLINS:   Recorded By
 ORIG.           5" PRINT:   Origin of data
 UWI .     49025107670000:   Unique Well ID
 DICO. A2D TECHNOLOGIES ,INC.:   Digitizing Company
 WITN.              AMUND:   Witnessed by
~OTHER INFORMATION
~A   DEPT      GRD       CALD       CORR       RHOB   
# ...
 2325.0000    64.0967     9.1518     0.2647     2.6166
 2325.5000    63.8143     9.1095     0.2135     2.5588
 2326.0000    60.5645     9.0817     0.1911     2.5505
 2326.5000    54.9431     9.0387     0.2080     2.5807
 2327.0000    51.3966     9.0113     0.2501     2.5950
 2327.5000    50.3699     9.0136     0.2697     2.5838
 2328.0000    51.4251     9.0305     0.2849     2.5869
 2328.5000    52.6287     9.0473     0.3060     2.5929
 2329.0000    53.2317     9.0643     0.3134     2.5651
 2329.5000    48.0579     9.0815     0.2661     2.5358
 2330.0000    43.6061     9.0871     0.2121     2.5502
 2330.5000    38.2954     9.1007     0.1963     2.5593
 2331.0000    37.2687     9.0730     0.1964     2.5443
 2331.5000    41.2936     9.0303     0.2209     2.5360
 2332.0000    43.2343     8.9728     0.3036     2.5406
 2332.5000    41.4682     8.9301     0.3783     2.5384
 2333.0000    44.4522     8.8878     0.4202     2.5490
 2333.5000    48.4724     8.8750     0.4626     2.6025
 2334.0000    50.7122     8.8770     0.4858     2.6484
 2334.5000    48.2066     8.8942     0.4480     2.6395
 2335.0000    43.1764     8.9110     0.3745     2.5996
 2335.5000    37.4043     8.9279     0.3081     2.5515
 2336.0000    38.7563     8.9597     0.2810     2.5440
 2336.5000    39.9575     8.9766     0.2702     2.5667
 2337.0000    40.8620     9.0083     0.2362     2.5502
 2337.5000    38.5024     9.0255     0.2069     2.5389
 2338.0000    37.4757     9.0423     0.1899     2.5420
 2338.5000    42.2378     9.0593     0.2152     2.5789
 2339.0000    36.0253     9.0914     0.2325     2.5970
 2339.5000    36.7814     9.0934     0.2386     2.6039
 2340.0000    42.2877     9.1101     0.2308     2.5874
 2340.5000    43.9340     9.1122     0.2054     2.5821
 2341.0000    42.0195     9.1146     0.2084     2.5822
 2341.5000    38.7697     9.1164     0.2311     2.5807
 2342.0000    36.8528     9.1660     0.2432     2.5763
 2342.5000    36.8719     9.1525     0.2447     2.5726
 2343.0000    33.3253     9.1551     0.2328     2.5696
 2343.5000    29.7788     9.1420     0.2238     2.5644
 2344.0000    29.1972     9.1291     0.2254     2.5592
 2344.5000    29.3646     9.1267     0.2210     2.5434
 2345.0000    32.7913     9.1186     0.2090     2.5247
 2345.5000    36.5148     9.0910     0.2061     2.5420
 2346.0000    38.3095     9.0339     0.2784     2.6098
 2346.5000    39.2164     8.9324     0.3100     2.6249
 2347.0000    35.5215     8.7712     0.2996     2.5520
 2347.5000    31.2331     8.6100     0.3538     2.5114
 2348.0000    30.9482     8.5820     0.4411     2.5370
 2348.5000    35.8634     8.6440     0.4035     2.5288
 2349.0000    37.5097     8.7202     0.3405     2.5311
 2349.5000    39.8979     8.7667     0.2999     2.5425
 2350.0000    45.1412     8.7835     0.2760     2.5410
 2350.5000    47.4061     8.7425     0.2655     2.5139
 2351.0000    46.9662     8.7425     0.2641     2.4990
 2351.5000    44.0004     8.7891     0.2777     2.4922
 2352.0000    41.1831     8.9377     0.2823     2.4908
 2352.5000    37.1843     9.0576     0.2558     2.5014
 2353.0000    32.7258     9.1028     0.2073     2.4961
 2353.5000    31.6755     9.1178     0.2044     2.4963
 2354.0000    29.1175     9.1162     0.2135     2.5339
 2354.5000    28.1497     9.1031     0.2166     2.5392
 2355.0000    29.3476     9.1033     0.2092     2.5445
 2355.5000    30.8408     9.1484     0.2108     2.5505
 2356.0000    31.7396     9.1635     0.2124     2.5581
 2356.5000    24.3175     9.2086     0.2079     2.5597
 2357.0000    24.0258     9.2536     0.1960     2.5650
 2357.5000    24.1836     9.2538     0.1826     2.5590
 2358.0000    24.6366     9.2539     0.1481     2.5658
 2358.5000    26.1280     9.2541     0.1406     2.5803
 2359.0000    20.9366     9.2542     0.1498     2.5682
 2359.5000    19.3094     9.2394     0.1638     2.5659
 2360.0000    19.4653     9.1796     0.2432     2.5728
 2360.5000    18.8783     9.2097     0.3019     2.6235
 2361.0000    16.5082     9.2997     0.2945     2.6263
 2361.5000    15.4684     9.3003     0.2104     2.5778
 2362.0000    15.0370     9.2547     0.1774     2.5632
 2362.5000    22.4245     9.2241     0.1790     2.5489
 2363.0000    23.8201     9.1955     0.2031     2.5392
 2363.5000    24.4218     9.1508     0.2423     2.5129
 2364.0000    26.8065     9.0910     0.3025     2.4949
 2364.5000    23.0992     9.0313     0.3823     2.5152
 2365.0000    17.7573     9.0464     0.4110     2.5499
 2365.5000    15.5358     9.1514     0.3329     2.5206
 2366.0000    15.0973     9.2413     0.2307     2.5026
 2366.5000    15.2532     9.2564     0.1992     2.5177
 2367.0000    16.1521     9.2267     0.2042     2.5839
 2367.5000    18.5368     9.2268     0.2282     2.6118
 2368.0000    22.7046     9.2120     0.2254     2.6164
 2368.5000    24.4950     9.1972     0.1876     2.6187
 2369.0000    25.9882     9.1524     0.1801     2.6202
 2369.5000    27.4814     9.1076     0.1953     2.6203
 2370.0000    21.7647     9.0928     0.2074     2.6188
 2370.5000    19.3237     9.0780     0.2105     2.6125
 2371.0000    20.5377     9.0781     0.1609     2.5709
 2371.5000    24.6893     9.0783     0.1490     2.5579
 2372.0000    27.8170     9.0784     0.1371     2.5558
 2372.5000    29.9046     9.1086     0.1251     2.5498
 2373.0000    27.9802     9.1536     0.1117     2.5295
 2373.5000    26.7989     9.1687     0.1163     2.5416
 2374.0000    29.6294     9.1988     0.1284     2.5590
 2374.5000    28.1508     9.2289     0.1300     2.5771
 2375.0000    27.7105     9.2440     0.1301     2.5899
 2375.5000    28.7598     9.2591     0.1317     2.5997
 2376.0000    27.8756     9.2743     0.1303     2.5960
 2376.5000    28.3287     9.2744     0.1255     2.5886
 2377.0000    30.5648     9.2746     0.1019     2.5743
 2377.5000    31.9094     9.2747     0.0839     2.5533
 2378.0000    34.8885     9.2749     0.0885     2.5511
 2378.5000    33.8557     9.2900     0.1187     2.5887
 2379.0000    33.2035     9.2901     0.1368     2.6098
 2379.5000    31.3462     9.2904     0.1399     2.6046
 2380.0000    30.9077     9.3064     0.1114     2.5889
 2380.5000    24.6743     9.3223     0.1070     2.5960
 2381.0000    23.7883     9.3356     0.1236     2.6138
 2381.5000    24.9862     9.3208     0.1207     2.5949
 2382.0000    26.4794     9.3060     0.1028     2.5853
 2382.5000    30.3500     9.2912     0.1119     2.5891
 2383.0000    32.4375     9.2764     0.1240     2.5952
 2383.5000    33.4850     9.2615     0.1331     2.6012
 2384.0000    34.0866     9.2467     0.1408     2.6035
 2384.5000    34.0940     9.2319     0.1453     2.6051
 2385.0000    28.1577     9.2320     0.1409     2.6044
 2385.5000    28.4622     9.2322     0.1395     2.6021
 2386.0000    34.8589     9.2623     0.1471     2.6030
 2386.5000    39.3663     9.2774     0.1487     2.5932
 2387.0000    40.5199     9.2476     0.1563     2.5850
 2387.5000    32.9004     9.2178     0.1624     2.5933
 2388.0000    29.3922     9.1431     0.1430     2.5768
 2388.5000    32.3713     9.1133     0.1295     2.5520
 2389.0000    32.0814     9.1135     0.1206     2.5400
 2389.5000    30.9000     9.1136     0.1101     2.5235
 2390.0000    32.0961     9.1138     0.1042     2.5160
 2390.5000    28.5373     9.1139     0.1269     2.5359
 2391.0000    18.5892     9.1141     0.1390     2.5630
 2391.5000    12.8015     9.1142     0.1466     2.5691
 2392.0000     8.0540     9.1144     0.1602     2.5839
 2392.5000     6.5755     9.1145     0.1648     2.5960
 2393.0000     6.1367     9.1147     0.1423     2.5795
 2393.5000     6.2929     9.1148     0.1304     2.5577
 2394.0000     9.7178     9.1150     0.1230     2.5510
 2394.5000    15.5271     9.1151     0.1231     2.5623
 2395.0000    18.4991     9.1153     0.1247     2.5737
 2395.5000    16.0916     9.1304     0.1263     2.5782
 2396.0000    14.8372     9.1455     0.1245     2.5790
 2396.5000    11.2421     9.1457     0.1114     2.5648
 2397.0000     9.6131     9.1608     0.1010     2.5310
 2397.5000    14.0799     9.1759     0.0980     2.5167
