~VERSION INFORMATION
 VERS.                2.0:   CWLS LOG ASCII STANDARD - VERSION 2.0
 WRAP.                 NO:   ONE LINE PER DEPTH STEP
~WELL INFORMATION
#MNEM.UNIT      DATA TYPE    INFORMATION
#----------   ------------   ------------------------------
 STRT.F         3500.0000:   START DEPTH
 STOP.F         6855.0000:   STOP DEPTH
 STEP.F            0.5000:   STEP LENGTH
 NULL.          -999.2500:   NO VALUE
 COMP.          U.S. NAVY:   COMPANY
 WELL.  US NAVY "G" #1-10:   WELL
 FLD . TEAPOT NAVAL RESERVE:   FIELD
 LOC .      S10 T38N R78W:   LOCATION
 CNTY.            NATRONA:   COUNTY
 STAT.            WYOMING:   STATE
 CTRY. UNITED STATES OF AMERICA:   COUNTRY
 SRVC.         LANE WELLS:   SERVICE COMPANY
 DATE.        23-MAR-1952:   LOGDATE
 API .     49025063380000:   API NUMBER
~CURVE INFORMATION
#MNEM.UNIT       API CODE    CURVE DESCRIPTION
#----------   ------------   ------------------------------
 DEPT.F                  :   
 GRN .GAPI   35 310 01 00:   GAMMA RAY
 NEUT.NAPI   35 330 01 00:   NEUTRON
~PARAMETER INFORMATION
#MNEM.UNIT          VALUE    DESCRIPTION
#----------   ------------   ------------------------------
 EKB .F         5195.0000:   Kelly bushing
 EGL .F         5184.0000:   Ground level
 EDF .F         5195.0000:   Drilling floor
 EPD .F            0.0000:   Permanent datum
 TD  .F         6861.0000:   Total depth
 CLNT.            A2DTECH:   Client Code
 PD  .                 GL:   Permanent Datum
 DATE.        23-MAR-1952:   Date Logged [DD-MMM-YYYY]
 DD  .F              6861:   Depth driller
 DL  .F              6861:   Depth logger
 BLI .F              6855:   Bottom log interval
 TLI .F              3500:   Top log interval
 BSD1.F              6861:   Depth drilled with bit1
 DFT .                MUD:   Type fluid in hole
 ENGI.            GAMBERG:   Recorded By
 WITN.           GRIBBENS:   Witnessed by
 ORIG.         2.5" PRINT:   Origin of data
 UWI .     49025063380000:   Unique Well ID
 DICO. A2D TECHNOLOGIES, INC.:   Digitizing Company
~OTHER INFORMATION
~A  DEPT       GRN        NEUT  
# ...
 5687.0000    15.6891   313.9391
 5687.5000    14.8942   324.5049
 5688.0000    15.4689   332.7094
 5688.5000    18.1798   330.1231
 5689.0000    19.5843   334.9442
 5689.5000    19.1894   352.0806
 5690.0000    19.5580   380.5540
 5690.5000    20.7688   408.6568
 5691.0000    22.7132   436.8559
 5691.5000    25.6355   500.0763
 5692.0000    27.6455   620.5079
 5692.5000    29.6856   730.7087
 5693.0000    32.2165   772.4756
 5693.5000    34.4667   811.7795
 5694.0000    36.8300   833.8627
 5694.5000    39.1932   807.2880
 5695.0000    41.5565   779.2304
 5695.5000    44.5969   740.8838
 5696.0000    47.7840   706.2057
 5696.5000    50.3195   666.9913
 5697.0000    52.0807   623.8000
 5697.5000    53.9236   601.5276
 5698.0000    55.1531   564.4768
 5698.5000    53.8806   524.9630
 5699.0000    53.0940   500.8006
 5699.5000    53.1233   468.9121
 5700.0000    52.9910   455.6650
 5700.5000    51.2880   455.5542
 5701.0000    47.1401   486.1173
 5701.5000    44.4591   556.3004
 5702.0000    42.5117   602.9934
 5702.5000    40.5035   644.7603
 5703.0000    38.6168   691.4888
 5703.5000    38.6264   728.3442
 5704.0000    38.9614   772.0553
 5704.5000    39.8253   809.4540
 5705.0000    41.3415   843.2307
 5705.5000    45.4671   850.9975
 5706.0000    51.6307   838.5543
 5706.5000    56.2847   838.4493
 5707.0000    61.4277   818.6398
 5707.5000    65.8372   778.8818
 5708.0000    68.2907   727.3973
 5708.5000    70.2553   697.0557
 5709.0000    69.0013   683.7158
 5709.5000    64.0987   653.3890
 5710.0000    58.7879   606.0638
 5710.5000    52.3205   564.6525
 5711.0000    48.0542   520.7974
 5711.5000    43.9245   533.1598
 5712.0000    41.7129   592.3203
 5712.5000    39.5210   651.4808
 5713.0000    39.2435   695.8630
 5713.5000    39.7825   773.5227
 5714.0000    39.0576   836.5557
 5714.5000    38.0881   904.9472
 5715.0000    38.4234   944.7122
 5715.5000    39.2065   952.7978
 5716.0000    39.6638   959.7044
 5716.5000    39.9376   962.6189
 5717.0000    41.0654   981.9783
 5717.5000    45.5764   998.5859
 5718.0000    53.3111  1049.6572
 5718.5000    55.5201  1188.8691
 5719.0000    56.5066  1239.8853
 5719.5000    56.2706  1318.2656
 5720.0000    54.3232  1398.2307
 5720.5000    51.5000  1428.1370
 5721.0000    48.4730  1432.0680
 5721.5000    46.0369  1396.2115
 5722.0000    43.6823  1288.5704
 5722.5000    40.8181  1221.4370
 5723.0000    40.8071  1152.5187
 5723.5000    42.4857  1090.9895
 5724.0000    45.8383  1029.4603
 5724.5000    50.0033   999.9587
 5725.0000    54.4128   990.1537
 5725.5000    58.5778   958.1812
 5726.0000    62.7428   933.5978
 5726.5000    64.2187   856.6573
 5727.0000    64.4721   743.8886
 5727.5000    65.8257   623.8204
 5728.0000    74.4328   542.6340
 5728.5000    82.8790   495.8050
 5729.0000    89.2060   459.3666
 5729.5000    95.8124   417.1569
 5730.0000   125.1432   387.2008
 5730.5000   146.7063   362.6174
 5731.0000   162.8317   342.9602
 5731.5000   169.5440   335.6182
 5732.0000   194.8803   350.4437
 5732.5000   206.5422   401.0529
 5733.0000   228.1077   470.9556
 5733.5000   248.8786   616.6613
 5734.0000   268.7531   728.6036
 5734.5000   285.7953   809.8733
 5735.0000   290.6547   877.0433
 5735.5000   292.9869   983.8024
 5736.0000   293.0757  1087.6367
 5736.5000   290.0700  1285.3776
 5737.0000   233.5993  1503.6906
 5737.5000   217.7154  1521.3481
 5738.0000   168.0921  1538.2177
 5738.5000    98.8617  1475.2015
 5739.0000    88.9724  1274.4264
 5739.5000    41.8337  1168.9247
 5740.0000    35.2819   993.5720
 5740.5000    33.5182   926.8178
 5741.0000    34.5255   852.2650
 5741.5000    35.1043   814.4414
 5742.0000    33.1999   794.7841
 5742.5000    32.9011   809.6096
 5743.0000    36.3955   863.8440
 5743.5000    36.6485   910.9158
 5744.0000    34.7010   925.5147
 5744.5000    31.6330   923.0989
 5745.0000    28.4022   935.7941
 5745.5000    25.8665   965.6257
 5746.0000    23.8157  1000.8751
 5746.5000    20.9721  1097.2976
 5747.0000    19.1065  1187.5300
 5747.5000    18.0966  1253.1466
 5748.0000    17.4128  1328.0966
 5748.5000    17.9117  1373.1178
 5749.0000    18.4093  1413.7026
 5749.5000    19.6403  1440.8434
 5750.0000    20.3823  1458.1321
 5750.5000    20.6353  1463.1052
 5751.0000    20.3593  1445.6852
 5751.5000    19.6755  1396.5084
 5752.0000    17.8927  1351.2174
 5752.5000    15.8628  1318.1659
 5753.0000    15.9124  1293.3905
 5753.5000    18.6108  1322.2976
 5754.0000    21.1884  1335.3695
 5754.5000    23.6419  1323.1122
 5755.0000    25.8509  1303.4550
 5755.5000    26.8374  1256.7041
 5756.0000    26.8460  1155.7661
 5756.5000    26.8549  1076.9955
 5757.0000    26.9046   968.6762
 5757.5000    28.5239   798.7726
 5758.0000    33.8090   628.8690
 5758.5000    38.7469   550.0583
 5759.0000    41.6915   519.4852
 5759.5000    45.6531   500.0613
 5760.0000    47.2119   498.5159
 5760.5000    46.4869   506.9961
 5761.0000    44.5395   542.3939
 5761.5000    41.3696   663.8100
 5762.0000    39.1776   784.4425
 5762.5000    38.1881   863.3074
 5763.0000    37.7277   922.4678
 5763.5000    38.9603   952.0717
 5764.0000    40.0283   964.4341
 5764.5000    40.3016   972.1735
 5765.0000    43.8739   984.6035
 5765.5000    46.7174   992.2618
 5766.0000    46.0961   996.6425
 5766.5000    42.4372   938.2283
 5767.0000    39.0227   858.6368
 5767.5000    37.8088   787.4480
 5768.0000    37.0838   750.5494
 5768.5000    38.5597   735.8182
 5769.0000    37.4276   733.0429
 5769.5000    35.8869   763.0063
 5770.0000    36.1414   813.1680
 5770.5000    35.7428   853.5793
 5771.0000    31.8827   896.0021
 5771.5000    27.8765   951.3391
 5772.0000    26.3984   992.3062
 5772.5000    26.1614  1047.3611
 5773.0000    26.1295  1080.9430
 5773.5000    26.1795  1120.5502
 5774.0000    26.1880  1142.7648
 5774.5000    25.6672  1135.4227
 5775.0000    24.3721  1118.2285
 5775.5000    23.0974  1091.1222
 5776.0000    22.0666  1076.2220
 5776.5000    21.6488  1071.5721
 5777.0000    23.5519  1084.7954
 5777.5000    26.6964  1116.7136
 5778.0000    29.9281  1162.0594
 5778.5000    29.4476  1184.1057
 5779.0000    29.4561  1217.1517
 5779.5000    29.9537  1256.6078
 5780.0000    31.1847  1286.2115
 5780.5000    32.7217  1315.8154
 5781.0000    34.2180  1328.1779
 5781.5000    35.2456  1330.6882
 5782.0000    35.3753  1275.6217
 5782.5000    34.9370  1213.5347
 5783.0000    34.2940  1129.8051
 5783.5000    33.5495  1080.8741
 5784.0000    33.2118  1097.0967
 5784.5000    33.7108  1141.3396
 5785.0000    34.2083  1151.2390
 5785.5000    34.2168  1136.5079
 5786.0000    33.4919  1057.7373
 5786.5000    31.9342   917.3904
 5787.0000    29.9644   897.3728
 5787.5000    28.9953   890.3911
 5788.0000    27.9040   932.1297
 5788.5000    26.5885   969.8231
 5789.0000    26.5773  1003.8489
 5789.5000    27.0953  1040.8418
 5790.0000    25.4960  1085.2241
 5790.5000    22.8150  1127.1431
 5791.0000    21.3566  1191.8185
 5791.5000    19.6536  1259.7898
 5792.0000    19.6621  1323.2665
 5792.5000    20.7305  1405.8058
 5793.0000    22.8156  1439.1716
 5793.5000    25.1900  1483.6664
 5794.0000    26.2177  1511.7334
 5794.5000    27.7139  1497.0022
 5795.0000    29.6174  1482.2711
 5795.5000    28.5281  1467.5399
 5796.0000    27.5587  1465.1233
 5796.5000    27.3216  1472.5615
 5797.0000    28.0647  1464.8849
 5797.5000    29.0513  1469.3927
 5798.0000    29.0598  1483.3307
 5798.5000    27.0310  1485.0740
 5799.0000    25.6539  1480.2422
 5799.5000    25.6635  1460.4215
 5800.0000    24.9389  1423.6532
 5800.5000    24.4000  1386.7545
 5801.0000    23.4512  1340.0038
 5801.5000    23.6812  1290.7898
 5802.0000    24.9720  1260.9792
 5802.5000    26.0209  1220.3226
 5803.0000    27.8018  1194.9271
 5803.5000    28.9541  1173.8171
 5804.0000    29.6642  1170.3359
 5804.5000    27.4731  1184.7903
 5805.0000    23.0815  1202.9658
 5805.5000    20.8905  1219.7622
 5806.0000    21.3888  1239.5139
 5806.5000    19.8568  1237.0979
 5807.0000    17.4957  1207.5885
 5807.5000    18.1606  1136.2070
 5808.0000    19.1323  1062.3705
