~VERSION INFORMATION
 VERS.                2.0:   CWLS LOG ASCII STANDARD - VERSION 2.0
 WRAP.                 NO:   ONE LINE PER DEPTH STEP
~WELL INFORMATION
#MNEM.UNIT      DATA TYPE    INFORMATION
#----------   ------------   ------------------------------
 STRT.F          590.0000:   START DEPTH
 STOP.F         3428.0000:   STOP DEPTH
 STEP.F            0.5000:   STEP LENGTH
 NULL.          -999.2500:   NO VALUE
 COMP.    FENIX & SCISSON:   COMPANY
 WELL. FENIX NPR 3 "AX" #25-27:   WELL
 FLD .                NPR:   FIELD
 LOC .      S27 T39N R78W:   LOCATION
 CNTY.            NATRONA:   COUNTY
 STAT.            WYOMING:   STATE
 CTRY. UNITED STATES OF AMERICA:   COUNTRY
 SRVC.       SCHLUMBERGER:   SERVICE COMPANY
 DATE.        13-AUG-1981:   LOGDATE
 API .     49025108780000:   API NUMBER
~CURVE INFORMATION
#MNEM.UNIT       API CODE    CURVE DESCRIPTION
#----------   ------------   ------------------------------
 DEPT.F                  :   
 CALD.IN     45 280 60 00:   CALIPER FROM DENSITY LOG
 GRD .GAPI   45 310 01 00:   GAMMA RAY FROM DENSITY LOG
 CORR.G/C3   45 356 01 00:   DENSITY CORRECTION
 RHOB.G/C3   45 350 01 00:   BULK DENSITY
 NPHI.DEC    42 890 03 00:   NEUTRON POROSITY SANDSTONE
 TENR.LBS    07 635 01 00:   TENSION
 SPR .MV     07 010 01 00:   SPONTANEOUS POTENTIAL
 ILD .OHMM   07 120 46 00:   INDUCTION LOG DEEP RESISTIVITY
 ILM .OHMM   07 120 44 00:   INDUCTION LOG MEDIUM RESISTIVITY
 SFL .OHMM   07 220 01 00:   SHALLOW FOCUSED LOG RESISTIVITY
 TEND.LBS    45 635 01 00:   TENSION FROM DENSITY LOG
~PARAMETER INFORMATION
#MNEM.UNIT          VALUE    DESCRIPTION
#----------   ------------   ------------------------------
 EKB .F         5057.0000:   Kelly bushing
 EGL .F         5047.0000:   Ground level
 EDF .F            0.0000:   Drilling floor
 TD  .F         3415.0000:   Total depth
 DATE.        13-AUG-1981:   Date logged
 CLNT.            A2DTECH:   Client Code
 SL  . 2100' FSL & 1050' FWL:   Surface Location
 PD  .                 GL:   Permanent Datum
 EPD .F              5047:   Elevation Permanent Datum
 LMF .                 KB:   Log Measured From
 DMF .                 KB:   Drilling Measured From
 DAPD.F                10:   Feet Above Permanent Datum
 DD  .F              3400:   Depth driller
 DL  .F              3415:   Depth logger
 BLI .F              3409:   Bottom log interval
 TLI .F               603:   Top log interval
 CS1 .IN            9.625:   Casing size
 CBD1.      9.625" @ 607':   Casing driller 1
 CBL1.F               603:   Casing logger 1
 BS1 .IN            7.875:   Bit size
 BSD1.F              3400:   Depth drilled with bit1
 DFT .                FGM:   Type fluid in hole
 DFD .                8.7:   Density
 DFV .                 36:   Viscosity
 DFPH.                  9:   pH
 DFL .                 13:   Fluid loss
 MSS .           MUD/TANK:   Source of sample
 RMS .OHMM           1.69:   Rm
 MST .F                75:   Rm Meas. temp.
 RMF .OHMM           1.34:   Rmf
 MFST.F                75:   Rmf Meas. temp.
 MFSS.               MEAS:   Source Rmf.
 RMB .OHMM           1.09:   Rm. at BHT
 BHT .F               120:   BHT.
 TCS .HRS            2145:   Time Circ. stopped
 TLAB.HRS            0200:   Time logger at bottom
 MRT .F               120:   Maximum recorded temp.
 LUN .               8039:   Logging unit number
 LUL .               CSPR:   Logging unit location
 ENGI.            PURPICH:   Recorded By
 WITN.              FIVAS:   Witnessed by
 ORIG.           5" PRINT:   Origin of data
 UWI .     49025108780000:   Unique Well ID
 DICO. A2D TECHNOLOGIES, INC.:   Digitizing Company
~OTHER INFORMATION
~A   DEPT     CALD         GRD      CORR       RHOB         NPHI     TENR        SPR        ILD        ILM        SFL       TEND   
# ...
 1139.0000     8.6940   119.9710     0.1160     2.5570     0.3090   665.5700   -88.4070     8.4120     7.3950     9.2060   692.4560
 1139.5000     8.6940   119.6310     0.1230     2.5620     0.3110   665.1150   -88.3160     8.3880     7.3950     9.2060   692.1000
 1140.0000     8.6940   117.6420     0.0930     2.5480     0.3130   664.6600   -88.0250     8.3650     7.3490     9.2060   691.7450
 1140.5000     8.6970   113.1340     0.0630     2.5420     0.3150   664.2060   -87.7420     8.3420     7.3070     9.2060   691.3890
 1141.0000     8.7170   114.8960     0.0410     2.5320     0.3160   663.7510   -87.6490     8.3180     7.2610     9.2060   691.0330
 1141.5000     8.7360   119.1120     0.0390     2.5200     0.3140   663.2960   -87.7450     8.2950     7.2610     9.2050   690.6770
 1142.0000     8.7580   122.2590     0.0380     2.5110     0.3010   662.8420   -87.8410     8.2720     7.2610     9.2050   690.3220
 1142.5000     8.9060   121.9010     0.0810     2.5380     0.2930   662.3870   -87.9380     8.2510     7.2130     9.2100   689.9660
 1143.0000     9.0610   119.6900     0.1460     2.5670     0.3000   661.9330   -88.0350     8.1780     7.1160     8.9780   689.6100
 1143.5000     9.2140   117.2160     0.2150     2.5960     0.3080   661.4780   -88.1310     8.0970     7.0190     8.8030   689.4840
 1144.0000     9.3680   115.6820     0.2530     2.6160     0.3100   661.0230   -88.2280     8.0150     6.9220     8.6360   689.4840
 1144.5000     9.5210   117.8230     0.2440     2.5810     0.3110   660.5690   -88.3270     7.9340     6.8250     8.5080   689.4840
 1145.0000     9.6690   119.7940     0.2270     2.5480     0.3130   660.1140   -88.4690     7.8530     6.7290     8.4100   689.4840
 1145.5000     9.7210   119.8760     0.2070     2.5270     0.3180   659.6590   -88.7510     7.7720     6.6320     8.3120   689.4840
 1146.0000     9.5620   120.0060     0.2020     2.5100     0.3220   659.2050   -89.0270     7.6910     6.5350     8.2140   689.4840
 1146.5000     9.4130   120.1030     0.2050     2.4960     0.3150   661.9590   -89.3170     7.6100     6.4380     8.1160   689.4840
 1147.0000     9.4080   119.4120     0.1990     2.4750     0.3050   666.0890   -89.1210     7.5290     6.3900     8.0280   689.4840
 1147.5000     9.3730   116.0770     0.1800     2.4570     0.3020   664.0240   -88.7540     7.4480     6.3300     7.9550   689.4840
 1148.0000     9.2190   113.2030     0.1500     2.4520     0.3100   659.7000   -88.3810     7.3670     6.2640     7.8800   689.4840
 1148.5000     9.0700   113.5070     0.0840     2.4550     0.3330   660.4020   -88.0080     7.2860     6.1970     7.8720   689.4840
 1149.0000     9.0860   115.8440     0.0470     2.4780     0.3550   661.1030   -87.6360     7.2040     6.1310     7.8650   689.4840
 1149.5000     9.0190   118.1100     0.0330     2.5060     0.3590   661.8050   -87.2650     7.1230     6.0650     7.8570   689.4840
 1150.0000     8.9380   120.0480     0.0270     2.5230     0.3490   662.5070   -86.9600     7.0420     5.9980     7.8490   689.4840
 1150.5000     8.8550   118.5510     0.0210     2.5200     0.3280   663.2080   -86.8200     6.9610     5.9320     7.8410   689.4840
 1151.0000     8.8340   115.0330     0.0160     2.5060     0.3310   663.9100   -86.6780     6.9370     5.8860     7.8340   689.4840
 1151.5000     8.8330   112.9600     0.0140     2.5050     0.3380   664.6120   -86.5740     6.9540     5.8960     7.8260   689.4840
 1152.0000     8.8330   115.1030     0.0190     2.5140     0.3440   665.3130   -86.5090     6.9670     5.9070     7.8180   689.4840
 1152.5000     8.8330   118.5410     0.0240     2.5260     0.3390   666.0150   -86.4430     6.9800     5.9170     7.8110   689.4840
 1153.0000     8.8330   120.4690     0.0220     2.5260     0.3300   666.7170   -86.6420     6.9930     5.9280     7.7560   689.4840
 1153.5000     8.8360   119.3460     0.0210     2.5220     0.3210   667.4180   -87.0940     7.0060     5.9390     7.6780   689.4840
 1154.0000     8.8780   118.0410     0.0270     2.5270     0.3190   668.1200   -87.5350     7.0190     5.9500     7.6000   689.4840
 1154.5000     8.9200   117.7760     0.0400     2.5340     0.3380   668.8220   -87.9960     7.0320     5.9610     7.5310   689.4840
 1155.0000     8.9620   118.0750     0.0440     2.5400     0.3550   669.5240   -88.3830     7.0450     5.9720     7.4620   689.4840
 1155.5000     8.9890   117.3770     0.0480     2.5410     0.3680   670.2250   -88.3150     7.0570     5.9830     7.5150   689.4840
 1156.0000     9.0110   116.4010     0.0490     2.5380     0.3620   670.9270   -88.2420     7.0700     5.9940     7.6150   689.4840
 1156.5000     8.9960   115.9580     0.0460     2.5310     0.3450   671.6290   -88.1710     7.0830     6.0470     7.7150   689.4840
 1157.0000     8.9440   116.7170     0.0400     2.5240     0.3280   672.3300   -88.1010     7.0960     6.1040     7.8150   689.4840
 1157.5000     8.8750   117.1530     0.0360     2.5210     0.3270   673.0320   -88.0310     7.1090     6.1610     7.9680   689.4840
 1158.0000     8.9090   115.8430     0.0310     2.5180     0.3280   673.7340   -88.1750     7.1220     6.2180     8.0690   689.4840
 1158.5000     8.9480   114.5640     0.0230     2.5100     0.3220   674.4350   -88.5050     7.1350     6.2740     8.1690   689.4840
 1159.0000     8.9320   114.0040     0.0100     2.5000     0.3220   675.1370   -88.8390     7.1480     6.3310     8.2700   689.4840
 1159.5000     8.9100   114.7290     0.0040     2.4970     0.3260   675.8390   -89.1670     7.1610     6.3880     8.3710   689.4840
 1160.0000     8.8880   116.8160     0.0070     2.5120     0.3360   676.5400   -88.7710     7.1740     6.4480     8.4710   689.4840
 1160.5000     8.8660   119.2060     0.0170     2.5280     0.3460   677.2420   -88.3200     7.1870     6.4310     8.5580   689.4840
 1161.0000     8.8530   120.6110     0.0240     2.5440     0.3390   677.9440   -87.8680     7.2000     6.4120     8.4650   689.4840
 1161.5000     8.8560   121.4150     0.0260     2.5470     0.3320   678.6460   -87.4190     7.2130     6.3930     8.3390   689.4840
 1162.0000     8.8590   121.6440     0.0200     2.5410     0.3360   679.3470   -87.3560     7.2260     6.3740     8.2140   691.1730
 1162.5000     8.8610   121.8900     0.0130     2.5250     0.3410   680.0490   -87.3040     7.2390     6.3550     8.0890   692.8000
 1163.0000     8.8640   122.0660     0.0080     2.5160     0.3350   680.7510   -87.2490     7.2520     6.3360     7.9640   694.4270
 1163.5000     8.8670   120.5610     0.0150     2.5160     0.3250   681.4520   -87.1580     7.2650     6.3170     7.8830   696.0540
 1164.0000     8.8700   118.5440     0.0210     2.5240     0.3110   682.1540   -86.8750     7.2780     6.2980     7.9390   697.6820
 1164.5000     8.8720   114.7600     0.0180     2.5260     0.3190   682.8560   -86.5910     7.2910     6.2790     7.9970   699.3090
 1165.0000     8.8750   115.1950     0.0120     2.5180     0.3340   683.5570   -86.3710     7.3040     6.2600     8.0560   700.9360
 1165.5000     8.8780   116.4590     0.0070     2.5100     0.3460   684.2590   -86.2750     7.3150     6.2410     8.1150   702.5630
 1166.0000     8.8800   117.0930     0.0100     2.5120     0.3360   684.9610   -86.2640     7.3950     6.2170     8.1760   704.1900
 1166.5000     8.8830   116.8130     0.0140     2.5260     0.3180   685.6620   -86.4190     7.3640     6.2740     8.1760   705.8180
 1167.0000     8.8860   114.3010     0.0180     2.5290     0.3210   686.3640   -86.5700     7.3330     6.2330     8.1570   707.4450
 1167.5000     8.8880   111.7990     0.0190     2.5260     0.3240   687.0660   -86.7500     7.3020     6.2060     8.1370   709.0720
 1168.0000     8.8910   110.6400     0.0180     2.5180     0.3310   687.7670   -86.9380     7.2700     6.1790     8.1180   710.6990
 1168.5000     8.8960   112.6960     0.0150     2.5060     0.3380   688.4690   -87.1250     7.2390     6.1530     8.0280   712.3260
 1169.0000     8.9090   114.9090     0.0090     2.4940     0.3460   689.1710   -87.4360     7.2080     6.1260     8.0280   713.9540
