~VERSION INFORMATION
 VERS.                2.0:   CWLS LOG ASCII STANDARD - VERSION 2.0
 WRAP.                 NO:   ONE LINE PER DEPTH STEP
~WELL INFORMATION
#MNEM.UNIT      DATA TYPE    INFORMATION
#----------   ------------   ------------------------------
 STRT.F          500.0000:   START DEPTH
 STOP.F         2517.0000:   STOP DEPTH
 STEP.F            0.5000:   STEP LENGTH
 NULL.          -999.2500:   NO VALUE
 COMP.    FENIX & SCISSON:   COMPANY
 WELL. FENIX & SCISSON SHX #46-33:   WELL
 FLD .  TEAPOT DOME NPR-3:   FIELD
 LOC .      S33 T39N R78W:   LOCATION
 CNTY.            NATRONA:   COUNTY
 STAT.            WYOMING:   STATE
 CTRY. UNITED STATES OF AMERICA:   COUNTRY
 SRVC.           BIRDWELL:   SERVICE COMPANY
 DATE.        04-APR-1979:   LOGDATE
 API .     49025107670000:   API NUMBER
~CURVE INFORMATION
#MNEM.UNIT       API CODE    CURVE DESCRIPTION
#----------   ------------   ------------------------------
 DEPT.F                  :   
 GRD .GAPI   45 310 01 00:   GAMMA RAY FROM DENSITY LOG
 CALD.IN     45 280 60 00:   CALIPER FROM DENSITY LOG
 CORR.G/C3   45 356 01 00:   DENSITY CORRECTION
 RHOB.G/C3   45 350 01 00:   BULK DENSITY
~PARAMETER INFORMATION
#MNEM.UNIT          VALUE    DESCRIPTION
#----------   ------------   ------------------------------
 EKB .F         5217.0000:   Kelly bushing
 EGL .F         5207.0000:   Ground level
 EDF .F            0.0000:   Drilling floor
 TD  .F         2630.0000:   Total depth
 CLNT.            A2DTECH:   Client Code
 SL  . 1955' FSL & 1970' FWL:   Surface Location
 PD  .                 GL:   Permanent Datum
 EPD .F              5207:   Elevation Permanent Datum
 LMF .                 KB:   Log Measured From
 DMF .                 KB:   Drilling Measured From
 DAPD.                 10:   Feet Above Permanent Datum
 DATE.        04-APR-1979:   Date Logged [DD-MMM-YYYY]
 DD  .F              2630:   Depth driller
 DL  .F              2517:   Depth logger
 BLI .F              2517:   Bottom log interval
 TLI .F               504:   Top log interval
 CS1 .              9.625:   Casing size
 CBD1.      9.625" @ 300':   Casing driller 1
 CBL1.IN              306:   Casing logger 1
 BS1 .IN            7.875:   Bit size
 BSD1.F              2630:   Depth drilled with bit1
 DFT .                OIL:   Type fluid in hole
 LUL .             CASPER:   Logging unit location
 ENGI.            ROLLINS:   Recorded By
 ORIG.           5" PRINT:   Origin of data
 UWI .     49025107670000:   Unique Well ID
 DICO. A2D TECHNOLOGIES ,INC.:   Digitizing Company
 WITN.              AMUND:   Witnessed by
~OTHER INFORMATION
~A   DEPT      GRD       CALD       CORR       RHOB   
# ...
  865.0000    22.7767    10.2037     0.1896     2.6092
  865.5000    22.6483    10.2039     0.2142     2.6071
  866.0000    21.7688    10.2042     0.2236     2.6169
  866.5000    24.0178    10.2045     0.2298     2.6230
  867.0000    24.3270    10.1898     0.2330     2.6216
  867.5000    22.4155    10.1902     0.2057     2.6111
  868.0000    21.6887    10.1904     0.1798     2.5961
  868.5000    22.2991    10.2057     0.1677     2.5887
  869.0000    24.3955    10.2060     0.1663     2.5902
  869.5000    25.8993    10.2213     0.1680     2.5978
  870.0000    25.1813    10.2216     0.1697     2.5915
  870.5000    21.7692    10.2368     0.1684     2.5859
  871.0000    22.1110    10.2371     0.1716     2.5950
  871.5000    22.6969    10.2397     0.1870     2.6169
  872.0000    23.0102    10.2528     0.1994     2.6343
  872.5000    21.6890    10.2530     0.2041     2.6359
  873.0000    16.9503    10.2833     0.2073     2.6359
  873.5000    14.8862    10.3734     0.2075     2.6375
  874.0000    17.4283    10.2839     0.1966     2.6233
  874.5000    21.3077    10.2392     0.1831     2.6143
  875.0000    25.1871    10.2395     0.1769     2.6106
  875.5000    24.6088    10.2248     0.1729     2.6092
  876.0000    24.3237    10.2101     0.1808     2.6047
  876.5000    23.7489    10.2105     0.2023     2.6123
  877.0000    20.3481    10.2108     0.1994     2.6177
  877.5000    18.2839    10.2111     0.1843     2.6178
  878.0000    20.8539    10.2114     0.1829     2.6110
  878.5000    22.9485    10.2117     0.1846     2.5944
  879.0000    23.8743    10.2120     0.1878     2.5908
  879.5000    25.4846    10.1973     0.1986     2.5941
  880.0000    26.6894    10.1976     0.2095     2.6015
  880.5000    26.4084    10.1829     0.2158     2.6046
  881.0000    23.8985    10.1682     0.2067     2.5994
  881.5000    24.0631    10.1535     0.1962     2.5949
  882.0000    24.2278    10.1389     0.1841     2.6018
  882.5000    22.7581    10.1242     0.1858     2.6116
  883.0000    19.9510    10.1246     0.1966     2.6117
  883.5000    19.2201    10.1099     0.2197     2.6110
  884.0000    21.0233    10.0952     0.2398     2.6179
  884.5000    20.4451    10.0805     0.2476     2.6202
  885.0000    21.0555    10.0808     0.2477     2.6195
  885.5000    25.3807    10.0812     0.2463     2.6286
  886.0000    26.7341    10.0815     0.2404     2.6422
  886.5000    23.7100    10.0968     0.1931     2.6340
  887.0000    20.0327    10.0970     0.1749     2.6250
  887.5000    19.3530    10.1123     0.1613     2.6198
  888.0000    19.2245    10.1126     0.1569     2.6245
  888.5000    19.3892    10.1129     0.1586     2.6299
  889.0000    20.2968    10.1132     0.1587     2.6336
  889.5000    18.0841    10.1135     0.1558     2.6276
  890.0000    13.4940    10.0689     0.1608     2.6367
  890.5000    13.0603    10.0692     0.1793     2.6481
  891.0000    13.5262    10.0695     0.1872     2.6527
  891.5000    15.0282    10.0698     0.1995     2.6557
  892.0000    18.6104    10.0700     0.2073     2.6566
  892.5000    18.9196    10.0704     0.2133     2.6566
  893.0000    17.8997    10.0707     0.2135     2.6552
  893.5000    18.8073    10.0710     0.2090     2.6530
  894.0000    22.3895    10.0713     0.2000     2.6455
  894.5000    22.7028    10.0716     0.1894     2.6253
  895.0000    21.8079    10.0719     0.1759     2.6133
  895.5000    20.1341    10.0722     0.1653     2.6119
  896.0000    17.9416    10.0874     0.1578     2.6089
  896.5000    18.6108    10.0877     0.1473     2.6015
  897.0000    19.3698    10.0731     0.1398     2.5955
  897.5000    19.6791    10.0584     0.1231     2.5880
  898.0000    18.9522    10.0587     0.1340     2.5954
  898.5000    22.8356    10.0423     0.1830     2.6083
  899.0000    23.7433    10.0293     0.1939     2.6139
  899.5000    22.4221    10.0147     0.2048     2.6147
  900.0000    19.9122    10.0150     0.2508     2.6464
  900.5000    17.2537    10.0153     0.2815     2.6517
  901.0000    15.9325    10.0157     0.2557     2.6367
  901.5000    16.8401    10.0174     0.2252     2.6360
  902.0000    19.8280    10.0191     0.2009     2.6361
  902.5000    15.8322    10.0208     0.1916     2.6347
  903.0000    10.8067    10.0071     0.1692     2.6324
  903.5000     9.4827     9.9934     0.1571     2.6295
  904.0000    11.8824     9.9946     0.1650     2.6296
  904.5000    13.3861     9.9782     0.1682     2.6487
  905.0000    13.9982     9.9670     0.1684     2.6450
  905.5000    14.0160     9.9532     0.1624     2.6180
  906.0000    15.6683     9.9697     0.1610     2.6030
  906.5000    17.6133     9.9709     0.1597     2.6069
  907.0000    14.5152     9.9870     0.1599     2.6123
  907.5000    13.6370     9.9882     0.1692     2.6146
  908.0000    17.0768     9.9894     0.1892     2.6154
  908.5000    17.3918     9.9906     0.1986     2.6148
  909.0000    18.3011    10.0068     0.2186     2.6164
  909.5000    22.4794    10.0080     0.2310     2.6345
  910.0000    21.7542    10.0092     0.2281     2.6760
  910.5000    21.0282    10.0104     0.2023     2.6565
  911.0000    21.3441    10.0115     0.1872     2.6340
  911.5000    20.9161    10.0127     0.2011     2.6371
  912.0000    19.5966    10.0139     0.2426     2.6463
  912.5000    19.3165    10.0151     0.2672     2.6479
  913.0000    23.1983    10.0163     0.2750     2.6547
  913.5000    24.2785    10.0175     0.2782     2.6586
  914.0000    23.8283    10.0486     0.2799     2.6496
  914.5000    22.8060    10.0648     0.2786     2.6497
  915.0000    20.7435    10.0660     0.2696     2.6498
  915.5000    19.5726    10.0519     0.2575     2.6499
  916.0000    19.1442    10.0381     0.2470     2.6492
  916.5000    24.5116    10.0244     0.2380     2.6471
  917.0000    27.5012    10.0109     0.2244     2.6314
  917.5000    28.2913     9.9971     0.2137     2.6330
  918.0000    25.9023     9.9983     0.2031     2.6338
  918.5000    22.5026    10.0144     0.1974     2.6331
  919.0000    20.2916    10.0156     0.1928     2.6332
  919.5000    20.9037    10.0168     0.1916     2.6326
  920.0000    24.0419    10.0330     0.1870     2.6288
  920.5000    24.0597    10.0492     0.1810     2.6235
  921.0000    24.2261    10.0803     0.1734     2.6178
  921.5000    25.8784    10.0964     0.1623     2.6109
  922.0000    31.2453    10.0976     0.1481     2.6020
  922.5000    33.7892    10.1138     0.1682     2.6076
  923.0000    31.8753    10.1150     0.1897     2.6254
  923.5000    30.1100    10.1162     0.1991     2.6349
  924.0000    28.7906    10.1323     0.1671     2.6252
  924.5000    26.8767    10.1335     0.1535     2.6177
  925.0000    24.5171    10.1347     0.1568     2.6185
  925.5000    22.0078    10.1512     0.1615     2.6171
  926.0000    21.8781    10.1671     0.1831     2.6164
  926.5000    22.4934    10.1832     0.1985     2.6260
  927.0000    22.9539    10.1844     0.2002     2.6324
  927.5000    23.4276    10.2006     0.2065     2.6355
  928.0000    24.9387    10.2167     0.2113     2.6401
  928.5000    26.1347    10.2179     0.2130     2.6470
  929.0000    25.5193    10.2191     0.2147     2.6546
  929.5000    21.9315    10.2177     0.2148     2.6607
  930.0000    17.6616    10.1766     0.2150     2.6630
  930.5000    16.5405    10.1628     0.2198     2.6240
  931.0000    19.4534    10.1490     0.2367     2.6196
  931.5000    22.2743    10.1505     0.2843     2.6355
  932.0000    24.3209    10.1364     0.3212     2.6679
  932.5000    22.0802    10.1227     0.3244     2.6861
  933.0000    21.6661    10.1089     0.3185     2.6967
  933.5000    21.0886    10.0804     0.2819     2.6961
  934.0000    18.8409    10.0664     0.2423     2.6683
  934.5000    18.1688    10.0679     0.1966     2.6315
  935.0000    19.7324    10.0690     0.1708     2.6203
  935.5000    19.6493    10.0702     0.1725     2.6167
  936.0000    19.2623    10.1163     0.1788     2.6160
  936.5000    20.8122    10.2073     0.1912     2.6206
  937.0000    19.7739    10.2382     0.1975     2.6229
  937.5000    18.7214    10.0600     0.1823     2.6200
