~VERSION INFORMATION
 VERS.                2.0:   CWLS LOG ASCII STANDARD - VERSION 2.0
 WRAP.                 NO:   ONE LINE PER DEPTH STEP
~WELL INFORMATION
#MNEM.UNIT      DATA TYPE    INFORMATION
#----------   ------------   ------------------------------
 STRT.F          200.0000:   START DEPTH
 STOP.F         3120.0000:   STOP DEPTH
 STEP.F            0.5000:   STEP LENGTH
 NULL.          -999.2500:   NO VALUE
 COMP.    FENIX & SCISSON:   COMPANY
 WELL. FENIX NPR 3 "AX" #83-28:   WELL
 FLD .                NPR:   FIELD
 LOC .      S28 T39N R78W:   LOCATION
 CNTY.            NATRONA:   COUNTY
 STAT.            WYOMING:   STATE
 CTRY. UNITED STATES OF AMERICA:   COUNTRY
 SRVC.              WELEX:   SERVICE COMPANY
 DATE.        29-SEP-1977:   LOGDATE
 API .     49025104240000:   API NUMBER
~CURVE INFORMATION
#MNEM.UNIT       API CODE    CURVE DESCRIPTION
#----------   ------------   ------------------------------
 DEPT.F                  :   
 CALD.IN     45 280 60 00:   CALIPER FROM DENSITY LOG
 GRD .GAPI   45 310 01 00:   GAMMA RAY FROM DENSITY LOG
 RHOB.G/C3   45 350 01 00:   BULK DENSITY
 CORR.G/C3   45 356 01 00:   DENSITY CORRECTION
 SPR .MV     07 010 01 00:   SPONTANEOUS POTENTIAL
 SGRD.MV     07 220 05 00:   SHLLOW GUARD
 ILD .OHMM   07 120 46 00:   DEEP INDUCTION RESISTIVITY
 ILM .OHMM   07 120 44 00:   INDUCTION LOG MEDIUM RESISTIVITY
~PARAMETER INFORMATION
#MNEM.UNIT          VALUE    DESCRIPTION
#----------   ------------   ------------------------------
 EKB .F         5034.0000:   Kelly bushing
 EGL .F         5024.0000:   Ground level
 TD  .F         3110.0000:   Total depth
 DATE.        29-SEP-1977:   Date logged
 CLNT.            A2DTECH:   Client Code
 SL  . 1650' FNL & 330' FEL:   Surface Location
 PD  .                 GL:   Permanent Datum
 EPD .F              5024:   Elevation Permanent Datum
 LMF .                 KB:   Log Measured From
 DMF .                 KB:   Drilling Measured From
 DAPD.F                10:   Feet Above Permanent Datum
 DD  .F              3110:   Depth driller
 DL  .F              3110:   Depth logger
 BLI .F              3108:   Bottom log interval
 TLI .F               210:   Top log interval
 CS1 .IN            8.625:   Casing size
 CBD1.      8.625" @ 201':   Casing driller 1
 CBL1.F               210:   Casing logger 1
 BS1 .IN            7.875:   Bit size
 BSD1.F              3110:   Depth drilled with bit1
 DFT .          KCL/WATER:   Type fluid in hole
 DFD .                  9:   Density
 DFV .                 40:   Viscosity
 DFPH.                 11:   pH
 DFL .                6.4:   Fluid loss
 MSS .            MUD/PIT:   Source of sample
 RMS .OHMM            .56:   Rm
 MST .F                60:   Rm Meas. temp.
 RMF .OHMM            .34:   Rmf
 MFST.F                60:   Rmf Meas. temp.
 RMC .OHMM            .61:   Rmc
 MCST.F                60:   Rmc Meas. temp.
 MFSS.               MEAS:   Source Rmf.
 MCSS.               MEAS:   Source Rmc.
 RMB .OHMM            .28:   Rm. at BHT
 BHT .F               120:   BHT.
 TCS .HRS               3:   Time Circ. stopped
 MRT .F               120:   Maximum recorded temp.
 LUN .               9685:   Logging unit number
 LUL .             CASPER:   Logging unit location
 ENGI. G. BENTSEN/T. JOYNER:   Recorded By
 WITN.         PETTINGILL:   Witnessed by
 ORIG.   1" 2.5" 5" PRINT:   Origin of data
 UWI .     49025104240000:   Unique Well ID
 DICO. A2D TECHNOLOGIES, INC.:   Digitizing Company
~OTHER INFORMATION
~A   DEPT     CALD         GRD      RHOB       CORR        SPR       SGRD        ILD        ILM   
# ...
 2711.0000     8.9363   106.9469     2.5275     0.0590   -66.0229     7.3601     5.3293     6.3515
 2711.5000     8.9360   106.9405     2.5235     0.0550   -66.2252     7.3573     5.2305     6.3484
 2712.0000     8.9355   106.1404     2.5136     0.0431   -66.4282     7.3562     5.1808     6.3464
 2712.5000     8.9352   105.3435     2.5155     0.0431   -66.6313     7.2863     5.1319     6.2871
 2713.0000     8.9347   105.3339     2.5096     0.0430   -66.8352     7.1512     5.1310     6.2857
 2713.5000     8.9344   106.1181     2.5056     0.0391   -67.0382     7.0186     5.1294     6.2830
 2714.0000     8.9339   104.5274     2.5056     0.0430   -67.2421     6.8881     5.1277     6.2813
 2714.5000     8.9336   106.1021     2.5115     0.0430   -66.8475     6.8869     5.1266     6.2803
 2715.0000     8.9331   106.8830     2.5154     0.0430   -66.8514     6.8840     5.1250     6.2776
 2715.5000     8.9328   106.8766     2.5194     0.0429   -66.8553     6.8189     5.1233     6.2763
 2716.0000     8.8928   107.6576     2.5194     0.0429   -66.8591     6.8175     5.1225     6.2749
 2716.5000     8.8924   109.2322     2.5154     0.0389   -66.6646     6.8160     5.1208     6.2726
 2717.0000     8.8129   109.2226     2.5134     0.0429   -66.6684     6.8134     5.1194     6.2712
 2717.5000     8.8126   110.7973     2.5114     0.0428   -66.6715     6.8120     5.1183     6.2695
 2718.0000     8.8121   109.9972     2.5213     0.0468   -66.8754     6.8101     5.1641     6.2682
 2718.5000     8.8118   109.9908     2.5312     0.0507   -67.2777     7.3972     5.2586     6.2655
 2719.0000     8.7718   109.1907     2.5431     0.0507   -67.4800     7.8156     5.3059     6.2641
 2719.5000     8.7715   109.1843     2.5431     0.0507   -67.6838     7.9590     5.3533     6.2631
 2720.0000     8.7710   106.0126     2.5431     0.0546   -67.6877     7.9568     5.3519     6.2608
 2720.5000     8.7707   105.2157     2.5391     0.0506   -67.4923     7.4573     5.3510     6.2591
 2721.0000     8.7703   104.4188     2.5311     0.0506   -66.6994     7.3190     5.3490     6.2581
 2721.5000     8.8489   102.8282     2.5311     0.0545   -66.5041     7.0520     5.3481     6.1986
 2722.0000     8.8091   105.1934     2.5291     0.0506   -66.1087     6.8577     5.2484     6.1390
 2722.5000     8.8086   106.7648     2.5252     0.0505   -65.3173     6.7933     5.1508     6.0814
 2723.0000     8.8083   109.1300     2.5251     0.0505   -64.7228     6.6054     5.0091     5.9138
 2723.5000     8.8473   111.4919     2.5251     0.0505   -63.9307     6.5437     4.9160     5.8576
 2724.0000     8.8076   111.4856     2.5311     0.0544   -63.1385     6.4220     4.7366     5.7490
 2724.5000     8.8070   113.0570     2.5330     0.0544   -63.1416     6.3029     4.6919     5.6953
 2725.0000     8.8067   113.8411     2.5290     0.0544   -63.1462     6.1861     4.5626     5.6409
 2725.5000     8.7667   113.8315     2.5290     0.0583   -63.1501     6.1837     4.5195     5.5879
 2726.0000     8.8059   113.8252     2.5290     0.0583   -62.7556     6.1253     4.5180     5.5861
 2726.5000     8.8054   113.8156     2.5290     0.0583   -62.1618     6.1237     4.5587     5.5846
 2727.0000     8.8052   113.8092     2.5250     0.0543   -61.5681     6.1220     4.6423     5.6345
 2727.5000     8.8441   116.1712     2.5250     0.0543   -60.7759     6.1207     4.7280     5.7913
 2728.0000     8.7648   113.7932     2.5210     0.0542   -60.5798     6.2904     4.9038     6.1189
 2728.5000     8.7643   112.2026     2.5170     0.0423   -60.1853     6.5250     5.0395     6.1749
 2729.0000     8.7640   112.1962     2.5051     0.0423   -60.1899     6.7688     5.2281     6.5235
 2729.5000     8.7635   110.6056     2.5111     0.0422   -60.5922     7.9883     5.6266     6.7669
 2730.0000     8.7632   111.3897     2.5051     0.0422   -60.5968    11.0291     6.2838     7.2162
 2730.5000     8.7235   109.0118     2.5051     0.0422   -60.6007    11.3355     6.6396     7.5544
 2731.0000     8.7228   105.8402     2.5051     0.0422   -60.6045    11.5434     7.0151     8.0565
 2731.5000     8.7620   105.8338     2.5050     0.0461   -60.6084    11.5416     7.3443     8.2039
 2732.0000     8.7616   105.8242     2.4971     0.0421   -60.6123    11.5372     7.6888     8.3548
 2732.5000     8.7612   104.2368     2.4931     0.0381   -60.6162    11.3245     8.0483     8.6665
 2733.0000     8.7608   101.8557     2.4911     0.0381   -61.2176    11.1139     8.1215     8.9063
 2733.5000     8.7998   101.0588     2.4931     0.0341   -61.2223    10.9078     8.1946     8.9869
 2734.0000     8.7995   105.0017     2.4950     0.0420   -61.6245    10.8036     8.1924     8.9850
 2734.5000     8.7991   104.2048     2.4950     0.0460   -61.6284    10.7015     8.1902     8.8991
 2735.0000     8.7987   104.1953     2.4950     0.0499   -61.6323    10.6004     8.0383     8.6544
 2735.5000     8.7985   104.1889     2.5009     0.0499   -61.6362    10.5987     7.8893     8.5726
 2736.0000     8.7979   104.1793     2.5069     0.0499   -61.0447    10.5947     7.7430     8.1840
 2736.5000     8.7976   105.3507     2.5128     0.0538   -61.0455    10.5919     7.3916     7.7405
 2737.0000     8.7576   103.8744     2.5168     0.0538   -61.0509    10.0189     7.1219     7.4585
 2737.5000     8.7573   102.3981     2.5168     0.0458   -61.2540     8.7216     6.8621     7.2534
 2738.0000     8.7568   101.3758     2.5167     0.0498   -61.4571     7.7340     6.6730     7.0528
 2738.5000     8.7565    99.7097     2.5147     0.0458   -61.8593     6.8578     6.6716     6.9861
 2739.0000     8.7955    98.0436     2.5108     0.0418   -61.8632     7.1140     6.7933     7.2471
 2739.5000     8.8347    98.5914     2.5107     0.0418   -62.0655     8.3195     6.9827     7.6570
 2740.0000     8.7947    99.3723     2.5167     0.0378   -62.6670    10.2823     7.2425     8.1655
 2740.5000     8.8339    99.3659     2.5127     0.0377   -62.6724    12.0246     7.5827     8.5482
 2741.0000     8.8731    99.3596     2.5286     0.0377   -62.6755    12.2452     7.8651     8.8675
 2741.5000     8.8726    98.5595     2.5365     0.0377   -62.8793    12.4699     8.0102     9.0297
 2742.0000     8.9118    96.1815     2.5464     0.0416   -63.0824    12.4665     8.3852     9.0283
 2742.5000     8.9114    93.0099     2.5524     0.0456   -63.0863    12.2353     8.5390     9.1095
 2743.0000     8.9110    90.6320     2.5563     0.0416   -63.0901    12.0085     8.6158     9.1909
 2743.5000     8.9106    89.0414     2.5583     0.0416   -63.0948    12.5698     8.6135     9.1880
 2744.0000     8.9498    89.0350     2.5623     0.0455   -63.0987    12.5692     8.4533     9.1855
 2744.5000     8.9098    92.1874     2.5583     0.0455   -63.1025    10.5447     8.2204     9.1825
 2745.0000     8.9094    96.1336     2.5583     0.0455   -63.1064     9.4363     7.6336     8.8480
 2745.5000     8.9090   100.0766     2.5543     0.0415   -63.1103     8.7641     7.2876     8.2921
 2746.0000     8.9086   101.6512     2.5503     0.0414   -63.1141     8.4439     6.8301     7.7715
 2746.5000     8.9082   106.3847     2.5443     0.0375   -63.1180     7.9871     6.5816     7.3515
 2747.0000     8.9079   107.1689     2.5383     0.0414   -63.1226     7.4170     6.2246     6.8260
 2747.5000     8.9074   111.9024     2.5343     0.0453   -63.1265     6.9510     6.0531     6.6383
 2748.0000     8.9071   113.4770     2.5343     0.0493   -63.1304     6.9491     5.9408     6.5149
 2748.5000     8.9066   113.4674     2.5403     0.0532   -63.1342     7.0116     5.8850     6.5131
 2749.0000     8.9063   113.4610     2.5482     0.0532   -63.1381     7.2736     5.8831     6.6326
 2749.5000     8.9058   115.8230     2.5542     0.0572   -63.1420     7.3394     5.8815     6.6930
 2750.0000     8.9055   113.4451     2.5561     0.0571   -63.1466     7.4050     6.1569     7.0062
 2750.5000     8.9051   111.8577     2.5561     0.0571   -63.1506     7.5746     6.2131     7.2227
 2751.0000     8.9047   107.1050     2.5561     0.0571   -63.1515     7.7510     6.3863     7.6093
