~VERSION INFORMATION
 VERS.                2.0:   CWLS LOG ASCII STANDARD - VERSION 2.0
 WRAP.                 NO:   ONE LINE PER DEPTH STEP
~WELL INFORMATION
#MNEM.UNIT      DATA TYPE    INFORMATION
#----------   ------------   ------------------------------
 STRT.F           30.0000:   START DEPTH
 STOP.F         5698.0000:   STOP DEPTH
 STEP.F            0.5000:   STEP LENGTH
 NULL.          -999.2500:   NO VALUE
 COMP. LAWRRENCE-ALLISON & ASSOCIATES:   COMPANY
 WELL. LAWERNCE "X" #41-3:   WELL
 FLD .           N P R #3:   FIELD
 LOC .       S3 T38N R78W:   LOCATION
 CNTY.            NATRONA:   COUNTY
 STAT.            WYOMING:   STATE
 CTRY. UNITED STATES OF AMERICA:   COUNTRY
 SRVC.      DRESSER ATLAS:   SERVICE COMPANY
 DATE.        04-JUN-1983:   LOGDATE
 API .     49025109200000:   API NUMBER
~CURVE INFORMATION
#MNEM.UNIT       API CODE    CURVE DESCRIPTION
#----------   ------------   ------------------------------
 DEPT.F                  :   
 TENS.LBS    60 635 01 00:   TENSION FROM SONIC
 DT  .US/F   60 520 00 00:   DELTA TIME
 SPR .MV     11 010 01 00:   SPONTANEOUS POTENTIAL FROM RES.
 TENR.LBS    11 635 01 00:   TENSION FROM RES. LOG
 GRR .GAPI   11 310 01 00:   GAMMA RAY FROM RES.
 CALR.IN     11 280 01 00:   CALIPER FROM RES.
 RMLL.OHMM   11 270 04 00:   MICRO LATEROLOG
 RD  .OHMM   11 220 10 00:   RESISTIVITY DEEP
 RS  .OHMM   11 220 09 00:   RESISTIVITY SHALLOW
 TEND.LBS    45 635 01 00:   TENSION FROM DENSITY LOG
 CORR.G/C3   45 356 01 00:   DENSITY CORRECTION
 RHOB.G/C3   45 350 01 00:   BULK DENSITY
 NPHI.DEC    42 890 03 00:   NEUTRON POROSITY SANDSTONE
~PARAMETER INFORMATION
#MNEM.UNIT          VALUE    DESCRIPTION
#----------   ------------   ------------------------------
 EKB .F         5157.5000:   Kelly bushing
 EGL .F         5147.5000:   Ground level
 EDF .F            0.0000:   Drilling floor
 TD  .F         5690.0000:   Total depth
 DATE.        04-JUN-1983:   Date logged
 CLNT.            A2DTECH:   Client Code
 SL  . 2218' FWL & 287' FNL:   Surface Location
 PD  .                 GL:   Permanent Datum
 EPD .F            5147.5:   Elevation Permanent Datum
 LMF .                 KB:   Log Measured From
 DMF .                 KB:   Drilling Measured From
 DD  .F              5690:   Depth driller
 DL  .F              5685:   Depth logger
 BLI .F              5682:   Bottom log interval
 CS1 .IN            9.625:   Casing size
 CBD1.       9.625 @ 568':   Casing driller 1
 CBL1.F               568:   Casing logger 1
 BS1 .IN             8.75:   Bit size
 DFT .        KCL-DRISPAC:   Type fluid in hole
 DFD .                9.1:   Density
 DFV .                 37:   Viscosity
 DFPH.                  8:   pH
 DFL .                3.8:   Fluid loss
 MSS .               TANK:   Source of sample
 RMS .OHMM           0.41:   Rm
 MST .F                75:   Rm Meas. temp.
 RMF .OHMM           0.28:   Rmf
 MFST.F                70:   Rmf Meas. temp.
 RMC .OHMM           0.53:   Rmc
 MCST.F                75:   Rmc Meas. temp.
 MFSS.               MEAS:   Source Rmf.
 RMB .OHMM           0.18:   Rm. at BHT
 BHT .F               160:   BHT.
 TCS .HRS               5:   Time Circ. stopped
 MRT .F               166:   Maximum recorded temp.
 LUN .               6274:   Logging unit number
 LUL .               GLTE:   Logging unit location
 ENGI.             RAUTIO:   Recorded By
 WITN.             STRONG:   Witnessed by
 ORIG.     2.5", 5" PRINT:   Origin of data
 UWI .     49025109200000:   Unique Well ID
 DICO. A2D TECHNOLOGIES, INC.:   Digitizing Company
 MCSS.               CALC:   Source Rmc.
 DAPD.                 10:   Feet Above Permanent Datum
 BSD1.               5690:   Depth drilled with bit1
~OTHER INFORMATION
~A   DEPT     TENS         DT        SPR       TENR         GRR      CALR       RMLL         RD         RS       TEND       CORR       RHOB       NPHI   
# ...
 2266.0000  -999.2500  -999.2500   -85.9960   -60.2350    96.8950    10.0730     4.9970     4.9390     4.8430   -56.7290     0.1300     2.4910     0.3310
 2266.5000  -999.2500  -999.2500   -85.7320   -60.0220    97.1330    10.0680     3.8820     4.0930     4.3220   -53.7410     0.1600     2.4540     0.3120
 2267.0000  -999.2500  -999.2500   -85.6300   -59.8100    95.3150    10.0630     2.2100     4.1310     4.1680   -50.7530     0.1780     2.4310     0.2990
 2267.5000  -999.2500  -999.2500   -85.5080   -59.5970    93.5990    10.0590     2.2100     4.8510     4.1680   -47.7650     0.1360     2.4350     0.2830
 2268.0000  -999.2500  -999.2500   -85.3820   -59.3860    93.1780    10.0540     2.6970     5.7040     5.0790   -44.7760     0.0790     2.4670     0.2720
 2268.5000  -999.2500  -999.2500   -85.2620   -59.1700    93.5990    10.0490     4.8740     6.5580     6.4690   -41.7880     0.0760     2.5010     0.2730
 2269.0000  -999.2500  -999.2500   -85.1440   -58.9600    94.0570    10.0450     6.3250     7.5820     7.5820   -38.8000     0.0890     2.4950     0.2780
 2269.5000  -999.2500  -999.2500   -85.0170   -58.7530    94.6850    10.0400     6.1910     7.5820     7.5820   -35.8120     0.0900     2.4850     0.2870
 2270.0000  -999.2500  -999.2500   -85.1170   -58.5240    97.6360    10.0350     5.9900     6.5930     6.7140   -32.8240     0.0900     2.4340     0.3110
 2270.5000  -999.2500  -999.2500   -85.3010   -58.3490    99.1730    10.0310     3.6130     5.1730     5.2680   -29.4120     0.0900     2.3860     0.3310
 2271.0000  -999.2500  -999.2500   -85.4850   -58.1350    95.4240    10.0280     1.2260     3.7530     3.8210   -34.7550     0.0910     2.3710     0.3400
 2271.5000  -999.2500  -999.2500   -85.6510   -59.7070    92.0910    10.0420     1.1300     2.9000     2.9530   -40.9800     0.0950     2.3640     0.3230
 2272.0000  -999.2500  -999.2500   -85.7770   -61.7050    87.8980    10.0600     1.1300     2.9530     2.9000   -47.2060     0.0830     2.3780     0.3110
 2272.5000  -999.2500  -999.2500   -85.0180   -63.9280    88.6770    10.0780     1.3540     3.2850     3.1100   -53.4310     0.0580     2.4190     0.3110
 2273.0000  -999.2500  -999.2500   -84.2620   -65.7340    89.9970    10.0970     1.9780     3.5610     3.6330   -59.6570     0.0500     2.4660     0.3110
 2273.5000  -999.2500  -999.2500   -84.2460   -67.3910    91.4920    10.1150     2.6010     3.9470     4.0200   -65.8820     0.1030     2.5010     0.3150
 2274.0000  -999.2500  -999.2500   -84.2400   -58.3260    93.4130    10.1340     2.6010     3.8760     4.0200   -72.1080     0.1480     2.5010     0.3190
 2274.5000  -999.2500  -999.2500   -84.2400   -49.9510    95.2600    10.1450     2.2740     3.6870     3.7030   -78.3330     0.1610     2.4960     0.3210
 2275.0000  -999.2500  -999.2500   -84.2240   -39.3310    97.5120    10.1430     2.0550     3.4500     3.4390   -84.5590     0.1520     2.4800     0.3160
 2275.5000  -999.2500  -999.2500   -84.0240   -44.9160    97.9270    10.1420     1.3110     3.2130     3.1760   -90.7840     0.1470     2.4580     0.3130
 2276.0000  -999.2500  -999.2500   -83.8490   -53.0490    98.4270    10.1050     0.8230     3.0350     3.1760   -98.0390     0.0830     2.4480     0.3010
 2276.5000  -999.2500  -999.2500   -83.6820   -61.4950    97.9270    10.0670     0.9050     3.2910     3.4680   -87.6470     0.0810     2.4720     0.2950
 2277.0000  -999.2500  -999.2500   -83.4840   -67.4970    97.2370    10.0260     1.1560     3.6450     3.8350   -75.1960     0.0980     2.4900     0.3010
 2277.5000  -999.2500  -999.2500   -83.7450   -63.9570    96.8610     9.9910     1.6530     4.0000     4.2010   -68.6270     0.1190     2.4900     0.3130
 2278.0000  -999.2500  -999.2500   -84.0950   -61.3240    96.9870     9.9940     1.5060     4.3540     4.5670   -68.6270     0.1310     2.4730     0.3350
 2278.5000  -999.2500  -999.2500   -84.4540   -58.5170    98.0870    10.0550     1.2600     4.7090     4.9330   -68.6270     0.1320     2.4800     0.3350
 2279.0000  -999.2500  -999.2500   -84.8170   -63.0310    99.1550    10.1130     1.4300     5.0630     5.3720   -68.6270     0.1010     2.4920     0.3310
 2279.5000  -999.2500  -999.2500   -85.1610   -67.5700   101.2270    10.1550     3.1460     5.6350     5.9590   -67.4710     0.0970     2.5060     0.3260
 2280.0000  -999.2500  -999.2500   -85.4710   -67.9040   103.1340    10.1860     4.5750     6.5340     6.6930   -66.2250     0.0930     2.5090     0.3160
 2280.5000  -999.2500  -999.2500   -85.7990   -67.9620   102.1130    10.1810     6.0050     7.4330     7.4270   -64.9800     0.0910     2.5090     0.3010
 2281.0000  -999.2500  -999.2500   -86.1220   -67.8810    99.4520    10.1840     7.7200     8.1520     7.7200   -63.7350     0.0890     2.5040     0.2980
 2281.5000  -999.2500  -999.2500   -86.4430   -67.9260    97.0430    10.1830     7.7200     8.8140     8.6410   -62.4900     0.0870     2.5010     0.2830
 2282.0000  -999.2500  -999.2500   -86.7920   -67.9150    97.1970    10.1830     7.8630     9.2550     9.2550   -61.2450     0.0830     2.4940     0.2800
 2282.5000  -999.2500  -999.2500   -86.9680   -67.9130    99.9830    10.1830     8.0060     8.7250     9.0780   -60.0000     0.0750     2.4780     0.2830
 2283.0000  -999.2500  -999.2500   -86.9080   -67.9160   102.9180    10.1830     7.6640     8.2830     8.6370   -58.7550     0.0670     2.4690     0.2910
 2283.5000  -999.2500  -999.2500   -86.8760   -67.9130   105.3840    10.1840     7.3360     7.8420     8.1950   -57.5100     0.0580     2.4650     0.2950
 2284.0000  -999.2500  -999.2500   -86.8390   -67.9130   108.0850    10.1700     7.0070     7.3120     7.7530   -56.2650     0.0510     2.4670     0.3020
 2284.5000  -999.2500  -999.2500   -86.8000   -67.9130   106.7770    10.1440     6.6780     7.1800     7.3120   -55.0200     0.0500     2.4760     0.3080
 2285.0000  -999.2500  -999.2500   -86.7640   -67.9130   104.0440    10.1200     6.8180     7.1800     7.3120   -53.7750     0.0490     2.4860     0.3140
 2285.5000  -999.2500  -999.2500   -86.7250   -67.9130   102.1310    10.0960     7.0510     7.8360     8.0800   -52.5290     0.0490     2.4960     0.3050
 2286.0000  -999.2500  -999.2500   -86.6890   -67.9130    99.4190    10.0710     7.0510     8.3820     8.7200   -51.2840     0.0480     2.4970     0.2990
 2286.5000  -999.2500  -999.2500   -86.6500   -67.9130    99.4240    10.0460     7.9150     8.9290     9.3600   -50.0390     0.0470     2.4980     0.2850
 2287.0000  -999.2500  -999.2500   -86.6140   -67.9130    99.5490    10.0280     8.6350     9.4750    10.0000   -48.7940     0.0510     2.4980     0.2840
 2287.5000  -999.2500  -999.2500   -86.5810   -67.9130    99.8200    10.0270     9.3560    10.0210    10.6400   -47.5490     0.0560     2.4980     0.2820
 2288.0000  -999.2500  -999.2500   -86.6310   -67.9130   100.0090    10.0270    10.0760    10.5680    10.8960   -46.3040     0.0600     2.4990     0.2830
 2288.5000  -999.2500  -999.2500   -86.6830   -67.9130   100.1620    10.0270    10.5080    10.8960    10.8960   -45.0590     0.0700     2.4990     0.2860
 2289.0000  -999.2500  -999.2500   -86.7390   -67.9130   100.4780    10.0270    10.5080    10.8340    10.6600   -43.8140     0.0860     2.4990     0.2960
 2289.5000  -999.2500  -999.2500   -86.7910   -67.9130   100.5740    10.0270     9.9800    10.7730    10.4230   -42.5690     0.1000     2.5000     0.2920
 2290.0000  -999.2500  -999.2500   -86.8470   -67.9130   100.3650    10.0270     9.5410    10.7000    10.1870   -41.3240     0.0770     2.5000     0.2830
 2290.5000  -999.2500  -999.2500   -86.8990   -67.9130    95.7730    10.0270     9.1010    10.7660     9.9510   -40.0780     0.0610     2.5000     0.2740
 2291.0000  -999.2500  -999.2500   -86.9550   -67.9130    91.7510    10.0270     8.9260    10.9320    10.0440   -38.8830     0.0500     2.5010     0.2700
 2291.5000  -999.2500  -999.2500   -87.0310   -67.9130    87.5870    10.0270     9.6220    11.0990    10.1990   -37.8010     0.0390     2.5030     0.2710
