~VERSION INFORMATION
 VERS.                2.0:   CWLS LOG ASCII STANDARD - VERSION 2.0
 WRAP.                 NO:   ONE LINE PER DEPTH STEP
~WELL INFORMATION
#MNEM.UNIT      DATA TYPE    INFORMATION
#----------   ------------   ------------------------------
 STRT.F            0.0000:   START DEPTH
 STOP.F         5576.0000:   STOP DEPTH
 STEP.F            0.5000:   STEP LENGTH
 NULL.          -999.2500:   NO VALUE
 COMP.      FLUCOR DANIEL:   COMPANY
 WELL.  FLUCOR "X" #76-10:   WELL
 FLD .          N.P.R. #3:   FIELD
 LOC .      S10 T38N R78W:   LOCATION
 CNTY.            NATRONA:   COUNTY
 STAT.            WYOMING:   STATE
 CTRY. UNITED STATES OF AMERICA:   COUNTRY
 SRVC. ATLAS WIRELINE SERVICES:   SERVICE COMPANY
 DATE.        16-MAR-1995:   LOGDATE
 API .     49025226860000:   API NUMBER
~CURVE INFORMATION
#MNEM.UNIT       API CODE    CURVE DESCRIPTION
#----------   ------------   ------------------------------
 DEPT.F                  :   
 CNC .DEC    42 890 01 00:   NEUTRON POROSITY LIMESTONE
 CALD.IN     45 280 60 00:   CALIPER FROM DENSITY LOG
 ZDEN.G/C3   45 350 01 00:   BULK DENSITY
 ZCOR.G/C3   45 356 01 00:   DENSITY CORRECTION
 RILD.OHMM   07 120 46 00:   INDUCTION LOG DEEP RESISTIVITY
 RILM.OHMM   07 120 44 00:   INDUCTION LOG MEDIUM RESISTIVITY
 RS  .OHMM   11 220 10 00:   RESISTIVITY SHALLOW
 RD  .OHMM   11 220 09 00:   RESISTIVITY DEEP
 GRR .GAPI   07 310 01 00:   GAMMA RAY
 TENR.LBS    07 635 01 00:   TENSION FROM RESISTIVITY
~PARAMETER INFORMATION
#MNEM.UNIT          VALUE    DESCRIPTION
#----------   ------------   ------------------------------
 EKB .F         5191.0000:   Kelly bushing
 EGL .F         5101.0000:   Ground level
 EDF .F         5190.0000:   Drilling floor
 TD  .F         5582.0000:   Total depth
 CLNT.            A2DTECH:   Client Code
 SL  . 1896' FSL & 832' FEL:   Surface Location
 PD  .                 GL:   Permanent Datum
 EPD .F              5181:   Elevation Permanent Datum
 LMF .                 KB:   Log Measured From
 DMF .                 KB:   Drilling Measured From
 DAPD.F                10:   Feet Above Permanent Datum
 DATE.        16-MAR-1995:   Date Logged [DD-MMM-YYYY]
 DD  .F              5582:   Depth driller
 DL  .F              5578:   Depth logger
 BLI .F              5566:   Bottom log interval
 TLI .F               518:   Top log interval
 CS1 .IN            8.625:   Casing size
 CBD1.      8.625" @ 519':   Casing driller 1
 CBL1.F               518:   Casing logger 1
 BS1 .IN             8.75:   Bit size
 BSD1.F              5582:   Depth drilled with bit1
 DFT .               LSND:   Type fluid in hole
 DFD .               10.1:   Density
 DFV .                 52:   Viscosity
 DFPH.                9.5:   pH
 DFL .                7.2:   Fluid loss
 MSS .           FLOWLINE:   Source of sample
 RMS .OHMM          0.536:   Rm
 MST .F                70:   Rm Meas. temp.
 RMF .OHMM          0.415:   Rmf
 MFST.F                70:   Rmf Meas. temp.
 MFSS.               MEAS:   Source Rmf.
 RMC .OHMM          0.646:   Rmc
 MCST.F                70:   Rmc Meas. temp.
 MCSS.               MEAS:   Source Rmc.
 RMB .OHMM          0.228:   Rm. at BHT
 BHT .F               165:   BHT.
 TCS .HRS             6.5:   Time Circ. stopped
 MRT .F               165:   Maximum recorded temp.
 LUN .            HL-6530:   Logging unit number
 LUL .             CASPER:   Logging unit location
 ENGI.      PAT RASMUSSEN:   Recorded By
 WITN.        GARY STRONG:   Witnessed by
 ORIG.           5" PRINT:   Origin of data
 UWI .     49025226860000:   Unique Well ID
 DICO. A2D TECHNOLOGIES, INC.:   Digitizing Company
~OTHER INFORMATION
~A  DEPTH      CNC       CALD       ZDEN       ZCOR       RILD       RILM         RS         RD        GRR       TENR
# ...
 2512.5000     0.1874     9.7735     2.3832     0.0068  -999.2500  -999.2500    16.7480    23.5110    66.2878   -33.8554
 2513.0000     0.1904     9.7735     2.3832     0.0067  -999.2500  -999.2500    16.3957    22.8528    62.9515   -40.8738
 2513.5000     0.1932     9.7735     2.3877     0.0051  -999.2500  -999.2500    16.2756    22.2155    63.5540   -40.2482
 2514.0000     0.1938     9.7735     2.3967     0.0050  -999.2500  -999.2500    16.9942    21.7493    68.3998   -39.7745
 2514.5000     0.1929     9.7734     2.3920     0.0059  -999.2500  -999.2500    18.1758    23.1627    70.8231   -31.7293
 2515.0000     0.1908     9.7734     2.3852     0.0092  -999.2500  -999.2500    18.9431    24.7942    68.9994   -23.5841
 2515.5000     0.1881     9.7734     2.3822     0.0110  -999.2500  -999.2500    19.2011    25.1330    68.6935   -23.0837
 2516.0000     0.1853     9.7734     2.3806     0.0125  -999.2500  -999.2500    18.6649    24.4293    65.9634   -22.5833
 2516.5000     0.1863     9.7734     2.3813     0.0139  -999.2500  -999.2500    18.1456    23.7040    64.4453   -22.0828
 2517.0000     0.1875     9.7733     2.3823     0.0168  -999.2500  -999.2500    18.1385    23.0832    62.9273   -21.5791
 2517.5000     0.1869     9.7733     2.3873     0.0183  -999.2500  -999.2500    18.3854    23.0727    61.4085   -20.9568
 2518.0000     0.1833     9.7733     2.3926     0.0135  -999.2500  -999.2500    19.4281    23.7129    61.1026   -35.6189
 2518.5000     0.1791     9.7733     2.3978     0.0030  -999.2500  -999.2500    20.2502    24.7123    63.5240   -50.0309
 2519.0000     0.1712     9.7733     2.4061     0.0014  -999.2500  -999.2500    21.6985    27.6060    65.3394   -49.5305
 2519.5000     0.1573     9.7732     2.4364    -0.0002  -999.2500  -999.2500    23.6002    30.4160    65.0334   -49.0226
 2520.0000     0.1452     9.7732     2.4666    -0.0003  -999.2500  -999.2500    24.5713    31.2599    65.9389   -48.4044
 2520.5000     0.1437     9.7732     2.4704    -0.0110  -999.2500  -999.2500    23.8876    31.0255    68.6633   -47.9040
 2521.0000     0.1531     9.7732     2.4401    -0.0201  -999.2500  -999.2500    21.9659    27.9385    71.6907   -47.4036
 2521.5000     0.1750     9.7731     2.4067    -0.0096  -999.2500  -999.2500    18.6253    23.3053    72.5970   -46.9031
 2522.0000     0.1889     9.7879     2.3999    -0.0021  -999.2500  -999.2500    16.3862    20.8408    72.2629   -45.6807
 2522.5000     0.1908     9.7872     2.3976     0.0008  -999.2500  -999.2500    16.3798    20.3989    70.4692   -30.7395
 2523.0000     0.1896     9.7866     2.3975    -0.0023  -999.2500  -999.2500    16.3734    20.3896    69.5572   -19.9513
 2523.5000     0.1890     9.7925     2.3998    -0.0069  -999.2500  -999.2500    16.8272    20.3803    69.8574   -14.7011
 2524.0000     0.1908     9.7853     2.4058    -0.0100  -999.2500  -999.2500    16.9380    20.3897    72.2787   -14.2006
 2524.5000     0.1921     9.7999     2.4156    -0.0117  -999.2500  -999.2500    17.0512    20.7911    77.1628   -13.6843
 2525.0000     0.1921     9.7994     2.4194    -0.0042  -999.2500  -999.2500    17.0429    20.7792    76.2116   -28.1122
 2525.5000     0.1903     9.8150     2.4209     0.0033  -999.2500  -999.2500    17.0346    20.6258    74.3906   -27.6115
 2526.0000     0.1897     9.7981     2.4201     0.0108  -999.2500  -999.2500    16.5606    20.1883    70.1453   -34.7551
 2526.5000     0.1900     9.7975     2.4223     0.0137  -999.2500  -999.2500    15.6580    19.7623    70.7485   -26.6107
 2527.0000     0.1887     9.7969     2.4268     0.0136  -999.2500  -999.2500    15.6518    19.6163    72.5638   -25.9851
 2527.5000     0.1807     9.7964     2.4306     0.0090  -999.2500  -999.2500    16.0857    19.8821    72.5602   -25.4846
 2528.0000     0.1761     9.7956     2.4343     0.0014  -999.2500  -999.2500    16.7647    20.8623    71.9512   -40.0218
 2528.5000     0.1755     9.7951     2.4366    -0.0017  -999.2500  -999.2500    16.7740    21.0007    72.5544   -39.5214
 2529.0000     0.1807     9.7945     2.4388    -0.0033  -999.2500  -999.2500    16.2767    20.9888    73.4606   -46.5397
 2529.5000     0.1892     9.7939     2.4426    -0.0034  -999.2500  -999.2500    15.4025    19.5334    75.8812   -53.5581
 2530.0000     0.1953     9.7781     2.4489    -0.0020  -999.2500  -999.2500    14.1634    17.0179    79.8177   -37.8949
 2530.5000     0.1959     9.7774     2.4546    -0.0005  -999.2500  -999.2500    13.7693    16.4287    82.2398   -37.4436
 2531.0000     0.1947     9.7768     2.4554     0.0039  -999.2500  -999.2500    13.5724    15.8598    81.0241   -36.8941
 2531.5000     0.1929     9.7763     2.4568     0.0085  -999.2500  -999.2500    13.2869    15.6333    79.8091   -36.3911
 2532.0000     0.1960     9.7909     2.4621     0.0143  -999.2500  -999.2500    12.8277    15.6246    80.1093   -35.7680
 2532.5000     0.2036     9.8054     2.4643     0.0173  -999.2500  -999.2500    12.2985    15.6175    81.0147   -42.7861
 2533.0000     0.2075     9.8201     2.4567     0.0126  -999.2500  -999.2500    12.2925    15.6104    85.8604   -49.9297
 2533.5000     0.2039     9.8348     2.4507     0.0005  -999.2500  -999.2500    12.6344    15.7104    86.4636   -56.8422
 2534.0000     0.1976     9.8492     2.4484     0.0094  -999.2500  -999.2500    13.0764    16.2590    82.4403   -60.2759
 2534.5000     0.1946     9.8639     2.4476     0.0214  -999.2500  -999.2500    13.3470    16.4812    78.2752   -63.3082
 2535.0000     0.1931     9.8937     2.4513     0.0229  -999.2500  -999.2500    13.1561    16.2442    78.5761   -62.7152
 2535.5000     0.1949     9.9083     2.4596     0.0183  -999.2500  -999.2500    12.7014    15.6799    79.4816   -54.6960
 2536.0000     0.2010     9.9228     2.4656     0.0137  -999.2500  -999.2500    12.2624    15.5641    82.2060   -46.6768
 2536.5000     0.2040     9.9226     2.4641     0.0136  -999.2500  -999.2500    12.0045    15.4492    84.3243   -53.6951
 2537.0000     0.2022     9.9236     2.4508     0.0150  -999.2500  -999.2500    12.4233    15.5643    81.8965   -68.1071
 2537.5000     0.1956     9.9246     2.4383     0.0149  -999.2500  -999.2500    13.1291    16.8941    81.8936   -82.7692
 2538.0000     0.1926     9.9255     2.4352     0.0148  -999.2500  -999.2500    13.3080    17.3648    82.1944   -82.1439
 2538.5000     0.1920     9.9265     2.4360     0.0132  -999.2500  -999.2500    13.2092    17.3549    82.7970   -66.6056
 2539.0000     0.1929     9.9275     2.4375     0.0131  -999.2500  -999.2500    12.7526    16.3775    83.8113   -58.5715
 2539.5000     0.1929     9.9284     2.4351     0.0116  -999.2500  -999.2500    11.7267    15.1906    87.0329   -42.9232
 2540.0000     0.1942     9.9294     2.4291     0.0069  -999.2500  -999.2500    10.8586    14.0651    88.5458   -27.3851
 2540.5000     0.1972     9.9304     2.4268     0.0008  -999.2500  -999.2500    10.6291    13.4840    87.6331   -19.3659
 2541.0000     0.2006     9.9314     2.4275    -0.0008  -999.2500  -999.2500    10.6250    13.1065    84.6000    -3.8279
 2541.5000     0.2054     9.9323     2.4283     0.0022  -999.2500  -999.2500    10.7707    13.1005    81.4733    -3.3082
 2542.0000     0.2091     9.9333     2.4350     0.0066  -999.2500  -999.2500    10.7653    13.0037    80.9578   -17.7395
 2542.5000     0.2109     9.9343     2.4463     0.0111  -999.2500  -999.2500    10.7601    12.7294    84.2876   -24.8830
 2543.0000     0.2103     9.9353     2.4592     0.0110  -999.2500  -999.2500    10.6073    12.5463    87.6180   -39.2950
 2543.5000     0.2091     9.9362     2.4712     0.0109  -999.2500  -999.2500    10.5297    12.1964    89.4333   -53.8322
 2544.0000     0.2086     9.9372     2.4806     0.0048  -999.2500  -999.2500    10.1376    11.3717    89.4297   -53.2066
 2544.5000     0.2080     9.9382     2.4894    -0.0029  -999.2500  -999.2500     8.7189     9.8458    90.0329   -52.7061
 2545.0000     0.2104     9.9391     2.4772    -0.0060  -999.2500  -999.2500     7.3754     7.8025    91.8482   -44.6869
 2545.5000     0.2207     9.9401     2.4318    -0.0030  -999.2500  -999.2500     5.9011     6.1563    96.9968   -29.1486
