~VERSION INFORMATION
 VERS.                2.0:   CWLS LOG ASCII STANDARD - VERSION 2.0
 WRAP.                 NO:   ONE LINE PER DEPTH STEP
~WELL INFORMATION
#MNEM.UNIT      DATA TYPE    INFORMATION
#----------   ------------   ------------------------------
 STRT.F          484.0000:   START DEPTH
 STOP.F         4334.0000:   STOP DEPTH
 STEP.F            0.5000:   STEP LENGTH
 NULL.          -999.2500:   NO VALUE
 COMP.    FENIX & SCISSON:   COMPANY
 WELL. FENIX NPR 3 "JX" #46-27:   WELL
 FLD .              N P R:   FIELD
 LOC .      S27 T39N R78W:   LOCATION
 CNTY.            NATRONA:   COUNTY
 STAT.            WYOMING:   STATE
 CTRY. UNITED STATES OF AMERICA:   COUNTRY
 SRVC.       SCHLUMBERGER:   SERVICE COMPANY
 DATE.        01-MAR-1979:   LOGDATE
 API .     49025107660000:   API NUMBER
~CURVE INFORMATION
#MNEM.UNIT       API CODE    CURVE DESCRIPTION
#----------   ------------   ------------------------------
 DEPT.F                  :   
 TENR.LBS    07 635 01 00:   TENSION FROM RESISTIVITY
 SPR .MV     07 010 01 00:   SPONTANEOUS POTENTIAL
 SFL .OHMM   07 220 01 00:   SHALLOW FOCUSED LOG RESISTIVITY
 ILD .OHMM   07 120 46 00:   DEEP INDUCTION RESISTIVITY
 ILM .OHMM   07 120 44 00:   INDUCTION LOG MEDIUM RESISTIVITY
 TEND.LBS    42 635 01 00:   TENSION FROM COMPENSATE NEUTRON
 GRD .GAPI   45 310 01 00:   GAMMA RAY FROM DENSITY LOG
 CALD.IN     45 280 60 00:   CALIPER FROM DENSITY LOG
 RHOB.G/C3   45 350 01 00:   BULK DENSITY
 CORR.G/C3   45 356 01 00:   DENSITY CORRECTION
 NPHI.DEC    42 890 03 00:   NEUTRON POROSITY SANDSTONE
~PARAMETER INFORMATION
#MNEM.UNIT          VALUE    DESCRIPTION
#----------   ------------   ------------------------------
 EKB .F         5059.0000:   Kelly bushing
 EGL .F         5049.0000:   Ground level
 EDF .F            0.0000:   Drilling floor
 TD  .F         4320.0000:   Total depth
 DATE.        01-MAR-1979:   Date logged
 CLNT.            A2DTECH:   Client Code
 SL  . 1625' FSL & 2281' FWL:   Surface Location
 PD  .                 GL:   Permanent Datum
 DD  .F              4320:   Depth driller
 DL  .F              4319:   Depth logger
 BLI .F              4316:   Bottom log interval
 CS1 .IN            8.625:   Casing size
 CBD1.      8.625" @ 505':   Casing driller 1
 CBL1.F               500:   Casing logger 1
 BS1 .IN            7.875:   Bit size
 DFT .                FGM:   Type fluid in hole
 DFD .                9.1:   Density
 DFV .                 40:   Viscosity
 DFPH.               11.7:   pH
 DFL .                6.5:   Fluid loss
 MSS .               TANK:   Source of sample
 RMS .OHMM           .901:   Rm
 MST .F                65:   Rm Meas. temp.
 RMF .OHMM           .852:   Rmf
 MFST.F                65:   Rmf Meas. temp.
 MFSS.               MEAS:   Source Rmf.
 RMB .OHMM            .39:   Rm. at BHT
 BHT .F               151:   BHT.
 TCS .HRS            1200:   Time Circ. stopped
 MRT .F               151:   Maximum recorded temp.
 LUN .               8043:   Logging unit number
 LUL .               CSPR:   Logging unit location
 ENGI.              PFARR:   Recorded By
 WITN.              AMENO:   Witnessed by
 ORIG.         2.5" PRINT:   Origin of data
 UWI .     49025107660000:   Unique Well ID
 DICO. A2D TECHNOLOGIES, INC.:   Digitizing Company
 DAPD.                 10:   Feet Above Permanent Datum
 BSD1.F              4320:   Depth drilled with bit1
 EPD .F              5049:   Elevation Permanent Datum
 LMF .                 KB:   Log Measured From
 DMF .                 KB:   Drilling Measured From
 TLI .F               500:   Top log interval
 TLAB.HRS            1900:   Time logger at bottom
~OTHER INFORMATION
~A   DEPT     TENR        SPR        SFL        ILD        ILM       TEND         GRD      CALD       RHOB       CORR         NPHI 
# ...
 3534.0000  1157.8010   -36.6990     4.1920     3.3670     3.4920  1448.4130   147.5430     8.2500     2.4680     0.0060     0.3210
 3534.5000  1158.0500   -36.9470     3.9690     3.3750     3.4970  1448.4130   150.5530     8.2540     2.4600     0.0030     0.3290
 3535.0000  1158.2980   -37.1490     4.0510     3.4060     3.5180  1448.4130   153.6630     8.2590     2.4550     0.0010     0.3380
 3535.5000  1158.5460   -37.3900     4.2700     3.4380     3.5380  1448.4130   156.3110     8.2630     2.4550     0.0000     0.3350
 3536.0000  1158.7939   -37.4690     4.5930     3.4700     3.5580  1448.4130   156.3530     8.2680     2.4620     0.0030     0.3300
 3536.5000  1159.0420   -37.3340     4.6780     3.5010     3.5790  1448.4130   156.4350     8.2720     2.4650     0.0060     0.3240
 3537.0000  1159.2900   -37.2430     4.6100     3.5330     3.5990  1448.4130   156.4280     8.2760     2.4660     0.0080     0.3240
 3537.5000  1159.5380   -37.1210     4.5100     3.5650     3.6190  1448.4130   157.3060     8.2810     2.4610     0.0050     0.3240
 3538.0000  1159.7870   -37.4120     4.5380     3.5960     3.6400  1448.4130   158.2750     8.2850     2.4610     0.0010     0.3240
 3538.5000  1160.0350   -37.8140     4.5930     3.6220     3.6600  1448.4130   159.3450     8.2900     2.4650     0.0000     0.3240
 3539.0000  1160.2830   -38.1990     4.5720     3.5980     3.6890  1448.4130   159.0140     8.2940     2.4700     0.0100     0.3240
 3539.5000  1160.5310   -38.5910     4.5140     3.5660     3.6710  1448.4130   158.1080     8.2980     2.4840     0.0240     0.3200
 3540.0000  1160.7791   -38.5160     4.4570     3.5350     3.6400  1448.4130   159.1390     8.3030     2.4920     0.0310     0.3150
 3540.5000  1161.0270   -38.2420     4.4000     3.5040     3.6080  1448.4130   160.2130     8.3070     2.4810     0.0240     0.3090
 3541.0000  1161.2750   -38.0400     4.3420     3.4720     3.5770  1448.4130   161.5480     8.3110     2.4720     0.0180     0.3090
 3541.5000  1161.5229   -37.5700     4.2850     3.4410     3.5450  1448.4130   160.9000     8.3150     2.4620     0.0130     0.3200
 3542.0000  1161.7720   -37.5010     4.2270     3.4100     3.5140  1448.4130   158.1340     8.3190     2.4550     0.0130     0.3350
 3542.5000  1162.0200   -37.4890     4.1700     3.3780     3.4830  1448.4130   155.7140     8.3230     2.4560     0.0130     0.3460
 3543.0000  1162.2679   -37.5150     4.1130     3.3470     3.4510  1448.4130   154.0970     8.3270     2.4620     0.0170     0.3410
 3543.5000  1162.5160   -37.4840     4.0550     3.3160     3.4200  1448.4130   154.9140     8.3300     2.4730     0.0200     0.3360
 3544.0000  1162.7640   -37.4760     3.9980     3.2840     3.3880  1448.4130   157.7510     8.3360     2.4790     0.0160     0.3310
 3544.5000  1163.0120   -36.6110     3.9690     3.2530     3.3570  1448.4130   157.7690     8.3350     2.4740     0.0100     0.3290
 3545.0000  1163.2600   -36.3510     4.0310     3.2220     3.3260  1448.4130   155.0290     8.3690     2.4660     0.0020     0.3300
 3545.5000  1163.5090   -36.5710     4.1160     3.1900     3.2940  1448.4130   152.6000     8.3640     2.4650     0.0020     0.3360
 3546.0000  1163.7570   -36.7780     3.9920     3.1590     3.2630  1448.4130   151.2890     8.3520     2.4680     0.0030     0.3400
 3546.5000  1164.0050   -36.9760     3.8770     3.1290     3.1870  1448.4130   153.3150     8.3380     2.4800     0.0150     0.3350
 3547.0000  1164.2531   -37.1840     3.7610     3.2160     3.1870  1448.4130   155.2510     8.3260     2.4900     0.0240     0.3310
 3547.5000  1164.5010   -37.3870     3.5870     3.2980     3.1870  1448.4130   157.1660     8.3130     2.5010     0.0330     0.3290
 3548.0000  1164.7490   -37.5920     3.7530     3.3800     3.3120  1448.4130   159.5750     8.3000     2.4980     0.0440     0.3310
 3548.5000  1164.9969   -37.7940     4.5930     3.4620     3.5070  1448.4130   157.6360     8.2870     2.4840     0.0400     0.3480
 3549.0000  1165.2460   -38.0010     5.4340     3.5440     3.7030  1448.4130   151.8380     8.2740     2.4890     0.0250     0.3630
 3549.5000  1165.4940   -38.2040     6.3830     3.6260     3.8970  1448.4130   141.4240     8.2610     2.5050     0.0170     0.3800
 3550.0000  1165.7419   -38.3990     6.0110     3.7080     3.8810  1448.4130   131.3360     8.2480     2.5760     0.0210     0.3410
 3550.5000  1165.9900   -38.6330     5.3980     3.7570     3.8550  1448.4130   120.6880     8.2360     2.6790     0.0830     0.3020
 3551.0000  1166.2380   -38.5140     4.7840     3.7230     3.8290  1448.4130   125.5490     8.2210     2.7570     0.1040     0.2960
 3551.5000  1166.4860   -38.1460     4.2700     3.6900     3.8020  1448.4130   136.8330     8.2200     2.6410     0.0770     0.2990
 3552.0000  1166.7340   -37.8250     4.3040     3.6570     3.7760  1448.4130   141.0190     8.2150     2.5460     0.0490     0.3020
 3552.5000  1166.9830   -37.5030     4.3580     3.6230     3.7500  1448.4130   144.8160     8.2110     2.4850     0.0200     0.3200
 3553.0000  1167.2310   -37.6710     4.4130     3.5900     3.7240  1448.4130   148.7860     8.2060     2.4820     0.0180     0.3160
 3553.5000  1167.4790   -37.9550     4.4670     3.5560     3.6980  1448.4130   151.3590     8.2020     2.4790     0.0180     0.3120
 3554.0000  1167.7271   -38.3010     4.5210     3.5230     3.6710  1448.4130   152.0400     8.1970     2.4740     0.0180     0.3120
 3554.5000  1167.9750   -37.9950     4.5930     3.4900     3.6450  1448.4130   153.0570     8.1930     2.4710     0.0130     0.3190
 3555.0000  1168.2230   -37.3130     4.5480     3.4560     3.6190  1448.4130   153.9030     8.1880     2.4640     0.0060     0.3190
 3555.5000  1168.4709   -36.7270     4.4810     3.4230     3.5930  1448.4130   154.6270     8.1830     2.4550    -0.0010     0.3130
 3556.0000  1168.7200   -36.7530     4.4130     3.3890     3.5670  1448.4130   152.3480     8.1800     2.4540    -0.0040     0.3100
 3556.5000  1168.9680   -36.8670     4.3460     3.3560     3.5410  1448.4130   150.0990     8.1790     2.4530    -0.0020     0.3070
 3557.0000  1169.2159   -37.0050     4.2780     3.3230     3.5140  1448.4130   148.7160     8.1870     2.4510    -0.0010     0.3170
 3557.5000  1169.4640   -37.1310     4.2110     3.2890     3.4880  1448.4130   149.4630     8.2010     2.4510     0.0010     0.3290
 3558.0000  1169.7120   -37.2600     4.1620     3.2560     3.4620  1448.4130   152.2800     8.2140     2.4530     0.0020     0.3400
 3558.5000  1169.9600   -37.3890     4.1200     3.2220     3.4360  1448.4130   156.1240     8.2200     2.4540     0.0030     0.3380
 3559.0000  1170.2080   -37.5180     4.0780     3.1870     3.3670  1448.4130   160.1060     8.2120     2.4550     0.0050     0.3320
 3559.5000  1170.4570   -37.6480     4.0420     3.1950     3.3830  1448.4130   159.0360     8.2040     2.4610     0.0060     0.3260
 3560.0000  1170.7050   -37.7770     4.0650     3.2100     3.4000  1448.4130   157.8330     8.1960     2.4650     0.0040     0.3200
 3560.5000  1170.9530   -37.9050     4.0950     3.2250     3.4180  1448.4130   156.5870     8.1890     2.4620     0.0020     0.3130
 3561.0000  1171.2010   -38.0350     4.1250     3.2400     3.4290  1448.4130   158.9370     8.1810     2.4520    -0.0010     0.3150
 3561.5000  1171.4490   -38.1630     4.1550     3.2550     3.4290  1448.4130   161.4540     8.1730     2.4430    -0.0030     0.3200
 3562.0000  1171.6970   -38.2900     4.1860     3.2700     3.4290  1448.4130   160.0200     8.1650     2.4440    -0.0050     0.3230
 3562.5000  1171.9449   -38.3480     4.2160     3.2840     3.4410  1448.4130   156.7700     8.1580     2.4450    -0.0070     0.3210
 3563.0000  1172.1940   -38.4060     4.2460     3.2990     3.4530  1448.4130   153.5560     8.1500     2.4470    -0.0060     0.3160
 3563.5000  1172.4420   -38.4600     4.2600     3.3140     3.4650  1448.4130   153.5260     8.1420     2.4480    -0.0020     0.3100
 3564.0000  1172.6899   -38.5130     4.2180     3.3290     3.4770  1448.4130   153.6810     8.1400     2.4540     0.0020     0.3120
