~VERSION INFORMATION
 VERS.                2.0:   CWLS LOG ASCII STANDARD - VERSION 2.0
 WRAP.                 NO:   ONE LINE PER DEPTH STEP
~WELL INFORMATION
#MNEM.UNIT      DATA TYPE    INFORMATION
#----------   ------------   ------------------------------
 STRT.F          200.0000:   START DEPTH
 STOP.F         3014.0000:   STOP DEPTH
 STEP.F            0.5000:   STEP LENGTH
 NULL.          -999.2500:   NO VALUE
 COMP.    FENIX & SCISSON:   COMPANY
 WELL. FENIX NPR 3 "AX" #45-28:   WELL
 FLD .                NPR:   FIELD
 LOC .      S28 T39N R78W:   LOCATION
 CNTY.            NATRONA:   COUNTY
 STAT.            WYOMING:   STATE
 CTRY. UNITED STATES OF AMERICA:   COUNTRY
 SRVC.              WELEX:   SERVICE COMPANY
 DATE.        30-SEP-1977:   LOGDATE
 API .     49025104230000:   API NUMBER
~CURVE INFORMATION
#MNEM.UNIT       API CODE    CURVE DESCRIPTION
#----------   ------------   ------------------------------
 DEPT.F                  :   
 SPR .MV     07 010 01 00:   SPONTANEOUS POTENTIAL
 TENR.LBS    07 635 01 00:   TENSION
 SFL .OHMM   07 220 01 00:   SHALLOW FOCUSED LOG RESISTIVITY
 ILD .OHMM   07 120 46 00:   INDUCTION LOG DEEP RESISTIVITY
 ILM .OHMM   07 120 44 00:   INDUCTION LOG MEDIUM RESISTIVITY
 TEND.LBS    45 635 01 00:   TENSION FROM DENSITY LOG
 CALD.IN     45 280 60 00:   CALIPER FROM DENSITY LOG
 RHOB.G/C3   45 350 01 00:   BULK DENSITY
 CORR.G/C3   45 356 01 00:   DENSITY CORRECTION
 GRD .GAPI   45 310 01 00:   GAMMA RAY FROM DENSITY LOG
~PARAMETER INFORMATION
#MNEM.UNIT          VALUE    DESCRIPTION
#----------   ------------   ------------------------------
 EKB .F         5075.0000:   Kelly bushing
 EGL .F         5065.0000:   Ground level
 EDF .F            0.0000:   Drilling floor
 E TD.F         3008.0000:   Total depth
 DATE.        30-SEP-1977:   Date logged
 CLNT.            A2DTECH:   Client Code
 SL  . 2210' FSL & 2310' FWL:   Surface Location
 PD  .                 GL:   Permanent Datum
 EPD .F              5065:   Elevation Permanent Datum
 LMF .                 KB:   Log Measured From
 DMF .                 KB:   Drilling Measured From
 DAPD.F                10:   Feet Above Permanent Datum
 DD  .F              3005:   Depth driller
 DL  .F              3008:   Depth logger
 BLI .F              3006:   Bottom log interval
 TLI .F               200:   Top log interval
 CS1 .IN            8.625:   Casing size
 CBD1.      8.625" @ 205':   Casing driller 1
 CBL1.F               220:   Casing logger 1
 BS1 .IN            7.875:   Bit size
 BSD1.F              3005:   Depth drilled with bit1
 DFT .            KCL/MUD:   Type fluid in hole
 DFD .                9.1:   Density
 DFV .                 38:   Viscosity
 DFPH.                 11:   pH
 DFL .                6.8:   Fluid loss
 MSS .           FLOWLINE:   Source of sample
 RMS .OHMM            .31:   Rm
 MST .F                78:   Rm Meas. temp.
 RMF .OHMM            .15:   Rmf
 MFST.F                78:   Rmf Meas. temp.
 RMC .OHMM           1.02:   Rmc
 MCST.F                78:   Rmc Meas. temp.
 MFSS.               FANN:   Source Rmf.
 MCSS.                KIT:   Source Rmc.
 RMB .OHMM            .20:   Rm. at BHT
 BHT .F               117:   BHT.
 TCS .HRS               3:   Time Circ. stopped
 MRT .F               117:   Maximum recorded temp.
 LUN .               8611:   Logging unit number
 LUL .             CASPER:   Logging unit location
 ENGI.         G. BENTSEN:   Recorded By
 WITN.         HARRINGTON:   Witnessed by
 ORIG.           5" PRINT:   Origin of data
 UWI .     49025104230000:   Unique Well ID
 DICO. A2D TECHNOLOGIES, INC.:   Digitizing Company
~OTHER INFORMATION
~A   DEPT      SPR        TENR       SFL        ILD        ILM       TEND       CALD       RHOB       CORR        GRD   
# ...
 1674.0000   -66.5270   653.0010    11.4430     9.0360    10.6580   797.0320     9.3430     2.4980     0.0080   109.3690
 1674.5000   -66.6250   653.0980    11.4430     9.1310    10.8000   797.1990     9.3350     2.4930     0.0080   110.8800
 1675.0000   -66.7220   653.1940    11.4430     9.2260    11.0130   797.3650     9.3270     2.4890     0.0080   112.3810
 1675.5000   -66.8180   653.2910    11.4430     9.3400    10.9530   797.5310     9.3190     2.4840     0.0070   113.8860
 1676.0000   -66.8740   653.3880    11.3600     9.2580    10.7600   797.6970     9.3110     2.4860     0.0070   115.3900
 1676.5000   -66.7130   653.4850    11.2170     9.1530    10.5680   797.8630     9.3030     2.4950     0.0060   116.8920
 1677.0000   -66.5550   653.5810    11.0740     9.0480    10.3750   798.0300     9.2960     2.4970     0.0060   118.3900
 1677.5000   -66.3970   653.6780    10.9320     8.9240    10.1830   798.1960     9.2880     2.4850     0.0060   119.8160
 1678.0000   -66.2400   653.7750    10.7890     8.7830    10.0070   798.3620     9.2800     2.4790     0.0050   119.1870
 1678.5000   -66.0970   653.8720    10.6460     8.6430     9.6570   798.5280     9.2720     2.4820     0.0050   118.4820
 1679.0000   -66.0470   653.9680    10.5040     8.5020     9.3080   798.6950     9.2690     2.4850     0.0050   118.1310
 1679.5000   -65.9990   654.0650    10.4190     8.3620     8.9580   798.8610     9.2680     2.4770     0.0040   119.6180
 1680.0000   -65.9490   654.1620    10.3880     8.2210     8.6080   799.0270     9.2670     2.4730     0.0040   121.0690
 1680.5000   -65.9000   654.2580    10.3580     8.0810     8.3610   799.1930     9.2660     2.4770     0.0030   122.2830
 1681.0000   -65.8510   654.3550    10.3270     7.9400     9.1350   799.3590     9.2640     2.4810     0.0030   121.3020
 1681.5000   -65.8020   654.4520    10.2970     7.8000     9.6920   799.5260     9.2630     2.4860     0.0030   120.3020
 1682.0000   -65.7520   654.5490    10.2660     7.6590     8.7540   799.6920     9.2620     2.4850     0.0020   119.3080
 1682.5000   -65.7030   654.6450    10.2440     7.5540     7.8770   799.8580     9.2600     2.4820     0.0020   118.3200
 1683.0000   -65.6540   654.7420    10.3700     7.7730     7.2130   800.0240     9.2590     2.4780     0.0020   117.3850
 1683.5000   -65.6050   654.8390    10.4700     7.9480     9.4460   800.1900     9.2580     2.4750     0.0010   114.5240
 1684.0000   -65.5550   654.9360    10.5710     8.1230     9.8870   800.3570     9.2560     2.4740     0.0010   111.2110
 1684.5000   -65.5090   655.0320    10.6720     8.2980    10.1090   800.5230     9.2550     2.4850     0.0010   107.8830
 1685.0000   -65.5290   655.1290    10.7720     8.4730    10.1940   800.6890     9.2540     2.4920     0.0020   104.5410
 1685.5000   -65.5520   655.2260    10.8730     8.6480    10.2790   800.8550     9.2530     2.4930     0.0040   100.5790
 1686.0000   -65.5740   655.3230    10.9730     8.7690    10.3640   801.0220     9.2510     2.4980     0.0060   103.2320
 1686.5000   -65.5970   655.4190    11.0740     8.8410    10.4380   801.1880     9.2500     2.5070     0.0080   106.1300
 1687.0000   -65.6190   655.5160    11.1750     8.9120    10.4570   801.3540     9.2500     2.5160     0.0090   103.8350
 1687.5000   -65.6410   655.6130    11.2750     9.0020    10.4760   801.5200     9.2500     2.5180     0.0110   101.7440
 1688.0000   -65.6640   655.7100    11.3760     8.9590    10.4950   801.6860     9.2500     2.5090     0.0130   105.5320
 1688.5000   -65.6860   655.8060    11.4430     8.9010    10.5140   801.8530     9.2500     2.5070     0.0150   109.7350
 1689.0000   -65.7060   655.9030    11.4430     8.8430    10.5310   802.0190     9.2500     2.5100     0.0160   113.9050
 1689.5000   -65.7060   656.0000    11.4430     8.7560    10.4290   802.1850     9.2500     2.5140     0.0160   117.1760
 1690.0000   -65.7060   656.0960    11.4430     8.7870    10.3180   802.3510     9.2500     2.5050     0.0150   115.0570
 1690.5000   -65.7060   656.1930    11.4430     8.8470    10.2070   802.5180     9.2500     2.4970     0.0140   113.0010
 1691.0000   -65.7060   656.2900    11.8550     8.9070    10.1490   802.6840     9.2500     2.5030     0.0130   105.6150
 1691.5000   -65.7060   656.3870    12.4340     8.9670    10.2350   802.8500     9.2500     2.5090     0.0130    96.3370
 1692.0000   -65.7060   656.4830    12.3070     9.0270    10.3020   803.0160     9.2500     2.5140     0.0120    92.7030
 1692.5000   -65.7060   656.5800    12.0320     9.0880    10.3380   803.1820     9.2500     2.5140     0.0110    97.3890
 1693.0000   -65.7060   656.6770    11.7580     9.1630    10.2910   803.3490     9.2500     2.5020     0.0100   104.0550
 1693.5000   -65.7060   656.7740    11.4840     9.1370    10.1830   803.5150     9.2500     2.4900     0.0090   110.7710
 1694.0000   -65.7060   656.8700    11.2090     9.0860    10.0560   803.6810     9.2500     2.4780     0.0090   120.4610
 1694.5000   -65.7060   656.9670    10.8330     9.0350    10.1440   803.8470     9.2500     2.4660     0.0080   118.9260
 1695.0000   -65.7060   657.0640    10.8620     8.9840    10.2500   804.0130     9.2500     2.4680     0.0070   115.8790
 1695.5000   -65.7060   657.1610    10.9210     8.9330    10.3570   804.1800     9.2500     2.4710     0.0060   112.7180
 1696.0000   -65.7060   657.2570    10.9800     8.8830    10.4640   804.3460     9.2500     2.4720     0.0050   110.4710
 1696.5000   -65.7060   657.3540    11.0380     8.8320    10.5230   804.5120     9.2500     2.4590     0.0050   111.6630
 1697.0000   -65.7060   657.4510    11.0970     8.7810    10.4450   804.6780     9.2500     2.4460     0.0040   113.2610
 1697.5000   -65.7060   657.5470    11.1560     8.7300    10.3820   804.8450     9.2500     2.4310     0.0030   115.2680
 1698.0000   -65.7060   657.6390    11.2140     8.6760    10.3190   805.0110     9.2500     2.4390     0.0020   118.7140
 1698.5000   -65.7060   657.7010    11.2730     8.7150    10.2560   805.1770     9.2500     2.4510     0.0010   122.1480
 1699.0000   -65.7060   657.7620    11.3320     8.7570    10.1930   805.3430     9.2500     2.4620     0.0010   124.3150
 1699.5000   -65.7160   657.8230    11.3900     8.7990    10.1490   805.5090     9.2500     2.4650     0.0010   125.8340
 1700.0000   -65.7530   657.8850    11.4430     8.8370    10.3710   805.6760     9.2500     2.4550     0.0040   123.4540
 1700.5000   -65.7890   657.9460    11.3760     8.8760    10.5410   805.8420     9.2510     2.4720     0.0070   120.3260
 1701.0000   -65.8250   658.0080    11.3150     8.9310    10.7120   806.0080     9.2510     2.4850     0.0090   119.0560
 1701.5000   -65.8610   658.0690    11.2540     8.9870    10.6300   806.1740     9.2500     2.4990     0.0130   121.6450
 1702.0000   -65.8970   658.1300    11.1940     9.0420    10.5220   806.3410     9.2480     2.5050     0.0140   123.5900
 1702.5000   -65.9320   658.1920    11.1330     9.0970    10.4140   806.5070     9.2370     2.5010     0.0130   123.7830
 1703.0000   -65.9680   658.2530    11.0720     9.1700    10.3060   806.6730     9.2270     2.4970     0.0120   123.7050
 1703.5000   -66.0040   658.3150    10.9730     9.0160    10.1980   806.8390     9.2160     2.4980     0.0110   123.6250
 1704.0000   -66.0400   658.3760    10.7780     8.7920    10.0900   807.0050     9.2060     2.5010     0.0100   123.5550
 1704.5000   -66.0760   658.4370    10.5840     8.5270     9.9300   807.1720     9.1950     2.4920     0.0090   123.3680
 1705.0000   -66.1120   658.4990    10.3890     8.2190     9.7450   807.3380     9.1850     2.4800     0.0080   120.6600
 1705.5000   -66.1480   658.5600    10.1950     7.9120     9.5610   807.5040     9.1740     2.4660     0.0070   117.9110
 1706.0000   -66.1840   658.6220    10.0010     7.6040     9.2030   807.6700     9.1640     2.4520     0.0060   115.1840
 1706.5000   -66.2200   658.6830     9.8060     7.2960     8.3920   807.8370     9.1540     2.4380     0.0040   111.8240
 1707.0000   -66.2560   658.7440     9.0360     6.9880     7.5810   808.0030     9.1430     2.4250     0.0030   105.7080
