~VERSION INFORMATION
 VERS.                2.0:   CWLS LOG ASCII STANDARD - VERSION 2.0
 WRAP.                 NO:   ONE LINE PER DEPTH STEP
~WELL INFORMATION
#MNEM.UNIT      DATA TYPE    INFORMATION
#----------   ------------   ------------------------------
 STRT.F           85.5000:   START DEPTH
 STOP.F         3267.0000:   STOP DEPTH
 STEP.F            0.5000:   STEP LENGTH
 NULL.          -999.2500:   NO VALUE
 COMP. LAWRENCE ALLISON & ASSOCIATES:   COMPANY
 WELL. LAWRENCE "X" #78-33:   WELL
 FLD .           N P R #3:   FIELD
 LOC .      S33 T39N R78W:   LOCATION
 CNTY.            NATRONA:   COUNTY
 STAT.            WYOMING:   STATE
 CTRY. UNITED STATES OF AMERICA:   COUNTRY
 SRVC.      DRESSER ATLAS:   SERVICE COMPANY
 DATE.        04-FEB-1986:   LOGDATE
 API .     49025110630000:   API NUMBER
~CURVE INFORMATION
#MNEM.UNIT       API CODE    CURVE DESCRIPTION
#----------   ------------   ------------------------------
 DEPT.F                  :   
 CNC .DEC    42 890 03 00:   NEUTRON PORISITY SANDSTONE
 DEN .G/C3   45 350 01 00:   BULK DENSITY
 DCOR.G/C3   45 356 01 00:   DENSITY CORRECTION
 TEND.LBS    45 635 01 00:   TENSION FROM DENSITY LOG
 GRR .GAPI   07 310 01 00:   GAMMA RAY FROM RESISTIVITY
 CALR.IN     07 280 01 00:   CALIPER FROM RESISTIVITY
 RILM.OHMM   07 120 44 00:   INDUCTION LOG MEDIUM RESISTIVITY
 RILD.OHMM   07 120 46 00:   DEEP INDUCTION RESISTIVITY
 RFOC.OHMM   07 220 04 00:   RESISTIVITY FOCUSED LOG RES.
 TENR.LBS    07 635 01 00:   TENSION FROM RESISTIVITY
 DT  .US/F   60 520 00 00:   DELTA TIME
 TENS.LBS    60 635 01 00:   TENSION FROM SONIC
 SPR .MV     07 010 01 00:   SPONTANEOUS POTENTIAL
~PARAMETER INFORMATION
#MNEM.UNIT          VALUE    DESCRIPTION
#----------   ------------   ------------------------------
 EKB .F            0.0000:   Kelly bushing
 EGL .F         5150.0000:   Ground level
 EDF .F         5161.0000:   Drilling floor
 TD  .F         3260.0000:   Total depth
 DATE.        04-FEB-1986:   Date logged
 CLNT.            A2DTECH:   Client Code
 SL  . 1200' FEL & 650' FEL:   Surface Location
 PD  .                 GL:   Permanent Datum
 DD  .F              3260:   Depth driller
 DL  .F              3260:   Depth logger
 BLI .F              3258:   Bottom log interval
 CS1 .IN            8.625:   Casing size
 CBD1.      8.625" @ 566':   Casing driller 1
 CBL1.F               566:   Casing logger 1
 BS1 .IN            7.875:   Bit size
 DFT .        POLYMER-KCL:   Type fluid in hole
 DFD .                9.0:   Density
 DFV .                 36:   Viscosity
 DFPH.                8.5:   pH
 DFL .                 14:   Fluid loss
 MSS .           FLOWLINE:   Source of sample
 RMS .OHMM          0.367:   Rm
 MST .F                65:   Rm Meas. temp.
 RMF .OHMM          0.275:   Rmf
 MFST.F                65:   Rmf Meas. temp.
 RMC .OHMM          0.459:   Rmc
 MCST.F                65:   Rmc Meas. temp.
 MFSS.               CALC:   Source Rmf.
 RMB .OHMM          0.227:   Rm. at BHT
 BHT .F               105:   BHT.
 TCS .HRS               6:   Time Circ. stopped
 MRT .F               105:   Maximum recorded temp.
 LUN .               6274:   Logging unit number
 LUL .           GILLETTE:   Logging unit location
 ENGI.             MILLER:   Recorded By
 WITN.             STRONG:   Witnessed by
 ORIG.           5" PRINT:   Origin of data
 UWI .     49025110630000:   Unique Well ID
 DICO. A2D TECHNOLOGIES, INC.:   Digitizing Company
 DAPD.                 11:   Feet Above Permanent Datum
 BSD1.               3260:   Depth drilled with bit1
 MCSS.               CALC:   Source Rmc.
 EPD .F              5150:   Elevation Permanent Datum
 LMF .                 KB:   Log Measured From
 DMF .                 KB:   Drilling Measured From
 TLI .                566:   Top log interval
~OTHER INFORMATION
~A   DEPT      CNC        DEN       DCOR       TEND         GRR      CALR       RILM       RILD       RFOC       TENR         DT       TENS        SPR   
# ...
 1801.5000  -999.2500  -999.2500  -999.2500  -999.2500   103.9880    10.5220     7.0120     7.5740     8.2070   -38.9510  -999.2500  -999.2500   -77.4070
 1802.0000  -999.2500  -999.2500  -999.2500  -999.2500   102.4090    10.5260     7.0260     7.6390     8.3120   -37.4050  -999.2500  -999.2500   -77.5830
 1802.5000  -999.2500  -999.2500  -999.2500  -999.2500   106.6950    10.5350     6.9970     7.5610     8.4160   -35.8590  -999.2500  -999.2500   -77.7690
 1803.0000  -999.2500  -999.2500  -999.2500  -999.2500   110.7760    10.5430     6.9440     7.5000     8.4530   -35.0000  -999.2500  -999.2500   -78.0000
 1803.5000  -999.2500  -999.2500  -999.2500  -999.2500   110.3860    10.5500     6.8910     7.4380     8.4530   -41.1500  -999.2500  -999.2500   -78.2180
 1804.0000  -999.2500  -999.2500  -999.2500  -999.2500   108.9440    10.5590     6.8400     7.3760     8.4030   -46.1000  -999.2500  -999.2500   -78.2020
 1804.5000  -999.2500  -999.2500  -999.2500  -999.2500   106.3970    10.5650     6.7290     7.3150     8.2840   -51.0500  -999.2500  -999.2500   -78.1440
 1805.0000  -999.2500  -999.2500  -999.2500  -999.2500   104.4900    10.5750     6.6200     7.2530     8.1650   -55.0000  -999.2500  -999.2500   -78.1010
 1805.5000  -999.2500  -999.2500  -999.2500  -999.2500   106.7200    10.5810     6.5320     7.2210     8.0470   -41.2690  -999.2500  -999.2500   -78.0660
 1806.0000  -999.2500  -999.2500  -999.2500  -999.2500   109.3960    10.5680     6.6180     7.2080     7.9260   -29.8460  -999.2500  -999.2500   -78.0200
 1806.5000  -999.2500  -999.2500  -999.2500  -999.2500   109.7440    10.5510     6.6910     7.1950     7.9260   -26.9660  -999.2500  -999.2500   -77.8010
 1807.0000  -999.2500  -999.2500  -999.2500  -999.2500   109.0560    10.5350     6.7630     7.1830     7.9260   -30.3790  -999.2500  -999.2500   -77.5740
 1807.5000  -999.2500  -999.2500  -999.2500  -999.2500   108.0560    10.5240     6.8400     7.1700     7.9260   -33.7930  -999.2500  -999.2500   -77.3850
 1808.0000  -999.2500  -999.2500  -999.2500  -999.2500   107.8060    10.5280     6.8590     7.1810     7.9720   -37.2070  -999.2500  -999.2500   -77.1730
 1808.5000  -999.2500  -999.2500  -999.2500  -999.2500   108.3360    10.5370     6.8800     7.2360     8.1050   -40.6210  -999.2500  -999.2500   -77.0790
 1809.0000  -999.2500  -999.2500  -999.2500  -999.2500   109.1590    10.5410     6.9030     7.2910     8.2230   -45.0000  -999.2500  -999.2500   -77.1990
 1809.5000  -999.2500  -999.2500  -999.2500  -999.2500   108.7370    10.5380     6.8550     7.3630     8.1710   -42.5520  -999.2500  -999.2500   -77.3380
 1810.0000  -999.2500  -999.2500  -999.2500  -999.2500   104.5670    10.5330     6.8040     7.4150     8.1480   -39.1380  -999.2500  -999.2500   -77.4080
 1810.5000  -999.2500  -999.2500  -999.2500  -999.2500   100.4100    10.5270     6.7520     7.4900     8.2450   -35.7240  -999.2500  -999.2500   -77.4830
 1811.0000  -999.2500  -999.2500  -999.2500  -999.2500   100.8100    10.5230     6.7150     7.5650     8.2990   -32.3100  -999.2500  -999.2500   -77.4260
 1811.5000  -999.2500  -999.2500  -999.2500  -999.2500   103.4300    10.5040     6.8990     7.6390     8.0830   -28.8970  -999.2500  -999.2500   -77.6560
 1812.0000  -999.2500  -999.2500  -999.2500  -999.2500   106.5350    10.4810     7.0430     7.7100     7.9260   -25.0000  -999.2500  -999.2500   -77.7430
 1812.5000  -999.2500  -999.2500  -999.2500  -999.2500   108.6610    10.4690     7.1860     7.8300     8.0730   -28.2500  -999.2500  -999.2500   -77.1280
 1813.0000  -999.2500  -999.2500  -999.2500  -999.2500   108.1540    10.4290     7.9990     7.9440     8.1630   -33.2000  -999.2500  -999.2500   -76.9160
 1813.5000  -999.2500  -999.2500  -999.2500  -999.2500   107.4830    10.4180     8.0530     8.0580     8.2490   -38.1500  -999.2500  -999.2500   -77.0060
 1814.0000  -999.2500  -999.2500  -999.2500  -999.2500   108.4020    10.3710     7.7770     8.1710     8.4660   -43.1000  -999.2500  -999.2500   -76.8470
 1814.5000  -999.2500  -999.2500  -999.2500  -999.2500   109.1610    10.2370     7.6440     8.2850     8.9340   -48.0500  -999.2500  -999.2500   -76.8660
 1815.0000  -999.2500  -999.2500  -999.2500  -999.2500   107.6490    10.1940     7.9470     8.3760     8.9610   -53.0000  -999.2500  -999.2500   -76.9940
 1815.5000  -999.2500  -999.2500  -999.2500  -999.2500   106.0390    10.1890     8.2230     8.3040     8.9950   -53.0970  -999.2500  -999.2500   -77.1670
 1816.0000  -999.2500  -999.2500  -999.2500  -999.2500   106.0300    10.1510     7.6390     8.2450     9.0900   -49.9030  -999.2500  -999.2500   -77.3430
 1816.5000  -999.2500  -999.2500  -999.2500  -999.2500   106.2430    10.1480     7.6390     8.1850     9.2810   -46.7100  -999.2500  -999.2500   -77.4390
 1817.0000  -999.2500  -999.2500  -999.2500  -999.2500   106.4350    10.1450     7.6560     8.1380     9.4410   -43.5160  -999.2500  -999.2500   -77.5450
 1817.5000  -999.2500  -999.2500  -999.2500  -999.2500   105.1740    10.1440     7.5870     8.1120     9.1840   -40.3230  -999.2500  -999.2500   -77.5490
 1818.0000  -999.2500  -999.2500  -999.2500  -999.2500   104.5860    10.1470     7.4990     8.0850     8.8900   -37.1290  -999.2500  -999.2500   -77.6690
 1818.5000  -999.2500  -999.2500  -999.2500  -999.2500   104.9080    10.1460     7.5150     8.0590     8.4530   -36.5970  -999.2500  -999.2500   -77.9950
 1819.0000  -999.2500  -999.2500  -999.2500  -999.2500   101.7670    10.1540     7.5370     8.0330     8.5900   -41.3870  -999.2500  -999.2500   -78.0650
 1819.5000  -999.2500  -999.2500  -999.2500  -999.2500    98.7560    10.1600     7.5580     7.9990     8.7780   -46.1770  -999.2500  -999.2500   -78.0030
 1820.0000  -999.2500  -999.2500  -999.2500  -999.2500    98.6330    10.1660     7.5970     8.0090     8.9670   -50.9680  -999.2500  -999.2500   -78.0530
 1820.5000  -999.2500  -999.2500  -999.2500  -999.2500    99.9330    10.1720     7.6520     8.0300     9.1000   -55.7580  -999.2500  -999.2500   -78.0150
 1821.0000  -999.2500  -999.2500  -999.2500  -999.2500   103.0160    10.1780     7.7070     8.0500     8.9940   -60.5480  -999.2500  -999.2500   -77.8450
 1821.5000  -999.2500  -999.2500  -999.2500  -999.2500   106.8440    10.1850     7.7620     8.0730     8.9120   -65.0000  -999.2500  -999.2500   -77.6520
 1822.0000  -999.2500  -999.2500  -999.2500  -999.2500   111.4220    10.1850     7.8260     8.1730     8.8520   -61.8820  -999.2500  -999.2500   -77.4800
 1822.5000  -999.2500  -999.2500  -999.2500  -999.2500   113.7050    10.1850     7.8930     8.2880     8.9930   -58.9710  -999.2500  -999.2500   -77.2990
 1823.0000  -999.2500  -999.2500  -999.2500  -999.2500   110.8990    10.1850     7.9610     8.3760     9.1000   -56.0590  -999.2500  -999.2500   -77.1510
 1823.5000  -999.2500  -999.2500  -999.2500  -999.2500   108.5810    10.1850     8.0170     8.5720     9.0690   -53.1470  -999.2500  -999.2500   -77.0220
 1824.0000  -999.2500  -999.2500  -999.2500  -999.2500   108.8620    10.1850     8.0580     8.7300     9.0400   -50.2350  -999.2500  -999.2500   -76.8880
 1824.5000  -999.2500  -999.2500  -999.2500  -999.2500   108.2050    10.1850     8.0980     8.8880     9.0160   -47.3240  -999.2500  -999.2500   -76.8910
 1825.0000  -999.2500  -999.2500  -999.2500  -999.2500   106.5260    10.1850     8.1480     9.0460     9.1860   -45.0000  -999.2500  -999.2500   -76.9720
 1825.5000  -999.2500  -999.2500  -999.2500  -999.2500   104.2070    10.1850     8.1480     9.2040     9.4410   -47.8330  -999.2500  -999.2500   -77.0380
 1826.0000  -999.2500  -999.2500  -999.2500  -999.2500    99.8520    10.1850     8.1480     9.1370     9.8390   -50.1900  -999.2500  -999.2500   -77.3200
 1826.5000  -999.2500  -999.2500  -999.2500  -999.2500    96.5080    10.1850     8.1480     8.8520    10.2570   -52.5480  -999.2500  -999.2500   -77.6790
 1827.0000  -999.2500  -999.2500  -999.2500  -999.2500    98.1850    10.1850     8.1480     8.7180    10.2570   -55.0000  -999.2500  -999.2500   -77.7160
