~VERSION INFORMATION
 VERS.                2.0:   CWLS LOG ASCII STANDARD - VERSION 2.0
 WRAP.                 NO:   ONE LINE PER DEPTH STEP
~WELL INFORMATION
#MNEM.UNIT      DATA TYPE    INFORMATION
#----------   ------------   ------------------------------
 STRT.F          213.5000:   START DEPTH
 STOP.F         3198.0000:   STOP DEPTH
 STEP.F            0.5000:   STEP LENGTH
 NULL.          -999.2500:   NO VALUE
 COMP.    FENIX & SCISSON:   COMPANY
 WELL.   FENIX "AX" #14-2:   WELL
 FLD .              NPR-3:   FIELD
 LOC .       S2 T38N R78W:   LOCATION
 CNTY.            NATRONA:   COUNTY
 STAT.            WYOMING:   STATE
 CTRY. UNITED STATES OF AMERICA:   COUNTRY
 SRVC.              WELEX:   SERVICE COMPANY
 DATE.        14-MAY-1977:   LOGDATE
 API .     49025103620000:   API NUMBER
~CURVE INFORMATION
#MNEM.UNIT       API CODE    CURVE DESCRIPTION
#----------   ------------   ------------------------------
 DEPT.F                  :   
 GRD .GAPI   45 310 01 00:   GAMMA RAY FROM DENSITY LOG
 CALD.IN     45 280 60 00:   CALIPER FROM DENSITY LOG
 CORR.G/C3   45 356 01 00:   DENSITY CORRECTION
 RHOB.G/C3   45 350 01 00:   BULK DENSITY
 SPR .MV     07 010 01 00:   SPONTANEOUS POTENTIAL FROM RES.
 ILD .OHMM   07 120 46 00:   DEEP INDUCTION RESISTIVITY
 ILM .OHMM   07 120 44 00:   INDUCTION LOG MEDIUM RESISTIVITY
 SGRD.OHMM   07 220 05 00:   SHALLOW SHORT GUARD RESISTIVITY
~PARAMETER INFORMATION
#MNEM.UNIT          VALUE    DESCRIPTION
#----------   ------------   ------------------------------
 EKB .F         5119.0000:   Kelly bushing
 EGL .F         5110.0000:   Ground level
 TD  .F         3200.0000:   Total depth
 CLNT.            A2DTECH:   Client Code
 SL  . 2400' FNL & 150' FWL:   Surface Location
 PD  .                 GL:   Permanent Datum
 EPD .F              5110:   Elevation Permanent Datum
 LMF .                 KB:   Log Measured From
 DMF .                 KB:   Drilling Measured From
 DAPD.F                 9:   Feet Above Permanent Datum
 DATE.        14-MAY-1977:   Date Logged [DD-MMM-YYYY]
 DD  .F              3200:   Depth driller
 DL  .F              3199:   Depth logger
 BLI .F              3197:   Bottom log interval
 TLI .F               217:   Top log interval
 CS1 .IN            8.625:   Casing size
 BS1 .IN            7.875:   Bit size
 BSD1.F              3200:   Depth drilled with bit1
 DFT .            KCL MUD:   Type fluid in hole
 DFD .                8.8:   Density
 TCS .HRS             2.5:   Time Circ. stopped
 MRT .F               130:   Maximum recorded temp.
 ENGI.          T. JOYNER:   Recorded By
 WITN.      W. PETTINGILL:   Witnessed by
 ORIG.           5" PRINT:   Origin of data
 UWI .     49025103620000:   Unique Well ID
 DICO. A2D TECHNOLOGIES, INC.:   Digitizing Company
 DFV .                 31:   Viscosity
 DFPH.                7.5:   pH
 DFL .                6.4:   Fluid loss
 MSS .          FLOW LINE:   Source of sample
 RMS .OHMM            .13:   Rm
 MST .F               62.:   Rm Meas. temp.
 RMF .OHMM            .12:   Rmf
 MFST.F                62:   Rmf Meas. temp.
 MFSS.           FANN KIT:   Source Rmf.
 RMC .OHMM            .28:   Rmc
 MCST.F                62:   Rmc Meas. temp.
 RMB .OHMM            .06:   Rm. at BHT
 BHT .F               130:   BHT.
~OTHER INFORMATION
~A   DEPT      GRD       CALD       CORR       RHOB        SPR        ILD        ILM       SGRD   
# ...
  983.0000   111.8519     8.4197    -0.0206     2.4110   -41.3368     6.9133     6.9309     7.9248
  983.5000   111.0151     8.4216    -0.0205     2.4163   -41.3136     6.9194     6.8613     7.9314
  984.0000   110.4734     8.4235    -0.0204     2.4148   -41.2899     6.9735     6.8309     7.9391
  984.5000   110.8260     8.4254    -0.0217     2.4156   -41.2304     6.9796     6.7095     7.9455
  985.0000   113.5850     8.4422    -0.0231     2.4142   -41.0947     6.9856     6.6676     8.0062
  985.5000   115.7519     8.4441    -0.0260     2.4090   -41.0710     6.9435     6.6271     8.0134
  986.0000   118.0867     8.4306    -0.0289     2.4053   -41.0473     6.9496     6.5726     8.1084
  986.5000   119.3209     8.4177    -0.0333     2.4068   -41.0237     6.9571     6.4984     8.1378
  987.0000   119.0632     8.4047    -0.0391     2.4039   -41.0000     6.9141     6.3700     8.1445
  987.5000   119.4226     8.3921    -0.0435     2.4002   -40.9730     6.8733     6.3058     8.0905
  988.0000   120.3610     8.3941    -0.0464     2.3972   -40.8585     6.8304     6.2041     7.9369
  988.5000   121.5952     8.3811    -0.0478     2.3913   -40.7849     6.7437     6.2084     7.9037
  989.0000   122.5336     8.3830    -0.0492     2.3876   -40.9100     6.6568     6.3002     7.7852
  989.5000   122.8803     8.3850    -0.0476     2.3847   -40.7334     6.6166     6.3483     7.7925
  990.0000   120.5642     8.4018    -0.0429     2.3877   -40.7101     6.4876     6.2651     7.9077
  990.5000   118.5441     8.4037    -0.0368     2.3915   -40.6864     6.4932     6.1819     7.9943
  991.0000   116.5239     8.4060    -0.0337     2.3976   -40.6627     6.5440     6.0598     8.1423
  991.5000   114.4700     8.4076    -0.0291     2.4036   -40.4880     6.5497     6.0639     8.2068
  992.0000   111.7752     8.4098    -0.0274     2.4089   -40.4651     6.4653     6.1527     8.2703
  992.5000   109.2926     8.4266    -0.0273     2.4090   -40.4438     6.4261     6.1578     8.2770
  993.0000   109.9224     8.4432    -0.0272     2.4090   -40.4192     6.4319     6.0761     8.1138
  993.5000   107.3105     8.4453    -0.0301     2.4128   -40.3963     6.4836     6.0381     7.9707
  994.0000   110.5819     8.4472    -0.0209     2.4211   -40.3660     6.5479     6.0432     7.7971
  994.5000   112.7503     8.4491    -0.0088     2.4369   -40.1968     6.6410     6.0893     7.7513
  995.0000   113.6887     8.4357    -0.0027     2.4529   -40.1775     6.6831     6.1784     7.6743
  995.5000   113.1478     8.4232     0.0019     2.4643   -40.1510     6.7350     6.2288     7.7102
  996.0000   110.2401     8.4251     0.0021     2.4647   -40.0780     6.8353     6.3617     7.8460
  996.5000   109.3906     8.4270     0.0022     2.4551   -39.9553     6.8893     6.3691     8.2177
  997.0000   107.9749     8.4289     0.0008     2.4521   -39.9343     6.9148     6.4134     8.5191
  997.5000   103.8837     8.4010     0.0009     2.4574   -39.9112     7.0084     6.3463     8.8457
  998.0000   102.1593     8.3881     0.0010     2.4605   -39.8865     7.1014     6.2464     9.1364
  998.5000   102.2115     8.3751     0.0026     2.4605   -39.8598     7.1579     6.1656     9.3998
  999.0000   101.9651     8.3474     0.0043     2.4621   -39.8368     7.3145     6.0848     9.5436
  999.5000   103.8038     8.3195     0.0044     2.4651   -39.8139     7.3425     6.2611     9.6139
 1000.0000   105.9256     8.2917     0.0045     2.4712   -39.7910     7.4810     6.8559     9.6216
 1000.5000   105.9475     8.3085     0.0061     2.4742   -39.7681     7.5398     7.2016     9.5611
 1001.0000   106.5652     8.3108     0.0062     2.4720   -39.7423     7.6002     7.2565     9.5700
 1001.5000   107.4787     8.3275     0.0064     2.4698   -39.7152     7.6069     7.3119     9.5125
 1002.0000   108.3923     8.3294     0.0065     2.4729   -39.6881     7.6135     7.3168     9.4145
 1002.5000   107.5307     8.3462     0.0066     2.4767   -39.6610     7.6002     7.3217     9.3971
 1003.0000   106.3732     8.3528     0.0060     2.4737   -39.6339     7.5773     7.3119     9.3400
 1003.5000   106.1033     8.3648     0.0049     2.4676   -39.6068     7.5545     7.2808     9.4142
 1004.0000   107.6490     8.3816     0.0029     2.4616   -39.5799     7.5316     7.2869     9.3999
 1004.5000   107.6346     8.3835    -0.0016     2.4604   -39.5533     7.5087     7.2801     9.3446
 1005.0000   108.8505     8.4003    -0.0057     2.4694   -39.5266     7.4859     7.2674     9.2893
 1005.5000   110.6516     8.4026    -0.0070     2.4680   -39.5000     7.4630     7.2546     9.2340
 1006.0000   108.7416     8.4045    -0.0084     2.4591   -39.4734     7.4401     7.2418     9.1787
 1006.5000   107.7385     8.4064    -0.0066     2.4546   -39.4467     7.4143     7.2291     9.1233
 1007.0000   108.9544     8.4083    -0.0050     2.4614   -39.4201     7.4202     7.2155     9.0680
 1007.5000   107.2052     8.4250    -0.0018     2.4697   -39.3935     7.4273     7.2444     9.0127
 1008.0000   107.8229     8.4120     0.0014     2.4742   -39.3669     7.4335     7.2974     8.9574
 1008.5000   109.9201     8.4139    -0.0044     2.4661   -39.3402     7.4403     7.3428     8.9021
 1009.0000   109.0583     8.4158    -0.0088     2.4594   -39.3136     7.4534     7.4017     8.7498
 1009.5000   111.4576     8.4028    -0.0085     2.4489   -39.2870     7.4977     7.4100     8.5187
 1010.0000   109.1168     8.4051    -0.0039     2.4451   -39.2604     7.5123     7.4187     8.4572
 1010.5000   108.2487     8.4070    -0.0097     2.4469   -39.5302     7.5066     7.4275     8.4098
 1011.0000   111.5356     8.4238    -0.0140     2.4386   -39.6522     7.4738     7.4362     8.3651
 1011.5000   111.8509     8.4257    -0.0184     2.4303   -39.7676     7.4649     7.4465     8.4303
 1012.0000   111.4773     8.4276    -0.0182     2.4275   -39.7417     7.4356     7.4538     8.4376
 1012.5000   110.6016     8.4294    -0.0165     2.4395   -39.7222     7.3399     7.4629     8.5046
 1013.0000   110.1602     8.4313    -0.0179     2.4477   -39.8441     7.2713     7.3721     8.5107
 1013.5000   110.5021     8.4332    -0.0192     2.4455   -39.8117     7.1990     7.2238     8.5181
 1014.0000   112.9151     8.4351    -0.0235     2.4425   -39.7857     7.1008     7.0297     8.5852
 1014.5000   112.9009     8.4374    -0.0173     2.4471   -39.6124     6.9209     6.8060     8.5924
 1015.0000   112.9333     8.4542    -0.0111     2.4524   -39.5836     6.8331     6.6737     8.5993
 1015.5000   114.4386     8.4558    -0.0062     2.4585   -39.5592     6.7919     6.5875     8.6067
 1016.0000   115.8028     8.4577    -0.0017     2.4653   -39.5274     6.7973     6.5495     8.6142
 1016.5000   116.8574     8.4747    -0.0015     2.4684   -39.5059     6.8038     6.6045     8.6470
 1017.0000   115.9958     8.4766    -0.0014     2.4609   -39.4793     6.8683     6.6792     8.6896
 1017.5000   114.2466     8.4785    -0.0027     2.4551   -39.5213     6.9340     6.7588     8.6963
 1018.0000   113.0888     8.4804    -0.0025     2.4521   -39.5740     7.0135     6.7968     8.7048
 1018.5000   113.4161     8.4823    -0.0039     2.4552   -39.5473     7.1209     6.8698     8.6522
 1019.0000   114.0296     8.4846    -0.0037     2.4590   -39.6673     7.1747     6.9486     8.6595
 1019.5000   111.9902     8.4865    -0.0050     2.4569   -39.6392     7.2658     6.9828     8.6650
 1020.0000   110.8262     8.4884    -0.0063     2.4539   -39.6154     7.3381     6.9908     8.6142
 1020.5000   110.2605     8.4749    -0.0106     2.4495   -39.7034     7.3440     6.9485     8.6216
 1021.0000   110.8847     8.4773    -0.0120     2.4451   -39.7114     7.3510     6.8154     8.6290
 1021.5000   108.5438     8.4638    -0.0133     2.4406   -39.6789     7.2750     6.6828     8.6380
 1022.0000   107.0840     8.4661    -0.0131     2.4407   -39.7258     7.2626     6.5646     8.6434
 1022.5000   108.8916     8.4680    -0.0114     2.4461   -39.7813     7.2188     6.4573     8.5930
 1023.0000   109.8052     8.4699    -0.0097     2.4499   -39.7515     7.2254     6.3442     8.5392
