~VERSION INFORMATION
 VERS.                2.0:   CWLS LOG ASCII STANDARD - VERSION 2.0
 WRAP.                 NO:   ONE LINE PER DEPTH STEP
~WELL INFORMATION
#MNEM.UNIT      DATA TYPE    INFORMATION
#----------   ------------   ------------------------------
 STRT.F            0.0000:   START DEPTH
 STOP.F         3964.0000:   STOP DEPTH
 STEP.F            0.5000:   STEP LENGTH
 NULL.          -999.2500:   NO VALUE
 COMP. LAWRENCE ALLISON & ASSOCIATES:   COMPANY
 WELL. LAWRENCE NPR 3 "X" #43-10:   WELL
 FLD .              N P R:   FIELD
 LOC .      S10 T38N R78W:   LOCATION
 CNTY.            NATRONA:   COUNTY
 STAT.            WYOMING:   STATE
 CTRY. UNITED STATES OF AMERICA:   COUNTRY
 SRVC.      DRESSER ATLAS:   SERVICE COMPANY
 DATE.        07-AUG-1985:   LOGDATE
 API .     49025111390000:   API NUMBER
~CURVE INFORMATION
#MNEM.UNIT       API CODE    CURVE DESCRIPTION
#----------   ------------   ------------------------------
 DEPT.F                  :   
 CNC .DEC    42 890 03 00:   NEUTRON PORISITY SANDSTONE
 RHOB.G/C3   45 350 01 00:   BULK DENSITY
 CORR.G/C3   45 356 01 00:   DENSITY CORRECTION
 TEND.LBS    45 635 01 00:   TENSION FROM DENSITY LOG
 GRR .GAPI   07 310 01 00:   GAMMA RAY FROM RESISTIVITY
 CALR.IN     07 280 01 00:   CALIPER FROM RESISTIVITY
 SPR .MV     07 010 01 00:   SPONTANEOUS POTENTIAL
 TENR.LBS    07 635 01 00:   TENSION FROM RESISTIVITY
 RILD.OHMM   07 120 46 00:   DEEP INDUCTION RESISTIVITY
 RILM.OHMM   07 120 44 00:   INDUCTION LOG MEDIUM RESISTIVITY
 RFOC.OHMM   07 220 04 00:   RESISTIVITY FOCUSED LOG RES.
 DT  .US/F   60 520 00 00:   DELTA TIME
 TENS.LBS    60 635 01 00:   TENSION FROM SONIC
~PARAMETER INFORMATION
#MNEM.UNIT          VALUE    DESCRIPTION
#----------   ------------   ------------------------------
 EKB .F         5223.0000:   Kelly bushing
 EGL .F         5211.0000:   Ground level
 EDF .F            0.0000:   Drilling floor
 EPD .F         5211.0000:   Permanent datum
 TD  .F         3950.0000:   Total depth
 DATE.        07-AUG-1985:   Date logged
 CLNT.            A2DTECH:   Client Code
 SL  . 2016' FNL & 2230' FWL:   Surface Location
 PD  .                 GL:   Permanent Datum
 DD  .F              3950:   Depth driller
 DL  .F              3950:   Depth logger
 BLI .F              3948:   Bottom log interval
 CS1 .IN            8.625:   Casing size
 CBD1.      8.625" @ 518':   Casing driller 1
 CBL1.F               520:   Casing logger 1
 BS1 .IN            7.875:   Bit size
 DFT .            KCL-GEL:   Type fluid in hole
 DFD .                8.9:   Density
 DFV .                 40:   Viscosity
 DFPH.                  9:   pH
 DFL .                 12:   Fluid loss
 MSS .           FLOWLINE:   Source of sample
 RMS .OHMM           .318:   Rm
 MST .F                82:   Rm Meas. temp.
 RMF .OHMM            .24:   Rmf
 MFST.F                82:   Rmf Meas. temp.
 RMC .OHMM            .40:   Rmc
 MCST.F                82:   Rmc Meas. temp.
 MFSS.               CALC:   Source Rmf.
 RMB .OHMM            .19:   Rm. at BHT
 BHT .F               140:   BHT.
 TCS .HRS               4:   Time Circ. stopped
 MRT .F               140:   Maximum recorded temp.
 LUN .               6264:   Logging unit number
 LUL .               GLTE:   Logging unit location
 ENGI.           FAHLSING:   Recorded By
 WITN.             STRONG:   Witnessed by
 ORIG.           5" PRINT:   Origin of data
 UWI .     49025111390000:   Unique Well ID
 DICO. A2D TECHNOLOGIES, INC.:   Digitizing Company
 DAPD.                 12:   Feet Above Permanent Datum
 BSD1.               3950:   Depth drilled with bit1
 MCSS.               CALC:   Source Rmc.
~OTHER INFORMATION
~A    DEPT     CNC       RHOB       CORR       TEND         GRR      CALR        SPR       TENR       RILD       RILM       RFOC         DT       TENS   
# ...
 2574.0000     0.1930     2.4040     0.0000   -60.6180    82.6450     8.2430   -56.6050   -16.4020    19.5470    16.5200    16.0910    76.2410   -65.5530
 2574.5000     0.1990     2.3900    -0.0080   -60.8520    84.2020     8.2360   -56.7000   -16.4020    18.5420    16.0560    16.1280    76.4550   -65.5530
 2575.0000     0.1970     2.3760     0.0130   -61.0870    84.6440     8.2280   -56.7860   -16.4020    18.3340    15.5910    15.5160    76.6920   -65.5530
 2575.5000     0.1950     2.3750     0.0340   -61.3210    81.6290     8.2210   -56.7310   -16.4020    18.3340    15.3460    15.0020    76.9300   -65.5530
 2576.0000     0.1970     2.3850     0.0560   -61.5560    78.1770     8.2140   -56.7170   -16.4020    18.4670    15.2460    14.4880    77.1670   -65.5530
 2576.5000     0.2000     2.3960     0.0770   -61.7900    80.4910     8.2160   -56.7650   -17.0260    18.6850    15.1270    14.1880    77.2380   -65.5530
 2577.0000     0.2000     2.4060     0.0790   -62.0250    84.8420     8.2270   -56.8100   -17.6440    18.9030    15.2340    15.0490    77.2380   -65.5530
 2577.5000     0.2000     2.4110     0.0590   -62.2600    84.7630     8.2380   -56.8590   -18.2610    19.1210    15.3650    16.0990    77.1000   -65.5530
 2578.0000     0.2040     2.4130     0.0550   -62.4940    82.5320     8.2490   -56.2920   -18.8780    19.3390    15.4960    16.2770    76.8230   -65.5530
 2578.5000     0.2060     2.4120     0.0690   -62.7290    80.2510     8.2600   -55.2220   -19.4950    19.5470    15.6260    15.8360    76.1870   -65.5530
 2579.0000     0.2000     2.4090     0.0840   -62.9630    78.4420     8.2710   -54.1710   -20.1130    19.5470    15.7570    16.2360    75.3980   -65.5530
 2579.5000     0.1940     2.3960     0.0860   -63.1980    78.1330     8.2820   -54.3080   -20.7300    19.5470    15.8880    16.5780    74.8450   -65.5530
 2580.0000     0.1950     2.3790     0.0500   -63.4320    79.8990     8.2930   -54.5130   -21.3470    19.5470    16.0180    15.7870    75.1320   -65.5530
 2580.5000     0.2050     2.3690    -0.0250   -63.6670    81.9100     8.3040   -54.7130   -21.9650    19.6540    16.1490    14.8630    75.7550   -65.5530
 2581.0000     0.2090     2.3830    -0.0220   -63.9020    84.1040     8.3150   -54.9120   -22.5820    19.8150    16.2800    14.1880    76.4410   -65.5530
 2581.5000     0.2060     2.4060     0.0290   -64.1360    86.6350     8.3260   -55.1410   -23.1990    19.9760    16.4110    14.1880    76.5400   -65.5530
 2582.0000     0.1980     2.4150     0.0680   -64.3710    90.4490     8.3370   -55.3710   -23.8160    20.0920    16.5530    15.6900    76.4410   -65.8500
 2582.5000     0.1920     2.4050     0.0600   -64.6050    91.0760     8.3470   -55.6010   -24.4340    20.0920    16.6970    17.3540    76.1830   -66.8410
 2583.0000     0.1900     2.3980     0.0160   -64.8400    87.1270     8.3290   -55.8320   -25.0510    20.0920    16.8840    16.8740    75.9480   -67.8310
 2583.5000     0.1900     2.3980     0.0180   -65.0750    82.4570     8.3110   -56.0620   -25.6680    20.0920    16.6940    16.1790    75.7130   -68.8220
 2584.0000     0.1900     2.4050     0.0410   -65.3090    78.1480     8.3140   -56.2920   -26.3420    20.0920    16.4230    15.7630    75.4250   -69.8120
 2584.5000     0.1910     2.4140     0.0730   -65.5440    76.7000     8.3210   -56.5220   -28.3170    20.1060    16.1280    15.6190    75.1450   -70.8020
 2585.0000     0.1920     2.4260     0.0850   -65.7780    79.9180     8.3270   -56.7530   -30.4910    20.1530    16.3770    15.4750    75.1100   -71.7930
 2585.5000     0.1960     2.4410     0.0720   -66.0130    83.5360     8.3340   -56.9290   -32.6650    20.2000    16.6480    15.4070    75.0720   -72.7830
 2586.0000     0.2000     2.4480     0.0700   -66.5200    85.7930     8.3400   -57.1620   -34.8390    20.2470    16.8840    15.6730    75.0450   -73.7740
 2586.5000     0.1970     2.4370     0.0710   -67.1980    84.5330     8.3470   -57.3890   -37.0130    20.2750    16.7370    16.0400    74.7590   -74.7640
 2587.0000     0.2010     2.4270     0.0820   -67.8770    80.9710     8.3540   -57.6150   -39.1870    19.8540    16.5370    16.4260    74.4420   -75.7550
 2587.5000     0.2050     2.4230     0.0710   -68.5550    77.4060     8.3600   -57.8420   -41.3610    19.5370    16.3370    16.4260    74.3470   -76.7450
 2588.0000     0.2020     2.4310     0.0690   -69.2330    75.6430     8.3670   -58.0690   -43.5340    19.2200    16.1280    15.8370    74.5610   -77.7350
 2588.5000     0.2010     2.4400     0.0980   -69.9120    77.4090     8.3730   -58.2910   -45.7080    18.9480    16.1280    15.3750    74.9880   -78.7260
 2589.0000     0.2030     2.4370     0.0950   -70.5900    79.6250     8.3790   -58.3920   -47.8820    18.7530    16.3840    14.9550    75.4150   -79.7160
 2589.5000     0.2040     2.4340     0.0790   -71.2680    79.2250     8.3860   -58.2500   -50.0560    18.5590    16.5780    14.7510    75.8420   -80.7070
 2590.0000     0.2030     2.4370     0.0620   -71.9470    78.5570     8.3760   -58.2670   -52.2300    18.3640    16.5780    14.5830    76.1570   -81.6970
 2590.5000     0.2000     2.4430     0.0630   -72.6250    78.0050     8.3610   -57.6220   -54.4040    18.1670    16.4260    15.2990    76.2060   -82.6870
 2591.0000     0.1980     2.4500     0.1050   -73.3030    78.2200     8.3460   -56.6270   -56.5780    18.6750    16.4260    15.5480    76.3010   -83.6780
 2591.5000     0.1970     2.4520     0.1070   -73.9820    78.6560     8.3310   -55.3280   -58.7520    19.1900    16.5730    15.1270    76.5000   -84.6680
 2592.0000     0.2040     2.4480     0.0800   -74.6600    80.2980     8.3160   -54.0710   -60.9260    19.7060    17.3190    14.7020    76.6400   -85.6590
 2592.5000     0.1990     2.4430     0.0200   -75.3390    80.4330     8.3010   -52.8020   -63.1000    20.1930    18.0650    14.4500    76.4410   -86.6490
 2593.0000     0.1870     2.4390     0.0200   -76.0440    77.5120     8.2870   -51.7370   -65.2740    20.8410    18.5030    15.4070    75.3100   -87.6390
 2593.5000     0.1780     2.4320     0.0370   -75.2660    73.9070     8.2760   -51.8720   -66.1030    20.7190    18.5030    17.3540    74.2820   -88.6300
 2594.0000     0.1810     2.4250     0.0690   -74.4560    71.1840     8.2650   -52.0130   -66.1030    20.5200    17.8970    20.8410    73.1510   -89.6200
 2594.5000     0.1850     2.4140     0.0650   -73.6470    71.7140     8.2540   -52.1460   -66.1030    20.3220    17.1600    19.2860    73.1510   -90.6110
 2595.0000     0.1850     2.4040     0.0380   -72.8370    74.9570     8.2430   -52.5070   -66.1030    20.1230    16.4240    16.8190    73.9920   -91.6010
 2595.5000     0.1870     2.4000     0.0170   -72.0280    78.9280     8.2320   -52.9300   -66.1030    19.4900    15.6880    14.9180    75.0510   -92.5910
 2596.0000     0.2000     2.4000     0.0290   -71.2180    80.0590     8.2200   -53.3560   -66.1030    18.7750    14.9890    13.8700    76.1100   -93.5820
 2596.5000     0.2150     2.4050     0.0520   -70.4080    80.6400     8.2120   -53.7730   -66.1030    18.0600    14.6620    13.6290    76.8890   -94.5720
 2597.0000     0.2250     2.4160     0.0620   -69.5990    81.1340     8.2390   -54.6450   -66.1030    17.3990    14.2450    13.3070    77.1220   -95.4640
 2597.5000     0.2240     2.4270     0.0660   -68.7890    80.8090     8.2660   -55.7310   -66.1030    16.8000    14.1880    13.5680    77.2880   -95.4640
 2598.0000     0.2220     2.4380     0.0690   -67.9790    80.3160     8.2940   -56.8270   -66.1030    16.1280    14.1880    13.9310    77.2050   -95.4640
 2598.5000     0.2200     2.4390     0.0730   -67.1700    79.8000     8.3060   -57.9220   -66.1030    16.1990    14.1880    13.9310    77.0150   -95.4640
 2599.0000     0.2170     2.4160     0.0760   -66.3600    79.7290     8.3020   -59.0170   -66.1030    16.2800    14.6530    13.3700    76.8250   -95.4640
 2599.5000     0.2130     2.4070     0.0770   -65.1230    83.0480     8.2970   -60.1160   -66.1030    16.3610    15.0820    12.9320    76.6350   -95.4640
