~VERSION INFORMATION
 VERS.                2.0:   CWLS LOG ASCII STANDARD - VERSION 2.0
 WRAP.                 NO:   ONE LINE PER DEPTH STEP
~WELL INFORMATION
#MNEM.UNIT      DATA TYPE    INFORMATION
#----------   ------------   ------------------------------
 STRT.F           96.5000:   START DEPTH
 STOP.F         2720.0000:   STOP DEPTH
 STEP.F            0.5000:   STEP LENGTH
 NULL.          -999.2500:   NO VALUE
 COMP.          INTEX OIL:   COMPANY
 WELL. INTEX NPR 65 "AX" #3-20:   WELL
 FLD .             TEAPOT:   FIELD
 LOC .      S20 T39N R78W:   LOCATION
 CNTY.            NATRONA:   COUNTY
 STAT.            WYOMING:   STATE
 CTRY. UNITED STATES OF AMERICA:   COUNTRY
 SRVC.       SCHLUMBERGER:   SERVICE COMPANY
 DATE.        04-MAY-1966:   LOGDATE
 API .     49025094910000:   API NUMBER
~CURVE INFORMATION
#MNEM.UNIT       API CODE    CURVE DESCRIPTION
#----------   ------------   ------------------------------
 DEPT.F                  :   
 SPR .MV     05 010 01 00:   SPONTANEOUS POTENTIAL FROM RES.
 SN  .OHMM   05 040 16 00:   SHORT NORMAL 16"
 ILD .OHMM   05 120 46 00:   INDUCTION LOG DEEP
 CALD.IN     45 280 60 00:   CALIPER FROM DENSITY LOG
 CORR.G/C3   45 356 01 00:   DENSITY CORRECTION
 GRD .GAPI   45 310 01 00:   GAMMA RAY FROM DENSITY LOG
 RHOB.G/C3   45 350 01 00:   BULK DENSITY
~PARAMETER INFORMATION
#MNEM.UNIT          VALUE    DESCRIPTION
#----------   ------------   ------------------------------
 EKB .F         5053.3000:   Kelly bushing
 EGL .F         5043.0000:   Ground level
 EDF .F            0.0000:   Drilling floor
 TD  .F         2720.0000:   Total depth
 DATE.        04-MAY-1966:   Date logged
 CLNT.            A2DTECH:   Client Code
 PD  .                 GL:   Permanent Datum
 EPD .F              5043:   Elevation Permanent Datum
 LMF .                 KB:   Log Measured From
 DMF .                 KB:   Drilling Measured From
 DAPD.F              10.3:   Feet Above Permanent Datum
 DD  .F              2720:   Depth driller
 DL  .F              2720:   Depth logger
 BLI .F              2719:   Bottom log interval
 TLI .F                97:   Top log interval
 CS1 .IN            10.75:   Casing size
 CBD1.       10.75" @ 30':   Casing driller 1
 BS1 .IN            7.875:   Bit size
 BSD1.F              2720:   Depth drilled with bit1
 DFT . GEL/Q-BROX/OIL/DAKOLITE:   Type fluid in hole
 DFD .               10.3:   Density
 DFV .                 41:   Viscosity
 DFPH.                7.2:   pH
 DFL .                8.8:   Fluid loss
 MSS .           FLOWLINE:   Source of sample
 RMS .OHMM              2:   Rm
 MST .F                61:   Rm Meas. temp.
 RMF .OHMM           1.31:   Rmf
 MFST.F                65:   Rmf Meas. temp.
 MFSS.                 FP:   Source Rmf.
 RMB .OHMM           1.15:   Rm. at BHT
 BHT .F               110:   BHT.
 TCS .HRS               2:   Time Circ. stopped
 MRT .F               110:   Maximum recorded temp.
 LUN .               4507:   Logging unit number
 LUL .               CSPR:   Logging unit location
 ENGI.            MANGOLD:   Recorded By
 WITN.             TUTTLE:   Witnessed by
 ORIG.       2", 5" PRINT:   Origin of data
 UWI .     49025094910000:   Unique Well ID
 DICO. A2D TECHNOLOGIES, INC.:   Digitizing Company
~OTHER INFORMATION
~A   DEPT      SPR         SN         ILD      CALD       CORR        GRD       RHOB   
# ...
 2235.0000   -30.2470    10.0060     7.4510     8.8390     0.0080   130.8160     2.5320
 2235.5000   -30.5680    10.2510     7.6470     8.8380     0.0080   130.7260     2.5330
 2236.0000   -30.9780    10.4430     7.8180     8.8370     0.0090   130.3070     2.5320
 2236.5000   -31.2250    10.5140     7.9230     8.8370     0.0080   129.8030     2.5310
 2237.0000   -31.1850    10.4990     7.9530     8.8360     0.0130   129.3260     2.5300
 2237.5000   -30.9510    10.4790     7.9430     8.8350     0.0220   128.8240     2.5270
 2238.0000   -30.7040    10.4850     7.9360     8.8350     0.0270   128.6320     2.5220
 2238.5000   -30.5550    10.4960     7.9410     8.8340     0.0180   130.3580     2.5150
 2239.0000   -30.5050    10.4930     7.9430     8.8340     0.0110   131.4750     2.5200
 2239.5000   -30.5050    10.4870     7.9400     8.8330     0.0030   130.4760     2.5340
 2240.0000   -30.5140    10.4890     7.9420     8.8320    -0.0030   131.2960     2.5350
 2240.5000   -30.5140    10.4930     7.9440     8.8200     0.0010   133.1240     2.5300
 2241.0000   -30.5100    10.4900     7.9380     8.8020     0.0050   135.1050     2.5260
 2241.5000   -30.5100    10.4870     7.9340     8.7920     0.0090   134.5530     2.5210
 2242.0000   -30.5130    10.4920     7.9590     8.7930     0.0130   133.7550     2.5220
 2242.5000   -30.5130    10.4960     8.0230     8.7930     0.0170   132.7580     2.5270
 2243.0000   -30.5110    10.4850     8.1110     8.7930     0.0170   131.8670     2.5270
 2243.5000   -30.5110    10.4770     8.2030     8.7930     0.0140   127.8490     2.5260
 2244.0000   -30.5130    10.5180     8.2880     8.7930     0.0120   124.5430     2.5320
 2244.5000   -30.5130    10.6470     8.3600     8.7930     0.0090   121.1620     2.5400
 2245.0000   -30.5110    10.8640     8.4320     8.7930     0.0080   121.3550     2.5310
 2245.5000   -30.5100    11.1240     8.5280     8.7930     0.0110   121.6440     2.5170
 2246.0000   -30.5140    11.3440     8.6380     8.7930     0.0120   122.0690     2.5230
 2246.5000   -30.5160    11.4400     8.6940     8.7920     0.0140   122.3870     2.5250
 2247.0000   -30.5020    11.3810     8.6290     8.7770     0.0130   122.8620     2.5160
 2247.5000   -30.4690    11.2150     8.4630     8.7620     0.0100   124.5260     2.5140
 2248.0000   -30.4230    11.0240     8.2760     8.7470     0.0070   126.9620     2.5210
 2248.5000   -30.3780    10.8510     8.1050     8.7310     0.0080   128.4480     2.5150
 2249.0000   -30.3380    10.6910     7.9290     8.7160     0.0110   129.9640     2.5070
 2249.5000   -30.3000    10.5250     7.7400     8.7010     0.0140   133.5300     2.5110
 2250.0000   -30.2610    10.3460     7.5900     8.6840     0.0170   134.8710     2.5170
 2250.5000   -30.2160    10.1640     7.5190     8.6760     0.0200   135.2680     2.5240
 2251.0000   -30.1670    10.0080     7.5000     8.6800     0.0230   134.0560     2.5300
 2251.5000   -30.1300     9.9160     7.4760     8.6810     0.0270   131.6910     2.5360
 2252.0000   -30.1140     9.8900     7.4310     8.6840     0.0250   132.1610     2.5400
 2252.5000   -30.1160     9.8980     7.3860     8.6860     0.0190   132.7030     2.5250
 2253.0000   -30.1200     9.9080     7.3600     8.6890     0.0140   133.3520     2.5110
 2253.5000   -30.1190     9.9070     7.3510     8.6910     0.0090   132.6980     2.5030
 2254.0000   -30.1170     9.8980     7.3500     8.6930     0.0090   130.1470     2.5030
 2254.5000   -30.1170     9.8930     7.3560     8.6960     0.0100   127.4300     2.5030
 2255.0000   -30.1190     9.9050     7.3580     8.6980     0.0110   125.3790     2.5060
 2255.5000   -30.1180     9.9200     7.3420     8.7010     0.0110   125.4300     2.5090
 2256.0000   -30.1170     9.8770     7.3000     8.7030     0.0120   126.9490     2.5110
 2256.5000   -30.1190     9.7270     7.2410     8.7050     0.0120   127.7810     2.5060
 2257.0000   -30.1210     9.5140     7.1780     8.7070     0.0110   127.2480     2.5010
 2257.5000   -30.1130     9.3500     7.1190     8.7100     0.0090   129.2000     2.5070
 2258.0000   -30.0920     9.2950     7.0650     8.7120     0.0080   131.4310     2.4980
 2258.5000   -30.0600     9.3080     7.0140     8.7130     0.0080   131.9090     2.5030
 2259.0000   -30.0130     9.3200     6.9530     8.6930     0.0070   128.6130     2.5090
 2259.5000   -29.9610     9.3160     6.8640     8.6720     0.0070   125.3870     2.5020
 2260.0000   -29.9250     9.3150     6.7430     8.6490     0.0070   124.7970     2.4980
 2260.5000   -29.9040     9.3050     6.6120     8.6280     0.0080   121.7590     2.5190
 2261.0000   -29.8580     9.2450     6.4950     8.6060     0.0090   121.5920     2.5240
 2261.5000   -29.7770     9.1220     6.3800     8.5850     0.0100   121.5450     2.5210
 2262.0000   -29.7400     8.9830     6.2460     8.5610     0.0120   121.7750     2.5280
 2262.5000   -29.8310     8.8740     6.1050     8.5530     0.0090   123.2790     2.5240
 2263.0000   -30.0120     8.7700     6.0080     8.5450     0.0050   123.1950     2.5090
 2263.5000   -30.1430     8.6030     5.9800     8.5380     0.0010   123.7500     2.4970
 2264.0000   -30.1500     8.4550     5.9630     8.5300     0.0040   123.1760     2.5030
 2264.5000   -30.1020     8.4310     5.9600     8.5230     0.0090   122.2230     2.5110
 2265.0000   -30.0990     8.4840     5.9970     8.5150     0.0110   124.7190     2.5200
 2265.5000   -30.1350     8.5620     6.0440     8.5080     0.0100   127.0710     2.5270
 2266.0000   -30.1360     8.8330     6.0340     8.5000     0.0110   127.9690     2.5250
 2266.5000   -30.0900     9.3160     6.1100     8.4920     0.0170   128.7890     2.5220
 2267.0000   -30.0910     9.5090     6.5580     8.4850     0.0220   127.8290     2.5340
 2267.5000   -30.2150     9.2110     7.3070     8.4770     0.0280   124.3920     2.5340
 2268.0000   -30.4290     9.3630     7.9650     8.4700     0.0260   120.0490     2.5280
 2268.5000   -30.6670    10.7970     8.6130     8.4620     0.0250   113.4520     2.5340
 2269.0000   -30.9490    12.5910     9.9590     8.4550     0.0310   101.7260     2.5410
 2269.5000   -31.3560    13.6070    12.3140     8.4470     0.0390    84.6090     2.5340
 2270.0000   -31.9050    15.3130    15.1900     8.4370     0.0400    73.4570     2.5270
 2270.5000   -32.5080    20.4170    18.3990     8.3900     0.0350    65.3330     2.5070
 2271.0000   -33.0860    28.3040    22.5660     8.3500     0.0320    64.8270     2.4840
 2271.5000   -33.6380    34.6150    27.6770     8.2880     0.0270    66.7280     2.4370
 2272.0000   -34.1990    36.3510    32.0390     8.2010     0.0340    69.4700     2.3910
 2272.5000   -34.7650    35.0250    33.8530     8.1150     0.0490    72.0380     2.3690
 2273.0000   -35.2940    33.7070    33.2800     8.0200     0.0440    73.9980     2.3630
 2273.5000   -35.7810    33.2400    31.9950     7.9690     0.0350    74.1330     2.3640
 2274.0000   -36.2940    32.7830    31.1910     7.9770     0.0400    73.1180     2.3660
 2274.5000   -36.8590    32.1570    30.8980     7.9760     0.0510    71.2140     2.3680
 2275.0000   -37.3360    31.9130    30.8200     7.9780     0.0480    69.4410     2.3650
 2275.5000   -37.4920    32.0990    30.8800     7.9790     0.0440    67.7030     2.3580
 2276.0000   -37.2600    32.1100    31.0550     7.9800     0.0400    66.7150     2.3520
 2276.5000   -36.8270    32.1980    30.9450     7.9820     0.0370    67.5320     2.3470
 2277.0000   -36.4220    32.2560    30.8980     7.9830     0.0430    68.1070     2.3500
 2277.5000   -36.0920    32.2710    30.7530     7.9850     0.0510    66.6430     2.3530
 2278.0000   -35.7740    32.3150    30.5200     7.9860     0.0490    65.5300     2.3570
 2278.5000   -35.4410    32.3700    30.6020     7.9870     0.0400    64.2730     2.3600
 2279.0000   -35.0940    32.4090    31.1620     7.9890     0.0310    62.9750     2.3570
 2279.5000   -34.7180    32.4520    31.8820     7.9900     0.0260    62.9180     2.3540
 2280.0000   -34.3540    32.5320    32.4590     7.9920     0.0260    64.3800     2.3510
