~VERSION INFORMATION
 VERS.                2.0:   CWLS LOG ASCII STANDARD - VERSION 2.0
 WRAP.                 NO:   ONE LINE PER DEPTH STEP
~WELL INFORMATION
#MNEM.UNIT      DATA TYPE    INFORMATION
#----------   ------------   ------------------------------
 STRT.F          192.0000:   START DEPTH
 STOP.F         3016.0000:   STOP DEPTH
 STEP.F            0.5000:   STEP LENGTH
 NULL.          -999.2500:   NO VALUE
 COMP. FENIX & SCISSON U.S. NAVY:   COMPANY
 WELL.  FENIX "AX" #81-33:   WELL
 FLD .              NPR-3:   FIELD
 LOC .      S33 T39N R78W:   LOCATION
 CNTY.            NATRONA:   COUNTY
 STAT.            WYOMING:   STATE
 CTRY. UNITED STATES OF AMERICA:   COUNTRY
 SRVC.              WELEX:   SERVICE COMPANY
 DATE.        12-MAY-1977:   LOGDATE
 API .     49025109850000:   API NUMBER
~CURVE INFORMATION
#MNEM.UNIT       API CODE    CURVE DESCRIPTION
#----------   ------------   ------------------------------
 DEPT.F                  :   
 SPR .MV     07 010 01 00:   SPONTANEOUS POTENTIAL
 RILM.OHMM   07 120 44 00:   INDUCTION LOG MEDIUM RESISTIVITY
 RILD.OHMM   07 120 46 00:   DEEP INDUCTION RESISTIVITY
 SGRD.OHMM   07 220 05 00:   SHALLOW GUARD LOG RESISTIVITY
 NPHI.DEC    42 890 03 00:   NEUTRON POROSITY SANDSTONE
 GRD .GAPI   45 310 01 00:   GAMMA RAY FROM DENSITY LOG
 CALD.IN     45 280 60 00:   CALIPER FROM DENSITY LOG
 RHOB.G/C3   45 350 01 00:   BULK DENSITY
 DCOR.G/C3   45 356 01 00:   DENSITY CORRECTION
~PARAMETER INFORMATION
#MNEM.UNIT          VALUE    DESCRIPTION
#----------   ------------   ------------------------------
 EKB .F         5114.0000:   Kelly bushing
 EGL .F         5100.0000:   Ground level
 EDF .F         5112.0000:   Drilling floor
 TD  .F         3014.0000:   Total depth
 DATE.        12-MAY-1977:   Date logged
 CLNT.            A2DTECH:   Client Code
 SL  . 660' FEL & 660' FNL:   Surface Location
 PD  .                 GL:   Permanent Datum
 EPD .F              5100:   Elevation Permanent Datum
 LMF .                 KB:   Log Measured From
 DMF .                 KB:   Drilling Measured From
 DD  .F              3000:   Depth driller
 DL  .F              3014:   Depth logger
 BLI .F              3012:   Bottom log interval
 TLI .F              1500:   Top log interval
 CS1 .IN            8.625:   Casing size
 CBD1.      8.625" @ 217':   Casing driller 1
 CBL1.F               209:   Casing logger 1
 BS1 .IN            7.875:   Bit size
 BSD1.F              3000:   Depth drilled with bit1
 DFT .            KCL MUD:   Type fluid in hole
 DFD .                  9:   Density
 DFV .                 33:   Viscosity
 DFPH.                7.5:   pH
 DFL .                7.8:   Fluid loss
 MSS .           FLOWLINE:   Source of sample
 RMS .OHMM           0.69:   Rm
 MST .F                68:   Rm Meas. temp.
 RMF .OHMM           0.66:   Rmf
 MFST.F                68:   Rmf Meas. temp.
 RMC .OHMM           1.27:   Rmc
 MCST.F                68:   Rmc Meas. temp.
 MFSS.                 BK:   Source Rmf.
 MCSS.                 BK:   Source Rmc.
 RMB .OHMM           0.39:   Rm. at BHT
 BHT .F               118:   BHT.
 TCS .HRS               6:   Time Circ. stopped
 MRT .F               118:   Maximum recorded temp.
 LUN .               9685:   Logging unit number
 LUL .           BRIGHTON:   Logging unit location
 ENGI.          T. JOYNER:   Recorded By
 WITN.            K. JAPP:   Witnessed by
 ORIG.           5" PRINT:   Origin of data
 UWI .     49025109850000:   Unique Well ID
 DICO. A2D TECHNOLOGIES, INC.:   Digitizing Company
~OTHER INFORMATION
~A   DEPT      SPR       RILM       RILD       SGRD       NPHI         GRD        CALD       RHOB     DCOR   
# ...
 1104.5000   -31.4710     7.2250     6.8030    10.6440  -999.2500   119.7350     8.5110     2.5070     0.0300
 1105.0000   -31.4700     7.1800     6.8240    10.7540  -999.2500   120.1830     8.5000     2.5080     0.0330
 1105.5000   -31.4500     7.1360     6.8450    10.7540  -999.2500   120.5780     8.4900     2.5100     0.0360
 1106.0000   -31.3910     7.0920     6.9050    10.7540  -999.2500   120.7890     8.4800     2.5100     0.0370
 1106.5000   -31.3340     7.0460     6.9920    11.2270  -999.2500   121.0040     8.4840     2.5060     0.0370
 1107.0000   -31.2760     7.6010     7.0790    11.7090  -999.2500   121.2200     8.4880     2.5030     0.0310
 1107.5000   -31.2180     8.2380     7.1650    12.2310  -999.2500   121.4360     8.4920     2.5080     0.0290
 1108.0000   -31.1610     8.1170     7.2520    12.0930  -999.2500   121.6520     8.4960     2.5130     0.0350
 1108.5000   -31.1030     7.7940     7.3100    11.8400  -999.2500   121.8670     8.5000     2.5150     0.0390
 1109.0000   -31.0460     7.4450     7.2800    11.5870  -999.2500   122.0830     8.5040     2.5170     0.0380
 1109.5000   -30.9880     7.4450     7.2580    11.3340  -999.2500   122.2980     8.5080     2.5200     0.0370
 1110.0000   -30.9300     7.4450     7.2430    11.2360  -999.2500   122.5130     8.5120     2.5230     0.0380
 1110.5000   -30.8730     7.4200     7.2430    11.2020  -999.2500   122.7620     8.5160     2.5280     0.0420
 1111.0000   -30.8150     7.3770     7.2430    11.1570  -999.2500   123.0110     8.5200     2.5330     0.0460
 1111.5000   -30.7570     7.4510     7.1690    11.2520  -999.2500   123.2610     8.5140     2.5370     0.0500
 1112.0000   -30.7000     7.6080     7.1110    11.4690  -999.2500   123.5030     8.5080     2.5410     0.0530
 1112.5000   -30.6420     7.7240     7.2430    11.3470  -999.2500   123.5420     8.5020     2.5350     0.0470
 1113.0000   -30.5840     7.2330     7.0910    11.0780  -999.2500   122.6300     8.4960     2.5290     0.0410
 1113.5000   -30.5270     7.1820     6.9180    10.6560  -999.2500   121.7320     8.4900     2.5240     0.0350
 1114.0000   -30.5080     7.2130     6.9660    10.7160  -999.2500   120.8370     8.4840     2.5210     0.0340
 1114.5000   -30.5600     7.2710     7.0140    10.8580  -999.2500   119.9410     8.4780     2.5180     0.0360
 1115.0000   -30.6110     7.3290     7.0610    11.0010  -999.2500   119.0410     8.4720     2.5130     0.0370
 1115.5000   -30.6620     7.3860     7.1090    11.1430  -999.2500   118.1490     8.4660     2.5060     0.0350
 1116.0000   -30.7130     7.4450     7.1770    11.2600  -999.2500   117.8260     8.4610     2.5000     0.0270
 1116.5000   -30.7640     7.3370     7.1060    10.9380  -999.2500   117.5280     8.4700     2.4930     0.0200
 1117.0000   -30.8150     7.2270     6.9830    10.6660  -999.2500   117.5050     8.4810     2.4940     0.0240
 1117.5000   -30.8680     7.1110     6.8600    10.2710  -999.2500   118.0100     8.4910     2.4970     0.0280
 1118.0000   -30.8430     7.1110     6.7290    10.3420  -999.2500   118.5030     8.5010     2.5010     0.0360
 1118.5000   -30.7870     7.1110     6.8540    10.4730  -999.2500   119.0650     8.5120     2.5050     0.0350
 1119.0000   -30.7300     7.2450     6.7980    10.6040  -999.2500   119.8820     8.5220     2.5090     0.0330
 1119.5000   -30.6730     7.4450     6.7210    10.7350  -999.2500   120.7150     8.5320     2.5120     0.0370
 1120.0000   -30.6160     7.2950     6.6680    10.8530  -999.2500   121.5470     8.5430     2.5160     0.0400
 1120.5000   -30.5590     7.1290     6.8540    10.5900  -999.2500   122.3800     8.5530     2.5160     0.0410
 1121.0000   -30.4990     7.0050     6.7410    10.3510  -999.2500   123.2200     8.5580     2.5140     0.0400
 1121.5000   -30.5580     6.8860     6.6140    10.1500  -999.2500   124.0640     8.5530     2.5100     0.0380
 1122.0000   -30.6410     6.7680     6.5290    10.0520  -999.2500   123.8040     8.5490     2.5060     0.0370
 1122.5000   -30.7260     6.6490     6.4640     9.9000  -999.2500   123.4680     8.5440     2.5020     0.0370
 1123.0000   -30.8100     6.6070     6.3990     9.9360  -999.2500   123.1350     8.5390     2.5020     0.0390
 1123.5000   -30.8800     6.8040     6.3340    10.0150  -999.2500   122.8050     8.5350     2.5050     0.0410
 1124.0000   -30.8670     7.1770     6.2600    10.0950  -999.2500   122.4750     8.5300     2.5090     0.0430
 1124.5000   -30.8530     7.0460     6.5460    10.1750  -999.2500   122.1440     8.5250     2.5120     0.0460
 1125.0000   -30.8390     6.7310     6.5210    10.2710  -999.2500   121.8000     8.5200     2.5160     0.0480
 1125.5000   -30.8250     6.6200     6.4580    10.1570  -999.2500   121.8160     8.5420     2.5200     0.0560
 1126.0000   -30.8110     6.5600     6.3950    10.0140  -999.2500   121.9530     8.5660     2.5210     0.0620
 1126.5000   -30.7970     6.5460     6.3170     9.8100  -999.2500   122.0950     8.5900     2.5210     0.0530
 1127.0000   -30.7840     6.5460     6.4100     9.9410  -999.2500   122.2370     8.6140     2.5220     0.0590
 1127.5000   -30.7700     6.6880     6.1950    10.1720  -999.2500   122.3790     8.6390     2.5220     0.0560
 1128.0000   -30.7560     6.9420     6.3530    10.4040  -999.2500   122.5210     8.6630     2.5230     0.0680
 1128.5000   -30.7420     7.1330     6.5640    10.5580  -999.2500   122.6630     8.6870     2.5210     0.0640
 1129.0000   -30.7280     7.1770     6.7920    10.4380  -999.2500   122.8050     8.7120     2.5200     0.0660
 1129.5000   -30.7140     7.0780     6.6180    10.3480  -999.2500   122.9020     8.7360     2.5180     0.0620
 1130.0000   -30.7000     7.0460     6.4860    10.2590  -999.2500   122.6650     8.7270     2.5140     0.0590
 1130.5000   -30.6860     6.9920     6.6180    10.1770  -999.2500   122.4340     8.7130     2.5080     0.0490
 1131.0000   -30.7080     6.9180     6.7180    10.2910  -999.2500   122.2030     8.7000     2.5020     0.0520
 1131.5000   -30.7360     7.0660     6.7290    10.3960  -999.2500   121.9730     8.6860     2.4960     0.0480
 1132.0000   -30.7650     7.3800     6.9160    10.5010  -999.2500   121.7430     8.6720     2.4910     0.0430
 1132.5000   -30.7940     7.8680     7.0460    10.5780  -999.2500   121.5130     8.6580     2.4950     0.0350
 1133.0000   -30.8220     7.6960     6.8030    10.6220  -999.2500   121.2830     8.6440     2.5000     0.0280
 1133.5000   -30.8510     7.3100     6.9210    10.6560  -999.2500   121.0530     8.6470     2.5060     0.0200
 1134.0000   -30.8790     6.8540     7.0000    10.6560  -999.2500   120.8230     8.6580     2.5110     0.0150
 1134.5000   -30.8820     7.0720     7.0640    10.7550  -999.2500   120.5930     8.6700     2.5170     0.0210
 1135.0000   -30.8820     7.6540     7.1070    10.9940  -999.2500   120.3630     8.6810     2.5220     0.0270
 1135.5000   -30.8820     7.4450     7.1500    11.2340  -999.2500   120.1320     8.6930     2.5280     0.0340
 1136.0000   -30.8820     7.9400     7.1930    11.5750  -999.2500   119.9060     8.7040     2.5330     0.0380
 1136.5000   -30.8820     7.8990     7.2360    11.4280  -999.2500   119.8030     8.7160     2.5360     0.0390
 1137.0000   -30.8820     7.6320     7.2800    11.1750  -999.2500   120.2620     8.7280     2.5350     0.0360
 1137.5000   -30.8820     7.2160     7.3230    10.9210  -999.2500   120.7110     8.7380     2.5330     0.0400
 1138.0000   -30.8820     6.6070     7.3770    10.7540  -999.2500   121.1590     8.7260     2.5320     0.0370
 1138.5000   -30.8820     6.6610     7.2930    10.9080  -999.2500   121.6080     8.7130     2.5300     0.0400
 1139.0000   -30.8440     6.8440     7.1800    11.0550  -999.2500   122.0600     8.6990     2.5280     0.0450
 1139.5000   -30.7350     7.1970     7.0660    10.9190  -999.2500   122.4860     8.6860     2.5250     0.0440
 1140.0000   -30.6270     7.5140     6.9180    10.7300  -999.2500   122.1010     8.6730     2.5190     0.0420
 1140.5000   -30.5160     7.2290     6.9860    10.5410  -999.2500   121.6760     8.6600     2.5130     0.0390
