~VERSION INFORMATION
 VERS.                2.0:   CWLS LOG ASCII STANDARD - VERSION 2.0
 WRAP.                 NO:   ONE LINE PER DEPTH STEP
~WELL INFORMATION
#MNEM.UNIT      DATA TYPE    INFORMATION
#----------   ------------   ------------------------------
 STRT.F          200.0000:   START DEPTH
 STOP.F         3058.0000:   STOP DEPTH
 STEP.F            0.5000:   STEP LENGTH
 NULL.          -999.2500:   NO VALUE
 COMP.    FENIX & SCISSON:   COMPANY
 WELL. FENIX & SCISSON "A" #45-34:   WELL
 FLD .              N P R:   FIELD
 LOC .      S34 T39N R78W:   LOCATION
 CNTY.            NATRONA:   COUNTY
 STAT.            WYOMING:   STATE
 CTRY. UNITED STATES OF AMERICA:   COUNTRY
 SRVC.              WELEX:   SERVICE COMPANY
 DATE.        11-MAY-1977:   LOGDATE
 API .     49025103760000:   API NUMBER
~CURVE INFORMATION
#MNEM.UNIT       API CODE    CURVE DESCRIPTION
#----------   ------------   ------------------------------
 DEPT.F                  :   
 GRD .GAPI   45 310 01 00:   GAMMA RAY FROM DENSITY LOG
 CALD.IN     45 280 60 00:   CALIPER FROM DENSITY LOG
 RHOB.G/C3   45 350 01 00:   BULK DENSITY
 CORR.G/C3   45 356 01 00:   DENSITY CORRECTION
 SPR .MV     07 010 01 00:   SPONTANEOUS POTENTIAL
 ILD .OHMM   07 120 46 00:   DEEP INDUCTION RESISTIVITY
 ILM .OHMM   07 120 44 00:   INDUCTION LOG MEDIUM RESISTIVITY
 GURD.OHMM   07 220 05 00:   GUARD LOG RESISTIVITY
~PARAMETER INFORMATION
#MNEM.UNIT          VALUE    DESCRIPTION
#----------   ------------   ------------------------------
 EKB .F         5123.0000:   Kelly bushing
 EGL .F         5113.0000:   Ground level
 EDF .F            0.0000:   Drilling floor
 EPD .F            0.0000:   Permanent datum
 TD  .F         3060.0000:   Total depth
 DATE.        11-MAY-1977:   Date logged
 CLNT.            A2DTECH:   Client Code
 SL  . 2310' FSL & 2310' FWL:   Surface Location
 PD  .                 GL:   Permanent Datum
 DD  .F              3060:   Depth driller
 DL  .F              3060:   Depth logger
 BLI .F              3058:   Bottom log interval
 CS1 .IN            8.625:   Casing size
 CBD1.      8.625" @ 205':   Casing driller 1
 CBL1.F               214:   Casing logger 1
 BS1 .IN            7.875:   Bit size
 DFT .            KCL/MUD:   Type fluid in hole
 DFD .                8.8:   Density
 DFV .                 45:   Viscosity
 MSS .           FLOWLINE:   Source of sample
 RMS .OHMM            3.2:   Rm
 MST .F                85:   Rm Meas. temp.
 RMF .OHMM            2.7:   Rmf
 MFST.F                85:   Rmf Meas. temp.
 RMC .OHMM            3.6:   Rmc
 MCST.F                85:   Rmc Meas. temp.
 MFSS.               CALC:   Source Rmf.
 RMB .OHMM           2.44:   Rm. at BHT
 BHT .F               112:   BHT.
 TCS .HRS             2.5:   Time Circ. stopped
 MRT .F               112:   Maximum recorded temp.
 LUN .               8611:   Logging unit number
 LUL .           GILLETTE:   Logging unit location
 ENGI.            C. DOAK:   Recorded By
 WITN.      B. HARRINGTON:   Witnessed by
 ORIG.           5" PRINT:   Origin of data
 UWI .     49025103760000:   Unique Well ID
 DICO. A2D TECHNOLOGIES, INC.:   Digitizing Company
 DAPD.F                10:   Feet Above Permanent Datum
 BSD1.F              3060:   Depth drilled with bit1
 MCSS.               CALC:   Source Rmc.
 TLI .F               200:   Top log interval
~OTHER INFORMATION
~A   DEPT       GRD      CALD         RHOB      CORR       SPR        ILD        ILM       GURD   
# ...
 1698.5000   111.7660     9.2030     2.4800     0.0180   -41.2920     6.2400     6.9610     8.5850
 1699.0000   112.3960     9.2010     2.4710     0.0130   -41.2890     6.3320     7.0450     8.7900
 1699.5000   113.0230     9.2000     2.4620     0.0090   -41.2870     6.4240     7.1280     8.9950
 1700.0000   113.6460     9.1990     2.4540     0.0040   -41.2840     6.5160     7.2120     9.2410
 1700.5000   114.2700     9.1970     2.4460     0.0000   -41.2810     6.6090     7.2960     9.1730
 1701.0000   114.8970     9.1960     2.4490    -0.0010   -41.2780     6.7010     7.3800     9.0720
 1701.5000   115.5180     9.1950     2.4550    -0.0010   -41.2760     6.7930     7.4630     9.3210
 1702.0000   116.1460     9.1940     2.4610    -0.0010   -41.2730     6.8850     7.5470     9.6330
 1702.5000   116.7760     9.1920     2.4660    -0.0010   -41.2700     6.9770     7.6310     9.9440
 1703.0000   117.2440     9.1910     2.4630    -0.0010   -41.2670     7.0290     7.7140    10.3180
 1703.5000   117.1580     9.1900     2.4640    -0.0010   -41.2650     7.0550     7.8310    10.2850
 1704.0000   117.0600     9.1880     2.4710    -0.0010   -41.2620     7.0820     7.8290    10.2430
 1704.5000   116.9430     9.1870     2.4740    -0.0010   -41.2590     7.1080     7.8240    10.2010
 1705.0000   116.8380     9.1860     2.4740    -0.0010   -41.2570     7.1340     7.8180    10.1590
 1705.5000   116.7280     9.1840     2.4720    -0.0010   -41.2540     7.1600     7.8130    10.1170
 1706.0000   116.6110     9.1830     2.4750    -0.0010   -41.2510     7.1860     7.8070    10.0750
 1706.5000   116.5320     9.1820     2.4810    -0.0010   -41.2480     7.2120     7.8020    10.0330
 1707.0000   116.2130     9.1800     2.4870    -0.0010   -41.2460     7.2390     7.7960     9.9910
 1707.5000   115.7410     9.1790     2.4870    -0.0010   -41.2430     7.2650     7.7910     9.9490
 1708.0000   115.3120     9.1780     2.4760    -0.0010   -41.2400     7.2910     7.7860     9.9070
 1708.5000   114.8720     9.1760     2.4660    -0.0010   -41.2380     7.3170     7.7800     9.8650
 1709.0000   114.4330     9.1750     2.4550    -0.0010   -41.2350     7.3440     7.7750     9.8220
 1709.5000   114.0110     9.1740     2.4580    -0.0010   -41.2320     7.3700     7.7700     9.7650
 1710.0000   113.5150     9.1720     2.4620    -0.0010   -41.2290     7.4110     7.7640     9.8020
 1710.5000   113.6060     9.1710     2.4670    -0.0010   -41.2270     7.4070     7.7590     9.8660
 1711.0000   114.3420     9.1700     2.4700    -0.0010   -41.2240     7.3940     7.7540     9.9310
 1711.5000   115.0690     9.1680     2.4710     0.0010   -41.2210     7.3820     7.7480     9.9950
 1712.0000   115.8030     9.1670     2.4720     0.0030   -41.2190     7.3690     7.7430    10.0600
 1712.5000   116.5420     9.1660     2.4740     0.0040   -41.2160     7.3570     7.7380    10.1240
 1713.0000   117.2920     9.1650     2.4790     0.0060   -41.2130     7.3440     7.7320    10.1890
 1713.5000   118.0010     9.1630     2.4830     0.0070   -41.2100     7.3320     7.7270    10.2530
 1714.0000   118.7860     9.1620     2.4900     0.0090   -41.2080     7.3200     7.7220    10.3170
 1714.5000   118.6230     9.1610     2.4990     0.0100   -41.2050     7.3070     7.7170    10.3810
 1715.0000   118.2070     9.1590     2.5070     0.0120   -41.2020     7.2950     7.7110    10.4450
 1715.5000   117.7860     9.1580     2.5160     0.0140   -41.1990     7.2820     7.7060    10.5090
 1716.0000   117.3860     9.1570     2.5220     0.0150   -41.1970     7.2700     7.7010    10.4700
 1716.5000   116.9710     9.1550     2.5230     0.0170   -41.1940     7.2580     7.6950    10.4310
 1717.0000   116.5610     9.1540     2.5210     0.0180   -41.1910     7.2450     7.6890    10.3920
 1717.5000   116.1550     9.1530     2.5200     0.0180   -41.1890     7.2330     7.6580    10.3530
 1718.0000   115.7370     9.1510     2.5230     0.0160   -41.1860     7.2210     7.6200    10.3140
 1718.5000   115.3370     9.1500     2.5240     0.0150   -41.1830     7.2080     7.5820    10.2750
 1719.0000   114.9320     9.1490     2.5240     0.0130   -41.1800     7.1960     7.5430    10.2360
 1719.5000   114.9040     9.1470     2.5170     0.0120   -41.1780     7.1830     7.5050    10.1960
 1720.0000   114.8970     9.1460     2.5080     0.0100   -41.1750     7.1710     7.4660    10.1570
 1720.5000   114.9190     9.1450     2.4990     0.0080   -41.1720     7.1590     7.4280    10.1180
 1721.0000   114.8580     9.1430     2.4900     0.0070   -41.1700     7.1450     7.3900    10.0790
 1721.5000   115.3650     9.1430     2.4810     0.0050   -41.1670     7.1150     7.3510    10.0400
 1722.0000   116.3140     9.1460     2.4710     0.0040   -41.1640     7.0410     7.3130    10.0010
 1722.5000   117.2040     9.1490     2.4720     0.0000   -41.1610     6.9670     7.2740     9.9620
 1723.0000   118.1010     9.1520     2.4810     0.0000   -41.1590     6.8930     7.2360     9.9320
 1723.5000   118.8080     9.1540     2.4890     0.0010   -41.1560     6.8190     7.1980     9.9080
 1724.0000   118.8130     9.1570     2.4940     0.0020   -41.1530     6.7590     7.1590     9.8850
 1724.5000   118.8280     9.1600     2.4760     0.0030   -41.1500     6.6760     7.1210     9.8610
 1725.0000   118.8220     9.1630     2.4750     0.0040   -41.1480     6.6050     7.0830     9.8380
 1725.5000   118.8230     9.1660     2.4740     0.0060   -41.1450     6.5340     7.0440     9.8150
 1726.0000   118.8180     9.1690     2.4770     0.0070   -41.1420     6.4640     7.0140     9.7910
 1726.5000   118.8460     9.1720     2.4820     0.0060   -41.1400     6.3930     6.9790     9.7680
 1727.0000   118.5360     9.1750     2.4860     0.0020   -41.1370     6.3220     6.9510     9.7440
 1727.5000   117.7710     9.1780     2.4830    -0.0010   -41.1340     6.2520     6.9220     9.7210
 1728.0000   117.0400     9.1810     2.4630    -0.0050   -41.1310     6.1650     6.8940     9.6980
 1728.5000   116.3110     9.1840     2.4550    -0.0090   -41.1290     6.1680     6.8650     9.6740
 1729.0000   115.5520     9.1870     2.4530    -0.0130   -41.1260     6.1650     6.8370     9.6510
 1729.5000   114.8350     9.1890     2.4500    -0.0120   -41.1230     6.1670     6.8080     9.6270
 1730.0000   114.1810     9.1920     2.4470    -0.0080   -41.1210     6.1670     6.7800     9.6040
 1730.5000   114.5340     9.1950     2.4510    -0.0040   -41.1180     6.1670     6.7510     9.5810
 1731.0000   114.9180     9.1980     2.4600     0.0000   -41.1150     6.1670     6.7230     9.5570
 1731.5000   115.3140     9.2010     2.4680     0.0040   -41.1120     6.1670     6.6940     9.5340
 1732.0000   115.6360     9.2040     2.4760     0.0090   -41.1100     6.1670     6.6660     9.5100
 1732.5000   115.1500     9.2070     2.4850     0.0130   -41.1070     6.1670     6.6370     9.4870
 1733.0000   114.6910     9.2100     2.4820     0.0150   -41.1040     6.1670     6.6370     9.4640
 1733.5000   114.1800     9.2130     2.4770     0.0120   -41.1010     6.1670     6.6370     9.4400
 1734.0000   113.6540     9.2160     2.4720     0.0090   -41.0990     6.1670     6.6370     9.4120
 1734.5000   113.7740     9.2190     2.4670     0.0070   -41.0960     6.1670     6.6370     9.3090
 1735.0000   115.3630     9.2220     2.4620     0.0040   -41.0930     6.1670     6.6370     9.1800
 1735.5000   116.8930     9.2240     2.4660     0.0010   -41.0910     6.1670     6.6370     9.0520
 1736.0000   118.4440     9.2270     2.4720    -0.0010   -41.0880     6.1670     6.6370     8.9230
 1736.5000   119.9500     9.2300     2.4760    -0.0010   -41.0850     6.1670     6.6370     8.7940
 1737.0000   121.4990     9.2330     2.4720     0.0000   -41.0820     6.1670     6.6360     8.6650
 1737.5000   121.9920     9.2360     2.4680     0.0010   -41.0800     6.1670     6.6400     8.5370
 1738.0000   121.9560     9.2390     2.4640     0.0020   -41.0770     6.1660     6.6090     8.4080
 1738.5000   121.9570     9.2420     2.4680     0.0030   -41.0740     6.1670     6.5530     8.2790
