~VERSION INFORMATION
 VERS.                2.0:   CWLS LOG ASCII STANDARD - VERSION 2.0
 WRAP.                 NO:   ONE LINE PER DEPTH STEP
~WELL INFORMATION
#MNEM.UNIT      DATA TYPE    INFORMATION
#----------   ------------   ------------------------------
 STRT.F            0.0000:   START DEPTH
 STOP.F         4700.0000:   STOP DEPTH
 STEP.F            0.5000:   STEP LENGTH
 NULL.          -999.2500:   NO VALUE
 COMP. LAWRENCE ALLISON & ASSOCIATES:   COMPANY
 WELL. LAWRENCE NPR 3 "X" #33-23:   WELL
 FLD .                NPR:   FIELD
 LOC .      S23 T38N R78W:   LOCATION
 CNTY.            NATRONA:   COUNTY
 STAT.            WYOMING:   STATE
 CTRY. UNITED STATES OF AMERICA:   COUNTRY
 SRVC.      DRESSER ATLAS:   SERVICE COMPANY
 DATE.        12-NOV-1984:   LOGDATE
 API .     49025109930000:   API NUMBER
~CURVE INFORMATION
#MNEM.UNIT       API CODE    CURVE DESCRIPTION
#----------   ------------   ------------------------------
 DEPT.F                  :   
 TEND.LBS    45 635 01 00:   TENSION FROM DENSITY LOG
 CALD.IN     45 280 60 00:   CALIPER FROM DENSITY LOG
 CORR.G/C3   45 356 01 00:   DENSITY CORRECTION
 DEN .G/C3   45 350 01 00:   BULK DENSITY
 CNC .DEC    42 890 03 00:   NEUTRON PORISITY SANDSTONE
 SPR .MV     07 010 01 00:   SPONTANEOUS POTENTIAL
 GRR .GAPI   07 310 01 00:   GAMMA RAY FROM RESISTIVITY
 RFOC.OHMM   07 220 01 00:   RESISTIVITY FOCUSED LOG RES.
 ILM .OHMM   07 120 44 00:   INDUCTION LOG MEDIUM RESISTIVITY
 ILD .OHMM   07 120 46 00:   INDUCTION LOG DEEP RESISTIVITY
 TENS.LBS    60 635 01 00:   TENSION FROM SONIC LOG
 DT  .US/F   60 520 00 00:   DELTA TIME
 TENR.LBS    07 635 01 00:   TENSION
~PARAMETER INFORMATION
#MNEM.UNIT          VALUE    DESCRIPTION
#----------   ------------   ------------------------------
 EKB .F         5308.0000:   Kelly bushing
 EGL .F         5296.0000:   Ground level
 EDF .F            0.0000:   Drilling floor
 EPD .F            0.0000:   Permanent datum
 TD  .F         4695.0000:   Total depth
 DATE.        12-NOV-1984:   Date logged
 CLNT.            A2DTECH:   Client Code
 SL  . 1415' FNL & 1874' FWL:   Surface Location
 PD  .                 GL:   Permanent Datum
 LMF .                 KB:   Log Measured From
 DMF .                 KB:   Drilling Measured From
 DAPD.F                12:   Feet Above Permanent Datum
 DD  .F              4695:   Depth driller
 DL  .F              4694:   Depth logger
 BLI .F              4691:   Bottom log interval
 TLI .F              1205:   Top log interval
 CS1 .IN            8.625:   Casing size
 CBD1.     8.625" @ 1206':   Casing driller 1
 CBL1.F              1205:   Casing logger 1
 BS1 .IN            7.875:   Bit size
 BSD1.F              4695:   Depth drilled with bit1
 DFT .     GFL/KCL/STAFLO:   Type fluid in hole
 DFD .                9.2:   Density
 DFV .                 45:   Viscosity
 DFPH.                  8:   pH
 DFL .                 10:   Fluid loss
 MSS .           FLOWLINE:   Source of sample
 RMS .OHMM            .51:   Rm
 MST .F                72:   Rm Meas. temp.
 RMF .OHMM            .43:   Rmf
 MFST.F                70:   Rmf Meas. temp.
 RMC .OHMM            .64:   Rmc
 MCST.F                72:   Rmc Meas. temp.
 MFSS.               MEAS:   Source Rmf.
 MCSS.               CALC:   Source Rmc.
 RMB .OHMM           .272:   Rm. at BHT
 BHT .F               135:   BHT.
 TCS .HRS               4:   Time Circ. stopped
 MRT .F               135:   Maximum recorded temp.
 LUN .               6274:   Logging unit number
 LUL .               GLTE:   Logging unit location
 ENGI.             RAUTIO:   Recorded By
 ORIG.           5" PRINT:   Origin of data
 UWI .     49025109930000:   Unique Well ID
 DICO. A2D TECHNOLOGIES, INC.:   Digitizing Company
~OTHER INFORMATION
~A    DEPT    TEND       CALD       CORR        DEN        CNC        SPR         GRR      RFOC        ILM        ILD       TENS         DT       TENR   
# ...
 1898.0000   -59.2370    10.0040     0.0110     2.5260     0.2490   -28.5990    88.9340     7.3850     7.5310     7.7510   -73.7770    86.7380   -55.5830
 1898.5000   -59.2370    10.0040     0.0000     2.5210     0.2500   -28.5840    86.9660     7.4610     7.6120     7.8390   -73.9040    86.7140   -55.5830
 1899.0000   -59.2370    10.0040    -0.0100     2.5160     0.2510   -28.5670    85.4620     7.5370     7.6940     7.8740   -74.0310    86.6900   -55.5830
 1899.5000   -59.2370    10.0040    -0.0200     2.5130     0.2450   -28.5280    85.8660     7.6130     7.7670     7.9070   -74.1580    86.6660   -55.5830
 1900.0000   -59.2370    10.0040    -0.0270     2.5150     0.2370   -28.4180    88.5940     7.6960     7.8140     7.9400   -74.2850    86.6410   -55.5830
 1900.5000   -59.2370    10.0040    -0.0200     2.5160     0.2400   -28.3100    89.0060     7.7240     7.8560     7.9730   -74.4120    86.6170   -55.5830
 1901.0000   -59.2370    10.0040    -0.0100     2.5200     0.2460   -28.2030    87.2030     7.7630     7.8990     8.0060   -74.5390    86.5930   -55.5830
 1901.5000   -59.2370    10.0040     0.0010     2.5270     0.2530   -28.0950    86.4250     7.8020     7.9420     8.0390   -74.6660    86.6340   -55.5830
 1902.0000   -59.2370    10.0040     0.0110     2.5330     0.2550   -27.9870    89.7560     7.8410     7.9840     8.0710   -74.7920    86.7810   -55.5830
 1902.5000   -59.2370    10.0040     0.0180     2.5390     0.2510   -27.8780    93.4140     7.8810     8.0270     8.1040   -74.9190    86.4560   -55.5830
 1903.0000   -59.2370    10.0040     0.0200     2.5430     0.2460   -27.7760    95.2930     7.9200     8.0690     8.1460   -75.0460    86.0740   -55.5830
 1903.5000   -59.2370    10.0040     0.0230     2.5420     0.2450   -28.0020    91.0870     7.9590     8.1120     8.2390   -75.1730    85.6930   -55.5830
 1904.0000   -48.9410    10.0040     0.0000     2.5390     0.2450   -28.2520    85.2680     7.9980     8.1550     8.3310   -75.3000    84.8730   -55.5830
 1904.5000   -39.6680    10.0040     0.0090     2.5300     0.2440   -28.5020    85.1970     8.0380     8.1970     8.4240   -75.4270    83.8550   -55.5830
 1905.0000   -30.3940    10.0040     0.0270     2.5230     0.2340   -28.7480    88.4140     8.0770     8.2400     8.5170   -75.5540    82.8370   -55.5830
 1905.5000   -21.1210    10.0040     0.0220     2.5220     0.2220   -28.9590    91.6390     8.1320     8.2830     8.5930   -75.6810    82.4880   -55.5830
 1906.0000   -19.0760    10.0040     0.0090     2.5220     0.2230   -28.9530    94.8260     8.0620     8.1850     8.3960   -75.8070    82.7570   -55.5830
 1906.5000   -30.3210    10.0040     0.0040     2.5310     0.2280   -28.9520    97.5790     7.9420     8.0860     8.2300   -75.9340    83.8390   -55.5830
 1907.0000   -41.6560    10.0040     0.0030     2.5470     0.2340   -28.9370    96.6200     7.8230     7.9870     8.1000   -76.0610    84.9840   -55.5830
 1907.5000   -52.9900    10.0040     0.0170     2.5560     0.2390   -28.8560    93.6150     7.7040     7.8880     8.0230   -76.1880    86.1290   -55.5830
 1908.0000   -59.2370    10.0040     0.0220     2.5550     0.2440   -28.7760    90.5890     7.5840     7.7890     7.9450   -76.3150    86.4920   -55.5830
 1908.5000   -48.4740    10.0040     0.0030     2.5440     0.2500   -28.6970    90.4010     7.4650     7.6900     7.8670   -76.4420    86.6380   -55.5830
 1909.0000   -39.1570    10.0040    -0.0040     2.5340     0.2500   -28.6170    93.6290     7.3510     7.5560     7.8100   -76.5690    86.7810   -55.5830
 1909.5000   -39.1570    10.0040     0.0090     2.5330     0.2490   -28.5370    97.0620     7.3510     7.5870     7.7650   -76.6960    87.4460   -55.5830
 1910.0000   -39.1570    10.0040     0.0210     2.5350     0.2480   -28.4580   100.4920     7.4220     7.6360     7.7200   -76.8220    88.1000   -45.6130
 1910.5000   -39.1570    10.0040     0.0280     2.5380     0.2480   -28.3780    98.7510     7.4780     7.6840     7.6960   -76.9490    88.5490   -45.6130
 1911.0000   -39.1570    10.0040     0.0140     2.5370     0.2480   -28.2980    96.0940     7.5350     7.7320     7.7950   -77.0760    88.3900   -45.6130
 1911.5000   -39.1570    10.0040    -0.0020     2.5330     0.2480   -28.2200    92.4050     7.5920     7.7810     7.8740   -77.2030    87.0900   -45.6130
 1912.0000   -39.1570    10.0040    -0.0080     2.5280     0.2380   -28.1740    88.7420     7.6490     7.8290     7.9520   -77.3300    85.2720   -45.6130
 1912.5000   -39.1570    10.0040     0.0030     2.5330     0.2310   -28.2260    84.9720     7.7050     7.8780     8.0310   -77.4570    83.4540   -45.6130
 1913.0000   -39.1570    10.0040     0.0110     2.5510     0.2300   -28.2760    85.3290     7.7670     7.9110     8.1320   -77.5840    81.7510   -45.6130
 1913.5000   -39.1570    10.0040     0.0210     2.5630     0.2340   -28.3260    87.7070     7.7560     7.8860     8.0990   -77.7110    82.1670   -45.6130
 1914.0000   -39.1570    10.0040     0.0220     2.5520     0.2400   -28.3760    90.7090     7.7410     7.8640     8.0530   -77.8370    83.4680   -45.6130
 1914.5000   -39.1570    10.0040     0.0120     2.5440     0.2450   -28.4250    93.7450     7.7260     7.8410     8.0060   -77.9640    84.7690   -45.6130
 1915.0000   -39.1570    10.0040     0.0010     2.5410     0.2470   -28.4750    93.8870     7.7110     7.8180     7.9600   -78.0910    86.0700   -45.6130
 1915.5000   -39.1570    10.0040     0.0030     2.5380     0.2470   -28.5250    93.6110     7.6960     7.7960     7.9110   -78.2180    86.4750   -45.6130
 1916.0000   -39.1570    10.0040     0.0100     2.5280     0.2440   -28.5750    93.6180     7.6810     7.7730     7.9230   -78.3450    86.6030   -45.6130
 1916.5000   -39.1570    10.0040     0.0160     2.5170     0.2370   -28.6250    93.8620     7.6650     7.7510     7.9360   -78.4720    86.7300   -45.6130
 1917.0000   -39.1570    10.0040     0.0120     2.5130     0.2330   -28.6750    94.0970     7.6500     7.7280     7.9490   -78.5990    86.8570   -45.6130
 1917.5000   -39.1570    10.0040     0.0050     2.5240     0.2350   -28.7240    93.4340     7.6350     7.7060     7.9610   -78.7260    86.9840   -45.6130
 1918.0000   -39.1570    10.0040     0.0060     2.5330     0.2400   -28.7740    91.1660     7.6260     7.6020     7.9740   -78.8520    87.1120   -45.6130
 1918.5000   -39.1570    10.0040     0.0310     2.5420     0.2450   -28.8240    88.9490     7.7570     7.4410     7.9840   -78.9740    87.1380   -45.6130
 1919.0000   -39.1570    10.0040     0.0300     2.5510     0.2500   -28.8730    88.1440     7.8950     7.2800     7.6790   -78.9740    87.0370   -45.6130
 1919.5000   -39.1570    10.0040     0.0240     2.5480     0.2520   -28.9230    91.1590     7.7180     7.2170     7.4230   -78.9740    87.2470   -45.6130
 1920.0000   -39.1570    10.0040     0.0090     2.5410     0.2450   -28.9730    93.3700     7.4000     7.2170     7.0210   -78.9740    87.8190   -45.6130
 1920.5000   -39.1570    10.0040    -0.0110     2.5340     0.2390   -29.0720    89.6500     7.2170     7.2170     7.0330   -78.9740    88.3920   -45.6130
 1921.0000   -39.1570    10.0040    -0.0100     2.5300     0.2360   -29.1200    86.5580     7.2710     7.2170     7.0600   -78.9740    88.7930   -45.6130
 1921.5000   -39.1570    10.0040    -0.0070     2.5280     0.2340   -28.9690    83.3420     7.3150     7.2170     7.0870   -78.9740    88.5910   -45.6130
 1922.0000   -39.1570    10.0040    -0.0030     2.5270     0.2320   -28.8230    84.1820     7.3600     7.2170     7.1150   -78.9740    88.1950   -45.6130
 1922.5000   -39.1570    10.0040     0.0000     2.5250     0.2310   -28.6760    86.7900     7.4040     7.2180     7.1510   -78.9740    87.7990   -45.6130
 1923.0000   -39.1570    10.0040     0.0030     2.5230     0.2320   -28.5300    90.5730     7.4870     7.1730     7.0960   -78.9740    87.3840   -45.6130
 1923.5000   -39.1570    10.0040     0.0040     2.5240     0.2320   -28.3840    94.5390     7.3500     7.0810     6.9780   -78.9740    87.7880   -45.6130
