~VERSION INFORMATION
 VERS.                2.0:   CWLS LOG ASCII STANDARD - VERSION 2.0
 WRAP.                 NO:   ONE LINE PER DEPTH STEP
~WELL INFORMATION
#MNEM.UNIT      DATA TYPE    INFORMATION
#----------   ------------   ------------------------------
 STRT.F          195.5000:   START DEPTH
 STOP.F         3197.0000:   STOP DEPTH
 STEP.F            0.5000:   STEP LENGTH
 NULL.          -999.2500:   NO VALUE
 COMP.    FENIX & SCISSON:   COMPANY
 WELL.  FENIX "AX" #17-11:   WELL
 FLD .              NPR-3:   FIELD
 LOC .      S11 T38N R78W:   LOCATION
 CNTY.            NATRONA:   COUNTY
 STAT.            WYOMING:   STATE
 CTRY. UNITED STATES OF AMERICA:   COUNTRY
 SRVC.              WELEX:   SERVICE COMPANY
 DATE.        16-SEP-1977:   LOGDATE
 API .     49025104170000:   API NUMBER
~CURVE INFORMATION
#MNEM.UNIT       API CODE    CURVE DESCRIPTION
#----------   ------------   ------------------------------
 DEPT.F                  :   
 GRD .GAPI   45 310 01 00:   GAMMA RAY FROM DENSITY LOG
 CALD.IN     45 280 60 00:   CALIPER FROM DENSITY LOG
 CORR.G/C3   45 356 01 00:   DENSITY CORRECTION
 TEND.LBS    45 635 01 00:   TENSION FORM DENSITY LOG
 RHOB.G/C3   45 350 01 00:   BULK DENSITY
 SPR .MV     07 010 01 00:   SPONTANEOUS POTENTIAL
 TENR.LBS    07 635 01 00:   TENSION FROM RESISTIVITY
 ILD .OHMM   07 120 46 00:   DEEP INDUCTION RESISTIVITY
 ILM .OHMM   07 120 44 00:   INDUCTION LOG MEDIUM RESISTIVITY
 SGRD.OHMM   07 220 05 00:   SHALLOW SHORT GUARD RESISTIVITY
~PARAMETER INFORMATION
#MNEM.UNIT          VALUE    DESCRIPTION
#----------   ------------   ------------------------------
 EKB .F         5212.0000:   Kelly bushing
 EGL .F         5202.0000:   Ground level
 TD  .F         3195.0000:   Total depth
 CLNT.            A2DTECH:   Client Code
 SL  . 1090' FSL & 330' FWL:   Surface Location
 PD  .                 GL:   Permanent Datum
 EPD .F              5202:   Elevation Permanent Datum
 LMF .                 KB:   Log Measured From
 DMF .                 KB:   Drilling Measured From
 DAPD.F                10:   Feet Above Permanent Datum
 DATE.        16-SEP-1977:   Date Logged [DD-MMM-YYYY]
 DD  .F              3195:   Depth driller
 DL  .F              3195:   Depth logger
 BLI .F              3193:   Bottom log interval
 TLI .F               217:   Top log interval
 CS1 .IN            8.625:   Casing size
 CBD1.      8.625" @ 216':   Casing driller 1
 CBL1.F               217:   Casing logger 1
 BS1 .IN            7.875:   Bit size
 BSD1.F              3195:   Depth drilled with bit1
 DFT .            KCL MUD:   Type fluid in hole
 DFD .                9.2:   Density
 DFV .                 36:   Viscosity
 DFPH.                 11:   pH
 DFL .                8.8:   Fluid loss
 MSS .           FLOWLINE:   Source of sample
 RMS .OHMM           2.76:   Rm
 MST .F                99:   Rm Meas. temp.
 RMF .OHMM           1.54:   Rmf
 MFST.F                99:   Rmf Meas. temp.
 MFSS.               MEAS:   Source Rmf.
 RMC .OHMM           3.01:   Rmc
 MCST.F                99:   Rmc Meas. temp.
 MCSS.               MEAS:   Source Rmc.
 RMB .OHMM           2.40:   Rm. at BHT
 BHT .F               112:   BHT.
 TCS .HRS               6:   Time Circ. stopped
 MRT .F               112:   Maximum recorded temp.
 LUN .               8611:   Logging unit number
 LUL .             CASPER:   Logging unit location
 ENGI.          D. LAWSON:   Recorded By
 WITN.         HARRINGTON:   Witnessed by
 ORIG.           5" PRINT:   Origin of data
 UWI .     49025104170000:   Unique Well ID
 DICO. A2D TECHNOLOGIES, INC.:   Digitizing Company
~OTHER INFORMATION
~A   DEPT       GRD      CALD       CORR       TEND       RHOB        SPR       TENR        ILD        ILM       SGRD   
# ...
  832.0000    89.1074    10.6510     0.0354  1315.1997     2.4860   -70.4970  1095.8085     4.9953     5.5115     7.7061
  832.5000    92.5870    10.6357     0.0354  1326.3473     2.4875   -70.3483  1096.7040     4.9614     5.5097     7.6540
  833.0000    94.5940    10.6356     0.0322  1327.0210     2.4860   -70.3520  1097.4242     4.9277     5.5083     7.6022
  833.5000    96.6717    10.6354     0.0250  1327.6049     2.4822   -70.2027  1098.1445     4.9285     5.4308     7.6563
  834.0000    99.5461    10.6353     0.0190  1343.1139     2.4754   -70.2063  1098.8647     4.9292     5.3918     7.7105
  834.5000    99.2436    10.6351     0.0115  1343.7126     2.4739   -70.2093  1099.5851     4.9642     5.4279     7.7116
  835.0000    98.3359    10.6325     0.0055  1344.3260     2.4799   -70.2122  1100.3054     5.0694     5.5446     7.6062
  835.5000    98.0333    10.6198     0.0056  1344.9102     2.4950   -70.2152  1101.0479     5.4347     5.8962     7.5550
  836.0000    98.0333    10.6196     0.0071  1345.5090     2.5055   -70.2182  1101.9260     5.8297     6.1455     7.6614
  836.5000    95.2698    10.6195     0.0071  1346.1259     2.5046   -70.2218  1102.6464     6.2033     6.4053     7.8233
  837.0000    93.0408    10.6193     0.0069  1346.8068     2.5009   -70.2247  1103.3666     6.3348     6.5384     8.0444
  837.5000    91.5280    10.6041     0.0056  1347.3906     2.4964   -70.3792  1104.0869     6.4243     6.6743     8.3868
  838.0000    90.1664    10.6190     0.0056  1362.9443     2.4987   -70.5336  1104.8073     6.4251     6.8605     8.8657
  838.5000    88.6536    10.6339     0.0027  1363.5767     2.4859   -70.5365  1105.5389     6.4260     7.1501     9.5027
  839.0000    88.5023    10.6412    -0.0033  1364.0718     2.4731   -70.5395  1106.4279     6.6079     7.3501     9.7709
  839.5000    90.0151    10.6638    -0.0048  1364.7441     2.4693   -70.3909  1107.1482     6.7950     7.6603     9.9085
  840.0000    90.7716    10.6938    -0.0048  1365.2694     2.4685   -70.2423  1107.8684     7.0363     8.0958     9.8414
  840.5000    90.1664    10.7153    -0.0048  1365.8683     2.4732   -69.9430  1123.5588     7.2860     8.4382     9.8431
  841.0000    91.3767    10.7463    -0.0046  1366.4670     2.4847   -69.6429  1124.2792     7.4922     8.4358     9.9128
  841.5000    92.8896    10.7857    -0.0032  1352.0117     2.4941   -69.3428  1124.9999     7.8121     8.4331     9.9830
  842.0000    91.3767    10.8289    -0.0032  1352.6946     2.4911   -69.3457  1125.7485     7.9777     8.4308    10.0537
  842.5000    89.1074    10.8740    -0.0017  1353.3738     2.4866   -69.3487  1126.6201     8.0344     8.5465    10.0551
  843.0000    86.6868    10.9041    -0.0002  1353.8922     2.4857   -69.3516  1127.3403     8.0357     8.6643    10.0564
  843.5000    86.9894    10.9190     0.0013  1354.4911     2.4881   -69.3545  1128.0607     8.0368     8.7826    10.0578
  844.0000    88.5325    10.8887     0.0028  1355.0898     2.4911   -69.3576  1128.7810     8.0379     8.7802    10.0595
  844.5000    89.7126    10.8735     0.0073  1352.2885     2.4978   -69.3606  1129.5012     8.0389     8.7773    10.0608
  845.0000    89.5613    10.8733     0.0120  1330.9879     2.5048   -69.2126  1130.2395     8.0400     8.7749    10.0621
  845.5000    89.8638    10.8732     0.0178  1326.9462     2.5113   -69.0636  1131.1218     8.0411     8.7726    10.0635
  846.0000    90.9228    10.8730     0.0178  1320.7786     2.5121   -69.0667  1131.8422     8.0422     8.7703    10.0648
  846.5000    91.2254    10.8577     0.0164  1313.1332     2.5136   -69.0697  1132.5625     8.0435     8.7679    10.0662
  847.0000    89.7126    10.8576     0.0149  1313.7723     2.5173   -69.0728  1133.2827     8.0446     8.7656    10.1175
  847.5000    88.9561    10.8575     0.0149  1314.4465     2.5181   -68.9987  1134.0031     8.0457     8.7626    10.2096
  848.0000    88.0484    10.8573     0.0164  1300.0603     2.5121   -68.9273  1134.7306     8.0467     8.8834    10.3534
  848.5000    87.5946    10.8572     0.0179  1300.6442     2.5068   -68.7793  1135.6238     8.0478     8.9424    10.4268
  849.0000    87.5946    10.8721     0.0194  1316.1978     2.5153   -68.7822  1136.3440     8.0489     9.0029    10.5006
  849.5000    88.0484    10.8870     0.0224  1331.7516     2.5271   -68.7852  1137.0642     7.8296     9.0626    10.3576
  850.0000    88.6536    10.9171     0.0269  1347.3054     2.5331   -68.6359  1137.7847     7.9402     8.9349    10.2875
  850.5000    89.2587    10.9169     0.0288  1347.9043     2.5353   -68.7955  1108.4622     8.0524     8.9307     9.7324
  851.0000    90.6203    10.9318     0.0315  1343.9872     2.5346   -68.8030  1109.0431     8.0488     8.9264    10.0745
  851.5000    90.4287    10.9371     0.0315  1334.1317     2.5331   -68.8117  1109.6239     8.1603     8.9222    10.2853
  852.0000    86.3843    10.9595     0.0315  1334.7305     2.5315   -69.0101  1110.2048     8.1592     8.9802    10.3561
  852.5000    83.1837    10.9766     0.0300  1335.3999     2.5270   -69.1294  1110.7858     8.1581     8.9749    10.3554
  853.0000    82.5624    10.9916     0.0270  1335.9282     2.5224   -69.4398  1111.3772     8.1569     8.9707    10.2028
  853.5000    84.6519    11.0065     0.0241  1336.5673     2.5157   -69.4470  1112.0928     8.0897     9.0461     9.9324
  854.0000    85.0848    11.0214     0.0211  1337.1510     2.5059   -69.6727  1112.6736     7.9310     9.0886     9.7951
  854.5000    84.4587    11.0364     0.0175  1337.7347     2.4976   -69.7652  1113.2545     7.9300     9.2114     9.7269
  855.0000    83.6868    11.0513     0.0130  1338.3234     2.4923   -69.7739  1113.8354     7.9289     9.2060     9.6591
  855.5000    82.6136    11.0662     0.0114  1338.9508     2.4916   -69.7803  1114.4163     7.9278     9.2016     9.7256
  856.0000    81.6911    11.0962     0.0114  1339.6318     2.4930   -69.7879  1114.9972     7.8174     9.1786     9.7925
  856.5000    81.5263    11.1112     0.0128  1325.1497     2.4998   -69.7959  1115.5781     7.8163     8.8167     9.7918
  857.0000    83.0086    11.1261     0.0173  1325.7484     2.5066   -69.8033  1116.1676     7.7074     8.6910     9.6564
  857.5000    84.3524    11.1410     0.0232  1326.3473     2.5111   -69.8106  1116.8851     7.4952     8.6869     9.6557
  858.0000    85.9781    11.1560     0.0261  1326.9460     2.5118   -69.7374  1117.4659     7.2888     8.8053     9.5884
  858.5000    88.2182    11.1709     0.0276  1312.5618     2.5110   -69.6738  1118.0468     7.0881     8.9232     9.5216
  859.0000    88.9570    11.1707     0.0275  1313.2428     2.5088   -69.6829  1118.6278     6.9333     9.0437     9.5210
  859.5000    87.8791    11.1706     0.0245  1313.7725     2.5035   -69.6692  1119.2086     6.7968     9.1025     9.5204
  860.0000    88.9144    11.1704     0.0244  1314.3616     2.5005   -69.5442  1119.7894     6.7958     9.1616     9.4540
  860.5000    91.9075    11.1703     0.0249  1300.0001     2.5049   -69.4848  1120.3705     6.7479     9.1562     9.3881
  861.0000    94.1519    11.1701     0.0273  1300.7048     2.5094   -69.2577  1120.9581     6.7003     9.1519     9.3226
  861.5000    95.7853    11.1700     0.0273  1301.1975     2.5147   -69.2652  1121.5568     6.7463     9.1476     9.2576
  862.0000    94.5568    11.1698     0.0302  1301.8723     2.5117   -69.2727  1122.2583     6.7922     8.8312     9.1297
  862.5000    95.2909    11.1697     0.0317  1302.3953     2.5064   -69.2803  1122.8391     6.7913     8.6450     9.1291
  863.0000    94.3684    11.1544     0.0301  1303.0398     2.5026   -69.2889  1123.4200     6.8853     8.6409     9.1284
  863.5000    92.6928    11.1543     0.0286  1303.6721     2.5034   -69.2962  1124.0010     6.9324     8.6368     9.2551
  864.0000    90.7160    11.1541     0.0301  1304.1917     2.5078   -69.3030  1124.5819     6.9798     8.7535     9.2631
  864.5000    88.7393    11.1231     0.0315  1304.7905     2.5125   -69.3109  1125.1627     7.1255     8.8718     9.5137
  865.0000    87.6657    11.1086     0.0284  1320.3594     2.5108   -69.3182  1125.7485     7.1745     8.8666     9.6459
