~VERSION INFORMATION
 VERS.                2.0:   CWLS LOG ASCII STANDARD - VERSION 2.0
 WRAP.                 NO:   ONE LINE PER DEPTH STEP
~WELL INFORMATION
#MNEM.UNIT      DATA TYPE    INFORMATION
#----------   ------------   ------------------------------
 STRT.F          210.0000:   START DEPTH
 STOP.F         2998.0000:   STOP DEPTH
 STEP.F            0.5000:   STEP LENGTH
 NULL.          -999.2500:   NO VALUE
 COMP.    FENIX & SCISSON:   COMPANY
 WELL. FENIX & SCISSON "A" #41-28:   WELL
 FLD .          N.P.R. #3:   FIELD
 LOC .      S28 T39N R78W:   LOCATION
 CNTY.            NATRONA:   COUNTY
 STAT.            WYOMING:   STATE
 CTRY. UNITED STATES OF AMERICA:   COUNTRY
 SRVC.       SCHLUMBERGER:   SERVICE COMPANY
 DATE.        08-MAY-1977:   LOGDATE
 API .     49025103670000:   API NUMBER
~CURVE INFORMATION
#MNEM.UNIT       API CODE    CURVE DESCRIPTION
#----------   ------------   ------------------------------
 DEPT.F                  :   
 CALD.IN     45 280 60 00:   CALIPER FROM DENSITY LOG
 GRD .GAPI   45 310 01 00:   GAMMA RAY FROM DENSITY LOG
 CORR.G/C3   45 356 01 00:   DENSITY CORRECTION
 RHOB.G/C3   45 350 01 00:   BULK DENSITY
 SPR .MV     07 010 01 00:   SPONTANEOUS POTENTIAL
 LL8 .OHMM   07 220 08 00:   LATEROLOG-8 RES.
 ILM .OHMM   07 120 44 00:   INDUCTION LOG MEDIUM RESISTIVITY
 ILD .OHMM   07 120 46 00:   DEEP INDUCTION RESISTIVITY
~PARAMETER INFORMATION
#MNEM.UNIT          VALUE    DESCRIPTION
#----------   ------------   ------------------------------
 EKB .F         5012.0000:   Kelly bushing
 EGL .F         5002.0000:   Ground level
 TD  .F         3000.0000:   Total depth
 CLNT.            A2DTECH:   Client Code
 SL  . 330' FNL & 2310' FWL:   Surface Location
 DATE.        08-MAY-1977:   Date Logged [DD-MMM-YYYY]
 DD  .F              3000:   Depth driller
 DL  .F              2999:   Depth logger
 BLI .F              2993:   Bottom log interval
 TLI .F               222:   Top log interval
 CS1 .              8.625:   Casing size
 CBD1.      8.625" @ 112':   Casing driller 1
 CBL1.IN              222:   Casing logger 1
 BS1 .IN            7.875:   Bit size
 BSD1.F              3000:   Depth drilled with bit1
 DFT .                KCL:   Type fluid in hole
 DFD .                8.8:   Density
 DFV .                 32:   Viscosity
 DFPH.                8.0:   pH
 DFL .                8.8:   Fluid loss
 MSS .           FLOWLINE:   Source of sample
 RMS .OHMM          0.124:   Rm
 MST .F                80:   Rm Meas. temp.
 RMF .OHMM          0.117:   Rmf
 MFST.F                80:   Rmf Meas. temp.
 MFSS.               MEAS:   Source Rmf.
 RMB .OHMM         0.0886:   Rm. at BHT
 BHT .F               112:   BHT.
 TCS .HRS            0200:   Time Circ. stopped
 TLAB.HRS            0515:   Time logger at bottom
 MRT .F               112:   Maximum recorded temp.
 LUN .               5642:   Logging unit number
 LUL .               CSPR:   Logging unit location
 ENGI.            MARATIN:   Recorded By
 WITN.         PETTINGILL:   Witnessed by
 ORIG.      2.5" 5" PRINT:   Origin of data
 UWI .     49025103670000:   Unique Well ID
 DICO. A2D TECHNOLOGIES, INC.:   Digitizing Company
 PD  .                 GL:   Permanent Datum
 EPD .               5002:   Elevation Permanent Datum
 LMF .                 KB:   Log Measured From
 DMF .                 KB:   Drilling Measured From
 DAPD.                 10:   Feet Above Permanent Datum
~OTHER INFORMATION
~A   DEPT     CALD         GRD      CORR       RHOB        SPR        LL8        ILM        ILD   
# ...
 1506.0000     8.5256   113.8534     0.1140     2.5597   -58.2395    10.3966     9.4705     7.7840
 1506.5000     8.5118   113.5687     0.1147     2.5590   -58.2317    10.2553     9.3854     7.8607
 1507.0000     8.5137   115.6775     0.1119     2.5568   -58.2240    10.3995     9.3848     7.8951
 1507.5000     8.5152   117.9308     0.1149     2.5328   -58.2163    10.4009     9.3841     8.0064
 1508.0000     8.5166   119.4389     0.1134     2.5449   -58.2086    10.5470     9.3834     8.1192
 1508.5000     8.5181   118.8606     0.1254     2.5592   -58.2009    10.7362     9.3828     8.1887
 1509.0000     8.5196   112.4701     0.1374     2.5780   -58.1932    10.8453     9.3821     8.1873
 1509.5000     8.5211   110.8442     0.1315     2.5638   -58.1854    10.9976     9.3814     8.1862
 1510.0000     8.5226   111.0155     0.1278     2.5630   -58.4877    10.9992     9.3807     8.2989
 1510.5000     8.5241   111.6295     0.1337     2.5752   -58.4787    11.0007     9.3801     8.2978
 1511.0000     8.5256   113.4357     0.1247     2.5805   -58.4709    11.0022     9.3794     8.2966
 1511.5000     8.5271   115.8380     0.1121     2.5618   -58.1546    10.8526     9.2460     8.1817
 1512.0000     8.5286   116.6010     0.1129     2.5431   -57.8382    10.8166     9.2453     8.1806
 1512.5000     8.5002   116.4654     0.1189     2.5529   -57.2132    10.7068     9.2447     8.1795
 1513.0000     8.4715   115.4444     0.1168     2.5567   -57.2055    10.7451     9.2440     8.1781
 1513.5000     8.4584   113.6739     0.1130     2.5583   -57.1978    10.8588     9.1125     8.1770
 1514.0000     8.4748   111.7543     0.1145     2.5546   -57.1901    11.0113     9.1118     8.1759
 1514.5000     8.4614   110.2819     0.1198     2.5427   -57.4910    11.1660     9.1112     8.1748
 1515.0000     8.4629   109.9972     0.1235     2.5607   -57.4833    11.1675     9.1106     8.2875
 1515.5000     8.4644   111.2117     0.1199     2.5638   -57.4756    11.1691     9.1099     8.2862
 1516.0000     8.4659   113.1670     0.1056     2.5369   -57.4678    10.9831     9.1093     8.5172
 1516.5000     8.4674   113.7809     0.1042     2.5399   -57.1515    10.5075     9.1086     8.3991
 1517.0000     8.4689   112.6065     0.1103     2.5505   -57.1438     9.9749     9.1080     8.2828
 1517.5000     8.4704   112.4709     0.1200     2.5528   -57.1361     9.8691     9.1073     8.1681
 1518.0000     8.4718   112.0461     0.1230     2.5543   -57.4383    10.8199     9.1067     8.1669
 1518.5000     8.4733   108.4872     0.1200     2.5567   -57.4293    11.3669     9.1060     8.1658
 1519.0000     8.4748   108.9521     0.1343     2.5710   -57.4216    11.4929     9.1054     8.1647
 1519.5000     8.4763   111.9506     0.1312     2.5755   -57.4138    11.1502     9.1047     8.1636
 1520.0000     8.4778   114.9490     0.1254     2.5748   -57.4061    10.6707     9.1041     8.1625
 1520.5000     8.4793   115.5585     0.1231     2.5719   -57.0898    11.0918     9.1034     8.2749
 1521.0000     8.4808   113.7925     0.1261     2.5674   -57.0820    11.4991     9.1028     8.2737
 1521.5000     8.4823   109.7865     0.1299     2.5660   -56.4570    10.9771     9.2328     8.2726
 1522.0000     8.4838   108.0159     0.1278     2.5668   -56.1407    10.5607     9.2322     8.3896
 1522.5000     8.4853   105.9473     0.1255     2.5691   -55.8243    10.4440     9.2315     8.5078
 1523.0000     8.4868   102.9845     0.1270     2.5722   -55.8166    11.4640     9.2953     8.6190
 1523.5000     8.4882   100.9159     0.1330     2.5670   -55.8089    12.8350     9.3627     8.6177
 1524.0000     8.4897    98.9964     0.1367     2.5506   -55.8012    14.3541     9.3621     8.6023
 1524.5000     8.4912   100.0574     0.1472     2.5461   -55.7935    12.1663     9.3614     8.2335
 1525.0000     8.4927   103.0559     0.1466     2.5528   -55.7858    10.8196     9.2282     7.8027
 1525.5000     8.4942   108.8859     0.1309     2.5621   -56.0880    10.2635     9.1618     7.5671
 1526.0000     8.4957   112.0334     0.1142     2.5584   -57.0049     9.8923     9.0310     7.3982
 1526.5000     8.4972   113.5416     0.1137     2.5462   -57.6145    10.0533     8.9668     7.3972
 1527.0000     8.4987   113.2614     0.1178     2.5465   -58.2240    10.3357     8.8392     7.3962
 1527.5000     8.5002   112.6826     0.1266     2.5598   -58.8336    10.4585     8.8386     7.3952
 1528.0000     8.5017   113.8932     0.1310     2.5691   -59.4432    10.6054     8.8380     7.4971
 1528.5000     8.5032   114.8052     0.1286     2.5691   -59.4354    10.4409     8.8374     7.6003
 1529.0000     8.5047   114.2269     0.1208     2.5675   -59.7377    10.1584     8.8367     7.7049
 1529.5000     8.5061   111.5622     0.1199     2.5647   -59.7287    10.0396     8.8361     7.7440
 1530.0000     8.5076   111.7291     0.1208     2.5632   -59.4123    10.3414     8.8355     7.8099
 1530.5000     8.5091   112.9391     0.1117     2.5618   -59.4046    10.4861     8.8348     7.8086
 1531.0000     8.5106   114.0002     0.1103     2.5588   -59.3969    10.4149     8.9611     7.8075
 1531.5000     8.5121   114.9122     0.1147     2.5504   -59.3891     9.9074     8.9604     7.9092
 1532.0000     8.5136   114.7810     0.1029     2.5328   -59.3814    10.2033     8.9598     8.0790
 1532.5000     8.5151   113.3086     0.1066     2.5374   -59.0651    10.3461     8.9592     8.1344
 1533.0000     8.5166   113.1774     0.1164     2.5516   -58.7487    10.4744     9.0872     8.1333
 1533.5000     8.5181   113.7931     0.1314     2.5629   -58.4324    10.4759     9.0865     8.1322
 1534.0000     8.5196   116.2040     0.1359     2.5712   -58.4246    10.4140     9.1589     8.1310
 1534.5000     8.5211   118.6101     0.1247     2.5698   -58.1083    10.1323     9.2157     8.1297
 1535.0000     8.5225   121.0184     0.1300     2.5690   -58.1006     9.9170     9.2150     8.1286
 1535.5000     8.5240   122.3641     0.1323     2.5759   -58.0928     9.7824     9.2144     8.1275
 1536.0000     8.5255   121.4811     0.1292     2.5730   -57.7765     9.9786     9.2137     8.1264
 1536.5000     8.5270   121.9461     0.1174     2.5535   -57.1515    10.1990     9.2131     8.1253
 1537.0000     8.5285   119.8559     0.1106     2.5529   -56.8351    10.4026     9.2124     8.2373
 1537.5000     8.5300   120.5414     0.1115     2.5372   -56.8274    10.4875     9.2118     8.2360
 1538.0000     8.5315   122.6101     0.1145     2.5455   -56.8197    10.5744     9.2111     8.3494
 1538.5000     8.5330   123.2097     0.1198     2.5575   -57.4293    10.3732     9.2104     8.4644
 1539.0000     8.5345   120.5423     0.1213     2.5584   -58.3475     9.8726     9.2098     8.5808
 1539.5000     8.5360   112.6668     0.1123     2.5502   -58.9570     9.6589     9.2880     8.5796
 1540.0000     8.5375   109.5523     0.1184     2.5517   -59.2593     9.8490     9.3407     8.5785
 1540.5000     8.5390   110.5289     0.1116     2.5571   -59.2503    10.1820     9.4742     8.5773
 1541.0000     8.5404   112.1222     0.1139     2.5518   -59.2425    10.5550     9.6094     8.6954
 1541.5000     8.5419   112.3135     0.1206     2.5496   -58.9262    10.7931     9.7467     8.6942
 1542.0000     8.5434   114.5227     0.1215     2.5932   -58.6098    10.9446     9.7460     8.6930
 1542.5000     8.5449   116.7014     0.1223     2.5948   -58.2935    10.9461     9.8854     8.6918
 1543.0000     8.5464   117.5877     0.1149     2.5903   -57.6685    10.9477     9.8845     8.6906
 1543.5000     8.5479   116.9842     0.1059     2.5829   -57.0435    10.7432     9.8838     8.6894
 1544.0000     8.5494   113.2762     0.1096     2.5747   -56.7271    10.5060     9.8831     8.6883
 1544.5000     8.5509   113.8902     0.1015     2.5575   -57.0280    10.7087     9.8824     8.6779
 1545.0000     8.5524   116.4416     0.1037     2.5478   -57.0203    11.1626     9.7418     8.5550
 1545.5000     8.5539   118.9929     0.1082     2.5456   -57.3212    11.4183     9.7411     8.4196
 1546.0000     8.5404   119.6069     0.1098     2.5607   -57.3135    11.1088     9.7404     8.2003
