~VERSION INFORMATION
 VERS.                2.0:   CWLS LOG ASCII STANDARD - VERSION 2.0
 WRAP.                 NO:   ONE LINE PER DEPTH STEP
~WELL INFORMATION
#MNEM.UNIT      DATA TYPE    INFORMATION
#----------   ------------   ------------------------------
 STRT.F          502.0000:   START DEPTH
 STOP.F         4210.0000:   STOP DEPTH
 STEP.F            0.5000:   STEP LENGTH
 NULL.          -999.2500:   NO VALUE
 COMP.   FENIX & SCISSION:   COMPANY
 WELL. FENIX NPR 3 "JX" #43-34:   WELL
 FLD .              N P R:   FIELD
 LOC .      S34 T39N R78W:   LOCATION
 CNTY.            NATRONA:   COUNTY
 STAT.            WYOMING:   STATE
 CTRY. UNITED STATES OF AMERICA:   COUNTRY
 SRVC.              WELEX:   SERVICE COMPANY
 DATE.        05-FEB-1979:   LOGDATE
 API .     49025107690000:   API NUMBER
~CURVE INFORMATION
#MNEM.UNIT       API CODE    CURVE DESCRIPTION
#----------   ------------   ------------------------------
 DEPT.F                  :   
 TENR.LBS    07 635 01 00:   TENSION FROM RESISTIVITY
 SPR .MV     07 010 01 00:   SPONTANEOUS POTENTIAL
 SFL .OHMM   07 220 01 00:   SHALLOW FOCUSED LOG RESISTIVITY
 ILD .OHMM   07 120 46 00:   DEEP INDUCTION RESISTIVITY
 ILM .OHMM   07 120 44 00:   INDUCTION LOG MEDIUM RESISTIVITY
 TEND.LBS    45 635 01 00:   TENSION FROM DENSITY LOG
 CALD.IN     45 280 60 00:   CALIPER FROM DENSITY LOG
 GRD .GAPI   45 310 01 00:   GAMMA RAY FROM DENSITY LOG
 CORR.G/C3   45 356 01 00:   DENSITY CORRECTION
 NPHI.DEC    42 890 03 00:   NEUTRON POROSITY SANDSTONE
 RHOB.G/C3   45 350 01 00:   BULK DENSITY
~PARAMETER INFORMATION
#MNEM.UNIT          VALUE    DESCRIPTION
#----------   ------------   ------------------------------
 EKB .F         5108.0000:   Kelly bushing
 EGL .F         5098.0000:   Ground level
 TD  .F         4204.0000:   Total depth
 DATE.        05-FEB-1979:   Date logged
 CLNT.            A2DTECH:   Client Code
 SL  . 1627' FNL & 2110' FWL:   Surface Location
 PD  .                 GL:   Permanent Datum
 DD  .F              4200:   Depth driller
 DL  .F              4204:   Depth logger
 BLI .F              4202:   Bottom log interval
 CS1 .IN            8.625:   Casing size
 CBD1.      8.625" @ 506':   Casing driller 1
 CBL1.F               506:   Casing logger 1
 BS1 .IN            7.875:   Bit size
 DFT .           CHEM/GEL:   Type fluid in hole
 DFD .                9.2:   Density
 DFV .                 55:   Viscosity
 DFPH.                9.5:   pH
 DFL .                5.7:   Fluid loss
 MSS .            MUD/PIT:   Source of sample
 RMS .OHMM            1.1:   Rm
 MST .F                52:   Rm Meas. temp.
 RMF .OHMM            .45:   Rmf
 MFST.F                52:   Rmf Meas. temp.
 RMC .OHMM            1.8:   Rmc
 MCST.F                52:   Rmc Meas. temp.
 MFSS.               MEAS:   Source Rmf.
 RMB .OHMM           5.06:   Rm. at BHT
 BHT .F               128:   BHT.
 TCS .HRS               8:   Time Circ. stopped
 MRT .F               128:   Maximum recorded temp.
 LUN .               9685:   Logging unit number
 LUL .             CASPER:   Logging unit location
 ENGI.        KEIN/JOINER:   Recorded By
 WITN.        J. DINSMORE:   Witnessed by
 ORIG.           5" PRINT:   Origin of data
 UWI .     49025107690000:   Unique Well ID
 DICO. A2D TECHNOLOGIES, INC.:   Digitizing Company
 DAPD.F                10:   Feet Above Permanent Datum
 BSD1.F              4200:   Depth drilled with bit1
 MCSS.               MEAS:   Source Rmc.
 EPD .F              5098:   Elevation Permanent Datum
 LMF .                 KB:   Log Measured From
 DMF .                 KB:   Drilling Measured From
 TLI .F               500:   Top log interval
~OTHER INFORMATION
~A   DEPT     TENR        SPR        SFL        ILD        ILM        TEND        CALD       GRD        CORR       NPHI       RHOB 
# ...
 1234.0000   888.7930   -60.7570     7.1950     5.1040     4.4170   909.1210     8.8330   132.2940    -0.0010     0.3220     2.4210
 1234.5000   889.0680   -60.7570     7.1950     5.1380     4.4000   910.7980     8.8270   133.4300    -0.0090     0.3160     2.4110
 1235.0000   889.3440   -60.7570     7.1950     5.1650     4.3820   912.4750     8.8220   134.6780    -0.0130     0.3130     2.4140
 1235.5000   889.6200   -60.7570     7.1950     5.0810     4.3640   914.1520     8.8200   136.3690    -0.0030     0.3170     2.4180
 1236.0000   889.8950   -60.7570     7.1950     5.0120     4.3470   915.8280     8.8200   137.7790     0.0070     0.3300     2.4250
 1236.5000   890.1710   -60.7570     7.1780     4.9420     4.3290   917.5050     8.8200   139.4770     0.0060     0.3300     2.4300
 1237.0000   890.4470   -60.7570     7.1570     4.8870     4.3120   919.1820     8.8200   140.2980     0.0050     0.3290     2.4270
 1237.5000   890.7220   -60.7570     7.1370     4.8910     4.2950   920.8580     8.8200   139.1680     0.0040     0.3300     2.4280
 1238.0000   890.9980   -60.7570     7.1180     4.9030     4.2770   922.5350     8.8200   137.2790     0.0030     0.3270     2.4330
 1238.5000   891.2740   -60.7570     7.0800     4.9140     4.2590   924.2120     8.8200   137.1890     0.0060     0.3220     2.4380
 1239.0000   891.5490   -60.7570     7.0830     4.9250     4.2420   925.8890     8.8200   136.9800     0.0120     0.3180     2.4380
 1239.5000   891.8250   -60.7570     6.9290     4.9370     4.2180   927.5650     8.8200   134.1950     0.0190     0.3200     2.4320
 1240.0000   892.1000   -60.7570     6.9800     4.9480     4.2260   929.2420     8.8200   131.6000     0.0170     0.3210     2.4320
 1240.5000   892.3760   -60.7570     7.0560     4.9600     4.2430   930.9190     8.8200   130.8760     0.0150     0.3220     2.4360
 1241.0000   892.6520   -60.7570     7.1320     4.9710     4.2590   932.5960     8.8200   131.2060     0.0110     0.3240     2.4420
 1241.5000   892.9270   -60.7570     7.2080     4.9780     4.2760   934.2720     8.8200   131.4080     0.0110     0.3250     2.4430
 1242.0000   893.2030   -60.7570     7.3290     5.0060     4.2920   935.9490     8.8200   131.4950     0.0080     0.3230     2.4370
 1242.5000   893.4790   -60.7570     7.2960     5.0350     4.3080   937.6260     8.8200   130.4490     0.0050     0.3200     2.4320
 1243.0000   893.7540   -60.7570     7.2130     5.0630     4.3240   939.3020     8.8200   129.4760     0.0030     0.3160     2.4310
 1243.5000   894.0300   -60.7570     7.1300     5.0910     4.3400   940.9790     8.8160   129.3500     0.0070     0.3140     2.4460
 1244.0000   894.3060   -60.7570     7.0640     5.1190     4.3560   942.6560     8.8130   129.5640     0.0090     0.3110     2.4580
 1244.5000   894.5810   -60.7570     7.2620     5.1480     4.3730   944.3330     8.8090   129.8410     0.0130     0.3100     2.4700
 1245.0000   894.8570   -60.7570     7.3290     5.1760     4.3890   945.6740     8.8060   130.1080     0.0160     0.3110     2.4850
 1245.5000   895.1330   -60.7570     7.1950     5.2040     4.4050   946.1810     8.8020   131.6820     0.0340     0.3120     2.4840
 1246.0000   895.4080   -60.7570     7.6040     5.2320     4.4210   946.6040     8.7990   133.1740     0.0340     0.3110     2.4820
 1246.5000   895.6840   -60.7570     7.5880     5.2600     4.4370   947.0270     8.7950   134.0780     0.0350     0.3120     2.4800
 1247.0000   895.9600   -60.7570     7.5500     5.2600     4.4560   947.4490     8.7920   133.9780     0.0350     0.3130     2.4760
 1247.5000   896.2350   -60.7570     7.5110     5.2610     4.4670   947.8720     8.7880   134.0810     0.0330     0.3150     2.4730
 1248.0000   896.5110   -60.7570     7.4650     5.2610     4.4800   948.2950     8.7850   135.1810     0.0310     0.3150     2.4700
 1248.5000   896.7870   -60.7570     7.3040     5.2610     4.4930   948.7180     8.7810   136.2990     0.0310     0.3080     2.4450
 1249.0000   897.0620   -60.7570     7.0640     5.2610     4.5060   949.1400     8.7830   136.0640     0.0310     0.3090     2.4390
 1249.5000   897.3380   -60.7570     7.0640     5.2610     4.5190   949.5630     8.7890   135.7490     0.0360     0.3120     2.4470
 1250.0000   897.6130   -60.7570     7.6040     5.2610     4.5320   949.9860     8.7940   135.4050     0.0420     0.3120     2.4530
 1250.5000   897.8890   -60.7570     7.5760     5.2940     4.5460   950.4080     8.8000   135.0450     0.0490     0.3110     2.4420
 1251.0000   898.1650   -60.7570     7.4650     5.3210     4.5590   950.8310     8.8060   134.7610     0.0560     0.3110     2.4330
 1251.5000   898.4400   -60.7570     7.4920     5.3580     4.5720   951.2540     8.8110   132.7510     0.0600     0.3130     2.4050
 1252.0000   898.7160   -60.7580     7.6040     5.3440     4.5850   951.6760     8.8170   129.8350     0.0690     0.3140     2.3800
 1252.5000   898.9920   -60.7570     7.5520     5.3200     4.5980   952.0990     8.8210   126.9530     0.0780     0.3200     2.3160
 1253.0000   899.2670   -60.7540     7.4150     5.2950     4.6100   952.5220     8.8340   126.8410     0.0900     0.3250     2.2550
 1253.5000   899.5430   -60.7090     7.3290     5.2710     4.6230   952.9450     8.8490   126.8030     0.0640     0.3310     2.2250
 1254.0000   899.8190   -60.6710     7.0770     5.2610     4.6200   953.3670     8.8630   127.6330     0.0370     0.3320     2.2050
 1254.5000   900.0940   -60.6310     6.8080     5.4050     4.6160   953.7900     8.8770   128.4340     0.0320     0.3270     2.4310
 1255.0000   900.3700   -60.5910     6.9640     5.5540     4.6120   954.2130     8.8920   130.5120     0.0250     0.3180     2.4210
 1255.5000   900.6460   -60.5520     7.1260     5.5430     4.6070   954.6350     8.9000   131.9720     0.0180     0.3130     2.4450
 1256.0000   900.9210   -60.5120     7.2880     5.5220     4.6030   955.0580     8.8870   132.6330     0.0140     0.3110     2.4570
 1256.5000   901.1970   -60.4720     7.3290     5.5010     4.5990   955.4810     8.8760   133.3990     0.0130     0.3120     2.4640
 1257.0000   901.4730   -60.4330     7.3290     5.4800     4.5950   955.9030     8.8610   134.1540     0.0120     0.3140     2.4600
 1257.5000   901.7480   -60.3930     7.4570     5.4580     4.5910   956.3260     8.8760   134.9030     0.0100     0.3160     2.4500
 1258.0000   902.0240   -60.3530     7.7450     5.4200     4.5860   956.7490     8.8960   135.6440     0.0090     0.3140     2.4530
 1258.5000   902.3000   -60.3130     7.6540     5.3500     4.5820   957.1720     8.9150   136.3680     0.0080     0.3120     2.4490
 1259.0000   902.5750   -60.2740     7.3800     5.2630     4.5780   957.5940     8.9390   136.3650     0.0070     0.3150     2.4470
 1259.5000   902.8510   -60.2340     7.1950     5.2690     4.5740   958.0170     8.9300   136.7670     0.0070     0.3130     2.4550
 1260.0000   903.1260   -60.1940     7.1950     5.2810     4.5700   958.4400     8.9050   137.8500     0.0070     0.3080     2.4570
 1260.5000   903.4020   -60.1550     7.4800     5.2940     4.5650   958.8620     8.8800   138.7040     0.0070     0.3050     2.4530
 1261.0000   903.6780   -60.1150     7.6940     5.3060     4.5610   959.2850     8.8610   138.5360     0.0070     0.3020     2.4630
 1261.5000   903.9530   -60.0760     7.7450     5.3180     4.5570   959.7080     8.8600   135.6770     0.0070     0.2970     2.4650
 1262.0000   904.2290   -60.0350     7.7450     5.3300     4.5530   960.1310     8.8600   134.9520     0.0010     0.3040     2.4500
 1262.5000   904.5050   -59.9960     7.7450     5.3420     4.5490   960.5530     8.8600   135.8910    -0.0040     0.3050     2.4330
 1263.0000   904.7800   -59.9630     7.7450     5.3580     4.5440   960.9760     8.8600   137.3820    -0.0090     0.3040     2.4210
 1263.5000   905.0560   -59.9770     7.7200     5.3550     4.5400   961.3990     8.8600   138.7920    -0.0150     0.3010     2.4270
 1264.0000   905.3320   -59.9910     7.6330     5.3420     4.5340   961.8210     8.8600   140.2430    -0.0170     0.2990     2.4320
