~VERSION INFORMATION
 VERS.                2.0:   CWLS LOG ASCII STANDARD - VERSION 2.0
 WRAP.                 NO:   ONE LINE PER DEPTH STEP
~WELL INFORMATION
#MNEM.UNIT      DATA TYPE    INFORMATION
#----------   ------------   ------------------------------
 STRT.F          200.0000:   START DEPTH
 STOP.F         3058.0000:   STOP DEPTH
 STEP.F            0.5000:   STEP LENGTH
 NULL.          -999.2500:   NO VALUE
 COMP.    FENIX & SCISSON:   COMPANY
 WELL. FENIX & SCISSON "A" #45-34:   WELL
 FLD .              N P R:   FIELD
 LOC .      S34 T39N R78W:   LOCATION
 CNTY.            NATRONA:   COUNTY
 STAT.            WYOMING:   STATE
 CTRY. UNITED STATES OF AMERICA:   COUNTRY
 SRVC.              WELEX:   SERVICE COMPANY
 DATE.        11-MAY-1977:   LOGDATE
 API .     49025103760000:   API NUMBER
~CURVE INFORMATION
#MNEM.UNIT       API CODE    CURVE DESCRIPTION
#----------   ------------   ------------------------------
 DEPT.F                  :   
 GRD .GAPI   45 310 01 00:   GAMMA RAY FROM DENSITY LOG
 CALD.IN     45 280 60 00:   CALIPER FROM DENSITY LOG
 RHOB.G/C3   45 350 01 00:   BULK DENSITY
 CORR.G/C3   45 356 01 00:   DENSITY CORRECTION
 SPR .MV     07 010 01 00:   SPONTANEOUS POTENTIAL
 ILD .OHMM   07 120 46 00:   DEEP INDUCTION RESISTIVITY
 ILM .OHMM   07 120 44 00:   INDUCTION LOG MEDIUM RESISTIVITY
 GURD.OHMM   07 220 05 00:   GUARD LOG RESISTIVITY
~PARAMETER INFORMATION
#MNEM.UNIT          VALUE    DESCRIPTION
#----------   ------------   ------------------------------
 EKB .F         5123.0000:   Kelly bushing
 EGL .F         5113.0000:   Ground level
 EDF .F            0.0000:   Drilling floor
 EPD .F            0.0000:   Permanent datum
 TD  .F         3060.0000:   Total depth
 DATE.        11-MAY-1977:   Date logged
 CLNT.            A2DTECH:   Client Code
 SL  . 2310' FSL & 2310' FWL:   Surface Location
 PD  .                 GL:   Permanent Datum
 DD  .F              3060:   Depth driller
 DL  .F              3060:   Depth logger
 BLI .F              3058:   Bottom log interval
 CS1 .IN            8.625:   Casing size
 CBD1.      8.625" @ 205':   Casing driller 1
 CBL1.F               214:   Casing logger 1
 BS1 .IN            7.875:   Bit size
 DFT .            KCL/MUD:   Type fluid in hole
 DFD .                8.8:   Density
 DFV .                 45:   Viscosity
 MSS .           FLOWLINE:   Source of sample
 RMS .OHMM            3.2:   Rm
 MST .F                85:   Rm Meas. temp.
 RMF .OHMM            2.7:   Rmf
 MFST.F                85:   Rmf Meas. temp.
 RMC .OHMM            3.6:   Rmc
 MCST.F                85:   Rmc Meas. temp.
 MFSS.               CALC:   Source Rmf.
 RMB .OHMM           2.44:   Rm. at BHT
 BHT .F               112:   BHT.
 TCS .HRS             2.5:   Time Circ. stopped
 MRT .F               112:   Maximum recorded temp.
 LUN .               8611:   Logging unit number
 LUL .           GILLETTE:   Logging unit location
 ENGI.            C. DOAK:   Recorded By
 WITN.      B. HARRINGTON:   Witnessed by
 ORIG.           5" PRINT:   Origin of data
 UWI .     49025103760000:   Unique Well ID
 DICO. A2D TECHNOLOGIES, INC.:   Digitizing Company
 DAPD.F                10:   Feet Above Permanent Datum
 BSD1.F              3060:   Depth drilled with bit1
 MCSS.               CALC:   Source Rmc.
 TLI .F               200:   Top log interval
~OTHER INFORMATION
~A   DEPT       GRD      CALD         RHOB      CORR       SPR        ILD        ILM       GURD   
# ...
 3035.0000   117.3050     8.0270     2.4830     0.0400   -29.7640     3.2930     3.6630     4.3800
 3035.5000   116.5150     8.0230     2.4880     0.0420   -29.7550     3.3280     3.6180     4.3350
 3036.0000   116.6310     8.0190     2.4880     0.0430   -29.7460     3.3630     3.6670     4.2690
 3036.5000   118.0400     8.0150     2.4820     0.0420   -29.7370     3.3970     3.7100     4.3030
 3037.0000   119.4300     8.0110     2.4760     0.0320   -29.7290     3.4320     3.7530     4.3700
 3037.5000   119.6820     8.0070     2.4710     0.0220   -29.7200     3.4660     3.7960     4.4290
 3038.0000   118.9990     8.0030     2.4650     0.0230   -29.7110     3.5010     3.8400     4.6770
 3038.5000   118.6540     7.9990     2.4800     0.0360   -29.7020     3.5360     3.8830     4.9010
 3039.0000   118.0080     7.9950     2.4990     0.0500   -29.6940     3.5700     3.9260     5.1260
 3039.5000   118.7900     7.9910     2.5090     0.0500   -29.6850     3.6050     3.9690     5.3510
 3040.0000   120.8290     7.9870     2.5060     0.0400   -29.6760     3.6400     4.0130     5.4220
 3040.5000   122.6520     7.9830     2.4990     0.0300   -29.6670     3.6860     4.0560     5.4220
 3041.0000   124.6070     7.9790     2.4930     0.0200   -29.6590     3.6560     4.0990     5.4220
 3041.5000   125.2810     7.9750     2.4860     0.0150   -29.6500     3.6110     4.1430     5.3710
 3042.0000   125.9720     7.9710     2.4790     0.0230   -29.6410     3.5670     4.1920     5.2630
 3042.5000   125.7550     7.9670     2.4720     0.0310   -29.6320     3.5230     4.1290     5.1550
 3043.0000   125.5860     7.9630     2.4760     0.0390   -29.6250     3.4780     4.0560     5.0470
 3043.5000   125.3710     7.9590     2.4860     0.0430   -29.6140     3.4340     3.9830     4.9390
 3044.0000   125.1050     7.9550     2.4850     0.0430   -29.6010     3.3900     3.9100     4.8320
 3044.5000   125.1100     7.9510     2.4790     0.0410   -29.5180     3.3450     3.8360     4.7240
 3045.0000   125.1470     7.9470     2.4740     0.0400   -29.4370     3.3010     3.7630     4.6160
 3045.5000   125.7830     7.9430     2.4680     0.0380   -29.3750     3.2570     3.6900     4.5120
 3046.0000   126.3520     7.9390     2.4680     0.0360   -29.2930     3.2200     3.6170     4.4330
 3046.5000   126.7000     7.9340     2.4790     0.0380   -29.1470     3.1880     3.5080     4.3580
 3047.0000  -999.2500     7.9310     2.4890     0.0470   -28.4180     3.1550     3.5150     4.2690
 3047.5000  -999.2500     7.9270     2.5000     0.0560   -27.4980     3.1240     3.6340     4.3870
 3048.0000  -999.2500     7.9210     2.5040     0.0640   -26.6450     3.2880     3.7530     4.5300
 3048.5000  -999.2500     7.9230     2.5020     0.0720   -24.3130     3.4490     3.8720     4.6730
 3049.0000  -999.2500     7.8690     2.5040     0.0830   -21.2970     3.6100     3.9910     4.8160
 3049.5000  -999.2500     7.7730     2.5080     0.0880   -17.9480     3.7710     4.1100     4.9590
 3050.0000  -999.2500     7.6870     2.5110     0.0970   -12.2430     3.9320     4.2290     5.1310
 3050.5000  -999.2500     7.5970     2.5020     0.1070    -4.0280     3.9910     4.3480     7.3990
 3051.0000  -999.2500     7.5110     2.4900     0.1170  -999.2500     4.0210     4.4660    10.2380
 3051.5000  -999.2500     7.3960     2.4740     0.1260  -999.2500     4.0520     4.5120    15.1290
 3052.0000  -999.2500     7.2820     2.4570     0.1290  -999.2500     4.0820     4.5120    19.6360
 3052.5000  -999.2500     7.1530     2.4420     0.1290  -999.2500     4.1120     4.5120    12.2560
 3053.0000  -999.2500     7.0390     2.4490     0.1240  -999.2500     4.1430     4.5120     5.3230
 3053.5000  -999.2500     6.9030     2.4570     0.1190  -999.2500     4.1730     4.5120    11.0500
 3054.0000  -999.2500     6.9670     2.4480     0.1150  -999.2500     4.2040     4.5120   505.8100
 3054.5000  -999.2500     7.0700     2.4310     0.1100  -999.2500     4.2340     4.5790  1643.4750
 3055.0000  -999.2500     7.1330     2.4160     0.1050  -999.2500     4.2650     4.6470  1981.7000
 3055.5000  -999.2500     7.1230     2.4010     0.1010  -999.2500     4.2950     4.7140  1981.7000
 3056.0000  -999.2500     7.1300     2.3850     0.0980  -999.2500     4.3410     4.7820  1981.7000
 3056.5000  -999.2500     7.0840     2.3700     0.0970  -999.2500     4.3360     4.8490  1981.7000
 3057.0000  -999.2500     6.9820     2.3540     0.0960  -999.2500     4.2840     4.9170  1981.7000
 3057.5000  -999.2500     6.8860     2.3390     0.0950  -999.2500     4.2320     4.9850  1981.7000
 3058.0000  -999.2500     6.8120     2.3220     0.0950  -999.2500     4.1920     5.0380  1981.7000
