~VERSION INFORMATION
 VERS.                2.0:   CWLS LOG ASCII STANDARD - VERSION 2.0
 WRAP.                 NO:   ONE LINE PER DEPTH STEP
~WELL INFORMATION
#MNEM.UNIT      DATA TYPE    INFORMATION
#----------   ------------   ------------------------------
 STRT.F          218.0000:   START DEPTH
 STOP.F         2860.0000:   STOP DEPTH
 STEP.F            0.5000:   STEP LENGTH
 NULL.          -999.2500:   NO VALUE
 COMP.    FENIX & SCISSON:   COMPANY
 WELL.  FENIX "AX" #76-20:   WELL
 FLD . TEAPOT DOME NPR -3:   FIELD
 LOC .      S20 T39N R78W:   LOCATION
 CNTY.            NATRONA:   COUNTY
 STAT.            WYOMING:   STATE
 CTRY. UNITED STATES OF AMERICA:   COUNTRY
 SRVC.           BIRDWELL:   SERVICE COMPANY
 DATE.        21-AUG-1978:   LOGDATE
 API .     49025106920000:   API NUMBER
~CURVE INFORMATION
#MNEM.UNIT       API CODE    CURVE DESCRIPTION
#----------   ------------   ------------------------------
 DEPT.F                  :   
 SPR .MV     05 010 01 00:   SPONTANEOUS POTENTIAL FROM RES.
 ILD .OHMM   05 120 46 00:   INDUCTION LOG DEEP
 SN  .OHMM   05 040 16 00:   SHORT NORMAL 16"
 RHOB.G/C3   45 350 01 00:   BULK DENSITY
 CALD.IN     45 280 60 00:   CALIPER FROM DENSITY LOG
 DCOR.G/C3   45 356 01 00:   DENSITY CORRECTION
 GRD .GAPI   45 310 01 00:   GAMMA RAY FROM DENSITY LOG
~PARAMETER INFORMATION
#MNEM.UNIT          VALUE    DESCRIPTION
#----------   ------------   ------------------------------
 EKB .F         5062.0000:   Kelly bushing
 EGL .F         5052.0000:   Ground level
 EDF .F            0.0000:   Drilling floor
 EPD .F            0.0000:   Permanent datum
 TD  .F         2854.0000:   Total depth
 DATE.        21-AUG-1978:   Date logged
 CLNT.            A2DTECH:   Client Code
 SL  . 1500' FNL & 1200' FEL:   Surface Location
 PD  .                 GL:   Permanent Datum
 DD  .F              2850:   Depth driller
 DL  .F              2854:   Depth logger
 BLI .F              2848:   Bottom log interval
 CS1 .IN            8.625:   Casing size
 CBD1.      8.625" @ 200':   Casing driller 1
 CBL1.F               235:   Casing logger 1
 BS1 .IN            7.875:   Bit size
 DFT .                KCL:   Type fluid in hole
 DFD .                9.2:   Density
 DFV .                 30:   Viscosity
 DFL .                8.4:   Fluid loss
 MSS .           FLOWLINE:   Source of sample
 RMS .OHMM            1.2:   Rm
 MST .F                86:   Rm Meas. temp.
 RMF .OHMM            0.8:   Rmf
 MFST.F                68:   Rmf Meas. temp.
 RMC .OHMM            1.6:   Rmc
 MCST.F                70:   Rmc Meas. temp.
 MFSS.              PRESS:   Source Rmf.
 BHT .F               102:   BHT.
 TCS .HRS               3:   Time Circ. stopped
 MRT .F               102:   Maximum recorded temp.
 LUN .               2968:   Logging unit number
 LUL .             CASPER:   Logging unit location
 ENGI.           REYNOLDS:   Recorded By
 ORIG.           5" PRINT:   Origin of data
 UWI .     49025106920000:   Unique Well ID
 DICO. A2D TECHNOLOGIES, INC.:   Digitizing Company
 DAPD.                 12:   Feet Above Permanent Datum
 BSD1.               2850:   Depth drilled with bit1
 MCSS.               MEAS:   Source Rmc.
 TLI .                230:   Top log interval
~OTHER INFORMATION
~A   DEPT      SPR        ILD         SN       RHOB       CALD       DCOR          GRD 
# ...
  400.0000   -82.8110     9.3610    10.3950     2.4880     9.3320     0.0540   101.0250
  400.5000   -82.8040     9.4380    10.4700     2.5010     9.3050     0.0540    97.4260
  401.0000   -82.7980     9.5140    10.5460     2.5080     9.2750     0.0510    90.9870
  401.5000   -82.7920     9.5900    10.6220     2.5030     9.2440     0.0440    84.6110
  402.0000   -82.7860     9.6670    10.6980     2.5030     9.2140     0.0370    79.8370
  402.5000   -82.7800     9.7430    10.7740     2.5080     9.1830     0.0360    80.4580
  403.0000   -82.7740     9.8190    10.8480     2.5080     9.1530     0.0420    83.6360
  403.5000   -82.7670     9.8960    10.9220     2.5050     9.1310     0.0490    84.8920
  404.0000   -82.7610     9.9720    10.9220     2.5010     9.1310     0.0560    84.4950
  404.5000   -82.7550    10.0480    11.0250     2.5070     9.1310     0.0500    83.9330
  405.0000   -82.7490    10.1320    11.0400     2.5140     9.1310     0.0420    83.3960
  405.5000   -82.7430    10.1320    11.0610     2.5210     9.1310     0.0350    82.9130
  406.0000   -82.7370    10.2280    11.0830     2.5270     9.1310     0.0270    85.0890
  406.5000   -82.7300    10.2540    11.1040     2.5160     9.1310     0.0400    88.4340
  407.0000   -82.7240    10.2780    11.1250     2.5020     9.1310     0.0660    84.2900
  407.5000   -82.7180    10.3020    11.1460     2.4910     9.1310     0.0910    81.2120
  408.0000   -82.7120    10.3260    11.1680     2.4940     9.1310     0.0810    83.2650
  408.5000   -82.7060    10.3510    11.1890     2.4970     9.0950     0.0700    85.7940
  409.0000   -82.7000    10.3750    11.2100     2.5000     9.0370     0.0580    85.2730
  409.5000   -82.6930    10.3990    11.2320     2.5020     8.9780     0.0470    84.2040
  410.0000   -82.6870    10.4230    11.2530     2.4970     8.9190     0.0460    83.9570
  410.5000   -82.6810    10.4480    11.2740     2.4780     8.8610     0.0490    85.0940
  411.0000   -82.6750    10.4720    11.2950     2.4640     8.8030     0.0530    86.1290
  411.5000   -82.6690    10.4960    11.3170     2.4790     8.7580     0.0550    87.1610
  412.0000   -82.6630    10.5200    11.3380     2.4940     8.7320     0.0360    88.1730
  412.5000   -82.6570    10.5450    11.3590     2.5080     8.7060     0.0140    88.2030
  413.0000   -82.6500    10.5690    11.3800     2.5030     8.6800     0.0010    87.5720
  413.5000   -82.6440    10.5930    11.4020     2.4970     8.6540     0.0040    82.7370
  414.0000   -82.6380    10.6190    11.4230     2.4920     8.6290     0.0110    79.0600
  414.5000   -82.6360    10.6190    11.4440     2.4960     8.6030     0.0130    80.2680
  415.0000   -82.4380    10.7190    11.4660     2.5020     8.5770     0.0130    81.6200
  415.5000   -82.4430    10.7190    11.4870     2.5080     8.5720     0.0110    82.3400
  416.0000   -82.5400    10.6190    11.5080     2.5140     8.5810     0.0100    79.5500
  416.5000   -82.6360    10.6190    11.5290     2.5200     8.5870     0.0070    69.2220
  417.0000   -82.7320    10.5960    11.5510     2.5220     8.5870     0.0100    74.3040
  417.5000   -82.8280    10.5740    11.5720     2.5160     8.5870     0.0150    81.3310
  418.0000   -82.9250    10.5520    11.5930     2.5100     8.5850     0.0200    82.1350
  418.5000   -83.0210    10.5300    11.6140     2.5030     8.5810     0.0210    80.9350
  419.0000   -83.1170    10.5080    11.6360     2.5020     8.5760     0.0200    79.7510
  419.5000   -83.2140    10.4860    11.6630     2.5150     8.5720     0.0170    78.5680
  420.0000   -83.2310    10.4640    11.5530     2.5080     8.5670     0.0200    77.3290
  420.5000   -83.1870    10.4420    11.4000     2.5030     8.5700     0.0270    76.9680
  421.0000   -83.1400    10.4220    11.2470     2.5270     8.5840     0.0260    76.6090
  421.5000   -83.0930    10.4220    11.0930     2.5170     8.6070     0.0260    76.4880
  422.0000   -83.0460    10.3240    10.9400     2.5160     8.6150     0.0340    76.3920
  422.5000   -82.9990    10.2200    10.7860     2.5270     8.6240     0.0340    74.6140
  423.0000   -82.9520    10.0500    10.6330     2.5390     8.6340     0.0300    71.6090
  423.5000   -82.9050     9.8800    10.4790     2.5550     8.6440     0.0260    68.5880
  424.0000   -82.8580     9.7100    10.3260     2.5660     8.6880     0.0220    65.5770
  424.5000   -82.8110     9.5400    10.1720     2.5490     8.7310     0.0180    65.2130
  425.0000   -82.7640     9.3710    10.0190     2.5380     8.7660     0.0160    66.0530
  425.5000   -82.7180     9.2010     9.8650     2.5370     8.8030     0.0130    68.0290
  426.0000   -82.6810     9.0310     9.7120     2.5280     8.8400     0.0110    71.7290
  426.5000   -82.7900     8.8610     9.5580     2.5020     8.8770     0.0080    75.4120
  427.0000   -82.8340     8.6910     9.4050     2.5120     8.9140     0.0080    79.2480
  427.5000   -82.8340     8.5210     9.2510     2.5270     8.9490     0.0110    79.0630
  428.0000   -82.8900     8.3510     9.0980     2.5170     8.9640     0.0180    77.3360
  428.5000   -82.9550     8.2430     8.9690     2.4970     8.9780     0.0140    75.5530
  429.0000   -83.0190     8.2830     9.0540     2.5060     8.9910     0.0090    73.7380
  429.5000   -83.0840     8.3170     9.1170     2.5060     9.0050     0.0170    73.4040
  430.0000   -83.1490     8.3500     9.1840     2.5020     9.0190     0.0310    74.1000
  430.5000   -83.2130     8.3840     9.2500     2.4980     9.0330     0.0450    74.3020
  431.0000   -83.2780     8.4180     9.3170     2.5130     9.0460     0.0580    74.5790
  431.5000   -83.3430     8.4520     9.3840     2.4990     9.0600     0.0540    74.7970
  432.0000   -83.4070     8.4860     9.4510     2.5080     9.0740     0.0510    74.3900
  432.5000   -83.4720     8.5200     9.5180     2.5200     9.0880     0.0620    71.8140
  433.0000   -83.5350     8.5540     9.5850     2.4860     9.1020     0.1010    69.1920
  433.5000   -83.5990     8.5880     9.6680     2.4660     9.1350     0.1390    69.0960
  434.0000   -83.4980     8.6220     9.6010     2.4660     9.2240     0.1780    69.8770
  434.5000   -83.2400     8.6550     9.4000     2.4790     9.2920     0.2060    70.3240
  435.0000   -83.1920     8.6890     9.2910     2.5000     9.3040     0.1560    69.6380
  435.5000   -83.0430     8.7900     9.2200     2.5210     9.2830     0.1060    68.4050
  436.0000   -82.9820     8.7120     9.1490     2.5380     9.2640     0.0560    93.6790
  436.5000   -82.9200     8.6090     9.0780     2.5160     9.2430     0.0360    88.6780
  437.0000   -82.8580     8.5070     9.0080     2.4860     9.2230     0.0480    80.8430
  437.5000   -82.7970     8.4040     8.9370     2.4890     9.2030     0.0520    72.7570
  438.0000   -82.7350     8.3010     8.8660     2.4980     9.1900     0.0500    72.2330
  438.5000   -82.6730     8.1980     8.7960     2.5070     9.1850     0.0480    76.5220
  439.0000   -82.6330     8.0950     8.7200     2.5150     9.1800     0.0460    80.1440
  439.5000   -82.6500     7.9920     8.7620     2.5060     9.1750     0.0440    83.7900
  440.0000   -82.4280     7.8890     8.8030     2.4940     9.1700     0.0470    84.3440
  440.5000   -82.5450     7.7860     8.8030     2.4830     9.1650     0.0720    84.8800
  441.0000   -82.6710     7.6830     8.8030     2.4710     9.1610     0.0970    86.2830
  441.5000   -82.7990     7.6470     8.8030     2.4590     9.1560     0.1230    88.7750
  442.0000   -82.9290     7.5760     8.8310     2.4480     9.1510     0.1120    91.0800
  442.5000   -83.0580     7.6470     8.8970     2.4650     9.1460     0.0930    87.0360
  443.0000   -83.1870     7.6470     8.9630     2.4770     9.1420     0.0730    84.6080
  443.5000   -83.3160     7.6990     9.0290     2.4770     9.1370     0.0540    85.7640
  444.0000   -83.4460     7.7510     9.0950     2.4730     9.1320     0.0510    86.9380
  444.5000   -83.5750     7.8030     9.1610     2.4670     9.1270     0.0500    86.8040
  445.0000   -83.7040     7.8550     9.2270     2.4740     9.1220     0.0480    85.7370
