~VERSION INFORMATION
 VERS.                2.0:   CWLS LOG ASCII STANDARD - VERSION 2.0
 WRAP.                 NO:   ONE LINE PER DEPTH STEP
~WELL INFORMATION
#MNEM.UNIT      DATA TYPE    INFORMATION
#----------   ------------   ------------------------------
 STRT.F            0.0000:   START DEPTH
 STOP.F         4000.0000:   STOP DEPTH
 STEP.F            0.5000:   STEP LENGTH
 NULL.          -999.2500:   NO VALUE
 COMP. LAWRENCE &  ALLISON ASSOC.:   COMPANY
 WELL. LAWRENCE NPR 3 "TX" #14-28:   WELL
 FLD .              N P R:   FIELD
 LOC .      S28 T39N R78W:   LOCATION
 CNTY.            NATRONA:   COUNTY
 STAT.            WYOMING:   STATE
 CTRY. UNITED STATES OF AMERICA:   COUNTRY
 SRVC.      DRESSER ATLAS:   SERVICE COMPANY
 DATE.        11-APR-1984:   LOGDATE
 API .     49025109710000:   API NUMBER
~CURVE INFORMATION
#MNEM.UNIT       API CODE    CURVE DESCRIPTION
#----------   ------------   ------------------------------
 DEPT.F                  :   
 RHOB.G/C3   45 350 01 00:   BULK DENSITY
 CORR.G/C3   45 356 01 00:   DENSITY CORRECTION
 TEND.LBS    45 635 01 00:   TENSION FROM DENSITY LOG
 CNC .DEC    42 890 03 00:   NEUTRON PORISITY SANDSTONE
 DT  .US/F   60 520 00 00:   DELTA TIME
 TENS.LBS    60 635 01 00:   TENSION FROM SONIC LOG
 GRR .GAPI   07 310 01 00:   GAMMA RAY FROM RESISTIVITY
 SPR .MV     07 010 01 00:   SPONTANEOUS POTENTIAL
 CALR.IN     07 280 01 00:   CALIPER FROM RESISTIVITY
 TENR.LBS    07 635 01 00:   TENSION
 RILD.OHMM   07 120 46 00:   INDUCTION LOG DEEP RESISTIVITY
 RILM.OHMM   07 120 44 00:   INDUCTION LOG MEDIUM RESISTIVITY
 RFOC.OHMM   07 220 01 00:   RESISTIVITY FOCUSED LOG RES.
~PARAMETER INFORMATION
#MNEM.UNIT          VALUE    DESCRIPTION
#----------   ------------   ------------------------------
 EKB .F         5024.0000:   Kelly bushing
 EGL .F         5014.0000:   Ground level
 TD  .F         3996.0000:   Total depth
 DATE.        11-APR-1984:   Date logged
 CLNT.            A2DTECH:   Client Code
 SL  . 250' FWL & 2100' FNL:   Surface Location
 PD  .                 GL:   Permanent Datum
 EPD .F              5014:   Elevation Permanent Datum
 LMF .                 KB:   Log Measured From
 DMF .                 KB:   Drilling Measured From
 DD  .F              3996:   Depth driller
 DL  .F              3994:   Depth logger
 BLI .F              3992:   Bottom log interval
 CS1 .IN            8.625:   Casing size
 CBD1.      8.625" @ 404':   Casing driller 1
 CBL1.F               404:   Casing logger 1
 BS1 .IN            7.875:   Bit size
 DFT .            GEL/KCL:   Type fluid in hole
 DFD .                9.1:   Density
 DFV .                 38:   Viscosity
 DFPH.                  8:   pH
 DFL .                 14:   Fluid loss
 MSS .           FLOWLINE:   Source of sample
 RMS .OHMM           .417:   Rm
 MST .F                90:   Rm Meas. temp.
 RMF .OHMM           .313:   Rmf
 MFST.F                90:   Rmf Meas. temp.
 RMC .OHMM           .521:   Rmc
 MCST.F                90:   Rmc Meas. temp.
 MFSS.               CALC:   Source Rmf.
 RMB .OHMM            .25:   Rm. at BHT
 BHT .F               150:   BHT.
 TCS .HRS               3:   Time Circ. stopped
 MRT .F               150:   Maximum recorded temp.
 LUN .               6307:   Logging unit number
 LUL .               GLTE:   Logging unit location
 ENGI.           FAHLSING:   Recorded By
 WITN.             STRONG:   Witnessed by
 ORIG.           5" PRINT:   Origin of data
 UWI .     49025109710000:   Unique Well ID
 DICO. A2D TECHNOLOGIES, INC.:   Digitizing Company
 DAPD.F                10:   Feet Above Permanent Datum
 BSD1.F              3996:   Depth drilled with bit1
 MCSS.               CALC:   Source Rmc.
~OTHER INFORMATION
~A    DEPT    RHOB       CORR       TEND        CNC         DT       TENS         GRR       SPR       CALR       TENR       RILD       RILM       RFOC   
# ...
 3510.0000     2.4700     0.0120    34.8470     0.2540    89.1000    27.2200   175.7730   -30.7970     8.1560   -15.4690     4.7940     5.4060     7.6170
 3510.5000     2.4550    -0.0090    35.1050     0.2700    87.9700    27.0600   179.6880   -31.3940     8.1520   -15.4690     4.3650     4.7630     8.0280
 3511.0000     2.4260    -0.0040    35.3620     0.2800    88.0690    26.9000   187.3950   -31.9560     8.1450   -15.4690     3.9360     4.1190     7.3100
 3511.5000     2.3760     0.0700    35.6190     0.2750    90.9600    26.7400   195.5800   -31.5670     8.1380   -15.4690     3.5480     3.7150     5.9210
 3512.0000     2.3220     0.1450    35.8760     0.2590    95.7850    26.5800   205.2340   -31.1190     8.1220   -15.4690     3.5160     3.7150     4.1470
 3512.5000     2.2950     0.0900    36.1340     0.2480   100.6440    26.4200   207.7700   -30.6830     8.0840   -15.4690     3.5160     3.8420     3.0080
 3513.0000     2.3580     0.0350    36.3910     0.2410   101.3370    26.2600   190.7280   -30.5500     8.0470   -15.4690     3.6500     4.0550     3.4160
 3513.5000     2.4120     0.0090    36.6480     0.2360    99.6530    26.1000   180.6230   -30.9460     8.0090   -15.4690     3.8720     4.2690     4.9600
 3514.0000     2.4510     0.0150    36.9050     0.2350    95.1400    25.9400   175.5770   -31.3500     7.9720   -15.4690     4.1180     4.4830     7.0610
 3514.5000     2.4510     0.0450    37.1620     0.2450    92.4260    25.7800   173.8100   -31.7570     7.9600   -15.4690     4.3980     4.6960     7.0310
 3515.0000     2.4380     0.0480    37.4200     0.2540    92.6980    25.6200   174.7220   -32.1620     7.9640   -15.4690     4.6770     4.9100     6.8680
 3515.5000     2.4310     0.0470    37.6770     0.2610    93.5040    25.4600   177.1940   -32.3070     7.9680   -15.4690     4.9370     5.1240     6.3710
 3516.0000     2.4240     0.0460    37.9340     0.2640    94.5050    25.3000   181.5600   -32.1420     7.9710   -15.4690     5.0480     5.3620     6.1750
 3516.5000     2.4170     0.0520    38.1910     0.2580    94.5050    25.1400   185.7980   -31.9600     7.9750   -15.4690     5.1210     5.3340     6.0970
 3517.0000     2.4100     0.0600    38.4490     0.2500    94.5420    24.9800   189.7980   -31.3790     7.9790   -15.4690     5.0630     5.3130     6.3270
 3517.5000     2.4110     0.0660    38.7060     0.2430    94.5800    24.8200   190.7890   -30.8150     7.9820   -15.4690     5.0500     5.2710     6.5770
 3518.0000     2.4200     0.0340    38.9630     0.2480    94.7000    24.6600   191.8100   -30.2540     7.9860   -15.4690     5.0370     5.1910     6.7440
 3518.5000     2.4250     0.0000    39.2200     0.2600    94.9500    24.5000   200.5870   -29.6940     7.9900   -15.4690     5.0280     5.1210     6.5900
 3519.0000     2.4230    -0.0170    39.4770     0.2630    95.1980    24.3400   202.7980   -29.1340     7.9930   -15.4690     5.0890     5.2030     6.3190
 3519.5000     2.4200    -0.0090    39.7350     0.2580    95.0990    24.1800   209.7850   -28.5730     7.9960   -15.4690     5.1540     5.2750     6.0480
 3520.0000     2.4280     0.0120    39.9920     0.2420    93.2050    24.0200   224.2790   -28.0130     8.0170   -15.4690     5.1690     5.3460     5.8230
 3520.5000     2.4380     0.0120    40.2490     0.2360    90.7430    23.8600   223.8320   -27.4530     8.0180   -15.4690     5.0970     5.3620     5.8230
 3521.0000     2.4370    -0.0110    40.5060     0.2420    91.0390    23.7000   209.8030   -26.8900     8.0350   -15.4690     4.9750     5.2480     6.2750
 3521.5000     2.4320    -0.0150    40.7630     0.2470    91.8320    23.5400   205.4700   -26.5610     8.0530   -15.4690     4.8540     5.1650     6.6100
 3522.0000     2.4310    -0.0100    41.0210     0.2510    91.8320    23.3800   202.0640   -26.3730     8.0700   -15.4690     4.6940     5.0830     6.8690
 3522.5000     2.4250     0.0010    41.2780     0.2610    89.9640    23.2200   202.5360   -26.1860     8.1080   -15.4690     4.4030     5.0000     6.9320
 3523.0000     2.4000     0.0110    41.5350     0.2720    87.1780    23.0600   201.3290   -26.0660     8.1580   -15.4690     4.1130     4.9180     6.5580
 3523.5000     2.3050     0.0410    41.7920     0.2740    88.9630    22.9000   200.1860   -25.9940     8.2340   -15.4690     3.8230     4.8350     5.8100
 3524.0000     2.2170     0.1210    42.0500     0.2690    94.9470    22.7400   198.5190   -25.9280     8.3090   -15.4690     3.7490     4.7590     4.7390
 3524.5000     2.1770     0.1040    42.0790     0.2620   102.6770    22.5800   188.8210   -26.1710     8.3830   -15.4690     3.7490     4.7820     3.6140
 3525.0000     2.2710     0.0480    42.0790     0.2550   105.9900    22.4200   177.9290   -26.7680     8.3980   -15.4690     3.8530     4.8070     3.5480
 3525.5000     2.3900     0.0320    42.0790     0.2490   102.9420    22.2770   178.2770   -27.3600     8.4060   -15.4690     3.9490     4.8330     5.6030
 3526.0000     2.4510     0.0660    42.0790     0.2430    96.5880    21.4340   187.5650   -27.9550     8.4130   -15.4690     4.0450     4.8590     7.1910
 3526.5000     2.4550     0.0510    42.0790     0.2520    90.1490    20.6720   199.8870   -28.5490     8.4200   -15.4690     4.1570     4.8850     7.3920
 3527.0000     2.4430     0.0260    42.0790     0.2650    90.6830    19.9100   203.3320   -29.1430     8.4280   -15.4690     4.2990     4.9100     6.5800
 3527.5000     2.4310    -0.0020    42.0790     0.2620    92.6120    19.1480   207.7250   -29.7370     8.4310   -15.4690     4.4420     4.9370     5.8640
 3528.0000     2.4260    -0.0090    42.0790     0.2580    94.8080    18.3860   208.5190   -30.3310     8.4320   -15.4690     4.5840     4.9370     5.4110
 3528.5000     2.4380    -0.0080    42.0790     0.2540    95.8910    17.6250   194.4080   -30.9260     8.4330   -15.4690     4.6730     4.9280     5.6210
 3529.0000     2.4580     0.0090    42.0790     0.2470    95.1660    16.8630   187.5690   -31.5210     8.4340   -15.4690     4.6620     4.9120     6.1720
 3529.5000     2.4770     0.0350    42.0790     0.2400    94.2100    16.1010   178.3310   -32.1150     8.4340   -15.4690     4.6550     4.8970     6.5610
 3530.0000     2.4830     0.0380    42.0790     0.2330    93.5150    15.3390   169.1340   -32.5970     8.4350   -15.4690     4.6470     4.8810     6.4490
 3530.5000     2.4820     0.0320    42.0790     0.2290    93.9510    14.5770   173.4980   -32.5410     8.4360   -15.4690     4.6400     4.8650     6.3120
 3531.0000     2.4830     0.0260    42.0790     0.2340    94.7000    13.8150   181.9850   -31.4940     8.4360   -15.4690     4.6310     4.8500     6.1740
 3531.5000     2.4930     0.0080    42.0790     0.2440    95.2970    13.0530   184.6030   -30.4290     8.4370   -15.4690     4.5490     4.8180     6.1130
 3532.0000     2.5060    -0.0110    42.0790     0.2540    95.1980    12.2920   179.9960   -29.3860     8.4380   -15.4690     4.4240     4.7000     6.0660
 3532.5000     2.5110    -0.0130    42.0790     0.2590    94.6950    11.5300   176.8790   -28.5580     8.4390   -15.4690     4.2990     4.5830     6.0080
 3533.0000     2.4970     0.0090    42.0790     0.2600    94.2080    10.7680   176.6060   -27.7840     8.4390   -15.4690     4.1740     4.4550     5.9390
 3533.5000     2.4760     0.0350    42.0790     0.2600    94.2080    10.0060   176.6410   -27.0090     8.4400   -15.4690     4.0490     4.3210     5.8320
 3534.0000     2.4560     0.0430    42.0790     0.2530    94.4390     9.2440   175.3340   -26.2370     8.4410   -15.4690     3.9240     4.1880     5.3890
 3534.5000     2.4510     0.0340    42.0790     0.2460    94.4060     8.4820   169.4030   -25.4570     8.4410   -15.4690     3.8190     4.0720     5.1210
 3535.0000     2.4580     0.0410    42.0790     0.2460    94.1230     7.7210   162.8070   -25.0180     8.4420   -15.4690     3.8540     4.0720     5.0750
 3535.5000     2.4730     0.0640    42.0790     0.2630    93.8550     6.9590   156.2420   -24.7430     8.4430   -15.4690     3.8990     4.1110     5.0280
