~VERSION INFORMATION
 VERS.                2.0:   CWLS LOG ASCII STANDARD - VERSION 2.0
 WRAP.                 NO:   ONE LINE PER DEPTH STEP
~WELL INFORMATION
#MNEM.UNIT      DATA TYPE    INFORMATION
#----------   ------------   ------------------------------
 STRT.F          200.0000:   START DEPTH
 STOP.F         3080.0000:   STOP DEPTH
 STEP.F            0.5000:   STEP LENGTH
 NULL.          -999.2500:   NO VALUE
 COMP.    FENIX & SCISSON:   COMPANY
 WELL. FENIX NPR 3 "AX" #55-33:   WELL
 FLD .        TEAPOT DOME:   FIELD
 LOC .      S33 T38N R78W:   LOCATION
 CNTY.            NATRONA:   COUNTY
 STAT.            WYOMING:   STATE
 CTRY. UNITED STATES OF AMERICA:   COUNTRY
 SRVC.           BIRDWELL:   SERVICE COMPANY
 DATE.        08-FEB-1978:   LOGDATE
 API .     49025105740000:   API NUMBER
~CURVE INFORMATION
#MNEM.UNIT       API CODE    CURVE DESCRIPTION
#----------   ------------   ------------------------------
 DEPT.F                  :   
 CALD.IN     45 280 60 00:   CALIPER FROM DENSITY LOG
 GRD .GAPI   45 310 01 00:   GAMMA RAY FROM DENSITY LOG
 RHOB.G/C3   45 350 01 00:   BULK DENSITY
 CORR.G/C3   45 356 01 00:   DENSITY CORRECTION
 NPOR.DEC    42 890 03 00:   ALPHA PROCESSED NEUTRON POROSITY
 SPR .MV     05 010 01 00:   SPONTANEOUS POTENTIAL
 SN  .OHMM   05 040 16 00:   SHORT NORMAL 16"
 ILD .OHMM   05 120 46 00:   DEEP INDUCTION RESISTIVITY
~PARAMETER INFORMATION
#MNEM.UNIT          VALUE    DESCRIPTION
#----------   ------------   ------------------------------
 EKB .F         5197.0000:   Kelly bushing
 EGL .F         5187.0000:   Ground level
 EDF .F            0.0000:   Drilling floor
 TD  .F         3084.0000:   Total depth
 DATE.        08-FEB-1978:   Date logged
 CLNT.            A2DTECH:   Client Code
 SL  . 2000' FSL & 2310' FEL:   Surface Location
 PD  .                 GL:   Permanent Datum
 EPD .F              5187:   Elevation Permanent Datum
 LMF .                 KB:   Log Measured From
 DMF .                 KB:   Drilling Measured From
 DAPD.F                10:   Feet Above Permanent Datum
 DD  .F              3084:   Depth driller
 DL  .F              3080:   Depth logger
 BLI .F              3074:   Bottom log interval
 TLI .F               200:   Top log interval
 CS1 .IN            8.625:   Casing size
 CBD1.      8.625" @ 229':   Casing driller 1
 CBL1.F               230:   Casing logger 1
 BS1 .IN            7.875:   Bit size
 BSD1.F              3084:   Depth drilled with bit1
 DFT .     LIGNOSULFONATE:   Type fluid in hole
 DFD .                9.2:   Density
 DFV .                 30:   Viscosity
 DFPH.                  9:   pH
 DFL .                  5:   Fluid loss
 MSS .           FLOWLINE:   Source of sample
 RMS .OHMM            1.5:   Rm
 MST .F                62:   Rm Meas. temp.
 RMF .OHMM            1.2:   Rmf
 MFST.F                66:   Rmf Meas. temp.
 RMC .OHMM            2.8:   Rmc
 MCST.F                65:   Rmc Meas. temp.
 MFSS.               MEAS:   Source Rmf.
 RMB .OHMM            .82:   Rm. at BHT
 BHT .F               114:   BHT.
 TCS .HRS               3:   Time Circ. stopped
 MRT .F               114:   Maximum recorded temp.
 LUN .               2958:   Logging unit number
 LUL .               CASP:   Logging unit location
 ENGI.            POINTER:   Recorded By
 WITN.         HARRINGTON:   Witnessed by
 ORIG.           5" PRINT:   Origin of data
 UWI .     49025105740000:   Unique Well ID
 DICO. A2D TECHNOLOGIES, INC.:   Digitizing Company
~OTHER INFORMATION
~A   DEPT       CALD      GRD       RHOB        CORR      NPOR        SPR         SN        ILD   
# ...
  807.5000     9.6118    81.6104     2.5254     0.1331  -999.2500   -46.3619     7.1535     6.9093
  808.0000     9.6116    85.1732     2.5363     0.1351  -999.2500   -45.7695     7.0213     6.8443
  808.5000     9.6511    85.5686     2.5104     0.1351  -999.2500   -46.3683     6.9553     6.7176
  809.0000     9.6707    80.2190     2.5084     0.1350  -999.2500   -46.7690     6.9537     6.6543
  809.5000     9.6706    79.4258     2.5034     0.1350  -999.2500   -46.9712     6.9520     6.5917
  810.0000     9.6903    79.0273     2.5013     0.1350  -999.2500   -46.7761     6.8867     6.5902
  810.5000     9.7297    81.7983     2.5103     0.1350  -999.2500   -46.7796     6.8851     6.5886
  811.0000     9.7494    84.9652     2.5113     0.1290  -999.2500   -46.7831     6.8834     6.5871
  811.5000     9.6502    83.1813     2.5093     0.1230  -999.2500   -46.7867     6.9455     6.5855
  812.0000     9.6302    83.1800     2.5093     0.1110  -999.2500   -46.3930     7.0081     6.6450
  812.5000     9.6301    83.3764     2.5103     0.1169  -999.2500   -46.3965     7.0068     6.7674
  813.0000     9.6299    83.9682     2.5123     0.1169  -999.2500   -46.3993     7.0699     6.7658
  813.5000     9.6496    84.1653     2.5123     0.1149  -999.2500   -46.4029     7.1337     6.8269
  814.0000     9.6494    81.9849     2.5123     0.1089  -999.2500   -46.2078     7.1320     6.8253
  814.5000     9.6691    79.4076     2.5113     0.1149  -999.2500   -46.2113     7.1303     6.8869
  815.0000     9.6887    79.0104     2.5093     0.1069  -999.2500   -46.2149     7.1946     6.9491
  815.5000     9.6885    78.8106     2.5093     0.1068  -999.2500   -46.2184     7.2595     7.0118
  816.0000     9.7082    80.3935     2.5142     0.1048  -999.2500   -46.4205     7.2577     7.0751
  816.5000     9.7081    80.3918     2.5182     0.1048  -999.2500   -46.6226     7.3235     7.1390
  817.0000     9.7475    81.3805     2.5152     0.1028  -999.2500   -46.2290     7.3895     7.1376
  817.5000     9.7672    83.9539     2.5102     0.1028  -999.2500   -46.2325     7.4562     7.2020
  818.0000     9.7473    85.1410     2.5042     0.1028  -999.2500   -46.2353     7.5234     7.2003
  818.5000     9.7471    83.1582     2.5092     0.1027  -999.2500   -46.2389     7.5912     7.3327
  819.0000     9.7073    80.3833     2.5092     0.1027  -999.2500   -46.2424     7.6596     7.3989
  819.5000     9.6081    77.8064     2.5112     0.1027  -999.2500   -46.2459     7.7287     7.3971
  820.0000     9.6080    76.6161     2.5232     0.1027  -999.2500   -46.2495     7.7983     7.3954
  820.5000     9.5880    78.0010     2.5122     0.1007  -999.2500   -46.2530     7.9241     7.8147
  821.0000     9.6077    78.5936     2.5102     0.1006  -999.2500   -46.4551     7.9223     7.8128
  821.5000     9.6075    77.7995     2.5042     0.0966  -999.2500   -46.8558     7.9936     7.8834
  822.0000     9.6271    75.8168     2.4852     0.0966  -999.2500   -47.0579     7.9917     7.8815
  822.5000     9.6072    75.8150     2.4892     0.1026  -999.2500   -47.0614     7.9167     7.8073
  823.0000     9.5674    76.0114     2.4972     0.1086  -999.2500   -47.0642     7.9879     7.8778
  823.5000     9.5673    76.4051     2.4972     0.1245  -999.2500   -47.0677     7.9130     7.8036
  824.0000     9.5671    75.2154     2.4981     0.1405  -999.2500   -47.0713     7.9111     7.8018
  824.5000     9.5669    75.2137     2.5021     0.1505  -999.2500   -47.0748     7.8539     7.8000
  825.0000     9.5669    75.4104     2.5211     0.1644  -999.2500   -46.8797     7.8523     7.7981
  825.5000     9.5469    75.0124     2.5371     0.1644  -999.2500   -46.4862     7.7800     7.7967
  826.0000     9.5269    75.6050     2.5201     0.1504  -999.2500   -46.2911     7.7771     7.7233
  826.5000     9.5267    77.7825     2.5151     0.1424  -999.2500   -46.2947     7.7040     7.5107
  827.0000     9.5266    77.9789     2.5131     0.1424  -999.2500   -46.2982     7.7022     7.4400
  827.5000     9.5463    79.1659     2.5131     0.1424  -999.2500   -46.1025     7.7004     7.4383
  828.0000     9.5263    80.5510     2.5181     0.1443  -999.2500   -46.1060     7.6986     7.4365
  828.5000     9.5657    80.5497     2.5240     0.1443  -999.2500   -45.7125     7.6968     7.4348
  829.0000     9.5854    80.1514     2.5250     0.1443  -999.2500   -45.9145     7.6949     7.4330
  829.5000     9.6051    78.7628     2.5240     0.1403  -999.2500   -46.1166     7.6931     7.5001
  830.0000     9.5851    75.5909     2.5330     0.1363  -999.2500   -46.3187     7.6913     7.4984
  830.5000     9.6047    74.4004     2.5330     0.1323  -999.2500   -46.3222     7.6899     7.4278
  831.0000     9.6442    74.3986     2.5340     0.1243  -999.2500   -46.5243     7.6881     7.4952
  831.5000     9.6441    75.3875     2.5340     0.1242  -999.2500   -46.5278     7.6863     7.4246
  832.0000     9.6836    77.5657     2.5320     0.1202  -999.2500   -46.5313     7.6845     7.5611
  832.5000     9.6835    80.9323     2.5260     0.1202  -999.2500   -46.5341     7.6827     7.4211
  833.0000     9.6833    80.5343     2.5250     0.1202  -999.2500   -46.5377     7.6808     7.4194
  833.5000     9.6831    80.7308     2.5250     0.1202  -999.2500   -46.5412     7.6790     7.4176
  834.0000     9.6829    80.5309     2.5230     0.1162  -999.2500   -46.3462     7.6772     7.3478
  834.5000     9.6828    80.7274     2.5230     0.1161  -999.2500   -46.5483     7.6051     7.3461
  835.0000     9.6827    80.9238     2.5239     0.1161  -999.2500   -46.5518     7.5336     7.2769
  835.5000     9.6825    80.9225     2.5299     0.1161  -999.2500   -46.5553     7.5322     7.2752
  836.0000     9.6823    79.7315     2.5409     0.1101  -999.2500   -46.5588     7.4614     7.2071
  836.5000     9.6822    79.7301     2.5419     0.1081  -999.2500   -46.5624     7.4596     7.2721
  837.0000     9.7019    80.1247     2.5249     0.0981  -999.2500   -46.7644     7.4586     7.2037
  837.5000     9.7017    80.5193     2.5239     0.0961  -999.2500   -46.9657     7.4561     7.1359
  838.0000     9.6619    80.3195     2.5159     0.0960  -999.2500   -46.9692     7.3860     7.1342
  838.5000     9.6420    79.3269     2.5099     0.0960  -999.2500   -46.9727     7.3843     7.1325
  839.0000     9.6616    79.1274     2.5079     0.0980  -999.2500   -46.9763     7.3825     7.1308
  839.5000     9.6813    79.1253     2.5039     0.1000  -999.2500   -46.3843     7.3808     7.0637
  840.0000     9.6613    79.5200     2.5149     0.1000  -999.2500   -46.3878     7.3791     7.1935
  840.5000     9.6612    78.7256     2.5199     0.0999  -999.2500   -46.3914     7.3777     7.0604
  841.0000     9.6412    78.3275     2.5278     0.0979  -999.2500   -46.1964     7.3083     7.0591
  841.5000     9.6411    77.7312     2.5179     0.0959  -999.2500   -46.2000     7.3066     7.0574
  842.0000     9.6607    75.3514     2.5029     0.0939  -999.2500   -46.2035     7.3049     7.1211
  842.5000     9.6605    73.9624     2.5019     0.0939  -999.2500   -46.2063     7.3032     7.1194
  843.0000     9.6604    74.1588     2.5108     0.0979  -999.2500   -46.6068     7.3690     7.1178
  843.5000     9.6603    75.1479     2.5138     0.0998  -999.2500   -46.8088     7.4881     7.3835
  844.0000     9.6997    77.3262     2.5148     0.0978  -999.2500   -47.0108     7.4864     7.3818
  844.5000     9.6996    78.3157     2.5148     0.0978  -999.2500   -47.0143     7.4846     7.3800
  845.0000     9.6994    81.2869     2.5118     0.0958  -999.2500   -47.0178     7.4829     7.3783
  845.5000     9.6993    83.8616     2.5108     0.0938  -999.2500   -47.2198     7.6907     7.5838
  846.0000     9.6991    84.6528     2.5118     0.0938  -999.2500   -47.2233     7.8483     7.5821
  846.5000     9.6990    85.0478     2.5118     0.0937  -999.2500   -47.2268     7.7752     7.6505
  847.0000     9.6988    87.2257     2.5108     0.0937  -999.2500   -47.0319     7.7734     7.6487
  847.5000     9.7383    87.2247     2.5218     0.0937  -999.2500   -46.8363     7.7727     7.6469
