~VERSION INFORMATION
 VERS.                2.0:   CWLS LOG ASCII STANDARD - VERSION 2.0
 WRAP.                 NO:   ONE LINE PER DEPTH STEP
~WELL INFORMATION
#MNEM.UNIT      DATA TYPE    INFORMATION
#----------   ------------   ------------------------------
 STRT.F          210.0000:   START DEPTH
 STOP.F         2998.0000:   STOP DEPTH
 STEP.F            0.5000:   STEP LENGTH
 NULL.          -999.2500:   NO VALUE
 COMP.    FENIX & SCISSON:   COMPANY
 WELL. FENIX & SCISSON "A" #41-28:   WELL
 FLD .          N.P.R. #3:   FIELD
 LOC .      S28 T39N R78W:   LOCATION
 CNTY.            NATRONA:   COUNTY
 STAT.            WYOMING:   STATE
 CTRY. UNITED STATES OF AMERICA:   COUNTRY
 SRVC.       SCHLUMBERGER:   SERVICE COMPANY
 DATE.        08-MAY-1977:   LOGDATE
 API .     49025103670000:   API NUMBER
~CURVE INFORMATION
#MNEM.UNIT       API CODE    CURVE DESCRIPTION
#----------   ------------   ------------------------------
 DEPT.F                  :   
 CALD.IN     45 280 60 00:   CALIPER FROM DENSITY LOG
 GRD .GAPI   45 310 01 00:   GAMMA RAY FROM DENSITY LOG
 CORR.G/C3   45 356 01 00:   DENSITY CORRECTION
 RHOB.G/C3   45 350 01 00:   BULK DENSITY
 SPR .MV     07 010 01 00:   SPONTANEOUS POTENTIAL
 LL8 .OHMM   07 220 08 00:   LATEROLOG-8 RES.
 ILM .OHMM   07 120 44 00:   INDUCTION LOG MEDIUM RESISTIVITY
 ILD .OHMM   07 120 46 00:   DEEP INDUCTION RESISTIVITY
~PARAMETER INFORMATION
#MNEM.UNIT          VALUE    DESCRIPTION
#----------   ------------   ------------------------------
 EKB .F         5012.0000:   Kelly bushing
 EGL .F         5002.0000:   Ground level
 TD  .F         3000.0000:   Total depth
 CLNT.            A2DTECH:   Client Code
 SL  . 330' FNL & 2310' FWL:   Surface Location
 DATE.        08-MAY-1977:   Date Logged [DD-MMM-YYYY]
 DD  .F              3000:   Depth driller
 DL  .F              2999:   Depth logger
 BLI .F              2993:   Bottom log interval
 TLI .F               222:   Top log interval
 CS1 .              8.625:   Casing size
 CBD1.      8.625" @ 112':   Casing driller 1
 CBL1.IN              222:   Casing logger 1
 BS1 .IN            7.875:   Bit size
 BSD1.F              3000:   Depth drilled with bit1
 DFT .                KCL:   Type fluid in hole
 DFD .                8.8:   Density
 DFV .                 32:   Viscosity
 DFPH.                8.0:   pH
 DFL .                8.8:   Fluid loss
 MSS .           FLOWLINE:   Source of sample
 RMS .OHMM          0.124:   Rm
 MST .F                80:   Rm Meas. temp.
 RMF .OHMM          0.117:   Rmf
 MFST.F                80:   Rmf Meas. temp.
 MFSS.               MEAS:   Source Rmf.
 RMB .OHMM         0.0886:   Rm. at BHT
 BHT .F               112:   BHT.
 TCS .HRS            0200:   Time Circ. stopped
 TLAB.HRS            0515:   Time logger at bottom
 MRT .F               112:   Maximum recorded temp.
 LUN .               5642:   Logging unit number
 LUL .               CSPR:   Logging unit location
 ENGI.            MARATIN:   Recorded By
 WITN.         PETTINGILL:   Witnessed by
 ORIG.      2.5" 5" PRINT:   Origin of data
 UWI .     49025103670000:   Unique Well ID
 DICO. A2D TECHNOLOGIES, INC.:   Digitizing Company
 PD  .                 GL:   Permanent Datum
 EPD .               5002:   Elevation Permanent Datum
 LMF .                 KB:   Log Measured From
 DMF .                 KB:   Drilling Measured From
 DAPD.                 10:   Feet Above Permanent Datum
~OTHER INFORMATION
~A   DEPT     CALD         GRD      CORR       RHOB        SPR        LL8        ILM        ILD   
# ...
 2761.5000     8.5750   142.4449     0.1404     2.4670     4.0528     7.7128     5.8684     5.7749
 2762.0000     8.5615   143.3539     0.1314     2.4581     4.9821     7.8226     5.8684     5.7732
 2762.5000     8.5639   137.8546     0.1411     2.4469     6.1881     7.9340     5.8684     5.7716
 2763.0000     8.5659   133.3985     0.1308     2.4440     7.3929     8.1361     5.8684     5.7700
 2763.5000     8.5678   135.0526     0.1398     2.4590     8.8712     8.4451     5.8684     5.7684
 2764.0000     8.5543   137.7500     0.1330     2.4433     9.1775     8.5663     5.8684     5.7669
 2764.5000     8.5568   140.0003     0.1390     2.4434     9.4551     8.4668     5.8684     5.7653
 2765.0000     8.5587   137.9287     0.1382     2.4345     9.1614     8.2263     5.7854     5.6847
 2765.5000     8.5452   137.7803     0.1360     2.4255     9.1677     8.0410     5.7854     5.6509
 2766.0000     8.5322   138.4055     0.1294     2.4420     9.1417     7.9258     5.7854     5.4944
 2766.5000     8.5346   136.6319     0.1264     2.4518     8.5478     7.8123     5.7035     5.4494
 2767.0000     8.5211   136.1996     0.1406     2.4705     7.9877     7.8618     5.6227     5.4141
 2767.5000     8.5086   138.9220     0.1534     2.4766     7.9592     7.9224     5.5431     5.3718
 2768.0000     8.5105   142.2145     0.1504     2.4670     7.7002     7.9213     5.4647     5.3349
 2768.5000     8.4970   143.3979     0.1340     2.4375     7.6697     7.8669     5.4647     5.1510
 2769.0000     8.4840   144.3346     0.1182     2.4364     7.4128     7.6434     5.3873     5.0436
 2769.5000     8.4864   143.2279     0.1265     2.4549     7.7186     7.5331     5.3110     4.8367
 2770.0000     8.4734   141.9126     0.1340     2.4649     7.7246     7.3190     5.2358     4.6383
 2770.5000     8.4599   142.0128     0.1310     2.4455     8.0299     7.2133     5.1617     4.6071
 2771.0000     8.4468   143.8736     0.1378     2.4604     8.3772     7.1616     5.0887     4.6059
 2771.5000     8.4493   145.8376     0.1326     2.4713     8.9829     7.1606     5.0166     4.6046
 2772.0000     8.4662   148.2742     0.1296     2.4748     9.5449     7.1054     4.8756     4.6033
 2772.5000     8.4681   151.1194     0.1146     2.4375     9.8952     6.8058     4.8756     4.6018
 2773.0000     8.4701   152.1774     0.1289     2.4383    10.1557     6.7075     4.8066     4.6645
 2773.5000     8.4720   151.1490     0.1299     2.4333    10.4611     6.7169     4.8066     4.7283
 2774.0000     8.4740   146.8432     0.1320     2.4317    10.4671     6.8134     4.7385     4.7927
 2774.5000     8.4909   144.9206     0.1305     2.4424    10.4731     7.1114     4.8066     4.8580
 2775.0000     8.4928   143.1470     0.1245     2.4437    10.4790     7.2564     4.8066     4.9924
 2775.5000     8.5098   140.6283     0.1305     2.4449    10.1851     7.2553     4.8756     5.0605
 2776.0000     8.5117   138.2549     0.1322     2.4535     9.8404     7.2541     4.9456     5.0591
 2776.5000     8.5136   140.6580     0.1245     2.4490     9.5459     7.2531     5.0887     5.1282
 2777.0000     8.5156   141.7123     0.1285     2.4533     9.2514     7.2520     5.1617     5.1266
 2777.5000     8.5175   139.0483     0.1224     2.4589     8.9569     7.2510     5.2358     5.1252
 2778.0000     8.5195   140.1064     0.1276     2.4476     8.6628     7.3542     5.3873     5.2673
 2778.5000     8.5214   140.7173     0.1254     2.4529     8.4246     7.5662     5.4647     5.2658
 2779.0000     8.5234   139.5399     0.1321     2.4637     8.4312     7.5652     5.5431     5.3378
 2779.5000     8.5253   136.2760     0.1344     2.4635     8.4371     7.6731     5.6227     5.3361
 2780.0000     8.5273   133.0122     0.1315     2.4573     8.4431     7.6718     5.7035     5.4090
 2780.5000     8.5292   131.8347     0.1323     2.4503     8.8094     7.6707     5.7854     5.5587
 2781.0000     8.5312   131.2497     0.1353     2.4511     9.1160     7.7801     5.8684     5.6346
 2781.5000     8.5331   132.4605     0.1300     2.4780     9.3593     8.0041     5.9527     5.7114
 2782.0000     8.5351   134.8598     0.1308     2.4938     9.3652     8.2349     6.0382     5.7097
 2782.5000     8.5370   137.5573     0.1390     2.4856     9.6706     8.5941     5.9527     5.7081
 2783.0000     8.5389   141.2979     0.1384     2.4625     9.6767     8.8418     5.8643     5.6283
 2783.5000     8.5259   143.8462     0.1346     2.4498     9.9821     8.5916     5.7035     5.4735
 2784.0000     8.5279   144.4572     0.1294     2.4566    10.2867     8.2302     5.5431     5.3229
 2784.5000     8.5144   143.1307     0.1331     2.4589     9.6257     7.6620     5.4589     5.1055
 2785.0000     8.5168   140.0159     0.1295     2.4306     9.3313     7.2356     5.3809     4.6983
 2785.5000     8.5187   139.1328     0.1280     2.4403     8.7375     6.9312     5.1550     4.4446
 2786.0000     8.5357   140.6417     0.1281     2.4471     8.1438     6.7350     4.9387     4.3825
 2786.5000     8.5526   142.1468     0.1378     2.4442     7.2504     6.5445     4.7993     4.5039
 2787.0000     8.5545   142.6087     0.1339     2.4427     6.2836     6.6377     4.7385     4.6931
 2787.5000     8.5565   140.9842     0.1318     2.4690     5.3891     6.7322     4.8152     4.9583
 2788.0000     8.5584   141.5952     0.1363     2.4750     4.5708     7.0258     4.8944     5.0975
 2788.5000     8.5753   142.8023     0.1364     2.4571     3.6775     7.3323     5.1722     5.3118
 2789.0000     8.5922   139.6874     0.1355     2.4519     3.0840     7.5437     5.3989     5.4600
 2789.5000     8.5942   133.8900     0.1308     2.4370     2.4901     7.8727     5.6355     5.6125
 2790.0000     8.5961   126.9004     0.1215     2.4573     1.8963     7.9849     5.8825     5.7690
 2790.5000     8.5981   124.8075     0.1276     2.4625     1.3824     8.0986     6.1249     5.9235
 2791.0000     8.6150   126.0359     0.1424     2.4641     1.0890     8.2139     6.2292     6.0042
 2791.5000     8.6319   125.0075     0.1288     2.4596     0.7136     8.2126     6.3925     6.0025
 2792.0000     8.6488   125.1836     0.1235     2.4492     0.4190     8.2115     6.4843     5.9185
 2792.5000     8.6807   128.3458     0.1215     2.4426     0.1247     8.3285     6.4843     5.8145
 2793.0000     8.6827   131.9566     0.1258     2.4456    -0.0847     8.3272     6.4448     5.6525
 2793.5000     8.6846   135.0955     0.1291     2.4614    -0.6520     8.2080     5.9812     5.2496
 2794.0000     8.6866   136.1099     0.1246     2.4607    -2.6666     8.0904     5.4889     4.6854
 2794.5000     8.6885   135.2306     0.1246     2.4473    -4.3503     7.6402     4.9333     4.1902
 2795.0000     8.6904   136.5177     0.1299     2.4496    -5.5916     7.1127     4.3366     3.6051
 2795.5000     8.6924   140.3723     0.1276     2.4647    -6.8328     6.3440     3.8943     3.2526
 2796.0000     8.6943   150.1716     0.1285     2.4489    -8.3213     5.8222     3.6251     3.0669
 2796.5000     8.6963   162.6438     0.1323     2.4363    -9.5574     5.0468     3.3743     2.8212
 2797.0000     8.7132   180.9120     0.1315     2.4258   -10.4849     4.0154     3.1411     2.7618
 2797.5000     8.7151   182.1191     0.1345     2.3997   -11.7210     3.1048     2.9601     2.9102
 2798.0000     8.7620   176.6198     0.1382     2.4155   -12.9571     2.8495     3.0895     3.1067
 2798.5000     8.7789   146.6781     0.1390     2.4335   -13.8845     3.1939     3.4627     3.2385
 2799.0000     8.8108   132.2369     0.1367     2.4619   -14.5034     5.1157     3.7720     3.4227
 2799.5000     8.8277   128.5259     0.1271     2.4762   -15.7395     6.7092     4.0507     3.7183
 2800.0000     8.8442   127.6465     0.1279     2.4733   -16.5105     7.6283     4.2884     4.2899
 2800.5000     8.8459   127.2143     0.1399     2.4815   -16.9714     7.6262     4.7276     4.5327
 2801.0000     8.8476   126.4839     0.1459     2.4920   -17.4323     7.4114     5.2541     4.9927
 2801.5000     8.8494   125.3065     0.1339     2.4794   -17.8920     7.4103     5.7807     5.2762
