~VERSION INFORMATION
 VERS.                2.0:   CWLS LOG ASCII STANDARD - VERSION 2.0
 WRAP.                 NO:   ONE LINE PER DEPTH STEP
~WELL INFORMATION
#MNEM.UNIT      DATA TYPE    INFORMATION
#----------   ------------   ------------------------------
 STRT.F          208.0000:   START DEPTH
 STOP.F         2980.0000:   STOP DEPTH
 STEP.F            0.5000:   STEP LENGTH
 NULL.          -999.2500:   NO VALUE
 COMP. FENIX & SCISSON INC:   COMPANY
 WELL. FENIX  32AX #28-28:   WELL
 FLD .        TEAPOT DOME:   FIELD
 LOC .      S28 T39N R78W:   LOCATION
 CNTY.            NATRONA:   COUNTY
 STAT.            WYOMING:   STATE
 CTRY. UNITED STATES OF AMERICA:   COUNTRY
 SRVC.           BIRDWELL:   SERVICE COMPANY
 DATE.        09-OCT-1977:   LOGDATE
 API .     49025104430000:   API NUMBER
~CURVE INFORMATION
#MNEM.UNIT       API CODE    CURVE DESCRIPTION
#----------   ------------   ------------------------------
 DEPT.F                  :   
 SPR .MV     05 010 01 00:   SPONTANEOUS POTENTIAL
 ILD .OHMM   05 120 46 00:   DEEP INDUCTION RESISTIVITY
 SN  .OHMM   05 040 16 00:   SHORT NORMAL
 GRD .GAPI   45 310 01 00:   GAMMA RAY FROM DENSITY LOG
 CALD.IN     45 280 60 00:   CALIPER FROM DENSITY LOG
 CORR.G/C3   45 356 01 00:   DENSITY CORRECTION
 DEN .G/C3   45 350 01 00:   BULK DENSITY
~PARAMETER INFORMATION
#MNEM.UNIT          VALUE    DESCRIPTION
#----------   ------------   ------------------------------
 EKB .F         5005.0000:   Kelly bushing
 EGL .F         4995.0000:   Ground level
 EDF .F            0.0000:   Drilling floor
 EPD .F         4995.0000:   Permanent datum
 TD  .F         2980.0000:   Total depth
 DATE.        09-OCT-1977:   Date logged
 CLNT.            A2DTECH:   Client Code
 SL  . 990' FNL & 1650' FWL:   Surface Location
 PD  .                 GL:   Permanent Datum
 DAPD.F                10:   Feet Above Permanent Datum
 DD  .F              2980:   Depth driller
 DL  .F              2979:   Depth logger
 BLI .F              2974:   Bottom log interval
 TLI .F               221:   Top log interval
 CS1 .IN            8.625:   Casing size
 CBD1.      8.625" @ 211':   Casing driller 1
 CBL1.F               221:   Casing logger 1
 BS1 .IN            7.875:   Bit size
 BSD1.F              2980:   Depth drilled with bit1
 DFT .            KCL GEL:   Type fluid in hole
 DFD .                8.8:   Density
 DFV .                 33:   Viscosity
 DFPH.                 11:   pH
 DFL .                6.4:   Fluid loss
 MSS .           FLOWLINE:   Source of sample
 RMS .OHMM            .52:   Rm
 MST .F                59:   Rm Meas. temp.
 RMF .OHMM            .67:   Rmf
 MFST.F                54:   Rmf Meas. temp.
 RMC .OHMM            .45:   Rmc
 MCST.F                56:   Rmc Meas. temp.
 MFSS.               MEAS:   Source Rmf.
 MCSS.               MEAS:   Source Rmc.
 RMB .OHMM            .35:   Rm. at BHT
 BHT .F                91:   BHT.
 TCS .HRS               3:   Time Circ. stopped
 MRT .F                91:   Maximum recorded temp.
 LUN .               2958:   Logging unit number
 LUL .             CASPER:   Logging unit location
 ENGI.                LAW:   Recorded By
 WITN.       W. PENINGELL:   Witnessed by
 ORIG.           5" PRINT:   Origin of data
 UWI .     49025104430000:   Unique Well ID
 DICO. A2D TECHNOLOGIES, INC.:   Digitizing Company
~OTHER INFORMATION
~A   DEPT      SPR        ILD         SN         GRD      CALD       CORR        DEN   
# ...
 2938.0000   -51.1850     3.8300     4.6870   140.5030     7.8410     0.0250     2.5030
 2938.5000   -51.9360     3.9010     4.6460   144.2220     7.8420     0.0220     2.4960
 2939.0000   -52.1560     3.9370     4.5660   140.7640     7.8420     0.0190     2.4890
 2939.5000   -50.3600     3.7780     4.4860   134.5870     7.8420     0.0210     2.4850
 2940.0000   -50.9570     3.6580     4.4330   139.5040     7.8430     0.0230     2.4890
 2940.5000   -51.8110     3.6510     4.4130   143.2870     7.8430     0.0220     2.4920
 2941.0000   -51.9410     3.6380     4.3930   141.9880     7.8440     0.0210     2.4950
 2941.5000   -51.6400     3.6260     4.3740   146.5950     7.8440     0.0230     2.4910
 2942.0000   -51.3010     3.6140     4.3550   144.3950     7.8450     0.0250     2.4850
 2942.5000   -51.4700     3.6020     4.3620   146.4680     7.8450     0.0170     2.4790
 2943.0000   -51.9350     3.5890     4.3710   150.9500     7.8460     0.0210     2.4820
 2943.5000   -51.5760     3.5770     4.3810   146.0530     7.8480     0.0220     2.4880
 2944.0000   -51.5610     3.5650     4.3950   144.3110     7.8550     0.0250     2.4920
 2944.5000   -52.0440     3.5480     4.3130   148.7560     7.8630     0.0280     2.4870
 2945.0000   -51.2720     3.4600     4.1810   146.9450     7.8710     0.0220     2.4720
 2945.5000   -50.2340     3.3720     4.1220   148.9350     7.8780     0.0170     2.4490
 2946.0000   -50.7250     3.2840     4.0460   150.4640     7.8860     0.0110     2.4550
 2946.5000   -51.2500     3.1960     3.8380   155.4640     7.8940     0.0180     2.4590
 2947.0000   -51.1020     3.1070     3.7950   152.4370     7.9010     0.0260     2.4640
 2947.5000   -50.7010     3.0190     3.7950   151.7790     7.9080     0.0280     2.4680
 2948.0000   -50.9230     2.9340     3.7950   141.8610     7.9140     0.0240     2.4720
 2948.5000   -50.3670     2.9880     3.7950   144.3850     7.9190     0.0290     2.4770
 2949.0000   -49.9560     3.0160     3.7950   146.9850     7.9250     0.0240     2.4780
 2949.5000   -50.8420     2.9710     3.7950   145.4180     7.9300     0.0200     2.4700
 2950.0000   -51.9670     2.9080     3.7950   142.3730     7.9360     0.0170     2.4600
 2950.5000   -52.3870     2.9340     3.7680   139.3440     7.9410     0.0180     2.4540
 2951.0000   -52.6240     2.9890     3.6820   138.0560     7.9410     0.0230     2.4580
 2951.5000   -52.8830     2.9190     3.5910   144.3130     7.9040     0.0230     2.4620
 2952.0000   -52.7140     2.7770     3.5980   149.9850     7.8620     0.0210     2.4650
 2952.5000   -51.9160     2.7850     3.6070   149.3090     7.8210     0.0230     2.4660
 2953.0000   -51.9830     2.8060     3.6160   150.3960     7.7850     0.0250     2.4670
 2953.5000   -52.3660     2.8270     3.6250   148.2370     7.7860     0.0260     2.4670
 2954.0000   -52.7380     2.8470     3.6340   146.1300     7.7870     0.0240     2.4670
 2954.5000   -52.7510     2.8550     3.6430   147.7990     7.7860     0.0250     2.4670
 2955.0000   -52.7520     2.8450     3.6520   143.9550     7.7870     0.0270     2.4650
 2955.5000   -52.5530     2.8330     3.6580   150.7810     7.7870     0.0280     2.4630
 2956.0000   -52.2420     2.8200     3.3990   156.0610     7.7870     0.0250     2.4610
 2956.5000   -51.9830     2.8080     3.4300   157.6270     7.7870     0.0250     2.4590
 2957.0000   -52.5420     2.7770     3.4300   156.0700     7.7870     0.0270     2.4600
 2957.5000   -52.8630     2.6790     3.3330   158.6180     7.7870     0.0290     2.4650
 2958.0000   -52.4380     2.5570     3.2460   155.5840     7.7870     0.0320     2.4710
 2958.5000   -52.0010     2.6040     3.2620   159.7980     7.7870     0.0350     2.4760
 2959.0000   -51.5610     2.5760     3.2780   164.1810     7.7870     0.0380     2.4820
 2959.5000   -51.8230     2.5340     3.2940   157.8310     7.7870     0.0300     2.4700
 2960.0000   -52.2760     2.5540     3.3090   162.7210     7.7870     0.0240     2.4560
 2960.5000   -52.5040     2.5800     3.3250   157.9210     7.7870     0.0210     2.4550
 2961.0000   -53.0960     2.6050     3.3370   160.2210     7.7870     0.0190     2.4500
 2961.5000   -53.4430     2.6440     3.3490   162.4280     7.7870     0.0170     2.4420
 2962.0000   -53.1200     2.6040     3.3600   159.8570     7.7870     0.0230     2.4440
 2962.5000   -53.3130     2.6770     3.3680   161.5520     7.7870     0.0290     2.4360
 2963.0000   -53.5460     2.5800     3.2660   163.2520     7.7870     0.0180     2.4370
 2963.5000   -53.5430     2.6280     3.1870   164.6150     7.7870     0.0180     2.4380
 2964.0000   -53.2940     2.4130     3.1230   158.7000     7.7870     0.0150     2.4270
 2964.5000   -53.3140     2.3540     3.0560   159.9760     7.7870     0.0140     2.4220
 2965.0000   -53.3490     2.3540     2.9890   158.2190     7.7870     0.0130     2.4240
 2965.5000   -53.3440     2.3540     3.0330   167.9660     7.7870     0.0120     2.4290
 2966.0000   -53.3550     2.3540     3.0720   158.7390     7.7870     0.0110     2.4380
 2966.5000   -53.5180     2.3540     3.1820   160.7530     7.7870     0.0110     2.4480
 2967.0000   -53.1940     2.3710     3.3090   157.2330     7.7870     0.0120     2.4580
 2967.5000   -52.7490     2.4360     3.4350   152.9810     7.7870     0.0140     2.4550
 2968.0000   -53.0830     2.5010     3.5620   156.6760     7.7870     0.0150     2.4550
 2968.5000   -53.2660     2.5670     3.6300   147.2270     7.7870     0.0170     2.4630
 2969.0000   -52.8150     2.6740     3.6790   146.1180     7.7870     0.0190     2.4710
 2969.5000   -53.0300     2.8300     3.8000   138.2320     7.7870     0.0270     2.4880
 2970.0000   -52.4960     3.0130     3.9420   149.2420     7.7870     0.0340     2.5040
 2970.5000   -52.5620     3.1960     4.1600   143.2500     7.7870     0.0320     2.5150
 2971.0000   -52.8100     3.3790     4.4360   152.1530     7.7870     0.0290     2.5190
 2971.5000   -53.0800     3.5590     4.7170   145.8980     7.7870     0.0300     2.5150
 2972.0000   -52.8000     3.9190     4.9980   141.9340     7.7870     0.0360     2.5190
 2972.5000   -52.3070     4.0840     5.0610  -999.2500     7.7870     0.0430     2.5230
 2973.0000   -51.9500     3.8650     5.0910  -999.2500     7.7860     0.0440     2.5170
 2973.5000   -51.9240     3.8650     5.0380  -999.2500     7.7870     0.0410     2.5060
 2974.0000   -51.4670     3.3700     4.8000  -999.2500     7.7900     0.0450     2.5110
 2974.5000   -50.9360     2.8550     4.2800  -999.2500     7.7940     0.0740     2.5160
 2975.0000   -50.9250     2.8690     3.7610  -999.2500     7.7980     0.0940     2.5080
 2975.5000   -49.9290     2.8810     3.6250  -999.2500     7.8020     0.0550     2.4970
 2976.0000   -48.2700     2.8810     3.6250  -999.2500     7.8060     0.0330     2.5200
 2976.5000   -48.7520     2.8810     3.6250  -999.2500     7.8290  -999.2500  -999.2500
 2977.0000   -49.3670     2.8810     3.6250  -999.2500     7.9510  -999.2500  -999.2500
 2977.5000   -49.3640     2.8810     3.6250  -999.2500     8.0250  -999.2500  -999.2500
 2978.0000   -49.3710     2.8810     3.6250  -999.2500     8.0250  -999.2500  -999.2500
 2978.5000   -49.3710     2.8810     3.6250  -999.2500     8.0260  -999.2500  -999.2500
 2979.0000   -49.3710     2.8810     3.6250  -999.2500     8.0260  -999.2500  -999.2500
 2979.5000   -49.3710     2.8810     3.6250  -999.2500     8.0250  -999.2500  -999.2500
 2980.0000   -49.3710     2.8810     3.6250  -999.2500     8.0250  -999.2500  -999.2500
