~VERSION INFORMATION
 VERS.                2.0:   CWLS LOG ASCII STANDARD - VERSION 2.0
 WRAP.                 NO:   ONE LINE PER DEPTH STEP
~WELL INFORMATION
#MNEM.UNIT      DATA TYPE    INFORMATION
#----------   ------------   ------------------------------
 STRT.F          705.5000:   START DEPTH
 STOP.F         3212.0000:   STOP DEPTH
 STEP.F            0.5000:   STEP LENGTH
 NULL.          -999.2500:   NO VALUE
 COMP.    FENIX & SCISSON:   COMPANY
 WELL. FENIX 41 "AX" #1-15:   WELL
 FLD .             NPR #3:   FIELD
 LOC .      S15 T38N R78W:   LOCATION
 CNTY.            NATRONA:   COUNTY
 STAT.            WYOMING:   STATE
 CTRY. UNITED STATES OF AMERICA:   COUNTRY
 SRVC.              WELEX:   SERVICE COMPANY
 DATE.        18-NOV-1980:   LOGDATE
 API .     49025108530000:   API NUMBER
~CURVE INFORMATION
#MNEM.UNIT       API CODE    CURVE DESCRIPTION
#----------   ------------   ------------------------------
 DEPT.F                  :   
 SPR .MV     07 010 01 00:   SPONTANEOUS POTENTIAL
 ILD .OHMM   07 120 46 00:   INDUCTION LOG DEEP RESISTIVITY
 ILM .OHMM   07 120 44 00:   INDUCTION LOG MEDIUM RESISTIVITY
 SGRD.OHMM   07 220 05 00:   SHORT GUARD RESISTIVITY
 GRD .GAPI   45 310 01 00:   GAMMA RAY FROM DENSITY LOG
 CALD.IN     45 280 60 00:   CALIPER FROM DENSITY LOG
 RHOB.G/C3   45 350 01 00:   BULK DENSITY
 NPHI.DEC    42 890 03 00:   NEUTRON POROSITY SANDSTONE
~PARAMETER INFORMATION
#MNEM.UNIT          VALUE    DESCRIPTION
#----------   ------------   ------------------------------
 EKB .F         5252.0000:   Kelly bushing
 EGL .F         5242.0000:   Ground level
 EDF .F            0.0000:   Drilling floor
 TD  .F         3214.0000:   Total depth
 CLNT.            A2DTECH:   Client Code
 SL  . 2150' FWL & 550' FNL:   Surface Location
 PD  .                 GL:   Permanent Datum
 EPD .F              5242:   Elevation Permanent Datum
 LMF .                 KB:   Log Measured From
 DMF .                 KB:   Drilling Measured From
 DATE.        18-NOV-1980:   Date Logged [DD-MMM-YYYY]
 DD  .F              3210:   Depth driller
 DL  .F              3214:   Depth logger
 BLI .F              3212:   Bottom log interval
 TLI .F               734:   Top log interval
 CS1 .IN            8.625:   Casing size
 CBD1.      8.625" @ 709':   Casing driller 1
 CBL1.F               734:   Casing logger 1
 BS1 .IN            7.875:   Bit size
 BSD1.F              3210:   Depth drilled with bit1
 DFT .          FRESH MUD:   Type fluid in hole
 DFD .                8.8:   Density
 DFV .                 45:   Viscosity
 DFPH.               10.5:   pH
 DFL .                 12:   Fluid loss
 MSS .           FLOWLINE:   Source of sample
 RMS .OHMM           1.25:   Rm
 MST .F                70:   Rm Meas. temp.
 RMF .OHMM           1.25:   Rmf
 MFST.F                70:   Rmf Meas. temp.
 MFSS.               MEAS:   Source Rmf.
 RMB .OHMM           0.78:   Rm. at BHT
 BHT .F               112:   BHT.
 TCS .HRS               7:   Time Circ. stopped
 MRT .F               112:   Maximum recorded temp.
 LUN .               1892:   Logging unit number
 LUL .             CASPER:   Logging unit location
 ENGI.               REIN:   Recorded By
 WITN.              SCOTT:   Witnessed by
 ORIG.      2.5" 5" PRINT:   Origin of data
 UWI .     49025108530000:   Unique Well ID
 DICO. A2D TECHNOLOGIES, INC.:   Digitizing Company
 DAPD.                 10:   Feet Above Permanent Datum
~OTHER INFORMATION
~A   DEPT      SPR        ILD        ILM       SGRD         GRD      CALD       RHOB       NPHI   
# ...
 2690.0000   -31.6770     8.1491    13.2430    21.8274    52.5415     9.3009     2.5006     0.2770
 2690.5000   -31.6813     9.5204    14.5839    26.5893    52.0833     9.2996     2.4982     0.2723
 2691.0000   -31.6853    12.0096    15.4098    27.6091    54.3351     9.2983     2.5262     0.2730
 2691.5000   -31.6897    14.8687    16.7792    30.5449    56.6591     9.2528     2.5436     0.2681
 2692.0000   -31.6941    17.7345    18.2826    32.8214    57.5245     9.2368     2.5587     0.2596
 2692.5000   -31.9926    20.4011    19.8618    32.3566    57.7206     9.2209     2.5715     0.2514
 2693.0000   -32.0303    22.4529    21.6182    31.9015    54.8209     9.2050     2.5603     0.2508
 2693.5000   -32.2956    24.7109    23.7701    35.6017    52.8130     9.2034     2.5257     0.2521
 2694.0000   -32.3000    26.8249    26.1249    41.9803    53.4521     9.1875     2.5073     0.2478
 2694.5000   -32.5985    28.3299    28.4644    48.1575    54.9736     9.1863     2.5133     0.2422
 2695.0000   -32.6029    30.3335    31.0130    48.1383    54.7247     9.1997     2.5482     0.2378
 2695.5000   -32.7338    31.6141    33.3312    45.5143    53.8198     9.1982     2.5633     0.2335
 2696.0000   -32.9059    32.5129    35.2188    56.6564    52.9115     9.2119     2.5510     0.2297
 2696.5000   -32.9103    33.3576    37.2133    76.7820    52.0041     9.2104     2.5220     0.2351
 2697.0000   -32.9155    33.9196    39.3207    69.3362    51.5404     9.2239     2.5006     0.2377
 2697.5000   -32.9198    34.2601    40.4174    56.1568    51.2971     9.2223     2.4808     0.2364
 2698.0000   -32.9241    34.7205    41.5447    46.2332    51.4951     9.2211     2.5202     0.2268
 2698.5000   -32.9283    34.9228    41.5418    50.6006    52.3492     9.2345     2.5611     0.2154
 2699.0000   -32.9326    34.9162    40.3076    55.5072    54.0913     9.2627     2.5321     0.2042
 2699.5000   -32.9369    34.6721    39.0311    73.4847    55.4113     9.2761     2.5123     0.1968
 2700.0000   -32.9412    34.1851    37.5398   132.7773    56.2527     9.3040     2.5015     0.2039
 2700.5000   -32.9456    33.2448    36.7799   111.2950    55.1293     9.3015     2.4839     0.2376
 2701.0000   -32.9500    31.8889    35.9395    85.4469    54.6676     9.3149     2.4762     0.2474
 2701.5000   -32.9544    30.5884    36.1764    66.6830    54.6512     9.3279     2.4678     0.2547
 2702.0000   -32.9588    28.9403    37.7011    47.9136    54.8559     9.3701     2.4475     0.2622
 2702.5000   -32.9632    28.1379    38.2220    50.6196    55.2761     9.4115     2.4341     0.2676
 2703.0000   -32.9676    27.3052    38.2194    47.8828    55.4803     9.4396     2.4712     0.2686
 2703.5000   -32.9721    26.6164    36.6684    42.7894    56.1256     9.4525     2.4886     0.2661
 2704.0000   -32.9765    26.1608    34.6985    39.9746    56.7710     9.4655     2.4817     0.2743
 2704.5000   -32.9809    25.8732    32.8308    43.0572    57.6328     9.4925     2.4603     0.2737
 2705.0000   -32.9861    25.3819    31.9028    46.9722    58.2782     9.4903     2.4488     0.2710
 2705.5000   -32.9904    25.1508    31.0011    44.5987    58.9245     9.4885     2.4699     0.2647
 2706.0000   -32.9946    25.1405    30.6408    38.2135    58.6825     9.5014     2.4949     0.2579
 2706.5000   -32.9989    25.6813    30.6387    36.9002    56.9013     9.5286     2.5123     0.2538
 2707.0000   -33.0032    26.1755    30.7998    39.4600    56.0026     9.5419     2.4985     0.2507
 2707.5000   -33.0075    27.2667    34.1200    38.6402    56.2027     9.6148     2.4877     0.2480
 2708.0000   -33.0118    28.4034    46.7445    39.3994    56.8521     9.6696     2.5241     0.2447
 2708.5000   -33.0162    30.4122    59.3703    57.2008    57.9346     9.6679     2.5179     0.2459
 2709.0000   -33.0206    33.0138    64.7702    64.7374    59.0770     9.6661     2.4920     0.2497
 2709.5000   -33.0250    35.3487    57.7478    62.1098    60.3241     9.6639     2.4780     0.2516
 2710.0000   -33.0294    36.3195    45.6783    56.3960    60.5283     9.6621     2.4484     0.2539
 2710.5000   -33.0338    34.7724    38.1801    52.6375    60.5118     9.6750     2.4628     0.2567
 2711.0000   -33.0382    33.6889    35.1463    50.5009    60.2708     9.6879     2.4703     0.2574
 2711.5000   -33.0426    31.8123    33.6669    47.1353    59.5927     9.7004     2.4474     0.2543
 2712.0000   -33.0471    29.9009    32.2346    42.7831    59.3557     9.6986     2.4556     0.2537
 2712.5000   -33.0248    27.7540    31.2915    41.5367    58.8940     9.6968     2.4669     0.2584
 2713.0000   -32.9412    27.1448    29.9599    38.7088    58.6570     9.6946     2.4744     0.2563
 2713.5000   -32.9412    26.3978    28.6841    36.0727    58.6406     9.6928     2.4829     0.2557
 2714.0000   -33.0158    25.6694    27.6260    34.3186    59.0654     9.7057     2.4909     0.2623
 2714.5000   -33.3265    24.6225    26.8450    37.2389    59.2696     9.7186     2.4953     0.2583
 2715.0000   -33.5294    23.9452    26.0860    40.8871    59.6943     9.7458     2.4998     0.2552
 2715.5000   -33.5294    23.6089    25.5789    42.7578    60.1150     9.7440     2.5027     0.2581
 2716.0000   -33.6707    22.9595    25.2269    40.7824    60.0945     9.7711     2.5049     0.2609
 2716.5000   -33.8235    22.6370    25.2253    37.1870    60.0781     9.7845     2.5063     0.2632
 2717.0000   -33.5294    22.3188    25.2236    34.2893    59.8411     9.7823     2.4872     0.2579
 2717.5000   -33.5294    22.3096    25.2219    33.3536    59.1588     9.7952     2.4704     0.2611
 2718.0000   -33.5294    22.9229    25.2319    35.7256    58.9218     9.7930     2.4854     0.2605
 2718.5000   -33.2353    23.3123    25.9626    37.2271    58.6848     9.7912     2.4975     0.2577
 2719.0000   -33.2353    24.1994    26.7144    36.2112    58.4437     9.7894     2.5156     0.2556
 2719.5000   -32.9412    24.8641    27.4879    37.2171    58.4273     9.7872     2.4866     0.2518
 2720.0000   -32.9412    25.7097    28.2838    37.8337    58.4109     9.7854     2.4668     0.2538
 2720.5000   -32.9412    26.4406    29.1028    34.2572    58.3941     9.7836     2.4545     0.2580
 2721.0000   -32.9412    26.9663    29.7458    36.2622    58.3740     9.7818     2.4476     0.2648
 2721.5000   -32.9412    27.3265    30.3904    39.4152    58.3576     9.7796     2.4604     0.2683
 2722.0000   -32.9412    27.6937    30.5732    40.3949    58.5618     9.7779     2.4815     0.2643
 2722.5000   -32.9412    27.6827    30.5708    38.1115    58.9866     9.7910     2.4754     0.2590
 2723.0000   -32.9412    27.6716    30.1502    36.9055    59.1867     9.8183     2.4661     0.2528
 2723.5000   -32.9412    27.6606    30.1482    34.5631    59.6118     9.8308     2.4607     0.2491
 2724.0000   -32.9412    27.6495    29.7334    36.4478    60.6939     9.8290     2.4560     0.2510
 2724.5000   -32.9412    27.2607    29.3210    38.4385    61.3393     9.8268     2.4514     0.2535
 2725.0000   -32.9412    26.8774    28.8878    38.9965    61.1023     9.7957     2.4748     0.2526
 2725.5000   -32.9412    26.4141    28.0113    39.2595    60.6140     9.7645     2.5066     0.2536
 2726.0000   -32.9412    26.0175    26.9043    35.1594    59.7418     9.7627     2.5111     0.2562
 2726.5000   -32.9412    25.1484    25.7858    36.1361    59.2842     9.7605     2.5026     0.2584
 2727.0000   -32.9412    24.5580    24.9265    36.4077    59.2676     9.7441     2.5010     0.2584
 2727.5000   -32.9412    23.8593    24.0151    34.1908    59.6885     9.7423     2.5100     0.2569
 2728.0000   -32.9412    23.7041    23.3361    34.1115    60.1133     9.7401     2.5228     0.2563
 2728.5000   -32.9412    23.0409    22.8664    35.1358    60.5382     9.7383     2.5335     0.2558
 2729.0000   -32.9412    22.4543    22.5518    36.1119    60.5176     9.7365     2.5484     0.2552
 2729.5000   -32.9412    22.4512    22.5503    36.1021    59.6188     9.7343     2.5529     0.2540
 2730.0000   -32.9412    22.4481    23.1792    35.0583    58.4995     9.7325     2.5292     0.2527
