~VERSION INFORMATION
 VERS.                2.0:   CWLS LOG ASCII STANDARD - VERSION 2.0
 WRAP.                 NO:   ONE LINE PER DEPTH STEP
~WELL INFORMATION
#MNEM.UNIT      DATA TYPE    INFORMATION
#----------   ------------   ------------------------------
 STRT.F            0.0000:   START DEPTH
 STOP.F         5670.0000:   STOP DEPTH
 STEP.F            0.5000:   STEP LENGTH
 NULL.          -999.2500:   NO VALUE
 COMP.          INTEX OIL:   COMPANY
 WELL.    INTEX TP #71-15:   WELL
 FLD .             TEAPOT:   FIELD
 LOC .      S15 T38N R78W:   LOCATION
 CNTY.            NATRONA:   COUNTY
 STAT.            WYOMING:   STATE
 CTRY. UNITED STATES OF AMERICA:   COUNTRY
 SRVC.       SCHLUMBERGER:   SERVICE COMPANY
 DATE.        05-AUG-1966:   LOGDATE
 API .     49025097110000:   API NUMBER
~CURVE INFORMATION
#MNEM.UNIT       API CODE    CURVE DESCRIPTION
#----------   ------------   ------------------------------
 DEPT.F                  :   
 GRD .GAPI   45 310 01 00:   GAMMA RAY FROM DENSITY LOG
 CALD.IN     45 280 60 00:   CALIPER FROM DENSITY LOG
 CORR.G/C3   45 356 01 00:   DENSITY CORRECTION
 RHOB.G/C3   45 350 01 00:   BULK DENSITY
 SPR .MV     05 010 01 00:   SPONTANEOUS POTENTIAL FROM RES.
 ASN .OHMM   05 041 16 00:   AMPLIFIED SHORT NORMAL 16"
 ILD .OHMM   05 120 46 00:   INDUCTION LOG DEEP RESISTIVITY
~PARAMETER INFORMATION
#MNEM.UNIT          VALUE    DESCRIPTION
#----------   ------------   ------------------------------
 EKB .F         5247.5500:   Kelly bushing
 EGL .F         5236.1000:   Ground level
 EDF .F            0.0000:   Drilling floor
 EPD .F         5236.1000:   Permanent datum
 TD  .F         5670.0000:   Total depth
 CLNT.            A2DTECH:   Client Code
 SL  . 610' FNL & 710' FEL:   Surface Location
 PD  .                 GL:   Permanent Datum
 LMF .                 KB:   Log Measured From
 DMF .                 KB:   Drilling Measured From
 DAPD.F             11.45:   Feet Above Permanent Datum
 DATE.        05-AUG-1966:   Date Logged [DD-MMM-YYYY]
 DD  .F              5665:   Depth driller
 DL  .F              5670:   Depth logger
 BLI .F              5669:   Bottom log interval
 TLI .F              5551:   Top log interval
 CS1 .IN            10.75:   Casing size
 CBD1.    10.75" @ 567.9':   Casing driller 1
 CBL1.F               569:   Casing logger 1
 BS1 .IN           8.9375:   Bit size
 BSD1.F              5665:   Depth drilled with bit1
 DFT .            DEXTRID:   Type fluid in hole
 DFD .                9.4:   Density
 DFV .                 59:   Viscosity
 DFPH.                7.5:   pH
 DFL .                8.2:   Fluid loss
 MSS .           FLOWLINE:   Source of sample
 RMS .OHMM           1.80:   Rm
 MST .F                72:   Rm Meas. temp.
 RMF .OHMM           1.00:   Rmf
 MFST.F                82:   Rmf Meas. temp.
 MFSS.               MEAS:   Source Rmf.
 BHT .F               163:   BHT.
 TCS .HRS               3:   Time Circ. stopped
 MRT .F               163:   Maximum recorded temp.
 LUN .               4507:   Logging unit number
 LUL .               CSPR:   Logging unit location
 ENGI.            MANGOLD:   Recorded By
 ORIG.      2.5" 5" PRINT:   Origin of data
 UWI .     49025097110000:   Unique Well ID
 DICO. A2D TECHNOLOGIES, INC.:   Digitizing Company
~OTHER INFORMATION
~A    DEPT      GRD      CALD       CORR       RHOB        SPR        ASN        ILD   
# ...
 4140.5000    99.7830    11.3973     0.0437     2.6706   -47.8914    16.8980    17.4161
 4141.0000   117.2812    11.3678     0.0559     2.6722   -48.0387    17.7755    17.7136
 4141.5000   118.3229    11.3382     0.0711     2.6891   -48.3381    17.4764    17.1893
 4142.0000    99.8137    11.3385     0.0823     2.7146   -48.6372    16.4299    15.7700
 4142.5000    77.9288    11.3388     0.1113     2.7272   -48.6386    15.6028    13.7536
 4143.0000    54.5608    11.3988     0.1130     2.7312   -48.4913    14.9080    11.8118
 4143.5000    45.0721    11.4588     0.0670     2.7134   -48.3439    14.0378     9.9447
 4144.0000    40.2067    11.5518     0.0226     2.6791   -48.0474    13.3650     8.5253
 4144.5000    38.8767    11.6754     0.0286     2.6627   -47.7512    12.3977     7.7030
 4145.0000    38.7949    11.7637     0.0346     2.6493   -47.4551    11.0835     7.0197
 4145.5000    39.8096    11.8256     0.0316     2.6434   -47.3080     9.4782     6.5448
 4146.0000    41.1743    11.8969     0.0343     2.6390   -47.0119     8.6409     5.7579
 4146.5000    43.4371    11.9794     0.0508     2.6361   -46.8646     7.6841     5.3833
 4147.0000    47.7193    12.0413     0.1008     2.6362   -46.8661     7.0412     5.1580
 4147.5000    60.7839    12.1032     0.1464     2.6363   -46.8678     6.7421     5.0819
 4148.0000    72.4576    12.1353     0.1599     2.6306   -46.8693     6.3982     5.0805
 4148.5000    78.9853    12.1783     0.1540     2.5999   -46.8708     6.2315     5.0790
 4149.0000    84.8752    12.2084     0.1363     2.5820   -46.8722     6.1265     5.1525
 4149.5000    84.9267    12.2087     0.1053     2.5559   -47.0225     6.1436     5.2254
 4150.0000    83.3084    12.2090     0.0947     2.5127   -47.4702     6.2183     5.1493
 4150.5000    82.9100    12.2093     0.1099     2.5217   -47.9138     6.1887     5.0662
 4151.0000    85.3684    12.2096     0.1189     2.5308   -48.2085     6.1590     4.8475
 4151.5000    85.8348    12.2099     0.1151     2.5324   -48.3545     5.9949     4.6221
 4152.0000    83.1575    12.2101     0.0871     2.5295   -48.3509     5.6813     4.3222
 4152.5000    79.1330    12.2104     0.0788     2.5042   -48.1992     5.1822     4.0968
 4153.0000    76.4557    12.2406     0.0747     2.4923   -48.0475     4.9047     3.7969
 4153.5000    78.2731    12.2495     0.0916     2.4864   -48.0446     4.7554     3.5715
 4154.0000    81.0475    12.4150     0.1217     2.4627   -48.0315     4.7109     3.3552
 4154.5000    82.3460    13.2146     0.1789     2.3950   -47.8893     4.4272     3.2802
 4155.0000    79.3794    13.8939     0.2354     2.2943   -47.7376     4.2930     3.2798
 4155.5000    78.7879    14.1718     0.2325     2.2547   -47.5859     4.1737     3.2794
 4156.0000    80.1557    14.3021     0.2049     2.2492   -47.4342     4.1889     3.2791
 4156.5000    78.6945    13.9741     0.2024     2.2819   -47.1337     4.2192     3.3533
 4157.0000    75.6979    13.8917     0.1601     2.3272   -46.9820     4.2344     3.5023
 4157.5000    74.5622    14.1836     0.1633     2.3571   -46.9792     4.2347     3.5766
 4158.0000    74.8414    14.4227     0.1891     2.3527   -46.9762     4.2499     3.7254
 4158.5000    76.6551    14.2439     0.1721     2.3513   -47.1222     4.3250     3.8752
 4159.0000    78.4689    13.8858     0.1323     2.3663   -47.2681     4.4299     4.1074
 4159.5000    79.8335    13.8564     0.1378     2.4008   -47.4141     4.5981     4.3959
 4160.0000    80.7491    14.1373     0.1429     2.4472   -47.4105     4.8192     4.6940
 4160.5000    82.1137    13.9534     0.1058     2.4847   -47.5571     4.9988     4.9921
 4161.0000    76.5701    13.3640     0.0925     2.5297   -47.7024     5.3429     5.2156
 4161.5000    72.8991    13.2806     0.1328     2.5699   -47.6994     5.7169     5.3646
 4162.0000    70.2932    13.1895     0.1685     2.6043   -47.6959     5.9713     5.3642
 4162.5000    68.1326    12.9020     0.1612     2.6151   -47.6930     6.1958     5.2892
 4163.0000    66.6075    12.4968     0.1034     2.5593   -47.5413     6.4141     5.1396
 4163.5000    66.4440    12.1275     0.0798     2.5136   -47.3896     6.5701     5.0645
 4164.0000    67.4192    12.0383     0.0498     2.5188   -47.3867     6.3911     4.9149
 4164.5000    68.4052    11.9788     0.0369     2.4989   -47.3838     6.1821     4.7652
 4165.0000    71.5000    12.0388     0.1235     2.4702   -47.0833     6.0180     4.6903
 4165.5000    73.3138    12.1287     0.2154     2.4781   -46.9117     5.7940     4.6153
 4166.0000    75.5766    12.3976     0.2489     2.4229   -46.7792     5.6897     4.5403
 4166.5000    76.4922    12.7561     0.2487     2.3886   -46.6275     5.6900     4.5399
 4167.0000    75.1622    12.9992     0.2170     2.4066   -46.4759     5.7800     4.5396
 4167.5000    73.3687    13.1811     0.2052     2.4561   -46.4730     5.8252     4.6138
 4168.0000    69.6632    13.2943     0.1400     2.4786   -46.4701     5.8105     4.6881
 4168.5000    67.4447    12.6849     0.1505     2.4983   -46.4672     5.7659     4.7623
 4169.0000    67.1478    12.4111     0.1609     2.5086   -46.4739     5.7513     4.9111
 4169.5000    69.2290    12.3399     0.1685     2.4702   -46.7584     6.0285     5.3585
 4170.0000    70.4939    12.4647     0.1819     2.4072   -46.7555     6.6637     6.4030
 4170.5000    71.4424    13.2806     0.1939     2.4151   -46.9021     7.0826     8.0444
 4171.0000    71.4839    13.5686     0.1986     2.4286   -47.0480     7.8030     9.7604
 4171.5000    68.8890    13.3860     0.1952     2.4477   -47.1940     8.8619    10.9805
 4172.0000    62.7695    12.5803     0.1471     2.4802   -47.3392    11.8375    12.3716
 4172.5000    55.6012    12.1926     0.0782     2.5889   -47.3363    13.9149    13.3414
 4173.0000    50.2293    11.9541    -0.0104     2.6514   -47.3333    14.9615    13.7141
 4173.5000    47.5520    11.8648     0.0283     2.6694   -47.3298    15.4102    13.4153
 4174.0000    46.6707    11.8054     0.0521     2.6889   -47.3270    14.5136    12.3701
 4174.5000    48.0414    11.7758     0.0403     2.6935   -47.1753    13.6918    11.4742
 4175.0000    49.9646    11.8383     0.0389     2.6891   -47.0236    13.1689    10.5784
 4175.5000    53.2914    11.9003     0.0420     2.6712   -46.8719    12.5495    10.1248
 4176.0000    57.0292    11.9622     0.0263     2.6530   -46.7202    11.9737     9.7333
 4176.5000    60.5021    12.0241     0.0110     2.6413   -46.7173    11.7498     8.9354
 4177.0000    62.3800    12.0861     0.0144     2.6383   -46.7137    11.5259     8.4126
 4177.5000    63.8095    12.1060     0.0245     2.6410   -46.7108    11.3766     7.9645
 4178.0000    64.7784    12.1063     0.0300     2.6547   -46.5591    11.0780     7.4418
 4178.5000    64.2720    12.0767     0.0307     2.6682   -46.5563    10.7773     6.9936
 4179.0000    63.0210    12.0174     0.0442     2.6850   -46.5534     9.8231     6.5455
 4179.5000    61.2419    12.0177     0.0784     2.6975   -46.5505     9.3450     6.0974
 4180.0000    60.3610    11.9881     0.0874     2.7050   -46.3988     8.6278     5.7164
 4180.5000    60.3784    11.9884     0.0756     2.6961   -46.5447     7.9964     5.3503
 4181.0000    61.7430    11.9887     0.0563     2.6648   -46.5411     7.1934     5.1261
 4181.5000    65.8895    11.9890     0.0535     2.6245   -46.6878     6.8200     5.0511
 4182.0000    77.3990    12.1087     0.0624     2.5723   -46.6842     6.6551     5.0507
 4182.5000    83.0475    12.2950     0.1156     2.5499   -46.8301     6.5964     5.0503
 4183.0000    83.3693    12.5607     0.1547     2.5351   -46.9768     6.5968     5.2739
 4183.5000    81.7710    12.6525     0.1423     2.5337   -47.2708     6.6718     5.6466
 4184.0000    80.3769    12.6770     0.1401     2.5753   -47.5751     6.7618     6.0973
 4184.5000    78.9840    12.5688     0.1219     2.6135   -47.8603     6.9564     6.4791
 4185.0000    77.3725    12.4159     0.0795     2.6289   -47.8567     7.1809     6.8395
 4185.5000    75.3808    12.2930     0.0677     2.6247   -47.7050     7.5011     7.0630
