~VERSION INFORMATION
 VERS.                2.0:   CWLS LOG ASCII STANDARD - VERSION 2.0
 WRAP.                 NO:   ONE LINE PER DEPTH STEP
~WELL INFORMATION
#MNEM.UNIT      DATA TYPE    INFORMATION
#----------   ------------   ------------------------------
 STRT.F          205.0000:   START DEPTH
 STOP.F         3171.5000:   STOP DEPTH
 STEP.F            0.5000:   STEP LENGTH
 NULL.          -999.2500:   NO VALUE
 COMP.    FENIX & SCISSON:   COMPANY
 WELL. FENIX & SCISSON  "AX" #27-28:   WELL
 FLD .              NPR 3:   FIELD
 LOC .      S28 T39N R78W:   LOCATION
 CNTY.            NATRONA:   COUNTY
 STAT.            WYOMING:   STATE
 CTRY. UNITED STATES OF AMERICA:   COUNTRY
 SRVC.       SCHLUMBERGER:   SERVICE COMPANY
 DATE.        30-MAY-1977:   LOGDATE
 API .     49025103870000:   API NUMBER
~CURVE INFORMATION
#MNEM.UNIT       API CODE    CURVE DESCRIPTION
#----------   ------------   ------------------------------
 DEPT.F                  :   
 NPHI.DEC    42 890 03 00:   NEUTRON POROSITY SANDSTONE
 CALD.IN     45 280 60 00:   CALIPER FROM DENSITY LOG
 GRD .GAPI   45 310 01 00:   GAMMA RAY FROM DENSITY LOG
 RHOB.G/C3   45 350 01 00:   BULK DENSITY
 CORR.G/C3   45 356 01 00:   DENSITY CORRECTION
 SPR .MV     11 010 01 00:   SPONTANEOUS POTENTIAL
 MSFL.OHMM   11 270 04 00:   MICRO SPHERICALLY FOCUSED RES.
 LLD .OHMM   11 220 10 00:   LATEROLOG LOG DEEP
 LLS .OHMM   11 220 09 00:   LATEROLOG LOG SHALLOW
~PARAMETER INFORMATION
#MNEM.UNIT          VALUE    DESCRIPTION
#----------   ------------   ------------------------------
 EKB .F         5094.0000:   Kelly bushing
 EGL .F         5084.0000:   Ground level
 EDF .F            0.0000:   Drilling floor
 EPD .F            0.0000:   Permanent datum
 TD  .F         3169.0000:   Total depth
 DATE.        30-MAY-1977:   Date logged
 CLNT.            A2DTECH:   Client Code
 SL  . 1266' FSL & 871' FWL:   Surface Location
 PD  .                 GL:   Permanent Datum
 DD  .F              3163:   Depth driller
 DL  .F              3169:   Depth logger
 BLI .F              3168:   Bottom log interval
 CS1 .IN            8.625:   Casing size
 CBD1.      8.625" @ 210':   Casing driller 1
 CBL1.F               219:   Casing logger 1
 BS1 .IN            7.875:   Bit size
 DFT .           SALT/MUD:   Type fluid in hole
 DFD .                8.9:   Density
 DFV .                 32:   Viscosity
 DFPH.                8.5:   pH
 DFL .                5.8:   Fluid loss
 MSS .                PIT:   Source of sample
 RMS .OHMM           .194:   Rm
 MST .F                65:   Rm Meas. temp.
 RMF .OHMM           .165:   Rmf
 MFST.F                65:   Rmf Meas. temp.
 MFSS.               MEAS:   Source Rmf.
 RMB .OHMM           .107:   Rm. at BHT
 BHT .F               118:   BHT.
 MRT .F               118:   Maximum recorded temp.
 LUN .               5642:   Logging unit number
 LUL .               CSPR:   Logging unit location
 ENGI.             MARTIN:   Recorded By
 WITN.         PETTINGILL:   Witnessed by
 ORIG.           5" PRINT:   Origin of data
 UWI .     49025103870000:   Unique Well ID
 DICO. A2D TECHNOLOGIES, INC.:   Digitizing Company
 DAPD.F                10:   Feet Above Permanent Datum
 BSD1.F              3163:   Depth drilled with bit1
 TLI .F               219:   Top log interval
 TLAB.HRS            0930:   Time logger at bottom
~OTHER INFORMATION
~A   DEPT     NPHI         CALD      GRD         RHOB      CORR       SPR       MSFL        LLD        LLS   
# ...
 2358.5000     0.3599     8.8022   173.4048     2.5315     0.0724   -75.1700     6.8158     4.8328     5.1736
 2359.0000     0.3559     8.7828   171.8283     2.5395     0.0804   -74.9745     6.6915     4.9220     5.2681
 2359.5000     0.3487     8.7634   171.4414     2.5545     0.1175   -74.1842     6.8770     4.7002     5.0332
 2360.0000     0.3471     8.7043   173.0407     2.5605     0.1233   -74.3852     7.1982     4.4883     4.8089
 2360.5000     0.3495     8.6651   173.8415     2.5316     0.1014   -74.3879     7.5344     4.7342     5.1714
 2361.0000     0.3511     8.6259   175.0408     2.5725     0.1243   -73.3995     8.0321     4.9559     5.4115
 2361.5000     0.3431     8.6065   172.6735     2.5157     0.0855   -73.7987     8.5623     5.3820     5.8726
 2362.0000     0.3247     8.6069   171.0930     2.5107     0.0915   -74.3961    10.0945     5.6341     6.1754
 2362.5000     0.3020     8.6073   169.1199     2.5466     0.0915   -74.7954    10.2803     5.6854     6.2009
 2363.0000     0.3008     8.6076   168.7329     2.5178     0.0667   -74.5998    10.2792     5.5814     5.8175
 2363.5000     0.3044     8.6081   170.7253     2.5068     0.0377   -74.2061    10.3725     5.3913     5.7644
 2364.0000     0.3032     8.6086   173.9056     2.5298     0.0238   -74.6053    10.5630     5.3907     5.7637
 2364.5000     0.3036     8.6090   173.9153     2.5248     0.0457   -75.0045    10.7569     5.4902     5.8689
 2365.0000     0.3056     8.6094   172.3405     2.5119     0.0358   -74.6108    11.4673     5.5916     5.9761
 2365.5000     0.3080     8.6098   172.3502     2.5039     0.0239   -74.2170    11.7854     5.7476     6.1409
 2366.0000     0.3088     8.6102   177.1169     2.5149     0.0348   -74.2208    12.4492     6.3007     6.7249
 2366.5000     0.3072     8.6107   182.6789     2.5259     0.0438   -74.2224    13.0306     6.5362     6.9733
 2367.0000     0.2996     8.6110   182.2920     2.5319     0.0319   -74.2246    13.5150     6.9703     7.4310
 2367.5000     0.2987     8.6114   182.3018     2.5379     0.0399   -74.2268    13.8896     7.2977     7.7760
 2368.0000     0.2967     8.6119   183.5013     2.5399     0.0548   -74.4616    14.1445     7.6404     8.1370
 2368.5000     0.2931     8.6320   184.7009     2.5578     0.0668   -74.6964    14.2730     7.9261     8.4378
 2369.0000     0.2911     8.6325   183.1242     2.5668     0.0449   -75.0291    13.8849     7.9253     8.7385
 2369.5000     0.2943     8.6327   180.7523     2.5619     0.0549   -74.0405    13.5074     7.9244     8.7377
 2370.0000     0.3048     8.6330   178.5087     2.5569     0.0649   -73.6461    13.2609     7.9235     8.4350
 2370.5000     0.3056     8.6335   177.2041     2.5480     0.0250   -73.6488    13.2594     7.7069     8.2070
 2371.0000     0.3084     8.6340   177.2138     2.5361     0.0320   -73.6516    13.3798     7.4273     7.9125
 2371.5000     0.3128     8.6344   178.0167     2.5460     0.0231   -73.6543    13.5013     7.4956     7.9845
 2372.0000     0.3192     8.6349   179.6130     2.5461     0.0410   -73.6570    13.4997     7.6338     8.1300
 2372.5000     0.3199     8.6354   181.2151     2.5321     0.0460   -72.6683    13.1327     7.7039     8.2038
 2373.0000     0.3096     8.6358   180.6742     2.5401     0.0510   -71.4813    12.5439     7.9184     8.4296
 2373.5000     0.3048     8.6365   179.6421     2.5401     0.0441   -71.2857    11.4457     7.9177     8.4289
 2374.0000     0.3012     8.6367   178.0652     2.5352     0.0262   -71.4867     8.8098     7.9167     8.4278
 2374.5000     0.3024     8.6173   176.4883     2.5292     0.0531   -72.0842     5.1144     7.2197     7.6938
 2375.0000     0.3032     8.6177   174.9114     2.5233     0.0461   -72.6818     3.3301     7.0874     7.5544
 2375.5000     0.3048     8.6181   173.3363     2.5213     0.0372   -72.4863     2.7211     6.9573     7.9611
 2376.0000     0.3096     8.5989   172.1560     2.5462     0.0893   -72.2890     2.1630     8.5959     7.9609
 2376.5000     0.3192     8.5992   170.5789     2.5761     0.1225   -71.0146     2.2852     9.2516     9.0505
 2377.0000     0.3112     8.5996   168.2118     2.5941     0.1507   -69.9164     2.4817     9.8660     9.1333
 2377.5000     0.3080     8.6001   163.8580     2.5274     0.1398   -69.7208     2.6461    10.6186     9.2166
 2378.0000     0.2988     8.6005   159.9007     2.5125     0.0403   -69.5252     4.7161    10.4240     9.2154
 2378.5000     0.2980     8.6008   155.5453     2.5603     0.0343   -69.5278     4.4956     9.5065     8.7206
 2379.0000     0.2615     8.6012   156.7429     2.5862     0.0433   -69.7288     3.6137     8.1290     7.8106
 2379.5000     0.2543     8.6318   163.0995     2.5932     0.0572   -70.1254     2.3049     7.5974     6.6207
 2380.0000     0.2627     8.6623   166.6793     2.5633     0.0722   -70.7241     2.0268     6.9504     6.3233
 2380.5000     0.3172     8.6929   169.4658     2.5355     0.1001   -71.1229     3.1737     7.0791     6.3226
 2381.0000     0.3299     8.7234   171.0622     2.5504     0.1569   -71.5228     5.5459     7.1435     6.4982
 2381.5000     0.3399     8.7622   174.2456     2.5395     0.1628   -71.7227     7.8899     7.4104     7.8948
 2382.0000     0.3431     8.7228   175.4434     2.4947     0.1188   -72.3204    12.6331     7.5472     8.7940
 2382.5000     0.3327     8.7232   175.8498     2.4957     0.0713   -72.5214    12.0124     7.6161     9.0390
 2383.0000     0.3108     8.7236   175.8595     2.5326     0.0584   -71.9303    11.5783     7.6856     9.0378
 2383.5000     0.2996     8.7240   177.0593     2.5714     0.0634   -71.7346    10.8569     7.6848     8.6314
 2384.0000     0.2886     8.7443   178.6592     2.5924     0.0644   -71.7373     8.9189     7.6138     8.1089
 2384.5000     0.2842     8.7251   190.5709     2.5804     0.0843   -71.7400     8.3652     6.4507     6.8831
 2385.0000     0.2842     8.7255   203.3328     2.5695     0.0654   -71.1477     8.9172     6.2171     6.6366
 2385.5000     0.3088     8.7259   206.9098     2.5506     0.0575   -71.5477     9.5437     4.9392     5.9229
 2386.0000     0.3375     8.7263   207.3129     2.5238     0.0475   -72.7415    11.2564     5.2192     6.2569
 2386.5000     0.3383     8.7265   187.4382     2.5477     0.0555   -72.9426    12.8540     6.2593     6.6812
 2387.0000     0.3359     8.7269   171.1817     2.5367     0.0665   -72.7469    13.8976     7.5067     7.9962
 2387.5000     0.2980     8.7273   158.4983     2.5636     0.0555   -72.7497    13.7695     8.4956     9.7161
 2388.0000     0.2702     8.7326   157.3105     2.5686     0.0526   -72.7524    13.3941     8.7023     9.4564
 2388.5000     0.2482     8.7380   155.7329     2.5677     0.0715   -73.1518    13.3926     8.3112     9.0266
 2389.0000     0.2466     8.7434   154.5521     2.5627     0.0645   -73.7496    13.3911     8.0109     8.7006
 2389.5000     0.2626     8.7488   154.9583     2.5528     0.0596   -73.9506    13.7632     7.8644     8.6202
 2390.0000     0.2638     8.7542   154.9678     2.5409     0.0437   -73.7550    14.2761     8.1574     8.6190
 2390.5000     0.2646     8.7596   153.3901     2.5508     0.0556   -73.3610    13.7601     8.3841     8.5514
 2391.0000     0.2646     8.7649   151.4157     2.5568     0.0646   -73.3637    13.1417     8.2308     8.5506
 2391.5000     0.2630     8.7703   151.8238     2.5559     0.0477   -73.7632    12.3227     7.8609     8.5491
 2392.0000     0.2658     8.7757   154.2121     2.5658     0.0666   -73.9643    11.9868     7.5305     8.0213
 2392.5000     0.2666     8.7811   161.3639     2.5788     0.0726   -73.9670    12.4334     6.6810     7.4379
 2393.0000     0.2677     8.7865   169.3094     2.5937     0.0856   -73.1762    13.1358     7.1035     7.5715
 2393.5000     0.2717     8.7918   172.0966     2.5788     0.0856   -72.5838    13.5008     7.3687     7.8508
 2394.0000     0.2857     8.7972   170.5222     2.5609     0.0717   -73.1817    12.7763     7.5737     8.0667
 2394.5000     0.2809     8.8026   166.9574     2.5530     0.0558   -73.9763    12.2019     7.6661     8.5322
