~VERSION INFORMATION
 VERS.                2.0:   CWLS LOG ASCII STANDARD - VERSION 2.0
 WRAP.                 NO:   ONE LINE PER DEPTH STEP
~WELL INFORMATION
#MNEM.UNIT      DATA TYPE    INFORMATION
#----------   ------------   ------------------------------
 STRT.F           58.0000:   START DEPTH
 STOP.F         5662.0000:   STOP DEPTH
 STEP.F            0.5000:   STEP LENGTH
 NULL.          -999.2500:   NO VALUE
 COMP. DEPARTMENT OF ENERGY:   COMPANY
 WELL. DEPARTMENT NPR 3 67 "X" #1-10:   WELL
 FLD .              NPR 3:   FIELD
 LOC .      S10 T38N R78W:   LOCATION
 CNTY.            NATRONA:   COUNTY
 STAT.            WYOMING:   STATE
 CTRY. UNITED STATES OF AMERICA:   COUNTRY
 SRVC.       SCHLUMBERGER:   SERVICE COMPANY
 DATE.        05-FEB-2002:   LOGDATE
 API .     49025230400000:   API NUMBER
~CURVE INFORMATION
#MNEM.UNIT       API CODE    CURVE DESCRIPTION
#----------   ------------   ------------------------------
 DEPT.F                  :   
 TEND.LBS    45 635 01 00:   TENSION FROM DENSITY LOG
 PEFZ.B/E    45 358 01 00:   HILT PHOTOELECTRIC FACTOR
 HDRA.G/C3   45 356 01 00:   DELTA RHO HIP TOOL
 NPHI.DEC    42 890 03 00:   NEUTRON POROSITY SANDSTONE
 TENS.LBS    60 635 01 00:   TENSION
 DT  .US/F   60 520 00 00:   DELTA TIME
 TENR.LBS    07 635 01 00:   TENSION FROM RESISTIVITY
 CALR.IN     07 280 01 00:   CALIPER FROM RESISTIVITY
 GRR .GAPI   07 310 01 00:   GAMMA RAY FROM RESISTIVITY
 RXOZ.OHMM   11 270 04 00:   STD. RES. INVADED ZONE RESISTIVITY
 HLLD.OHMM   11 220 10 00:   LATEROLOG DEEP RES.
 HLLS.OHMM   11 220 09 00:   LATEROLOG SHALLOW RES.
 HRLD.OHMM   11 120 46 00:   HIGH RESOULATION DEEP RESISTIVITY
 RHOZ.G/C3   45 350 01 00:   HILT BULK DENSITY
~PARAMETER INFORMATION
#MNEM.UNIT          VALUE    DESCRIPTION
#----------   ------------   ------------------------------
 EKB .F         5205.7000:   Kelly bushing
 EGL .F         5195.7000:   Ground level
 EDF .F            0.0000:   Drilling floor
 EPD .F         5195.7000:   Permanent datum
 TD  .F         5654.0000:   Total depth
 DATE.        05-FEB-2002:   Date logged
 CLNT.            A2DTECH:   Client Code
 SL  . 1503' FEL & 721' FSL:   Surface Location
 PD  .                 GL:   Permanent Datum
 DAPD.F                10:   Feet Above Permanent Datum
 DD  .F              5650:   Depth driller
 DL  .F              5654:   Depth logger
 BLI .F              5646:   Bottom log interval
 TLI .F               499:   Top log interval
 CS1 .IN            9.625:   Casing size
 CBD1.      9.625" @ 505':   Casing driller 1
 CBL1.F               499:   Casing logger 1
 BS1 .IN            8.875:   Bit size
 BSD1.F              5650:   Depth drilled with bit1
 DFT .           GEL/CHEM:   Type fluid in hole
 DFD .                9.2:   Density
 DFV .                 52:   Viscosity
 DFPH.                8.5:   pH
 DFL .                6.8:   Fluid loss
 MSS .           FLOWLINE:   Source of sample
 RMS .OHMM           .954:   Rm
 MST .F                57:   Rm Meas. temp.
 RMF .OHMM           .734:   Rmf
 MFST.F                57:   Rmf Meas. temp.
 MFSS.              PRESS:   Source Rmf.
 RMB .OHMM           .403:   Rm. at BHT
 BHT .F               143:   BHT.
 TLAB.HRS            1208:   Time logger at bottom
 MRT .F               143:   Maximum recorded temp.
 LUN .               2211:   Logging unit number
 LUL .             CASPER:   Logging unit location
 ENGI.           R. SROUR:   Recorded By
 WITN.        M. MILLIKEN:   Witnessed by
 ORIG.           5" PRINT:   Origin of data
 UWI .     49025230400000:   Unique Well ID
 DICO. A2D TECHNOLOGIES, INC.:   Digitizing Company
 RMC .               1.24:   Rmc
 MCST.                 57:   Rmc Meas. temp.
 MCSS.              PRESS:   Source Rmc.
 TCS .                200:   Time Circ. stopped
~OTHER INFORMATION
~A   DEPT     TEND       PEFZ       HDRA       NPHI       TENS         DT       TENR       CALR         GRR      RXOZ       HLLD       HLLS       HRLD       RHOZ   
# ...
  499.0000  1038.6520     3.9270     0.1650     0.4490  -999.2500  -999.2500  -999.2500    10.9560    71.8690     4.3750  -999.2500  -999.2500     0.9370     2.5560
  499.5000  1037.4370     3.4420     0.1290     0.3760  -999.2500  -999.2500  -999.2500    11.6440    77.8680     6.3050  -999.2500     1.7610     4.1830     2.4920
  500.0000  1035.8170     3.2440     0.0910     0.3520  -999.2500  -999.2500  1073.1810    11.8150    79.9000     7.8680     5.1860     5.9750     4.4220     2.5110
  500.5000  1034.1970     3.1720     0.0500     0.3490  -999.2500  -999.2500  1122.1450    11.9450    80.6200     7.8680     5.3230     7.7340     5.4370     2.4570
  501.0000  1032.5770     3.2400     0.0560     0.3710  -999.2500  -999.2500  1117.9180    11.9080    79.8860     6.4270     5.7070     8.6920     5.8200     2.3760
  501.5000  1030.9570     3.2880     0.0650     0.3780  -999.2500  -999.2500  1115.9630    11.7010    79.4060     4.8900     6.1770     9.1080     6.2880     2.3550
  502.0000  1029.3370     3.2560     0.0780     0.3250  -999.2500  -999.2500  1110.0660    11.1990    82.8320     4.9260     6.4930     9.6680     6.7370     2.4260
  502.5000  1027.7170     3.1170     0.0650     0.2850  -999.2500  -999.2500  1105.5790    10.7000    87.7210     6.5130     6.9490    10.2580     7.1860     2.4930
  503.0000  1026.0970     3.0000     0.0380     0.2910  -999.2500  -999.2500  1102.0710    10.6520    90.0260     7.6550     7.5160    10.2580     7.5850     2.5070
  503.5000  1024.8760     2.8810     0.0130     0.3010  -999.2500  -999.2500  1101.2679    10.6030    91.2100     7.2360     7.3200     9.8370     7.2810     2.5100
  504.0000  1024.8760     2.8920     0.0070     0.3070  -999.2500  -999.2500  1100.4659    10.6000    93.1980     6.7500     6.8590     9.1250     6.7350     2.5060
  504.5000  1024.8760     2.9030     0.0120     0.3130  -999.2500  -999.2500  1099.6630    10.6500    95.6640     6.2630     7.0620     8.1950     6.8800     2.4980
  505.0000  1024.8760     2.9170     0.0170     0.3200  -999.2500  -999.2500  1098.8610    10.7000    94.4790     5.8470     7.5130     7.2650     7.2020     2.4820
  505.5000  1024.8760     2.9750     0.0230     0.3200  -999.2500  -999.2500  1098.0580    10.7670    92.5170     5.5000     7.8680     7.0430     7.4480     2.4750
  506.0000  1024.8760     3.0350     0.0290     0.3220  -999.2500  -999.2500  1097.2560    10.8340    90.4730     5.2240     7.8000     6.9300     6.8530     2.4560
  506.5000  1024.8760     3.0950     0.0500     0.3290  -999.2500  -999.2500  1096.4530    10.8990    88.7210     4.8700     7.7330     6.8170     6.3710     2.4180
  507.0000  1024.8760     3.1800     0.0910     0.3360  -999.2500  -999.2500  1095.6510    10.9770    86.9500     4.3820     7.6670     6.5980     5.8880     2.3740
  507.5000  1024.8760     3.2610     0.1310     0.3700  -999.2500  -999.2500  1094.8480    11.0800    84.2820     3.2430     7.2030     6.2030     5.4040     2.3000
  508.0000  1024.8760     3.4760     0.1570     0.4340  -999.2500  -999.2500  1094.0460    12.2710    80.0470     2.1470     6.2020     5.3700     4.6780     2.1210
  508.5000  1024.8760     3.7840     0.1190     0.4960  -999.2500  -999.2500  1093.2430    13.8120    75.7470     1.2770     4.9110     4.2750     3.8970     2.0060
  509.0000  1024.8760     4.0980     0.0860     0.5870  -999.2500  -999.2500  1092.4410    15.5550    72.3730     0.9290     3.6200     3.1800     3.1160     2.0050
  509.5000  1026.3970     4.1610     0.0530     0.6850  -999.2500  -999.2500  1091.6379    17.0150    69.7440     0.7030     2.3290     2.0700     2.1530     2.0050
  510.0000  1027.9890     3.8290     0.0390     0.6470  -999.2500  -999.2500  1090.8361    13.3980    70.6850     0.7760     2.0510     2.0700     2.3270     2.0050
  510.5000  1029.5811     3.5330     0.0400     0.5570  -999.2500  -999.2500  1090.0330    11.8270    75.1400     1.1400     3.0580     2.4070     2.7960     2.0360
  511.0000  1031.1730     3.2370     0.0410     0.3940  -999.2500  -999.2500  1089.2310    10.5370    79.5690     1.5170     4.3030     3.4810     3.6570     2.2630
  511.5000  1032.7650     3.0100     0.0400     0.3080  -999.2500  -999.2500  1088.4280    10.6620    81.9130     3.1810     7.3320     5.1020     4.6310     2.4250
  512.0000  1034.3571     2.9390     0.0340     0.2790  -999.2500  -999.2500  1087.6260    10.7410    82.2570     5.0720     9.8890     7.4480     5.6060     2.4700
  512.5000  1035.9490     2.9440     0.0300     0.2970  -999.2500  -999.2500  1086.8230    10.8920    84.6560     4.9490     8.5810     7.3090     6.4930     2.4710
  513.0000  1037.5410     2.9620     0.0280     0.3130  -999.2500  -999.2500  1086.0210    11.0540    87.0890     4.8900     7.3900     6.6820     6.1330     2.4710
  513.5000  1039.1331     2.9800     0.0270     0.3010  -999.2500  -999.2500  1085.2180    11.1720    89.2060     5.1190     7.3130     5.9800     5.9800     2.4750
  514.0000  1040.7250     2.9980     0.0240     0.2930  -999.2500  -999.2500  1084.4160    11.2020    88.3040     5.4910     7.5160     6.1140     6.2710     2.4850
  514.5000  1042.3170     3.0140     0.0180     0.2900  -999.2500  -999.2500  1083.6130    11.2330    84.6080     5.8880     7.3800     6.6450     7.1400     2.4940
  515.0000  1043.9091     3.0390     0.0220     0.2890  -999.2500  -999.2500  1082.8110    11.2800    80.6140     6.3170     8.8610     7.3290     7.8680     2.5040
  515.5000  1053.7710     3.0750     0.0290     0.2910  -999.2500  -999.2500  1097.7360    11.2810    77.8330     6.5100     8.7810     7.7960     7.8270     2.5140
  516.0000  1073.5120     3.1120     0.0360     0.3000  -999.2500  -999.2500  1127.3490    11.3260    80.4270     6.6130     8.4040     7.7190     7.7490     2.5150
  516.5000  1084.5770     3.1490     0.0410     0.3030  -999.2500  -999.2500  1142.0060    11.3860    85.4080     6.3930     7.8680     7.6550     7.6900     2.5090
  517.0000  1077.7581     3.1080     0.0350     0.3070  -999.2500  -999.2500  1142.0060    11.4470    90.5770     6.1510     7.9400     7.6070     7.6410     2.5060
  517.5000  1071.1770     3.0360     0.0180     0.3190  -999.2500  -999.2500  1134.8060    11.5040    91.9090     5.9800     7.8750     7.5380     7.5910     2.5040
  518.0000  1064.5970     2.9630     0.0060     0.3260  -999.2500  -999.2500  1122.1450    11.5420    91.3090     6.0240     7.7410     7.2910     7.4520     2.4940
  518.5000  1058.0170     2.9260     0.0050     0.3330  -999.2500  -999.2500  1111.4399    11.5780    89.9730     6.0960     7.8680     6.9570     7.3130     2.4840
  519.0000  1051.4360     2.9110     0.0040     0.3410  -999.2500  -999.2500  1102.2841    11.6130    88.6410     6.1870     7.6550     7.1630     7.4950     2.4840
  519.5000  1044.7760     2.8950     0.0040     0.3430  -999.2500  -999.2500  1102.2841    11.6490    87.9440     6.2770     7.7200     7.5850     7.5850     2.4980
  520.0000  1045.5480     2.9100     0.0060     0.3430  -999.2500  -999.2500  1099.0210    11.6850    88.8900     6.3670     7.8020     7.5740     7.5850     2.5000
  520.5000  1047.5620     2.9280     0.0070     0.3450  -999.2500  -999.2500  1091.9700    11.7090    91.2040     6.4340     7.8680     7.5500     7.5850     2.4930
  521.0000  1049.5770     2.9510     0.0090     0.3540  -999.2500  -999.2500  1084.9200    11.7290    91.9880     6.4340     7.7470     7.5190     7.5850     2.4860
  521.5000  1051.5909     2.9960     0.0100     0.3460  -999.2500  -999.2500  1087.7360    11.7490    91.0770     6.4130     7.6550     7.6100     7.6600     2.4810
  522.0000  1053.6050     3.0370     0.0110     0.3330  -999.2500  -999.2500  1095.9620    11.7650    88.5130     6.3290     7.9630     7.7550     7.8290     2.4780
  522.5000  1055.6200     3.0120     0.0100     0.3390  -999.2500  -999.2500  1100.6530    11.7620    86.9890     6.2450     8.2360     7.9010     7.9970     2.4820
  523.0000  1057.6340     2.9810     0.0080     0.3450  -999.2500  -999.2500  1093.6021    11.8220    86.4800     6.1460     8.2360     8.0130     8.1610     2.4820
