~VERSION INFORMATION
 VERS.                2.0:   CWLS LOG ASCII STANDARD - VERSION 2.0
 WRAP.                 NO:   ONE LINE PER DEPTH STEP
~WELL INFORMATION
#MNEM.UNIT      DATA TYPE    INFORMATION
#----------   ------------   ------------------------------
 STRT.F          196.5000:   START DEPTH
 STOP.F         3219.0000:   STOP DEPTH
 STEP.F            0.5000:   STEP LENGTH
 NULL.          -999.2500:   NO VALUE
 COMP.    FENIX & SCISSON:   COMPANY
 WELL.  FENIX "AX" #73-15:   WELL
 FLD .              NPR 3:   FIELD
 LOC .      S15 T38N R78W:   LOCATION
 CNTY.            NATRONA:   COUNTY
 STAT.            WYOMING:   STATE
 CTRY. UNITED STATES OF AMERICA:   COUNTRY
 SRVC.       SCHLUMBERGER:   SERVICE COMPANY
 DATE.        30-AUG-1977:   LOGDATE
 API .     49025104270000:   API NUMBER
~CURVE INFORMATION
#MNEM.UNIT       API CODE    CURVE DESCRIPTION
#----------   ------------   ------------------------------
 DEPT.F                  :   
 NPHI.DEC    42 890 03 00:   NEUTRON POROSITY SANDSTONE
 CALD.IN     45 280 60 00:   CALIPER FROM DENSITY LOG
 GRD .GAPI   45 310 01 00:   GAMMA RAY FROM DENSITY LOG
 CORR.G/C3   45 356 01 00:   DENSITY CORRECTION
 RHOB.G/C3   45 350 01 00:   BULK DENSITY
 SPR .MV     07 010 01 00:   SPONTANEOUS POTENTIAL
 RILD.OHMM   07 120 46 00:   DEEP INDUCTION RESISTIVITY
 RILM.OHMM   07 120 44 00:   INDUCTION LOG MEDIUM RESISTIVITY
 LL8 .OHMM   07 220 08 00:   LATEROLOG-8 RES.
~PARAMETER INFORMATION
#MNEM.UNIT          VALUE    DESCRIPTION
#----------   ------------   ------------------------------
 EKB .F         5263.0000:   Kelly bushing
 EGL .F         5253.0000:   Ground level
 TD  .F         3220.0000:   Total depth
 CLNT.            A2DTECH:   Client Code
 SL  . 1650' FNL & 875' FEL:   Surface Location
 PD  .                 GL:   Permanent Datum
 EPD .F              5253:   Elevation Permanent Datum
 LMF .                 KB:   Log Measured From
 DMF .                 KB:   Drilling Measured From
 DAPD.F                10:   Feet Above Permanent Datum
 DATE.        30-AUG-1977:   Date Logged [DD-MMM-YYYY]
 DD  .F              3220:   Depth driller
 DL  .F              3219:   Depth logger
 BLI .F              3209:   Bottom log interval
 TLI .F               216:   Top log interval
 CS1 .IN            8.625:   Casing size
 CBL1.F               216:   Casing logger 1
 BS1 .IN            7.875:   Bit size
 BSD1.F              3220:   Depth drilled with bit1
 DFT .                FGM:   Type fluid in hole
 DFD .                8.9:   Density
 DFPH.                 11:   pH
 MSS .            MUDTANK:   Source of sample
 RMS .OHMM           0.40:   Rm
 MST .F                82:   Rm Meas. temp.
 RMF .OHMM           0.25:   Rmf
 MFST.F                72:   Rmf Meas. temp.
 MFSS.               MEAS:   Source Rmf.
 RMC .OHMM           0.60:   Rmc
 MCST.F                82:   Rmc Meas. temp.
 MCSS.               CALC:   Source Rmc.
 RMB .OHMM           0.27:   Rm. at BHT
 BHT .F               120:   BHT.
 MRT .F               120:   Maximum recorded temp.
 LUN .               5642:   Logging unit number
 LUL .               CSPR:   Logging unit location
 ENGI.                FIX:   Recorded By
 WITN.         RETTINGILL:   Witnessed by
 ORIG.           5" PRINT:   Origin of data
 UWI .     49025104270000:   Unique Well ID
 DICO. A2D TECHNOLOGIES, INC.:   Digitizing Company
 DFV .                 35:   Viscosity
 DFL .                8.4:   Fluid loss
 CBD1.      8.625" @ 216':   Casing driller 1
~OTHER INFORMATION
~A   DEPT       NPHI     CALD        GRD       CORR       RHOB        SPR       RILD       RILM        LL8   
# ...
 3007.0000     0.3115     8.7824   168.1168     0.0179     2.4541   -66.3625     3.7641     3.7194     5.3915
 3007.5000     0.3213     8.7842   179.7117     0.0217     2.4474   -66.3319     3.4421     3.3783     4.6309
 3008.0000     0.3449     8.7859   192.8645     0.0481     2.4513   -66.1752     3.2361     3.1546     3.6655
 3008.5000     0.3759     8.7877   210.0232     0.0264     2.4326   -66.1571     3.1062     2.9052     3.1287
 3009.0000     0.3913     8.7895   220.2827     0.0213     2.4102   -65.8334     3.0860     2.9477     3.0031
 3009.5000     0.3801     8.7759   222.9756     0.0304     2.4020   -65.6645     3.1968     3.3180     3.9908
 3010.0000     0.3581     8.7628   218.5467     0.0440     2.3968   -65.4955     3.3806     3.6077     5.3763
 3010.5000     0.3035     8.7650   191.6402     0.0306     2.4172   -65.4776     3.7525     3.8957     6.5293
 3011.0000     0.2795     8.7515   158.3632     0.0134     2.4214   -65.4597     4.2232     4.2678     6.9533
 3011.5000     0.2689     8.7537   134.4924     0.0150     2.4558   -65.4418     4.8527     4.7122     7.0150
 3012.0000     0.2752     8.7555   127.3929     0.0204     2.4708   -65.4239     5.5761     5.2700     6.8071
 3012.5000     0.2721     8.7721   123.4092     0.0242     2.4656   -65.2549     6.0204     5.9377     7.2126
 3013.0000     0.2660     8.7739   121.4284     0.0151     2.4687   -65.0860     6.3427     6.5696     7.5755
 3013.5000     0.2602     8.7608   120.3379     0.0201     2.4613   -64.9170     6.5495     6.8056     7.8482
 3014.0000     0.2525     8.7626   119.2473     0.0256     2.4780   -64.7481     6.6930     6.9531     8.0173
 3014.5000     0.2538     8.7490   118.1568     0.0194     2.4683   -64.7301     6.7869     7.0062     7.9675
 3015.0000     0.2528     8.7512   117.0662     0.0120     2.4661   -64.7122     6.8852     7.0110     8.0316
 3015.5000     0.2476     8.7530   115.9756     0.0083     2.4685   -64.6943     6.8898     7.0158     8.1470
 3016.0000     0.2356     8.7548   115.1076     0.0174     2.4784   -64.5254     6.8936     7.0206     8.2091
 3016.5000     0.2361     8.7714   117.5779     0.0115     2.4799   -64.3564     6.9452     7.0254     8.2147
 3017.0000     0.2370     8.7881   120.2707     0.0003     2.4733   -64.1822     6.9490     7.0302     8.2204
 3017.5000     0.2382     8.8280   118.5125     0.0072     2.4659   -64.0056     6.9039     6.9853     8.2260
 3018.0000     0.2399     8.8662   116.9713     0.0193     2.4481   -63.6979     6.8610     6.8952     8.1735
 3018.5000     0.2441     8.8531   119.4471     0.0111     2.4285   -63.6798     6.7237     6.8050     8.1241
 3019.0000     0.2486     8.7948   124.5880     0.0157     2.4234   -63.6582     6.5892     6.6698     8.0722
 3019.5000     0.2501     8.7219   130.1740     0.0203     2.4498   -63.6403     6.5022     6.5370     7.9668
 3020.0000     0.2536     8.7084   132.4217     0.0077     2.4529   -63.3203     6.5509     6.4964     7.7561
 3020.5000     0.2596     8.6813   132.6665     0.0010     2.4372   -63.3024     6.6920     6.5462     7.6535
 3021.0000     0.2494     8.6832   131.5759     0.0124     2.4328   -62.9824     6.9314     6.7345     7.7132
 3021.5000     0.2442     8.6700   129.3726     0.0147     2.4449   -62.9645     7.1298     6.9285     7.8259
 3022.0000     0.2343     8.6718   126.0565     0.0072     2.4405   -62.7955     7.2331     7.0554     8.3341
 3022.5000     0.2267     8.6586   120.5149     0.0066     2.4436   -62.7776     7.2873     7.1326     8.6332
 3023.0000     0.2285     8.6608   117.1988     0.0236     2.4579   -62.6086     7.2410     7.1448     8.8814
 3023.5000     0.2288     8.6626   116.7704     0.0340     2.4701   -62.5907     7.1454     7.1930     8.8251
 3024.0000     0.2284     8.6644   117.0207     0.0317     2.4762   -62.4218     6.9992     7.1483     8.5243
 3024.5000     0.2425     8.6662   117.7105     0.0100     2.4650   -62.2528     6.7627     7.0549     7.9549
 3025.0000     0.2482     8.6978   118.6229     0.0282     2.4756   -62.2349     6.4442     6.8196     7.4235
 3025.5000     0.2563     8.6995   123.0962     0.0215     2.4802   -62.2170     5.9415     6.5016     6.9012
 3026.0000     0.2664     8.7013   127.7920     0.0096     2.4786   -62.1991     5.0351     6.1132     6.8103
 3026.5000     0.2761     8.7031   133.3780     0.0007     2.4507   -61.8791     4.4478     5.4385     6.7680
 3027.0000     0.2890     8.7049   139.8542     0.0023     2.4428   -61.5589     3.8484     3.9585     6.7727
 3027.5000     0.2978     8.7365   149.2404     0.0099     2.4383   -61.3772     3.4949     3.4732     6.6194
 3028.0000     0.3038     8.7382   160.1508     0.0220     2.4267   -61.2205     3.2182     3.2432     3.0203
 3028.5000     0.3384     8.7400   178.8674     0.0153     2.3945   -60.9003     3.1973     3.1782     2.5780
 3029.0000     0.3846     8.7264   196.2486     0.0357     2.3653   -60.5766     3.2217     3.2030     2.3743
 3029.5000     0.4281     8.7133   210.2916     0.0859     2.3579   -60.2566     3.2684     3.2499     2.2172
 3030.0000     0.4443     8.7304   212.7619     0.1560     2.2949   -60.0877     3.3388     3.3900     3.4063
 3030.5000     0.4151     8.6577   184.5200     0.0840     2.2512   -60.2208     3.5553     3.7374     4.3121
 3031.0000     0.3028     8.5696   157.7099     0.0000     2.2223   -60.3584     4.0291     4.3549     7.4767
 3031.5000     0.2199     8.5416   128.7663     0.0219     2.3470   -60.6427     4.6297     4.9360     7.8798
 3032.0000     0.2135     8.5438   102.9119     0.0272     2.4935   -60.7758     5.3198     5.4418     7.6185
 3032.5000     0.2105     8.5456    97.5928     0.0124     2.4831   -60.7534     5.6647     5.9212     7.3646
 3033.0000     0.2173     8.5473    96.4967     0.0034     2.4727   -60.7355     5.9491     6.4447     7.1686
 3033.5000     0.2227     8.5491    97.1921     0.0088     2.4667   -60.5666     6.2055     6.9117     7.0251
 3034.0000     0.2269     8.5359    99.6624     0.0126     2.4744   -60.5487     6.2946     6.9521     6.9333
 3034.5000     0.2292     8.5228   105.9160     0.0112     2.4782   -60.6818     6.2546     6.4036     6.7034
 3035.0000     0.2319     8.5246   110.1667     0.0066     2.4790   -60.6639     6.1225     5.7363     6.4800
 3035.5000     0.2406     8.5264   111.0791    -0.0028     2.4739   -60.7976     5.9250     5.5068     6.3065
 3036.0000     0.2460     8.5282   112.8817     0.0040     2.4695   -60.9305     5.6872     5.4348     6.1812
 3036.5000     0.2477     8.5300   116.6873     0.0041     2.4831   -60.9123     5.4212     5.3629     6.1861
 3037.0000     0.2504     8.5318   119.3801     0.0057     2.4734   -60.8943     5.2397     5.2928     6.1907
 3037.5000     0.2540     8.5186   121.8504     0.0126     2.4723   -60.8761     5.0294     5.1527     6.1512
 3038.0000     0.2518     8.5204   128.3266     0.0255     2.4856   -61.1607     4.7611     4.9809     5.9063
 3038.5000     0.2467     8.5073   137.9186     0.0338     2.4978   -61.4716     4.4146     4.6378     5.4397
 3039.0000     0.2464     8.5091   142.8369     0.0384     2.5076   -61.7291     4.0092     4.1074     5.2584
 3039.5000     0.2544     8.5108   148.8464     0.0347     2.5078   -61.7068     3.5416     3.5769     5.2257
 3040.0000     0.2736     8.4828   153.1187     0.0093     2.4680   -61.9955     3.2387     3.0347     5.1220
 3040.5000     0.3023     8.4846   166.0489     0.0042     2.4590   -62.2797     2.9210     2.7948     4.5795
 3041.0000     0.3286     8.4715   183.8753     0.0028     2.4359   -62.8615     2.6711     2.6645     3.6680
 3041.5000     0.3531     8.4737   197.9182     0.0051     2.4072   -62.8436     2.5639     2.5934     2.9967
 3042.0000     0.3924     8.4602   213.0740     0.0382     2.3903   -62.8257     2.5653     2.5596     2.1050
 3042.5000     0.4050     8.4623   224.8914     0.0744     2.4013   -62.6567     2.6205     2.5791     2.1957
 3043.0000     0.3811     8.4488   216.2341     0.0970     2.4168   -62.4878     2.7905     2.6539     2.4543
