~VERSION INFORMATION
 VERS.                2.0:   CWLS LOG ASCII STANDARD - VERSION 2.0
 WRAP.                 NO:   ONE LINE PER DEPTH STEP
~WELL INFORMATION
#MNEM.UNIT      DATA TYPE    INFORMATION
#----------   ------------   ------------------------------
 STRT.F         2299.0000:   START DEPTH
 STOP.F         3387.5000:   STOP DEPTH
 STEP.F            0.5000:   STEP LENGTH
 NULL.          -999.2500:   NO VALUE
 COMP. LAWRENCE ALLISON AND ASSOCIATES:   COMPANY
 WELL. 		  62-AX-3:   WELL
 FLD .                NPR:   FIELD
 LOC .       S3 T38N R78W:   LOCATION
 CNTY.            NATRONA:   COUNTY
 STAT.            WYOMING:   STATE
 CTRY. UNITED STATES OF AMERICA:   COUNTRY
 SRVC.      DRESSER ATLAS:   SERVICE COMPANY
 DATE.        14-JUN-1985:   LOGDATE
 API .     49025110330000:   API NUMBER
~CURVE INFORMATION
#MNEM.UNIT       API CODE    CURVE DESCRIPTION
#----------   ------------   ------------------------------
 DEPT.F                  :   
 NPHI.DEC    42 890 01 00:   NEUTRON POROSITY
 TEND.LBS    45 635 01 00:   TENSION
 RHOB.G/C3   45 350 01 00:   BULK DENSITY
 CORR.DEC    45 356 01 00:   CORRECTION
~PARAMETER INFORMATION
#MNEM.UNIT          VALUE    DESCRIPTION
#----------   ------------   ------------------------------
 EKB .F         5160.0000:   Kelly bushing
 EGL .F         5148.0000:   Ground level
 EDF .F            0.0000:   Drilling floor
 EPD .F         5148.0000:   Permanent datum
 TD  .F         3380.0000:   Total depth
 DATE.        14-JUN-1985:   Date logged
 CLNT.            A2DTECH:   Client Code
 PD  .                 GL:   Permanent Datum
 LMF .                 KB:   Log Measured From
 DMF .                 KB:   Drilling Measured From
 DL  .F              3380:   Depth logger
 BLI .F              3378:   Bottom log interval
 CS1 .IN            8.625:   Casing size
 CBD1.      8.625" @ 603':   Casing driller 1
 DFT .        KCL POLYMER:   Type fluid in hole
 ENGI.               MACK:   Recorded By
 WITN.             STRONG:   Witnessed by
 ORIG.       2.5"5" PRINT:   Origin of data
 UWI .     49025110330000:   Unique Well ID
 DICO. A2D TECHNOLOGIES, INC.:   Digitizing Company
 DAPD.F                12:   Feet Above Permanent Datum
 BS1 .IN            7.875:   Bit size
 DFD .                8.9:   Density
 DFV .                 46:   Viscosity
 DFPH.                8.5:   pH
 DFL .                9.6:   Fluid loss
 MSS .           FLOWLINE:   Source of sample
 RMS .OHMM           0.38:   Rm
 MST .F                74:   Rm Meas. temp.
 RMF .OHMM           0.29:   Rmf
 MFST.F                74:   Rmf Meas. temp.
 MFSS.               MEAS:   Source Rmf.
 RMC .OHMM           0.23:   Rmc
 MCST.F               120:   Rmc Meas. temp.
 MCSS.               MEAS:   Source Rmc.
 RMB .OHMM           0.23:   Rm. at BHT
 BHT .F               120:   BHT.
 TCS .                  8:   Time Circ. stopped
 MRT .                122:   Maximum recorded temp.
 LUN .            HL-6274:   Logging unit number
 LUL .               GLTE:   Logging unit location
~OTHER INFORMATION
~A     DEPTH         CORR         NPHI         RHOB         TEND
# ...
   2857.0000       0.0030       0.2838       2.5040       0.2234
   2857.5000       0.0000       0.2741       2.5090       0.2234
   2858.0000       0.0050       0.2660       2.5120       0.2234
   2858.5000       0.0290       0.2632       2.5110       0.2252
   2859.0000       0.0310       0.2608       2.5090       0.2288
   2859.5000       0.0170       0.2556       2.5100       0.2324
   2860.0000       0.0010       0.2186       2.5130       0.2360
   2860.5000      -0.0120       0.1763       2.5290       0.2396
   2861.0000      -0.0050       0.1643       2.5460       0.2432
   2861.5000       0.0020       0.1477       2.5580       0.2468
   2862.0000       0.0140       0.1340       2.5700       0.2503
   2862.5000       0.0160       0.1227       2.5820       0.2539
   2863.0000      -0.0050       0.1150       2.5850       0.2575
   2863.5000      -0.0230       0.1143       2.5770       0.2611
   2864.0000      -0.0240       0.1176       2.5610       0.2610
   2864.5000      -0.0230       0.1240       2.5470       0.2561
   2865.0000      -0.0220       0.1329       2.5410       0.2512
   2865.5000      -0.0090       0.1504       2.5410       0.2463
   2866.0000       0.0050       0.1730       2.5440       0.2414
   2866.5000       0.0150       0.1997       2.5460       0.2365
   2867.0000      -0.0010       0.2233       2.5380       0.2316
   2867.5000      -0.0140       0.2430       2.5270       0.2267
   2868.0000      -0.0220       0.2400       2.5240       0.2241
   2868.5000      -0.0010       0.2294       2.5270       0.2262
   2869.0000       0.0100       0.2293       2.5370       0.2283
   2869.5000       0.0200       0.2323       2.5540       0.2304
   2870.0000       0.0290       0.2292       2.5670       0.2325
   2870.5000       0.0250       0.2199       2.5730       0.2346
   2871.0000       0.0210       0.2205       2.5680       0.2367
   2871.5000       0.0180       0.2267       2.5590       0.2388
   2872.0000       0.0140       0.2500       2.5510       0.2409
   2872.5000       0.0100       0.2583       2.5410       0.2430
   2873.0000       0.0050       0.2574       2.5270       0.2292
   2873.5000       0.0010       0.2507       2.5120       0.2244
   2874.0000      -0.0110       0.2309       2.4970       0.2258
   2874.5000      -0.0190       0.2224       2.4930       0.2272
   2875.0000      -0.0220       0.2227       2.4930       0.2287
   2875.5000      -0.0250       0.2275       2.4980       0.2301
   2876.0000      -0.0280       0.2472       2.4970       0.2316
   2876.5000      -0.0310       0.2517       2.4930       0.2330
   2877.0000      -0.0290       0.2473       2.4880       0.2367
   2877.5000      -0.0250       0.2338       2.4860       0.2413
   2878.0000      -0.0150       0.2122       2.4980       0.2459
   2878.5000      -0.0030       0.2041       2.5220       0.2504
   2879.0000       0.0060       0.2053       2.5440       0.2502
   2879.5000       0.0140       0.2145       2.5490       0.2425
   2880.0000       0.0190       0.2256       2.5470       0.2347
   2880.5000       0.0070       0.2288       2.5370       0.2334
   2881.0000      -0.0040       0.2279       2.5290       0.2334
   2881.5000      -0.0150       0.2239       2.5290       0.2334
   2882.0000      -0.0190       0.2196       2.5320       0.2400
   2882.5000       0.0000       0.2165       2.5530       0.2632
   2883.0000      -0.0010       0.2138       2.5670       0.2598
   2883.5000      -0.0030       0.2119       2.5680       0.2566
   2884.0000      -0.0030       0.2209       2.5630       0.2535
   2884.5000       0.0180       0.2440       2.5530       0.2503
   2885.0000       0.0350       0.2577       2.5450       0.2472
   2885.5000       0.0300       0.2658       2.5310       0.2441
   2886.0000       0.0020       0.2717       2.5210       0.2409
   2886.5000       0.0010       0.2802       2.5180       0.2378
   2887.0000       0.0000       0.2874       2.5190       0.2346
   2887.5000      -0.0100       0.2905       2.5140       0.2315
   2888.0000      -0.0200       0.2790       2.5100       0.2284
   2888.5000      -0.0260       0.2744       2.5070       0.2252
   2889.0000      -0.0180       0.2852       2.5060       0.2221
   2889.5000      -0.0110       0.2899       2.5070       0.2189
   2890.0000      -0.0030       0.2947       2.5090       0.2158
   2890.5000       0.0050       0.2958       2.5180       0.2135
   2891.0000       0.0120       0.2970       2.5200       0.2135
   2891.5000       0.0180       0.2957       2.5170       0.2135
   2892.0000       0.0040       0.2962       2.5140       0.2135
   2892.5000      -0.0070       0.2974       2.5150       0.2135
   2893.0000      -0.0070       0.2949       2.5140       0.2135
   2893.5000      -0.0030       0.2912       2.5110       0.2135
   2894.0000       0.0000       0.2875       2.5070       0.2135
   2894.5000       0.0040       0.2851       2.5070       0.2135
   2895.0000       0.0060       0.2813       2.5070       0.2135
   2895.5000       0.0040       0.2777       2.5070       0.2135
   2896.0000       0.0030       0.2892       2.5020       0.2135
   2896.5000      -0.0010       0.2947       2.4910       0.2135
   2897.0000      -0.0180       0.2977       2.4800       0.2135
   2897.5000      -0.0330       0.3012       2.4720       0.2135
   2898.0000      -0.0350       0.2948       2.4720       0.2135
   2898.5000      -0.0260       0.2936       2.4740       0.2135
   2899.0000      -0.0190       0.2944       2.4800       0.2135
   2899.5000      -0.0090       0.2961       2.4850       0.2135
   2900.0000      -0.0140       0.3004       2.4870       0.2135
   2900.5000      -0.0210       0.3079       2.4900       0.2135
   2901.0000      -0.0090       0.3198       2.4950       0.2135
   2901.5000       0.0010       0.3305       2.5000       0.2135
   2902.0000       0.0030       0.3339       2.5050       0.2135
   2902.5000       0.0050       0.3169       2.5080       0.2135
   2903.0000       0.0020       0.3072       2.5110       0.2135
   2903.5000       0.0020       0.3054       2.5120       0.2135
   2904.0000       0.0090       0.3097       2.5140       0.2135
   2904.5000       0.0130       0.3174       2.5150       0.2138
   2905.0000       0.0100       0.3201       2.5160       0.2141
   2905.5000       0.0070       0.3117       2.5170       0.2144
   2906.0000       0.0030       0.3101       2.5180       0.2147
   2906.5000       0.0000       0.3148       2.5160       0.2149
   2907.0000      -0.0020       0.3157       2.5140       0.2152
   2907.5000       0.0050       0.3138       2.5130       0.2155
   2908.0000       0.0140       0.3119       2.5120       0.2158
   2908.5000       0.0170       0.3101       2.5050       0.2161
   2909.0000      -0.0020       0.3076       2.4870       0.2163
   2909.5000      -0.0180       0.2925       2.4650       0.2166
   2910.0000      -0.0330       0.2859       2.4550       0.2169
   2910.5000      -0.0320       0.2903       2.4530       0.2172
   2911.0000      -0.0270       0.2985       2.4530       0.2175
   2911.5000      -0.0230       0.3069       2.4570       0.2177
   2912.0000      -0.0200       0.3126       2.4660       0.2180
   2912.5000      -0.0120       0.3011       2.4750       0.2183
   2913.0000      -0.0040       0.2956       2.4760       0.2186
   2913.5000       0.0040       0.2890       2.4760       0.2188
   2914.0000       0.0060       0.2787       2.4760       0.2191
   2914.5000       0.0000       0.2805       2.4780       0.2194
   2915.0000      -0.0030       0.2819       2.4850       0.2197
   2915.5000       0.0010       0.2803       2.4880       0.2200
   2916.0000       0.0000       0.2788       2.4850       0.2202
   2916.5000      -0.0350       0.2787       2.4780       0.2205
   2917.0000      -0.0410       0.2807       2.4770       0.2208
   2917.5000      -0.0230       0.2899       2.4820       0.2211
   2918.0000       0.0010       0.3027       2.4870       0.2214
   2918.5000       0.0260       0.3075       2.4920       0.2216
