~VERSION INFORMATION
 VERS.                2.0:   CWLS LOG ASCII STANDARD - VERSION 2.0
 WRAP.                 NO:   ONE LINE PER DEPTH STEP
~WELL INFORMATION
#MNEM.UNIT      DATA TYPE    INFORMATION
#----------   ------------   ------------------------------
 STRT.F           22.5000:   START DEPTH
 STOP.F         4120.0000:   STOP DEPTH
 STEP.F            0.5000:   STEP LENGTH
 NULL.          -999.2500:   NO VALUE
 COMP. LAWRENCE ALLISON & ASSOCIATES:   COMPANY
 WELL. LAWRENCE-ALLISON SHX #37-10:   WELL
 FLD .              N P R:   FIELD
 LOC .      S10 T38N R78W:   LOCATION
 CNTY.            NATRONA:   COUNTY
 STAT.            WYOMING:   STATE
 CTRY. UNITED STATES OF AMERICA:   COUNTRY
 SRVC.      DRESSER ATLAS:   SERVICE COMPANY
 DATE.        29-JUN-1983:   LOGDATE
 API .     49025107370001:   API NUMBER
~CURVE INFORMATION
#MNEM.UNIT       API CODE    CURVE DESCRIPTION
#----------   ------------   ------------------------------
 DEPT.F                  :   
 TEND.LBS    45 635 01 00:   TENSION FROM DENSITY LOG
 CORR.G/C3   45 356 01 00:   DENSITY CORRECTION
 NPHI.DEC    42 890 03 00:   NEUTRON POROSITY SANDSTONE
 CALD.IN     45 280 60 00:   CALIPER FROM DENSITY LOG
 GRR .GAPI   07 310 01 00:   GAMMA RAY FROM RESISTIVITY
 SPR .MV     07 010 01 00:   SPONTANEOUS POTENTIAL
 TENR.LBS    07 635 01 00:   TENSION FROM RESISTIVITY
 RILD.OHMM   07 120 46 00:   DEEP INDUCTION RESISTIVITY
 RILM.OHMM   07 120 44 00:   INDUCTION LOG MEDIUM RESISTIVITY
 RFOC.OHMM   07 220 04 00:   RESISTIVITY FOCUSED LOG RES.
 RHOB.G/C3   45 350 01 00:   BULK DENSITY
~PARAMETER INFORMATION
#MNEM.UNIT          VALUE    DESCRIPTION
#----------   ------------   ------------------------------
 EKB .F         5228.0000:   Kelly bushing
 EGL .F         5218.0000:   Ground level
 EDF .F            0.0000:   Drilling floor
 EPD .F         5218.0000:   Permanent datum
 TD  .F         4125.0000:   Total depth
 DATE.        29-JUN-1983:   Date logged
 CLNT.            A2DTECH:   Client Code
 SL  . 984' FWL & 1620' FEL:   Surface Location
 PD  .                 GL:   Permanent Datum
 DD  .F              4125:   Depth driller
 DL  .F              4107:   Depth logger
 BLI .F              4105:   Bottom log interval
 CS1 .IN              4.5:   Casing size
 CBD1.       4.5" @ 2213':   Casing driller 1
 CBL1.F              2213:   Casing logger 1
 BS1 .IN             6.25:   Bit size
 DFT .                KCL:   Type fluid in hole
 DFD .                8.8:   Density
 DFV .                 45:   Viscosity
 DFPH.                  9:   pH
 DFL .               10.8:   Fluid loss
 MSS .            MUDTANK:   Source of sample
 RMS .OHMM            .44:   Rm
 MST .F               108:   Rm Meas. temp.
 RMF .OHMM            .37:   Rmf
 MFST.F               108:   Rmf Meas. temp.
 RMC .OHMM            .55:   Rmc
 MCST.F               108:   Rmc Meas. temp.
 MFSS.               MEAS:   Source Rmf.
 RMB .OHMM            .36:   Rm. at BHT
 BHT .F               126:   BHT.
 TCS .HRS               2:   Time Circ. stopped
 MRT .F               126:   Maximum recorded temp.
 LUN .               6343:   Logging unit number
 LUL .                 FM:   Logging unit location
 ENGI.          I. GOVETT:   Recorded By
 WITN.          G. STRONG:   Witnessed by
 ORIG.     2.5", 5" PRINT:   Origin of data
 UWI .     49025107370001:   Unique Well ID
 DICO. A2D TECHNOLOGIES, INC.:   Digitizing Company
 DAPD.                 10:   Feet Above Permanent Datum
 BSD1.               4125:   Depth drilled with bit1
 MCSS.               CALC:   Source Rmc.
 TLI .               2213:   Top log interval
~OTHER INFORMATION
~A   DEPT     TEND       CORR       NPHI       CALD         GRR       SPR       TENR       RILD       RILM       RFOC       RHOB   
# ...
 2462.5000  -999.2500  -999.2500  -999.2500  -999.2500   106.0870   -25.6780    14.6930     6.0520     5.9830     6.0290  -999.2500
 2463.0000  -999.2500  -999.2500  -999.2500  -999.2500   104.8950   -25.6680    14.7820     5.9900     5.9600     6.2950  -999.2500
 2463.5000  -999.2500  -999.2500  -999.2500  -999.2500   106.5270   -25.7080    14.8350     5.9120     5.9210     6.2950  -999.2500
 2464.0000  -999.2500  -999.2500  -999.2500  -999.2500   108.6410   -25.7480    14.7590     5.8180     5.8670     6.0630  -999.2500
 2464.5000  -999.2500  -999.2500  -999.2500  -999.2500   110.3780   -25.7880    14.6830     5.7230     5.8120     5.8650  -999.2500
 2465.0000  -999.2500  -999.2500  -999.2500  -999.2500   111.3390   -25.8280    14.6070     5.6280     5.7580     5.6670  -999.2500
 2465.5000  -999.2500  -999.2500  -999.2500  -999.2500   112.3440   -25.8680    14.5310     5.5340     5.7040     5.5130  -999.2500
 2466.0000  -999.2500  -999.2500  -999.2500  -999.2500   113.2580   -25.9080    14.4550     5.4390     5.6500     5.4500  -999.2500
 2466.5000  -999.2500  -999.2500  -999.2500  -999.2500   113.9320   -25.9480    14.3790     5.3440     5.5950     5.3870  -999.2500
 2467.0000  -999.2500  -999.2500  -999.2500  -999.2500   114.6220   -25.9880    14.3020     5.2850     5.5410     5.3250  -999.2500
 2467.5000  -999.2500  -999.2500  -999.2500  -999.2500   114.4780   -26.0280    14.2260     5.2850     5.4870     5.2360  -999.2500
 2468.0000  -999.2500  -999.2500  -999.2500  -999.2500   114.2560   -26.0960    14.1500     5.2850     5.4330     5.2500  -999.2500
 2468.5000  -999.2500  -999.2500  -999.2500  -999.2500   113.5170   -26.1720    14.0740     5.3100     5.4490     5.2720  -999.2500
 2469.0000  -999.2500  -999.2500  -999.2500  -999.2500   112.6510   -26.2240    13.9980     5.4290     5.4650     5.3740  -999.2500
 2469.5000  -999.2500  -999.2500  -999.2500  -999.2500   110.1200   -26.1140    13.9220     5.5480     5.4810     5.5830  -999.2500
 2470.0000  -999.2500  -999.2500  -999.2500  -999.2500   107.4580   -26.0060    13.8460     5.6680     5.4970     5.7920  -999.2500
 2470.5000  -999.2500  -999.2500  -999.2500  -999.2500   104.8150   -25.8990    13.7700     5.8480     5.5130     6.0680  -999.2500
 2471.0000  -999.2500  -999.2500  -999.2500  -999.2500   103.1850   -25.7920    13.6940     5.7770     5.5340     5.9160  -999.2500
 2471.5000  -999.2500  -999.2500  -999.2500  -999.2500   103.1590   -25.6820    13.6180     5.6290     5.4530     5.6920  -999.2500
 2472.0000  -999.2500  -999.2500  -999.2500  -999.2500   105.0000   -25.7620    13.5420     5.4810     5.3360     5.4680  -999.2500
 2472.5000  -999.2500  -999.2500  -999.2500  -999.2500   107.9240   -25.9480    13.4660     5.3340     5.2190     5.2450  -999.2500
 2473.0000  -999.2500  -999.2500  -999.2500  -999.2500   111.0010   -26.1340    13.3900     5.1860     5.1020     5.1020  -999.2500
 2473.5000  -999.2500  -999.2500  -999.2500  -999.2500   110.7780   -26.2210    13.3140     5.0380     4.9860     5.0290  -999.2500
 2474.0000  -999.2500  -999.2500  -999.2500  -999.2500   109.1900   -26.1880    13.2380     4.8900     4.8690     4.9550  -999.2500
 2474.5000  -999.2500  -999.2500  -999.2500  -999.2500   109.0020   -26.1560    13.1620     4.7420     4.7520     4.9820  -999.2500
 2475.0000  -999.2500  -999.2500  -999.2500  -999.2500   110.3940   -26.1220    13.0860     4.5940     4.6350     5.0090  -999.2500
 2475.5000  -999.2500  -999.2500  -999.2500  -999.2500   110.6090   -26.0880    13.0100     4.4530     4.5180     5.0430  -999.2500
 2476.0000  -999.2500  -999.2500  -999.2500  -999.2500   109.7000   -26.0550    12.9340     4.3370     4.4010     4.9900  -999.2500
 2476.5000  -999.2500  -999.2500  -999.2500  -999.2500   109.1660   -25.9680    12.8580     4.2220     4.2850     4.8980  -999.2500
 2477.0000  -999.2500  -999.2500  -999.2500  -999.2500   111.2490   -25.8350    12.7820     4.1060     4.1680     4.8070  -999.2500
 2477.5000  -999.2500  -999.2500  -999.2500  -999.2500   118.5340   -25.7020    12.7060     3.9910     4.0510     4.6230  -999.2500
 2478.0000  -999.2500  -999.2500  -999.2500  -999.2500   125.5810   -25.5680    12.6300     3.8750     3.9340     4.3920  -999.2500
 2478.5000  -999.2500  -999.2500  -999.2500  -999.2500   128.2780   -25.4350    12.5540     3.7930     3.8290     4.1610  -999.2500
 2479.0000  -999.2500  -999.2500  -999.2500  -999.2500   127.9800   -25.3000    12.4780     3.8000     3.8940     3.8640  -999.2500
 2479.5000  -999.2500  -999.2500  -999.2500  -999.2500   127.8020   -25.2960    12.4020     3.8640     3.9670     3.9050  -999.2500
 2480.0000  -999.2500  -999.2500  -999.2500  -999.2500   125.0340   -25.3710    12.3260     3.9280     4.0400     3.9720  -999.2500
 2480.5000  -999.2500  -999.2500  -999.2500  -999.2500   119.0020   -25.4480    12.2500     3.9920     4.1130     4.4180  -999.2500
 2481.0000  -999.2500  -999.2500  -999.2500  -999.2500   111.4560   -25.5250    12.1740     4.0560     4.1810     4.8920  -999.2500
 2481.5000  -999.2500  -999.2500  -999.2500  -999.2500   110.6800   -25.6020    12.0980     4.1200     4.2400     5.0470  -999.2500
 2482.0000  -999.2500  -999.2500  -999.2500  -999.2500   112.1390   -25.6790    12.0220     4.1990     4.2990     4.8920  -999.2500
 2482.5000  -999.2500  -999.2500  -999.2500  -999.2500   113.5320   -25.7560    11.9460     4.3000     4.3580     4.7610  -999.2500
 2483.0000  -999.2500  -999.2500  -999.2500  -999.2500   113.9860   -25.8330    11.8700     4.4000     4.4180     4.6300  -999.2500
 2483.5000     0.0900  -999.2500  -999.2500  -999.2500   113.5210   -25.9100    11.7940     4.5010     4.4770     4.4980  -999.2500
 2484.0000     0.2400  -999.2500  -999.2500  -999.2500   117.0920   -25.9870    11.7180     4.6020     4.5360     4.4770  -999.2500
 2484.5000     0.3900  -999.2500  -999.2500  -999.2500   121.0930   -26.0410    11.6420     4.7030     4.5950     4.5810  -999.2500
 2485.0000     0.5410  -999.2500  -999.2500  -999.2500   124.3500   -26.0400    11.5660     4.8030     4.7570     4.8070  -999.2500
 2485.5000     0.6910  -999.2500  -999.2500  -999.2500   122.8270   -26.0400    11.4900     4.9040     4.9350     5.0320  -999.2500
 2486.0000     0.8410  -999.2500  -999.2500  -999.2500   121.0870   -26.0400    11.4140     5.0050     5.1130     5.2580  -999.2500
 2486.5000     0.9910  -999.2500  -999.2500  -999.2500   119.4040   -26.0400    11.3380     5.1180     5.2900     5.4840  -999.2500
 2487.0000     1.1410  -999.2500  -999.2500  -999.2500   117.7010   -26.0380    11.2620     5.3240     5.4680     5.7090  -999.2500
 2487.5000     1.2910  -999.2500  -999.2500  -999.2500   116.5350   -25.9640    11.1860     5.5290     5.6460     5.9350  -999.2500
 2488.0000     1.4420  -999.2500  -999.2500  -999.2500   115.2660   -25.8880    11.1100     5.7420     5.7980     6.1240  -999.2500
 2488.5000     1.5920  -999.2500  -999.2500  -999.2500   114.6650   -25.8730    11.0340     5.7580     5.8190     6.0650  -999.2500
 2489.0000     1.7420  -999.2500  -999.2500  -999.2500   116.8610   -25.9470    10.9570     5.7740     5.8400     6.0140  -999.2500
 2489.5000     1.8920  -999.2500  -999.2500  -999.2500   119.0130   -26.0210    10.8810     5.7910     5.8600     5.9630  -999.2500
 2490.0000     2.0420  -999.2500  -999.2500  -999.2500   120.8740   -26.0950    10.8050     5.8080     5.8810     5.9020  -999.2500
 2490.5000     2.1920  -999.2500  -999.2500  -999.2500   118.7210   -26.1700    10.7290     5.8240     5.9020     5.9680  -999.2500
 2491.0000     2.3420  -999.2500  -999.2500  -999.2500   116.4730   -26.2440    10.6530     5.8410     5.9230     6.0480  -999.2500
 2491.5000     2.4930  -999.2500  -999.2500  -999.2500   114.7980   -26.3180    10.5770     5.8570     5.9440     6.1270  -999.2500
 2492.0000     2.6430  -999.2500  -999.2500  -999.2500   113.1300   -26.3920    10.5010     5.8740     5.9640     6.2070  -999.2500
 2492.5000     2.7930  -999.2500  -999.2500  -999.2500   113.7580   -26.4660    10.4250     5.8910     5.9850     6.2870  -999.2500
