~VERSION INFORMATION
 VERS.                2.0:   CWLS LOG ASCII STANDARD - VERSION 2.0
 WRAP.                 NO:   ONE LINE PER DEPTH STEP
~WELL INFORMATION
#MNEM.UNIT      DATA TYPE    INFORMATION
#----------   ------------   ------------------------------
 STRT.F            1.0000:   START DEPTH
 STOP.F         2854.0000:   STOP DEPTH
 STEP.F            0.5000:   STEP LENGTH
 NULL.          -999.2500:   NO VALUE
 COMP.          INTEX OIL:   COMPANY
 WELL. INTEX N.P.R. "AX" #42-29:   WELL
 FLD .             TEAPOT:   FIELD
 LOC .      S29 T39N R78W:   LOCATION
 CNTY.            NATRONA:   COUNTY
 STAT.            WYOMING:   STATE
 CTRY. UNITED STATES OF AMERICA:   COUNTRY
 SRVC.       SCHLUMBERGER:   SERVICE COMPANY
 DATE.        30-MAY-1986:   LOGDATE
 API .     49025095240000:   API NUMBER
~CURVE INFORMATION
#MNEM.UNIT       API CODE    CURVE DESCRIPTION
#----------   ------------   ------------------------------
 DEPT.F                  :   
 SPR .MV     05 010 01 00:   SPONTANEOUS POTENTIAL FROM RES.
 ASN .OHMM   05 041 16 00:   AMPLIFIED SHORT NORMAL 16"
 ILD .OHMM   05 120 46 00:   INDUCTION LOG DEEP
 GRD .GAPI   45 310 01 00:   GAMMA RAY FROM DENSITY LOG
 CALD.IN     45 280 60 00:   CALIPER FROM DENSITY LOG
 CORR.G/C3   45 356 01 00:   DENSITY CORRECTION
 RHOB.G/C3   45 350 01 00:   BULK DENSITY
 CALI.IN     30 280 01 00:   CALIPER FROM GAMMA RAY LOG
 GR  .GAPI   30 310 01 00:   GAMMA RAY
~PARAMETER INFORMATION
#MNEM.UNIT          VALUE    DESCRIPTION
#----------   ------------   ------------------------------
 EKB .F         5020.3000:   Kelly bushing
 EGL .F         5010.0000:   Ground level
 EDF .F            0.0000:   Drilling floor
 TD  .F         2860.0000:   Total depth
 CLNT.            A2DTECH:   Client Code
 DATE.        30-MAY-1986:   Date Logged [DD-MMM-YYYY]
 DD  .F              2860:   Depth driller
 DL  .F              2855:   Depth logger
 BLI .F              2854:   Bottom log interval
 TLI .F               164:   Top log interval
 CS1 .              8.625:   Casing size
 CBD1.      8.625" @ 167':   Casing driller 1
 CBL1.IN              164:   Casing logger 1
 BS1 .IN            7.875:   Bit size
 BSD1.F              2860:   Depth drilled with bit1
 DFT .  LIGND-SULFATE LCM:   Type fluid in hole
 DFD .                8.9:   Density
 DFV .                 33:   Viscosity
 DFPH.               11.0:   pH
 DFL .                9.2:   Fluid loss
 MSS .           FLOWLINE:   Source of sample
 RMS .OHMM           1.47:   Rm
 MST .F                55:   Rm Meas. temp.
 RMF .OHMM           1.13:   Rmf
 MFST.F                75:   Rmf Meas. temp.
 RMB .OHMM           0.78:   Rm. at BHT
 BHT .F               108:   BHT.
 TCS .HRS               3:   Time Circ. stopped
 MRT .F               108:   Maximum recorded temp.
 LUN .               3527:   Logging unit number
 LUL .               CSPR:   Logging unit location
 ENGI.            MANGOLO:   Recorded By
 WITN.             TUTTLE:   Witnessed by
 ORIG.      1" 2.5" PRINT:   Origin of data
 UWI .     49025095240000:   Unique Well ID
 DICO. A2D TECHNOLOGIES, INC.:   Digitizing Company
 PD  .                 GL:   Permanent Datum
 EPD .               5010:   Elevation Permanent Datum
 LMF .                 KB:   Log Measured From
 DMF .                 KB:   Drilling Measured From
 DAPD.              10.32:   Feet Above Permanent Datum
 MFSS.         MEAS PRESS:   Source Rmf.
~OTHER INFORMATION
~A    DEPT     SPR        ASN        ILD        GRD       CALD       CORR       RHOB        CALI        GR   
# ...
 1753.0000   -45.5885    11.9254     7.6420   128.7323     8.4052     0.0351     2.4908  -999.2500  -999.2500
 1753.5000   -45.8948    11.9246     7.3424   128.2645     8.4047     0.0213     2.5076  -999.2500  -999.2500
 1754.0000   -46.2012    11.7719     7.1936   126.3881     8.3736     0.0091     2.4954  -999.2500  -999.2500
 1754.5000   -46.2027    11.7712     7.1958   124.0848     8.3731     0.0030     2.4756  -999.2500  -999.2500
 1755.0000   -45.8943    11.6184     7.3491   123.1846     8.3727     0.0015     2.4680  -999.2500  -999.2500
 1755.5000   -45.2911    11.4657     7.3514   123.6584     8.3722     0.0076     2.4664  -999.2500  -999.2500
 1756.0000   -46.2401    11.3130     7.5047   126.4616     8.3718     0.0137     2.4740  -999.2500  -999.2500
 1756.5000   -47.1235    11.4643     7.6580   128.2478     8.3713     0.0168     2.4816  -999.2500  -999.2500
 1757.0000   -46.7927    11.7674     7.6602   128.2216     8.3708     0.0229     2.4877  -999.2500  -999.2500
 1757.5000   -46.2118    11.9186     7.8135   127.7769     8.3704     0.0290     2.4923  -999.2500  -999.2500
 1758.0000   -45.9084    12.0698     7.8158   129.6677     8.4006     0.0305     2.4953  -999.2500  -999.2500
 1758.5000   -45.9101    12.2212     7.8180   129.0999     8.4001     0.0259     2.4968  -999.2500  -999.2500
 1759.0000   -46.2662    12.2203     7.6692   127.2740     8.3997     0.0198     2.4999  -999.2500  -999.2500
 1759.5000   -46.8277    12.2195     7.5204   126.3739     8.3992     0.0137     2.4922  -999.2500  -999.2500
 1760.0000   -46.8293    12.2188     7.5227   124.4303     8.3988     0.0122     2.4831  -999.2500  -999.2500
 1760.5000   -46.7642    11.9141     7.3738   123.1338     8.3983     0.0076     2.4816  -999.2500  -999.2500
 1761.0000   -46.2224    11.7614     7.3761   123.6246     8.3978     0.0015     2.4816  -999.2500  -999.2500
 1761.5000   -46.2241    11.6086     7.3784   124.5094     8.3974     0.0076     2.4816  -999.2500  -999.2500
 1762.0000   -46.2256    11.4559     7.3807   124.5416     8.3969     0.0137     2.4770  -999.2500  -999.2500
 1762.5000   -46.1382    11.3032     7.3829   124.9617     8.3965     0.0091     2.4663  -999.2500  -999.2500
 1763.0000   -45.9235    11.3024     7.3852   124.9969     8.3960     0.0015     2.4541  -999.2500  -999.2500
 1763.5000   -45.9253    11.1497     7.3874   125.8756     8.3955     0.0076     2.4663  -999.2500  -999.2500
 1764.0000   -45.9268    11.1489     7.3897   122.8870     8.3951     0.0168     2.4846  -999.2500  -999.2500
 1764.5000   -46.3446    11.3002     7.3920   119.3152     8.3946     0.0183     2.4906  -999.2500  -999.2500
 1765.0000   -46.9614    11.2994     7.3943   117.0925     8.3942     0.0168     2.4937  -999.2500  -999.2500
 1765.5000   -46.7235    11.3090     7.3965   118.5199     8.3937     0.0137     2.4952  -999.2500  -999.2500
 1766.0000   -46.1098    11.4499     7.5498   119.4400     8.3932     0.0198     2.4967  -999.2500  -999.2500
 1766.5000   -45.9345    11.4491     7.5521   120.3600     8.3928     0.0213     2.4982  -999.2500  -999.2500
 1767.0000   -45.9360    11.4483     7.5544   122.2555     8.3923     0.0152     2.4997  -999.2500  -999.2500
 1767.5000   -45.9375    11.4475     7.5567   124.6157     8.3919     0.0091     2.4845  -999.2500  -999.2500
 1768.0000   -45.7886    11.5988     7.5589   126.7572     8.3914     0.0061     2.4693  -999.2500  -999.2500
 1768.5000   -45.6357    11.7501     7.5612   124.7923     8.3910     0.0015     2.4678  -999.2500  -999.2500
 1769.0000   -45.6372    11.7791     7.6088   122.9969     8.3905     0.0076     2.4723  -999.2500  -999.2500
 1769.5000   -45.9436    11.9331     7.7167   122.5292     8.3900     0.0198     2.4769  -999.2500  -999.2500
 1770.0000   -45.9451    12.2037     7.7191   122.1234     8.3896     0.0201     2.4814  -999.2500  -999.2500
 1770.5000   -46.2515    12.2412     7.7742   124.4891     8.3891     0.0183     2.4860  -999.2500  -999.2500
 1771.0000   -46.5582    12.3542     7.8746   124.4216     8.3887     0.0259     2.4921  -999.2500  -999.2500
 1771.5000   -46.5597    12.3972     8.0279   125.6046     8.3882     0.0229     2.4981  -999.2500  -999.2500
 1772.0000   -46.5612    12.5047     8.0906   129.6247     8.3877     0.0137     2.4997  -999.2500  -999.2500
 1772.5000   -46.5628    12.6559     8.1836   131.4000     8.3873     0.0152     2.4920  -999.2500  -999.2500
 1773.0000   -46.5643    12.7071     8.3369   131.7880     8.3868     0.0198     2.4890  -999.2500  -999.2500
 1773.5000   -46.2609    12.8064     8.3391   131.7830     8.3864     0.0213     2.4875  -999.2500  -999.2500
 1774.0000   -46.5673    12.9576     8.3414   133.6985     8.3859     0.0210     2.4875  -999.2500  -999.2500
 1774.5000   -46.5688    13.0172     8.3436   133.5446     8.3854     0.0229     2.4874  -999.2500  -999.2500
 1775.0000   -46.5703    13.2599     8.3460   131.4614     8.3850     0.0229     2.4814  -999.2500  -999.2500
 1775.5000   -46.5718    13.4111     8.3482   128.3771     8.3845     0.0244     2.4874  -999.2500  -999.2500
 1776.0000   -46.8782    13.4792     8.3505   125.5196     8.3841     0.0259     2.4935  -999.2500  -999.2500
 1776.5000   -46.8797    13.5616     8.3527   124.3712     8.3836     0.0305     2.4905  -999.2500  -999.2500
 1777.0000   -46.5764    13.4088     8.2694   126.3784     8.3831     0.0274     2.4813  -999.2500  -999.2500
 1777.5000   -46.5779    13.4080     8.1180   128.3078     8.3827     0.0198     2.4752  -999.2500  -999.2500
 1778.0000   -46.2745    13.2553     7.9068   129.8958     8.3822     0.0183     2.4767  -999.2500  -999.2500
 1778.5000   -46.2760    13.0198     7.7580   127.3197     8.3818     0.0198     2.4813  -999.2500  -999.2500
 1779.0000   -46.2775    12.8643     7.7602   124.6309     8.3813     0.0198     2.4813  -999.2500  -999.2500
 1779.5000   -46.5839    12.7087     7.7625   123.2386     8.3808     0.0198     2.4782  -999.2500  -999.2500
 1780.0000   -46.5854    12.4923     7.7647   121.8461     8.3803     0.0290     2.4798  -999.2500  -999.2500
 1780.5000   -46.2821    12.3395     7.7670   120.6415     8.3798     0.0381     2.4843  -999.2500  -999.2500
 1781.0000   -46.2836    12.3388     7.7692   122.1170     8.3794     0.0385     2.4904  -999.2500  -999.2500
 1781.5000   -46.2851    12.3380     7.7715   122.5753     8.3789     0.0107     2.4889  -999.2500  -999.2500
 1782.0000   -46.2866    12.6412     7.9248   123.0338     8.3784     0.0103     2.4934  -999.2500  -999.2500
 1782.5000   -46.2958    12.7925     7.9270   124.5155     8.3473     0.0198     2.4980  -999.2500  -999.2500
 1783.0000   -46.5945    12.9438     8.0803   125.2344     8.3468     0.0213     2.4919  -999.2500  -999.2500
 1783.5000   -46.5960    13.0950     8.2336   124.2030     8.3464     0.0107     2.4812  -999.2500  -999.2500
 1784.0000   -46.5976    13.2462     8.3869   124.8243     8.3459     0.0058     2.4751  -999.2500  -999.2500
 1784.5000   -46.5991    13.3974     8.5402   129.3744     8.3455     0.0152     2.4812  -999.2500  -999.2500
 1785.0000   -46.9055    13.5486     8.6935   127.4154     8.3757     0.0229     2.4873  -999.2500  -999.2500
 1785.5000   -46.9070    13.5478     8.6958   126.5954     8.4060     0.0198     2.4812  -999.2500  -999.2500
 1786.0000   -46.9085    13.6990     8.8491   126.1292     8.4054     0.0168     2.4690  -999.2500  -999.2500
 1786.5000   -46.6051    13.8502     8.8513   126.1246     8.4356     0.0152     2.4689  -999.2500  -999.2500
 1787.0000   -46.3017    14.0015     8.8536   125.5447     8.4352     0.0168     2.4720  -999.2500  -999.2500
 1787.5000   -45.9983    14.1528     9.0069   125.1929     8.4347     0.0168     2.4659  -999.2500  -999.2500
 1788.0000   -46.0000    14.3039     9.0091   128.5415     8.4343     0.0137     2.4583  -999.2500  -999.2500
 1788.5000   -46.0015    14.3032     9.0114   131.4201     8.4338     0.0198     2.4598  -999.2500  -999.2500
 1789.0000   -46.0030    14.4544     9.0136   132.5637     8.4333     0.0366     2.4674  -999.2500  -999.2500
