~VERSION INFORMATION
 VERS.                2.0:   CWLS LOG ASCII STANDARD - VERSION 2.0
 WRAP.                 NO:   ONE LINE PER DEPTH STEP
~WELL INFORMATION
#MNEM.UNIT      DATA TYPE    INFORMATION
#----------   ------------   ------------------------------
 STRT.F           31.5000:   START DEPTH
 STOP.F         4204.0000:   STOP DEPTH
 STEP.F            0.5000:   STEP LENGTH
 NULL.          -999.2500:   NO VALUE
 COMP.   LAWRENCE ALLISON:   COMPANY
 WELL. LAWRENCE 3 "X" #32-10:   WELL
 FLD .                NPR:   FIELD
 LOC .      S10 T38N R78W:   LOCATION
 CNTY.            NATRONA:   COUNTY
 STAT.            WYOMING:   STATE
 CTRY. UNITED STATES OF AMERICA:   COUNTRY
 SRVC.      DRESSER ATLAS:   SERVICE COMPANY
 DATE.        05-NOV-1983:   LOGDATE
 API .     49025109460000:   API NUMBER
~CURVE INFORMATION
#MNEM.UNIT       API CODE    CURVE DESCRIPTION
#----------   ------------   ------------------------------
 DEPT.F                  :   
 CALD.IN     45 280 60 00:   CALIPER FROM DENSITY LOG
 CNC .DEC    42 890 01 00:   NEUTRON POROSITY LIMESTONE
 CORR.G/C3   45 356 01 00:   DENSITY CORRECTION
 TEND.LBS    45 635 01 00:   TENSION FORM DENSITY LOG
 RHOB.G/C3   45 350 01 00:   BULK DENSITY
 DT  .US/F   60 520 00 00:   DELTA TIME
 TENS.LBS    60 635 01 00:   TENSION FROM SONIC
 GRR .GAPI   07 310 01 00:   GAMMA RAY FROM RESISTIVITY
 TENR.LBS    06 635 01 00:   TENSION FROM RESISTIVITY
 RFOC.OHMM   07 220 04 00:   RESISTIVITY FOCUSED LOG RES.
 RILM.OHMM   07 120 44 00:   INDUCTION LOG MEDIUM RESISTIVITY
 RILD.OHMM   07 120 46 00:   DEEP INDUCTION RESISTIVITY
 SPR .MV     07 010 01 00:   SPONTANEOUS POTENTIAL
~PARAMETER INFORMATION
#MNEM.UNIT          VALUE    DESCRIPTION
#----------   ------------   ------------------------------
 EKB .F         5237.0000:   Kelly bushing
 EGL .F         5227.0000:   Ground level
 TD  .F         4202.0000:   Total depth
 CLNT.            A2DTECH:   Client Code
 SL  . 1871' FWL & 1152' FNL:   Surface Location
 PD  .                 GL:   Permanent Datum
 EPD .F              5227:   Elevation Permanent Datum
 LMF .                 KB:   Log Measured From
 DMF .                 KB:   Drilling Measured From
 DAPD.F                10:   Feet Above Permanent Datum
 DATE.        05-NOV-1983:   Date Logged [DD-MMM-YYYY]
 DD  .F              4200:   Depth driller
 DL  .F              4202:   Depth logger
 BLI .F              4200:   Bottom log interval
 TLI .F                30:   Top log interval
 CS1 .IN            8.625:   Casing size
 CBD1.      8.625" @ 545':   Casing driller 1
 CBL1.F               545:   Casing logger 1
 BS1 .IN            7.875:   Bit size
 BSD1.F              4200:   Depth drilled with bit1
 DFT .            GEL KCL:   Type fluid in hole
 DFD .                8.9:   Density
 DFV .                 42:   Viscosity
 DFPH.                8.5:   pH
 DFL .               12.4:   Fluid loss
 MSS .           FLOWLINE:   Source of sample
 RMS .OHMM           0.43:   Rm
 MST .F                97:   Rm Meas. temp.
 RMF .OHMM           0.42:   Rmf
 MFST.F                74:   Rmf Meas. temp.
 MFSS.               MEAS:   Source Rmf.
 RMC .OHMM           0.53:   Rmc
 MCST.F                97:   Rmc Meas. temp.
 MCSS.               CALC:   Source Rmc.
 RMB .OHMM           0.32:   Rm. at BHT
 BHT .F               131:   BHT.
 TCS .HRS               3:   Time Circ. stopped
 MRT .F               131:   Maximum recorded temp.
 LUN .               6307:   Logging unit number
 LUL .               GLTE:   Logging unit location
 ENGI.            DEYOUNG:   Recorded By
 WITN.             STRONG:   Witnessed by
 ORIG.        2" 5" PRINT:   Origin of data
 UWI .     49025109460000:   Unique Well ID
 DICO. A2D TECHNOLOGIES, INC.:   Digitizing Company
~OTHER INFORMATION
~A   DEPT     CALD        CNC       CORR       TEND       RHOB         DT       TENS         GRR      TENR       RFOC       RILM       RILD        SPR   
# ...
 3957.5000     8.2086     0.2781    -0.0095   -26.4209     2.5399    83.7324   -19.5172    94.7677   -29.7473     4.2043     3.5473     2.9680   -36.8961
 3958.0000     8.2097     0.2778     0.0121   -26.6754     2.5493    85.7729   -19.4135    87.1217   -29.4213     4.9920     3.1966     2.8896   -36.8669
 3958.5000     8.2108     0.2769     0.0383   -23.7591     2.5877    85.6931   -19.3255    86.3948   -29.0953     5.8624     2.9215     2.8069   -36.6867
 3959.0000     8.2119     0.2785     0.0491   -20.9217     2.7153    83.6390   -19.2375    94.9042   -28.7693     6.8293     2.7080     2.5892   -36.6566
 3959.5000     8.2130     0.2845     0.0446   -21.1543     2.8212    80.7036   -19.1495   108.0170   -28.4433     7.3903     2.5101     2.4161   -36.6212
 3960.0000     8.2141     0.3241     0.0335   -18.2380     2.8212    80.1175   -24.9095   121.1299   -28.2787     5.5422     2.3431     2.2545   -36.4414
 3960.5000     8.2152     0.3173     0.0233   -18.4978     2.7830    84.2307   -24.8235   132.9339   -28.3688     4.3975     2.2027     2.1337   -36.2616
 3961.0000     8.2163     0.3252     0.0172   -21.7818     2.5179    90.6932   -24.7507   134.3240   -28.5472     3.9060     2.1001     2.0482   -36.2323
 3961.5000     8.2174     0.3258     0.0096   -25.1096     2.5118    94.5126   -24.6627   133.6058   -28.7256     3.6194     2.0307     1.9660   -36.2031
 3962.0000     8.2185     0.3261     0.0035   -25.3174     2.5134    97.1572   -24.5656   128.6677   -28.9040     3.4988     1.9775     1.9141   -36.2590
 3962.5000     8.2196     0.3284     0.0036   -25.4993     2.5165    97.8928   -24.4796   129.4555   -29.0825     3.4545     2.0100     1.9444   -36.4021
 3963.0000     8.2207     0.3319     0.0068   -25.7330     2.5166    98.6294   -24.3937   131.5987   -29.2609     3.4349     2.1493     2.0462   -36.5436
 3963.5000     8.2218     0.3287     0.0100   -25.9408     2.5110    98.9307   -24.3109   132.2417   -29.4393     3.2982     2.3877     2.1686   -36.6850
 3964.0000     8.2229     0.2980     0.0116   -29.2166     2.5044    99.2188   -24.2217   129.5656   -29.6177     3.1883     2.6026     2.2998   -36.8248
 3964.5000     8.2240     0.2869     0.0101   -29.4316     2.5044    99.0532   -24.1349   124.9287   -29.7961     3.1469     2.9180     2.5116   -36.9662
 3965.0000     8.2251     0.2771     0.0071   -29.6363     2.5075    98.1250   -24.0469   119.2406   -29.9746     3.5288     3.1583     2.7784   -36.9528
 3965.5000     8.2262     0.2654     0.0057   -26.7719     2.5137    94.0875   -23.9589   114.9079   -30.1530     4.2748     3.3234     2.9797   -36.9427
 3966.0000     8.2273     0.2575     0.0042   -23.9594     2.5230    88.2382   -23.8710   118.3168   -30.3314     5.6322     3.3999     3.1580   -36.7811
 3966.5000     8.2284     0.2591     0.0074   -24.1475     2.5371    81.0710   -23.7830   127.1035   -30.5098     7.0401     3.4295     3.2307   -36.7694
 3967.0000     8.2295     0.2813     0.0106   -25.5305     2.5569    81.0188   -23.6950   138.0572   -30.6882     6.2841     3.3162     3.1902   -36.7593
 3967.5000     8.2306     0.2991     0.0153   -27.6549     2.5477    81.4341   -23.6070   141.7064   -30.8667     4.8817     3.1395     3.1059   -36.4462
 3968.0000     8.2317     0.3020     0.0215   -27.8648     2.5324    84.0889   -23.5191   145.0544   -31.0451     4.5862     2.9306     2.9395   -35.9799
 3968.5000     8.2328     0.3032     0.0323   -28.1225     2.5255    88.6580   -23.4311   147.9798   -31.2235     4.9298     2.6974     2.7820   -35.5153
 3969.0000     8.2339     0.3048     0.0371   -31.3671     2.5294    89.2482   -23.3431   150.2994   -31.4019     5.0777     2.5896     2.6695   -35.0506
 3969.5000     8.2350     0.3087     0.0289   -31.5822     2.5333    89.2496   -23.2551   152.2457   -31.5803     4.8058     2.6160     2.6746   -34.7358
 3970.0000     8.2361     0.3236     0.0157   -31.7973     2.5320    90.1324   -23.1672   151.5275   -31.7588     3.9223     2.8248     2.8346   -34.5742
 3970.5000     8.2369     0.3375     0.0111   -35.0980     2.5119    93.9518   -23.0792   144.0321   -31.9372     3.3331     3.3792     3.0716   -34.3902
 3971.0000     8.2365     0.3290     0.0081   -32.2273     2.4912    94.8343   -22.9752   135.2830   -32.1156     3.1164     3.8696     3.3546   -34.2753
 3971.5000     8.2351     0.2875     0.0175   -32.4424     2.4820    94.8357   -22.9032   121.3489   -32.2940     3.5443     4.5259     3.7804   -34.1603
 3972.0000     8.2337     0.2688     0.0177   -28.3969     2.4828    94.3966   -22.8032   107.2388   -36.3063     5.0141     5.2194     4.2399   -34.0453
 3972.5000     8.2323     0.2440    -0.0290   -26.7125     2.5036    90.7270   -22.7173   104.7046   -36.5115     9.5401     5.5702     4.5255   -33.9153
 3973.0000     8.2310     0.2359    -0.1052   -23.9000     2.5986    79.2747   -22.6313   106.5553   -36.4841    11.9717     5.9028     4.8992   -33.9052
 3973.5000     8.2296     0.2321    -0.1112   -24.1078     2.6619    73.2555   -28.4104   110.2045   -36.4754    12.4184     5.8709     4.9747   -34.0483
 3974.0000     8.2282     0.2385    -0.0436   -21.1914     2.6612    72.9633   -28.3245   115.0585   -36.4754    11.6706     5.5191     4.7771   -34.0349
 3974.5000     8.2269     0.2467    -0.0051   -21.4440     2.6282    74.4611   -28.2385   121.6236   -36.4754     9.5925     4.9386     4.5856   -34.1780
 3975.0000     8.2255     0.2515     0.0027   -21.6590     2.5653    76.3185   -28.1525   130.0434   -36.4754     7.8844     4.0040     4.0435   -34.4710
 3975.5000     8.2241     0.2693     0.0043   -24.0664     2.5162    79.5655   -22.1994   135.6505   -36.4754     6.5725     3.2235     3.1392   -34.7639
 3976.0000     8.2228     0.2947     0.0026   -25.1986     2.5054    83.9679   -22.1114   139.4503   -36.4754     5.4194     2.6987     2.5428   -34.9037
 3976.5000     8.2214     0.3039    -0.0001   -25.3763     2.5017    87.3058   -22.0235   140.5393   -36.4754     4.4105     2.4202     2.3896   -35.0451
 3977.0000     8.2200     0.3210     0.0000   -28.6636     2.4994    89.8671   -21.9355   139.5198   -36.4754     4.0296     2.3269     2.3764   -34.8802
 3977.5000     8.2187     0.3299     0.0000   -28.8943     2.4979    91.7582   -21.8475   136.6931   -36.4754     3.5291     2.3472     2.4509   -34.5670
 3978.0000     8.2173     0.3369     0.0017   -26.0215     2.4964    96.2888   -21.7595   129.6496   -36.4754     3.0691     2.4353     2.5775   -34.1024
 3978.5000     8.2166     0.3402     0.0079   -29.3088     2.4888    97.2641   -21.6716   116.5660   -36.4754     2.7260     2.6545     2.6934   -33.1816
 3979.0000     8.2156     0.3053     0.0299   -29.5239     2.4619    96.6865   -21.5836   102.7111   -36.4754     2.6529     3.0613     2.9365   -32.5654
 3979.5000     8.2058     0.2644     0.0557   -29.7389     2.4328    95.3029   -21.4956    69.8422   -36.1926     2.9960     3.7089     3.4362   -31.7978
 3980.0000     8.1959     0.2244     0.0696   -29.9851     2.4160    91.0813   -21.4076    36.1197   -35.7787     4.0115     4.8215     4.8672   -31.0285
 3980.5000     8.1860     0.1807     0.0420   -31.7465     2.4199    81.2935   -21.3197    30.1303   -35.3648    13.5928     6.5849     6.0699   -30.5638
 3981.0000     8.1761     0.1502     0.0191   -36.5450     2.4230    79.2981   -21.2317    29.7133   -34.9508    14.5034     8.9301     7.8423   -30.2507
 3981.5000     8.1662     0.1446    -0.0008   -36.7528     2.3992    79.8872   -21.1437    29.7480   -34.5369    13.1578    10.0830     9.6428   -29.9359
 3982.0000     8.1563     0.1446    -0.0084   -40.0328     2.3708    83.1191   -21.0557    30.0840   -34.1230    11.9371    10.8368    10.5131   -29.7743
 3982.5000     8.1464     0.1459    -0.0052   -40.2458     2.3145    85.1764   -23.0214    31.3236   -33.7090    11.5354    11.3232    10.7605   -29.4612
 3983.0000     8.1367     0.1498    -0.0083   -40.5003     2.2941    84.0031   -26.7449    36.3282   -33.2951    12.9354     9.2225     9.6178   -29.2980
