~VERSION INFORMATION
 VERS.                2.0:   CWLS LOG ASCII STANDARD - VERSION 2.0
 WRAP.                 NO:   ONE LINE PER DEPTH STEP
~WELL INFORMATION
#MNEM.UNIT      DATA TYPE    INFORMATION
#----------   ------------   ------------------------------
 STRT.F          444.0000:   START DEPTH
 STOP.F         3018.0000:   STOP DEPTH
 STEP.F            0.5000:   STEP LENGTH
 NULL.          -999.2500:   NO VALUE
 COMP.    FENIX & SCISSON:   COMPANY
 WELL.  FENIX "AX" #25-28:   WELL
 FLD .             TEAPOT:   FIELD
 LOC .      S28 T39N R78W:   LOCATION
 CNTY.            NATRONA:   COUNTY
 STAT.            WYOMING:   STATE
 CTRY. UNITED STATES OF AMERICA:   COUNTRY
 SRVC.              WELEX:   SERVICE COMPANY
 DATE.        01-DEC-1979:   LOGDATE
 API .     49025107940000:   API NUMBER
~CURVE INFORMATION
#MNEM.UNIT       API CODE    CURVE DESCRIPTION
#----------   ------------   ------------------------------
 DEPT.F                  :   
 SPR .MV     07 010 01 00:   SPONTANEOUS POTENTIAL
 RILM.OHMM   07 120 44 00:   INDUCTION LOG MEDIUM RESISTIVITY
 RILD.OHMM   07 120 46 00:   DEEP INDUCTION RESISTIVITY
 SGRD.OHMM   07 220 05 00:   SHALLOW GUARD LOG RESISTIVITY
 TENR.LBS    07 635 01 00:   TENSION FROM RESISTIVITY
 NPHI.DEC    42 890 03 00:   NEUTRON POROSITY SANDSTONE
 GRD .GAPI   45 310 01 00:   GAMMA RAY FROM DENSITY LOG
 CALD.IN     45 280 60 00:   CALIPER FROM DENSITY LOG
 RHOB.G/C3   45 350 01 00:   BULK DENSITY
 DCOR.G/C3   45 356 01 00:   DENSITY CORRECTION
 TEND.LBS    45 635 01 00:   TENSION FROM DENSITY LOG
~PARAMETER INFORMATION
#MNEM.UNIT          VALUE    DESCRIPTION
#----------   ------------   ------------------------------
 EKB .F         5092.0000:   Kelly bushing
 EGL .F         5082.0000:   Ground level
 EDF .F            0.0000:   Drilling floor
 TD  .F         3013.5000:   Total depth
 DATE.        01-DEC-1979:   Date logged
 CLNT.            A2DTECH:   Client Code
 SL  . 2267' FSL & 1070' FWL:   Surface Location
 PD  .                 GL:   Permanent Datum
 EPD .F              5082:   Elevation Permanent Datum
 LMF .                 KB:   Log Measured From
 DMF .                 KB:   Drilling Measured From
 DAPD.F                10:   Feet Above Permanent Datum
 DD  .F              3000:   Depth driller
 DL  .F            3013.5:   Depth logger
 BLI .F              3013:   Bottom log interval
 TLI .F               350:   Top log interval
 CS1 .IN            8.625:   Casing size
 CBD1.      8.625" @ 465':   Casing driller 1
 CBL1.F               462:   Casing logger 1
 BS1 .IN            7.875:   Bit size
 BSD1.F              3000:   Depth drilled with bit1
 DFT .           CHEM GEL:   Type fluid in hole
 DFD .                8.8:   Density
 DFV .                 55:   Viscosity
 DFPH.                  9:   pH
 DFL .                6.4:   Fluid loss
 MSS .           FLOWLINE:   Source of sample
 RMS .OHMM           1.53:   Rm
 MST .F                75:   Rm Meas. temp.
 RMF .OHMM           1.24:   Rmf
 MFST.F                75:   Rmf Meas. temp.
 RMC .OHMM           1.83:   Rmc
 MCST.F                75:   Rmc Meas. temp.
 MFSS.               MEAS:   Source Rmf.
 MCSS.               MEAS:   Source Rmc.
 RMB .OHMM           1.09:   Rm. at BHT
 BHT .F               105:   BHT.
 TCS .HRS             2.5:   Time Circ. stopped
 MRT .F               105:   Maximum recorded temp.
 LUN .                965:   Logging unit number
 LUL .             CASPER:   Logging unit location
 ENGI.            BENTSEN:   Recorded By
 WITN.           P. AMEND:   Witnessed by
 ORIG.           5" PRINT:   Origin of data
 UWI .     49025107940000:   Unique Well ID
 DICO. A2D TECHNOLOGIES, INC.:   Digitizing Company
~OTHER INFORMATION
~A   DEPT      SPR       RILM       RILD       SGRD       TENR       NPHI         GRD      CALD       RHOB       DCOR       TEND   
# ...
 2457.0000   -35.8520     6.9930     6.7330     8.2540  1085.1930     0.2600    90.7750     7.9040     2.5380    -0.0230  1583.3600
 2457.5000   -36.0440     7.0030     6.6740     8.1200  1085.1930     0.2600    91.0900     7.9060     2.5360    -0.0260  1588.2910
 2458.0000   -36.2320     7.0150     6.6850     8.2960  1085.1930     0.2600    87.1240     7.9070     2.5460    -0.0220  1593.2209
 2458.5000   -36.4040     7.0260     6.7040     8.4800  1085.1930     0.2570    85.8890     7.8980     2.5540    -0.0120  1598.1520
 2459.0000   -36.4430     7.0370     6.7240     8.6690  1085.1930     0.2540    86.9470     7.8880     2.5510    -0.0160  1603.0830
 2459.5000   -36.4860     7.0480     6.7410     8.5400  1085.1930     0.2530    85.3640     7.8790     2.5620    -0.0100  1608.0140
 2460.0000   -36.5310     7.0590     6.7540     8.4070  1085.1930     0.2510    86.0470     7.8690     2.5740    -0.0040  1606.1260
 2460.5000   -36.5750     7.0710     6.7680     8.2730  1085.1930     0.2490    87.4810     7.8600     2.5760    -0.0010  1596.2650
 2461.0000   -36.6190     7.0820     6.7810     8.4300  1085.1930     0.2490    85.7720     7.8500     2.5620    -0.0130  1586.4030
 2461.5000   -36.6630     7.0930     6.7940     8.5900  1085.1930     0.2500    86.0680     7.8500     2.5460    -0.0310  1576.5420
 2462.0000   -36.7070     7.1040     6.8080     8.7500  1085.1930     0.2480    86.9430     7.8520     2.5380    -0.0320  1566.6801
 2462.5000   -36.7510     7.1160     6.8210     8.6590  1085.1930     0.2450    84.7890     7.8550     2.5490    -0.0250  1556.8180
 2463.0000   -36.7920     7.1310     6.8340     8.5680  1085.1930     0.2440    86.6940     7.8580     2.5510    -0.0190  1554.1500
 2463.5000   -36.7480     7.1630     6.8480     8.4770  1085.1930     0.2440    84.5420     7.8600     2.5500    -0.0170  1560.3140
 2464.0000   -36.7010     7.1960     6.8610     8.3630  1085.1930     0.2440    84.1380     7.8630     2.5480    -0.0210  1566.4771
 2464.5000   -36.6550     7.2280     6.9590     8.4650  1085.1930     0.2440    84.5990     7.8660     2.5420    -0.0230  1571.1460
 2465.0000   -36.6080     7.2600     7.0090     8.6510  1085.1930     0.2440    83.6830     7.8640     2.5380    -0.0170  1571.1460
 2465.5000   -36.5620     7.2920     7.0580     8.8320  1085.1930     0.2430    84.5290     7.8500     2.5510    -0.0100  1571.1460
 2466.0000   -36.5150     7.3250     7.0580     8.7820  1085.1930     0.2430    85.6100     7.8370     2.5600    -0.0030  1571.1460
 2466.5000   -36.4680     7.3570     7.0580     8.7330  1085.1930     0.2430    83.8950     7.8320     2.5680     0.0010  1571.1460
 2467.0000   -36.4220     7.3890     7.0580     8.6840  1085.1930     0.2430    84.1500     7.8480     2.5620    -0.0020  1569.9399
 2467.5000   -36.3750     7.4210     7.0000     8.6350  1085.1930     0.2440    83.1410     7.8630     2.5490    -0.0130  1564.7490
 2468.0000   -36.3290     7.4620     6.9300     8.5880  1085.1930     0.2480    83.0810     7.8780     2.5360    -0.0240  1559.5590
 2468.5000   -36.2820     7.3420     6.8630     8.2390  1085.1930     0.2530    84.7480     7.8930     2.5300    -0.0270  1554.3690
 2469.0000   -36.2360     7.1500     6.7010     7.9060  1085.1930     0.2550    87.6540     7.9070     2.5370    -0.0180  1549.1780
 2469.5000   -36.1890     6.9590     6.5460     7.5720  1085.1930     0.2560    90.4450     7.9050     2.5490    -0.0080  1543.9880
 2470.0000   -36.1430     6.7670     6.3910     7.0580  1085.1930     0.2560    91.1410     7.9020     2.5610    -0.0020  1538.7980
 2470.5000   -36.0960     6.5760     6.3120     7.3540  1085.1930     0.2530    92.0000     7.9000     2.5730     0.0080  1533.6071
 2471.0000   -36.0500     6.4980     6.2510     7.8220  1085.1930     0.2520    90.5820     7.8980     2.5800     0.0150  1538.9250
 2471.5000   -36.0010     6.4370     6.1760     7.8220  1085.1930     0.2520    87.5940     7.8960     2.5630     0.0060  1550.7590
 2472.0000   -36.0460     6.3760     6.1050     7.3960  1085.1930     0.2540    88.1630     7.8940     2.5460    -0.0030  1562.5930
 2472.5000   -36.1270     6.3150     6.0350     7.1910  1085.1930     0.2540    89.8960     7.8910     2.5370    -0.0120  1574.4270
 2473.0000   -36.1400     6.2550     5.9640     7.1240  1085.1930     0.2520    89.3600     7.8890     2.5330    -0.0110  1586.2610
 2473.5000   -35.9850     6.1940     5.8930     7.2590  1085.1930     0.2470    89.1360     7.8840     2.5400    -0.0060  1587.5820
 2474.0000   -36.0240     6.1330     5.8010     7.3270  1085.1930     0.2410    90.7830     7.8700     2.5440    -0.0010  1582.1040
 2474.5000   -36.0640     6.0780     5.8470     6.9280  1085.1930     0.2370    89.8220     7.8560     2.5420     0.0050  1576.6250
 2475.0000   -36.1050     6.1820     5.9130     6.9280  1085.1930     0.2330    87.7740     7.8420     2.5510     0.0100  1571.1460
 2475.5000   -36.1460     6.2770     5.9800     7.8640  1085.1930     0.2340    86.7540     7.8280     2.5570     0.0140  1585.2340
 2476.0000   -36.1900     6.3720     6.0460     8.9990  1085.1930     0.2340    83.8210     7.8140     2.5610     0.0080  1599.3220
 2476.5000   -36.1140     6.4660     6.1320     8.5080  1085.1930     0.2330    82.0600     7.8240     2.5560    -0.0060  1613.4110
 2477.0000   -36.0080     6.5610     6.2360     7.9700  1085.1930     0.2300    84.4940     7.8500     2.5560    -0.0080  1627.4990
 2477.5000   -35.9000     6.6560     6.3400     7.8220  1085.1930     0.2280    85.7360     7.8770     2.5530     0.0010  1641.5870
 2478.0000   -35.7920     6.7500     6.4280     8.1200  1085.1930     0.2250    82.9710     7.9030     2.5420    -0.0090  1636.5050
 2478.5000   -35.8790     6.8450     6.5410     8.4290  1085.1930     0.2250    81.2560     7.9290     2.5370    -0.0130  1601.2850
 2479.0000   -35.9810     6.9400     6.6530     8.5080  1085.1930     0.2250    82.6170     7.9360     2.5410    -0.0100  1566.0640
 2479.5000   -36.0830     7.0340     6.7660     8.3510  1085.1930     0.2270    83.7850     7.9050     2.5430    -0.0050  1558.0190
 2480.0000   -36.1860     7.1290     6.8630     8.0440  1085.1930     0.2280    83.5060     7.8740     2.5300    -0.0180  1569.3979
 2480.5000   -36.1900     7.1910     6.8630     7.8950  1085.1930     0.2300    81.8720     7.8510     2.5260    -0.0180  1580.7770
 2481.0000   -36.1900     7.1400     6.8630     8.0110  1085.1930     0.2300    80.8550     7.8720     2.5330    -0.0110  1592.1560
 2481.5000   -36.1900     7.1020     6.8630     8.2930  1085.1930     0.2270    81.4030     7.8930     2.5420    -0.0070  1603.5350
 2482.0000   -36.1870     7.0630     6.8630     8.5880  1085.1930     0.2270    82.2580     7.9150     2.5330    -0.0170  1606.6980
 2482.5000   -36.0640     7.0250     6.8060     8.2730  1085.1930     0.2280    83.4110     7.9360     2.5210    -0.0330  1596.0370
 2483.0000   -35.9310     6.9870     6.7310     8.1960  1085.1930     0.2250    83.7250     7.9440     2.5080    -0.0480  1585.3750
 2483.5000   -35.7990     6.9480     6.6560     8.4290  1085.1930     0.2220    82.4300     7.9400     2.4950    -0.0530  1574.7140
 2484.0000   -35.6680     6.9100     6.5810     8.0440  1085.1930     0.2220    81.4100     7.9350     2.4840    -0.0580  1564.0530
 2484.5000   -35.6010     6.8720     6.4890     8.0440  1085.1930     0.2200    81.3130     7.9300     2.4840    -0.0580  1553.3920
 2485.0000   -35.6500     6.8630     6.5160     7.8220  1085.1930     0.2180    80.1250     7.9260     2.4840    -0.0570  1542.7300
 2485.5000   -35.6960     6.8820     6.5870     8.0670  1085.1930     0.2120    81.3470     7.9210     2.4900    -0.0540  1531.6210
 2486.0000   -35.7430     6.9870     6.6590     8.3170  1085.1930     0.2090    81.3200     7.9160     2.5010    -0.0470  1538.8870
 2486.5000   -35.7910     7.0920     6.7690     8.5670  1085.1930     0.2070    79.5550     7.9110     2.5160    -0.0380  1546.4730
 2487.0000   -35.8380     7.1970     6.9310     8.9150  1085.1930     0.2080    77.8690     7.9070     2.5300    -0.0290  1554.0590
