~VERSION INFORMATION
 VERS.                2.0:   CWLS LOG ASCII STANDARD - VERSION 2.0
 WRAP.                 NO:   ONE LINE PER DEPTH STEP
~WELL INFORMATION
#MNEM.UNIT      DATA TYPE    INFORMATION
#----------   ------------   ------------------------------
 STRT.F          206.0000:   START DEPTH
 STOP.F         3080.5000:   STOP DEPTH
 STEP.F            0.5000:   STEP LENGTH
 NULL.          -999.2500:   NO VALUE
 COMP.    FENIX & SCISSON:   COMPANY
 WELL.   FENIX "A" #61-28:   WELL
 FLD .           N P R #3:   FIELD
 LOC .      S28 T39N R78W:   LOCATION
 CNTY.            NATRONA:   COUNTY
 STAT.            WYOMING:   STATE
 CTRY. UNITED STATES OF AMERICA:   COUNTRY
 SRVC.        SCHLUMBEGER:   SERVICE COMPANY
 DATE.        16-MAY-1977:   LOGDATE
 API .     49025103680000:   API NUMBER
~CURVE INFORMATION
#MNEM.UNIT       API CODE    CURVE DESCRIPTION
#----------   ------------   ------------------------------
 DEPT.F                  :   
 SPR .MV     07 010 01 00:   SPONTANEOUS POTENTIAL
 LL8 .OHMM   07 220 08 00:   LATEROLOG-8 RES.
 ILM .OHMM   07 120 44 00:   INDUCTION LOG MEDIUM RESISTIVITY
 ILD .OHMM   07 120 46 00:   DEEP INDUCTION RESISTIVITY
 CALD.IN     45 280 60 00:   CALIPER FROM DENSITY LOG
 GRD .GAPI   45 310 01 00:   GAMMA RAY FROM DENSITY LOG
 RHOB.G/C3   45 350 01 00:   BULK DENSITY
 CORR.G/C3   45 356 01 00:   DENSITY CORRECTION
~PARAMETER INFORMATION
#MNEM.UNIT          VALUE    DESCRIPTION
#----------   ------------   ------------------------------
 EKB .F         5019.0000:   Kelly bushing
 EGL .F         5009.0000:   Ground level
 EDF .F            0.0000:   Drilling floor
 TD  .F         3050.0000:   Total depth
 DATE.        16-MAY-1977:   Date logged
 CLNT.            A2DTECH:   Client Code
 SL  . 330' FNL & 1650' FEL:   Surface Location
 PD  .                 GL:   Permanent Datum
 DD  .F              3050:   Depth driller
 DL  .F              3079:   Depth logger
 BLI .F              3072:   Bottom log interval
 CS1 .IN            8.625:   Casing size
 CBD1.      8.625" @ 213':   Casing driller 1
 CBL1.F               213:   Casing logger 1
 BS1 .IN            7.875:   Bit size
 DFT .            KCL-MUD:   Type fluid in hole
 DFD .                9.2:   Density
 DFV .                 32:   Viscosity
 DFPH.                  8:   pH
 DFL .                7.6:   Fluid loss
 MSS .              CIRC.:   Source of sample
 RMS .OHMM          0.128:   Rm
 MST .F                62:   Rm Meas. temp.
 RMF .OHMM          0.126:   Rmf
 MFST.F                62:   Rmf Meas. temp.
 RMC .OHMM          0.192:   Rmc
 MCST.F                62:   Rmc Meas. temp.
 MFSS.               MEAS:   Source Rmf.
 RMB .OHMM           0.07:   Rm. at BHT
 BHT .F               112:   BHT.
 TCS .HRS            0900:   Time Circ. stopped
 MRT .F               112:   Maximum recorded temp.
 LUN .               7711:   Logging unit number
 LUL .               CSPR:   Logging unit location
 ENGI.             SAYLER:   Recorded By
 WITN.         PETTINGILL:   Witnessed by
 ORIG.           5" PRINT:   Origin of data
 UWI .     49025103680000:   Unique Well ID
 DICO. A2D TECHNOLOGIES, INC.:   Digitizing Company
 DAPD.                 10:   Feet Above Permanent Datum
 BSD1.               3050:   Depth drilled with bit1
 MCSS.               CALC:   Source Rmc.
 EPD .F              5009:   Elevation Permanent Datum
 LMF .                 KB:   Log Measured From
 DMF .                 KB:   Drilling Measured From
 TLI .F               213:   Top log interval
 TLAB.               1100:   Time logger at bottom
~OTHER INFORMATION
~A   DEPT      SPR        LL8        ILM        ILD       CALD         GRD      RHOB       CORR   
# ...
  773.0000   -52.6030    10.0290    10.5850    10.9030     8.8240   103.4050     2.4980    -0.0010
  773.5000   -52.6000    10.1260    10.5480    10.9030     8.8210   103.9620     2.4990     0.0030
  774.0000   -52.6000    10.0870    10.5110    10.9030     8.8250   105.4040     2.5050     0.0060
  774.5000   -52.6000    10.0390    10.4740    10.9010     8.8300   107.3440     2.5120     0.0070
  775.0000   -52.6000     9.9880    10.4370    10.8630     8.8340   109.6210     2.5180     0.0060
  775.5000   -52.6000     9.9460    10.4000    10.8200     8.8380   111.0140     2.5180     0.0040
  776.0000   -52.6000     9.9450    10.3630    10.7580     8.8420   111.3480     2.5170     0.0040
  776.5000   -52.6000     9.8900    10.3260    10.6850     8.8470   111.7650     2.5210     0.0100
  777.0000   -52.6000     9.8330    10.2890    10.4890     8.8510   112.2210     2.5290     0.0160
  777.5000   -52.6000     9.7770    10.2520    10.5170     8.8550   111.6010     2.5310     0.0090
  778.0000   -52.6000     9.7650    10.2140    10.5100     8.8590   110.3440     2.5170     0.0020
  778.5000   -52.6000     9.7190    10.1770    10.5100     8.8630   109.0900     2.5070    -0.0050
  779.0000   -52.6000     9.6390    10.1400    10.5100     8.8680   108.7010     2.5010     0.0000
  779.5000   -52.6000     9.5590    10.1030    10.5100     8.8720   108.6770     2.4960     0.0000
  780.0000   -52.6000     9.4790    10.0660    10.4490     8.8760   109.4780     2.4960    -0.0020
  780.5000   -52.6000     9.4120    10.0290    10.3180     8.8760   110.7980     2.5010     0.0030
  781.0000   -52.6000     9.2410     9.9920    10.3300     8.8720   112.2260     2.4980     0.0060
  781.5000   -52.6000     9.2740     9.9460    10.3640     8.8670   112.5450     2.4950     0.0030
  782.0000   -52.6000     9.3360     9.9510    10.4000     8.8620   113.0710     2.4920    -0.0010
  782.5000   -52.6000     9.3980     9.9670    10.4320     8.8580   113.7290     2.4970     0.0000
  783.0000   -52.6000     9.4590     9.9830    10.4660     8.8550   114.0470     2.5030     0.0040
  783.5000   -52.6000     9.5210     9.9990    10.5010     8.8510   114.1520     2.5040     0.0070
  784.0000   -52.6000     9.5870    10.0150    10.5110     8.8480   113.2620     2.5030     0.0060
  784.5000   -52.6000     9.5870    10.0300    10.5340     8.8450   111.9140     2.4980     0.0010
  785.0000   -52.6000     9.5870    10.0460    10.5580     8.8410   110.5730     2.4930    -0.0020
  785.5000   -52.6000     9.5870    10.0620    10.5840     8.8380   109.2200     2.4990     0.0020
  786.0000   -52.6000     9.5870    10.0780    10.6100     8.8350   108.1480     2.5060     0.0050
  786.5000   -52.5990     9.5870    10.0930    10.6350     8.8320   108.9860     2.5120     0.0070
  787.0000   -52.6020     9.5870    10.1090    10.6610     8.8280   109.5840     2.5110     0.0040
  787.5000   -52.5750     9.4310    10.1280    10.6860     8.8250   108.9990     2.5040     0.0010
  788.0000   -52.5170     9.2410    10.1100    10.7030     8.8220   108.5250     2.4970    -0.0030
  788.5000   -52.4640     9.2940    10.0770    10.5940     8.8190   109.7320     2.4900    -0.0030
  789.0000   -52.4090     9.4030    10.0450    10.5080     8.8210   110.7230     2.4880     0.0010
  789.5000   -52.3540     9.5120    10.0140    10.5090     8.8240   110.7950     2.5000     0.0060
  790.0000   -52.3000     9.6200     9.9820    10.5090     8.8260   109.3350     2.5090     0.0110
  790.5000   -52.2450     9.7650     9.9510    10.4440     8.8290   107.3010     2.5150     0.0120
  791.0000   -52.1910     9.7050     9.9190    10.3710     8.8310   105.4980     2.5120     0.0060
  791.5000   -52.1360     9.4880     9.8880    10.2970     8.8330   104.4210     2.5070     0.0090
  792.0000   -52.0820     9.2410     9.8560    10.2230     8.8360   104.7790     2.5070     0.0150
  792.5000   -52.0270     9.2410     9.8250    10.1490     8.8380   105.8180     2.5070     0.0150
  793.0000   -51.9730     9.0720     9.7940    10.0750     8.8330   108.3510     2.5040     0.0090
  793.5000   -51.9180     9.0720     9.7620    10.0010     8.8270   111.1670     2.5000     0.0040
  794.0000   -51.8630     9.0850     9.7310     9.9460     8.8200   113.0250     2.4950    -0.0010
  794.5000   -51.8090     9.0970     9.6990     9.9460     8.8450   112.8210     2.4910    -0.0020
  795.0000   -51.7540     9.1090     9.6680     9.9460     8.8840   111.3180     2.4880    -0.0010
  795.5000   -51.7000     9.1210     9.6360     9.9460     8.9230   109.9010     2.4940     0.0010
  796.0000   -51.6450     9.1330     9.6050     9.9460     8.9540   109.0940     2.4930     0.0040
  796.5000   -51.5910     9.1450     9.5870     9.9460     8.8650   110.1870     2.4980     0.0070
  797.0000   -51.5360     9.1570     9.5870     9.9460     8.8180   111.2720     2.5070     0.0090
  797.5000   -51.4820     9.1690     9.5870     9.9460     8.8150   112.2290     2.5030     0.0030
  798.0000   -51.4270     9.1810     9.5870     9.9460     8.8130   112.0840     2.4970    -0.0030
  798.5000   -51.3730     9.1920     9.5870     9.9460     8.8100   112.8440     2.4900     0.0010
  799.0000   -51.3180     9.2050     9.5870     9.9460     8.8080   113.6290     2.4970     0.0030
  799.5000   -51.2630     9.2170     9.5870     9.9460     8.8050   113.5330     2.5010     0.0000
  800.0000   -51.2090     9.2280     9.5870     9.9460     8.8030   113.5860     2.4910    -0.0020
  800.5000   -51.1540     9.2400     9.5870     9.9460     8.8000   114.1320     2.4830    -0.0050
  801.0000   -51.1000     9.2410     9.5870     9.9460     8.7990   114.6670     2.4910     0.0020
  801.5000   -51.0450     9.2410     9.5870     9.9460     8.7990   115.2150     2.5010     0.0090
  802.0000   -50.9910     9.2400     9.5870     9.9460     8.7990   114.7390     2.5080     0.0060
  802.5000   -50.9360     9.2420     9.5860     9.9460     8.7990   115.0130     2.5050     0.0020
  803.0000   -50.8820     9.2260     9.5950     9.9460     8.7990   116.0780     2.5020    -0.0010
  803.5000   -50.8270     9.1930     9.6130     9.9460     8.7990   116.8270     2.4990    -0.0040
  804.0000   -50.7730     9.1610     9.6310     9.9450     8.7990   117.6580     2.4980    -0.0040
  804.5000   -50.7180     9.1290     9.6480     9.9430     8.7990   118.9150     2.5000    -0.0010
  805.0000   -50.6630     9.0990     9.6660     9.9470     8.7990   119.9810     2.4970     0.0020
  805.5000   -50.6090     9.0680     9.6830    10.0200     8.7990   118.9230     2.4960     0.0000
  806.0000   -50.5540     9.0770     9.7010    10.0900     8.7990   116.2000     2.4950    -0.0050
  806.5000   -50.5000     9.2470     9.7180    10.1590     8.7990   113.5950     2.4930    -0.0070
  807.0000   -50.4450     9.4120     9.7350    10.2290     8.7990   111.1650     2.4910    -0.0080
  807.5000   -50.3910     9.5850     9.7600    10.3000     8.7990   110.3010     2.4840    -0.0080
  808.0000   -50.3360     9.7650     9.7330    10.2240     8.7990   110.7600     2.4890    -0.0020
  808.5000   -50.2820     9.5350     9.6350    10.1010     8.7990   111.2170     2.5010     0.0050
  809.0000   -50.2270     9.2920     9.5380     9.9770     8.7990   109.6280     2.5100     0.0070
  809.5000   -50.1800     9.0720     9.4410     9.8530     8.7990   107.7280     2.5100     0.0070
  810.0000   -50.1410     9.0720     9.4120     9.7710     8.7990   108.3430     2.5130     0.0080
  810.5000   -50.1010     9.0830     9.4120     9.7950     8.7990   110.3640     2.5160     0.0100
  811.0000   -50.0620     9.1060     9.4120     9.8180     8.7990   112.2780     2.5180     0.0120
  811.5000   -50.0230     9.1290     9.4120     9.8420     8.7990   113.3170     2.5270     0.0130
  812.0000   -49.9830     9.1520     9.4120     9.8650     8.8000   111.9170     2.5250     0.0120
  812.5000   -49.9440     9.1750     9.4120     9.8890     8.8320   112.2740     2.5210     0.0100
  813.0000   -49.9050     9.1980     9.4120     9.9120     8.8630   112.2600     2.5260     0.0100
