~VERSION INFORMATION
 VERS.                2.0:   CWLS LOG ASCII STANDARD - VERSION 2.0
 WRAP.                 NO:   ONE LINE PER DEPTH STEP
~WELL INFORMATION
#MNEM.UNIT      DATA TYPE    INFORMATION
#----------   ------------   ------------------------------
 STRT.F          200.0000:   START DEPTH
 STOP.F         3080.0000:   STOP DEPTH
 STEP.F            0.5000:   STEP LENGTH
 NULL.          -999.2500:   NO VALUE
 COMP.    FENIX & SCISSON:   COMPANY
 WELL. FENIX NPR 3 "AX" #55-33:   WELL
 FLD .        TEAPOT DOME:   FIELD
 LOC .      S33 T38N R78W:   LOCATION
 CNTY.            NATRONA:   COUNTY
 STAT.            WYOMING:   STATE
 CTRY. UNITED STATES OF AMERICA:   COUNTRY
 SRVC.           BIRDWELL:   SERVICE COMPANY
 DATE.        08-FEB-1978:   LOGDATE
 API .     49025105740000:   API NUMBER
~CURVE INFORMATION
#MNEM.UNIT       API CODE    CURVE DESCRIPTION
#----------   ------------   ------------------------------
 DEPT.F                  :   
 CALD.IN     45 280 60 00:   CALIPER FROM DENSITY LOG
 GRD .GAPI   45 310 01 00:   GAMMA RAY FROM DENSITY LOG
 RHOB.G/C3   45 350 01 00:   BULK DENSITY
 CORR.G/C3   45 356 01 00:   DENSITY CORRECTION
 NPOR.DEC    42 890 03 00:   ALPHA PROCESSED NEUTRON POROSITY
 SPR .MV     05 010 01 00:   SPONTANEOUS POTENTIAL
 SN  .OHMM   05 040 16 00:   SHORT NORMAL 16"
 ILD .OHMM   05 120 46 00:   DEEP INDUCTION RESISTIVITY
~PARAMETER INFORMATION
#MNEM.UNIT          VALUE    DESCRIPTION
#----------   ------------   ------------------------------
 EKB .F         5197.0000:   Kelly bushing
 EGL .F         5187.0000:   Ground level
 EDF .F            0.0000:   Drilling floor
 TD  .F         3084.0000:   Total depth
 DATE.        08-FEB-1978:   Date logged
 CLNT.            A2DTECH:   Client Code
 SL  . 2000' FSL & 2310' FEL:   Surface Location
 PD  .                 GL:   Permanent Datum
 EPD .F              5187:   Elevation Permanent Datum
 LMF .                 KB:   Log Measured From
 DMF .                 KB:   Drilling Measured From
 DAPD.F                10:   Feet Above Permanent Datum
 DD  .F              3084:   Depth driller
 DL  .F              3080:   Depth logger
 BLI .F              3074:   Bottom log interval
 TLI .F               200:   Top log interval
 CS1 .IN            8.625:   Casing size
 CBD1.      8.625" @ 229':   Casing driller 1
 CBL1.F               230:   Casing logger 1
 BS1 .IN            7.875:   Bit size
 BSD1.F              3084:   Depth drilled with bit1
 DFT .     LIGNOSULFONATE:   Type fluid in hole
 DFD .                9.2:   Density
 DFV .                 30:   Viscosity
 DFPH.                  9:   pH
 DFL .                  5:   Fluid loss
 MSS .           FLOWLINE:   Source of sample
 RMS .OHMM            1.5:   Rm
 MST .F                62:   Rm Meas. temp.
 RMF .OHMM            1.2:   Rmf
 MFST.F                66:   Rmf Meas. temp.
 RMC .OHMM            2.8:   Rmc
 MCST.F                65:   Rmc Meas. temp.
 MFSS.               MEAS:   Source Rmf.
 RMB .OHMM            .82:   Rm. at BHT
 BHT .F               114:   BHT.
 TCS .HRS               3:   Time Circ. stopped
 MRT .F               114:   Maximum recorded temp.
 LUN .               2958:   Logging unit number
 LUL .               CASP:   Logging unit location
 ENGI.            POINTER:   Recorded By
 WITN.         HARRINGTON:   Witnessed by
 ORIG.           5" PRINT:   Origin of data
 UWI .     49025105740000:   Unique Well ID
 DICO. A2D TECHNOLOGIES, INC.:   Digitizing Company
~OTHER INFORMATION
~A   DEPT       CALD      GRD       RHOB        CORR      NPOR        SPR         SN        ILD   
# ...
 2306.0000     9.2412   105.0379     2.5352     0.1189  -999.2500   -45.6903     6.2364     4.8819
 2306.5000     9.2613   102.2679     2.5172     0.1249  -999.2500   -45.8869     6.5303     4.9276
 2307.0000     9.2615   103.0633     2.5022     0.0829  -999.2500   -46.2825     6.5914     4.9282
 2307.5000     9.2619   108.2166     2.5092     0.0789  -999.2500   -46.8759     6.9020     4.9288
 2308.0000     9.2621   110.3982     2.5243     0.0870  -999.2500   -47.0724     7.0308     4.9751
 2308.5000     9.2624   106.8363     2.5373     0.0830  -999.2500   -47.4676     7.0317     5.1622
 2309.0000     9.2627   103.6698     2.5103     0.0790  -999.2500   -47.8627     6.9682     5.3075
 2309.5000     9.2630   100.1071     2.5143     0.0770  -999.2500   -48.0592     6.9053     5.3572
 2310.0000     9.2633    96.5442     2.5243     0.0811  -999.2500   -48.0571     6.9061     5.4074
 2310.5000     9.2635    93.1792     2.5353     0.0811  -999.2500   -48.0550     6.9068     5.3093
 2311.0000     9.2638    93.5783     2.5253     0.0791  -999.2500   -48.4500     6.8444     5.1652
 2311.5000     9.2641   100.7134     2.5244     0.0771  -999.2500   -48.4483     6.6592     5.0715
 2312.0000     9.2643   106.0651     2.5364     0.0812  -999.2500   -48.4462     6.9093     5.0721
 2312.5000     9.2646   108.0495     2.5354     0.0872  -999.2500   -48.4441     6.9739     5.1195
 2313.0000     9.2649   104.8826     2.5054     0.0692  -999.2500   -48.6406     6.9747     5.1675
 2313.5000     9.2652    99.3386     2.5034     0.0492  -999.2500   -48.6385     7.0399     5.2642
 2314.0000     9.2655    98.7471     2.5045     0.0472  -999.2500   -47.8421     7.0408     5.2648
 2314.5000     9.2658    99.5427     2.5056     0.0513  -999.2500   -48.0386     7.0416     5.2654
 2315.0000     9.2661   100.7339     2.5065     0.0573  -999.2500   -48.2350     6.9142     5.2660
 2315.5000     9.2663   101.7277     2.5075     0.0633  -999.2500   -48.2330     6.6046     5.2183
 2316.0000     9.2666   101.9289     2.4895     0.0653  -999.2500   -48.2309     6.0255     4.9382
 2316.5000     9.2669   101.7338     2.4865     0.0674  -999.2500   -48.2292     5.9165     4.6732
 2317.0000     9.2672   100.7460     2.4805     0.0734  -999.2500   -48.0285     5.7561     4.4223
 2317.5000     9.2675   100.3527     2.4825     0.0774  -999.2500   -48.0264     5.6520     4.3822
 2318.0000     9.2678    98.7703     2.4975     0.0935  -999.2500   -48.2229     5.7048     4.3827
 2318.5000     9.2681    97.5843     2.5176     0.0975  -999.2500   -48.2208     5.9191     4.3832
 2319.0000     9.2881    96.0018     2.5206     0.0955  -999.2500   -48.2186     5.9744     4.4587
 2319.5000     9.2885    92.0428     2.5236     0.0815  -999.2500   -48.2165     6.0303     4.4594
 2320.0000     9.2887    92.6374     2.5276     0.0795  -999.2500   -48.2144     6.4911     4.5012
 2320.5000     9.2889    94.0270     2.5066     0.0816  -999.2500   -48.0138     6.5518     4.3793
 2321.0000     9.2694   100.9683     2.5066     0.0896  -999.2500   -48.0122     5.9773     4.2997
 2321.5000     9.2697   104.1425     2.4976     0.1016  -999.2500   -48.2086     5.2563     4.0692
 2322.0000     9.2700   106.5246     2.5167     0.1137  -999.2500   -48.4049     4.5381     3.8510
 2322.5000     9.2901   102.3648     2.5047     0.1317  -999.2500   -49.3953     4.3348     3.6446
 2323.0000     9.2904    97.4126     2.4727     0.1137  -999.2500   -49.5916     4.0280     3.4811
 2323.5000     9.2907    92.6585     2.5237     0.1037  -999.2500   -49.5895     3.9551     3.3556
 2324.0000     9.2711    90.8774     2.4817     0.1278  -999.2500   -49.7858     4.1415     3.2646
 2324.5000     9.2516    88.1051     2.4797     0.0978  -999.2500   -49.5852     4.1041     3.1760
 2325.0000     9.2519    86.9186     2.4918     0.0998  -999.2500   -48.5908     4.0669     3.1473
 2325.5000     9.2719    92.6699     2.4848     0.1078  -999.2500   -48.3902     4.2586     3.1188
 2326.0000     9.2525    94.6551     2.4698     0.1098  -999.2500   -48.3881     4.2202     3.1191
 2326.5000     9.2527    94.8562     2.4818     0.1159  -999.2500   -48.1880     3.7801     3.1195
 2327.0000     9.2530    96.0485     2.4908     0.1379  -999.2500   -48.1859     3.9946     3.0912
 2327.5000     9.2533    98.4316     2.4778     0.1519  -999.2500   -47.9853     4.0692     3.0915
 2328.0000     9.2338    98.4328     2.5068     0.1640  -999.2500   -47.3879     4.0697     3.0918
 2328.5000     9.2539    97.8410     2.5399     0.1740  -999.2500   -47.3858     4.1077     3.0922
 2329.0000     9.2541   100.0247     2.5369     0.1560  -999.2500   -47.1853     4.1461     3.1500
 2329.5000     9.2545   103.1999     2.5359     0.1400  -999.2500   -47.1832     4.3816     3.2987
 2330.0000     9.2547   106.3752     2.5409     0.1300  -999.2500   -47.5596     5.0299     3.3601
 2330.5000     9.2549   107.1707     2.5129     0.1281  -999.2500   -48.3512     5.0769     3.9665
 2331.0000     9.2553   107.1739     2.5139     0.0641  -999.2500   -48.3491     5.1717     4.0404
 2331.5000     9.2555   107.1770     2.5280     0.0621  -999.2500   -48.1490     5.8288     4.1159
 2332.0000     9.2360   106.3871     2.5450     0.0761  -999.2500   -48.9405     6.3321     4.2315
 2332.5000     9.2561   105.5971     2.5580     0.0801  -999.2500   -48.9384     6.4504     4.9493
 2333.0000     9.2365   102.4282     2.5720     0.0842  -999.2500   -48.7562     6.6315     4.9496
 2333.5000     9.2567   102.2330     2.5780     0.0822  -999.2500   -49.5477     6.8807     5.0887
 2334.0000     9.2371   102.8303     2.5630     0.0662  -999.2500   -49.3472     7.2052     5.3290
 2334.5000     9.2573   102.6350     2.5601     0.0642  -999.2500   -49.3450     7.4760     5.3296
 2335.0000     9.2575   102.2415     2.5641     0.0663  -999.2500   -48.7478     7.4769     5.3303
 2335.5000     9.2380   102.6411     2.5621     0.0763  -999.2500   -49.1424     7.4776     5.3309
 2336.0000     9.2383   105.0239     2.5571     0.0803  -999.2500   -48.5452     7.4785     5.3808
 2336.5000     9.2385   105.2253     2.5601     0.0823  -999.2500   -48.5435     7.4794     5.3814
 2337.0000     9.2587   105.8234     2.5691     0.0904  -999.2500   -48.7398     7.5494     5.3327
 2337.5000     9.2391   108.0081     2.5271     0.0684  -999.2500   -47.9251     7.5503     5.2847
 2338.0000     9.2394   109.2012     2.5161     0.0504  -999.2500   -48.7172     7.8341     5.4330
 2338.5000     9.2595   108.6075     2.5202     0.0504  -999.2500   -49.7068     8.1286     5.6896
 2339.0000     9.2472    99.0943     2.5262     0.0525  -999.2500   -48.5330     8.8309     6.0135
 2339.5000     9.2403    98.6988     2.5272     0.0525  -999.2500   -48.3325     9.1626     6.3556
 2340.0000     9.2604    99.2968     2.5352     0.0545  -999.2500   -48.1321     9.5948     6.7269
 2340.5000     9.2606    99.4964     2.5322     0.0525  -999.2500   -48.1300    10.3284     7.1198
 2341.0000     9.2609   100.0962     2.5192     0.0466  -999.2500   -47.9300    11.0164     7.5357
 2341.5000     9.2413   101.6860     2.5192     0.0446  -999.2500   -47.9279    11.3259     7.7154
 2342.0000     9.2416   102.6809     2.5183     0.0406  -999.2500   -47.9258    11.4320     8.2297
 2342.5000     9.2617   102.6839     2.5183     0.0366  -999.2500   -47.9237    11.4331     8.5395
 2343.0000     9.2422   101.6951     2.5193     0.0337  -999.2500   -47.7233    11.5402     8.7798
 2343.5000     9.2623    95.9455     2.5213     0.0327  -999.2500   -47.5229    11.5417     8.7806
 2344.0000     9.2428    92.3777     2.5293     0.0387  -999.2500   -48.3140    11.5431     8.9452
 2344.5000     9.2431    92.3805     2.5393     0.0427  -999.2500   -48.7085    11.5446     8.9460
 2345.0000     9.2433    92.3834     2.5314     0.0467  -999.2500   -48.9047    11.5461     8.9471
 2345.5000     9.2833    92.7830     2.5304     0.0488  -999.2500   -48.9026    11.5475     8.9482
 2346.0000     9.2637    96.5552     2.5324     0.0568  -999.2500   -48.7022    11.4433     8.9494
