~VERSION INFORMATION
 VERS.                2.0:   CWLS LOG ASCII STANDARD - VERSION 2.0
 WRAP.                 NO:   ONE LINE PER DEPTH STEP
~WELL INFORMATION
#MNEM.UNIT      DATA TYPE    INFORMATION
#----------   ------------   ------------------------------
 STRT.F          243.5000:   START DEPTH
 STOP.F         2836.0000:   STOP DEPTH
 STEP.F            0.5000:   STEP LENGTH
 NULL.          -999.2500:   NO VALUE
 COMP. FENIX & SCISSON U. S. NAVY:   COMPANY
 WELL.   FENIX "A" #86-20:   WELL
 FLD .             NPR #3:   FIELD
 LOC .      S20 T39N R78W:   LOCATION
 CNTY.            NATRONA:   COUNTY
 STAT.            WYOMING:   STATE
 CTRY. UNITED STATES OF AMERICA:   COUNTRY
 SRVC.       SCHLUMBERGER:   SERVICE COMPANY
 DATE.        22-MAR-1977:   LOGDATE
 API .     49025103130000:   API NUMBER
~CURVE INFORMATION
#MNEM.UNIT       API CODE    CURVE DESCRIPTION
#----------   ------------   ------------------------------
 DEPT.F                  :   
 SPR .MV     07 010 01 00:   SPONTANEOUS POTENTIAL
 ILD .OHMM   07 120 46 00:   DEEP INDUCTION RESISTIVITY
 ILM .OHMM   07 120 44 00:   INDUCTION LOG MEDIUM RESISTIVITY
 LL8 .OHMM   07 220 08 00:   LATEROLOG-8 RES.
 CALD.IN     45 280 60 00:   CALIPER FROM DENSITY LOG
 GRD .GAPI   45 310 01 00:   GAMMA RAY FROM DENSITY LOG
 RHOB.G/C3   45 350 01 00:   BULK DENSITY
 CORR.G/C3   45 356 01 00:   DENSITY CORRECTION
~PARAMETER INFORMATION
#MNEM.UNIT          VALUE    DESCRIPTION
#----------   ------------   ------------------------------
 EKB .F         5005.0000:   Kelly bushing
 EGL .F         4994.0000:   Ground level
 EDF .F            0.0000:   Drilling floor
 TD  .F         2836.0000:   Total depth
 DATE.        22-MAR-1977:   Date logged
 CLNT.            A2DTECH:   Client Code
 SL  . 330' FEL & 1650' FSL:   Surface Location
 PD  .                 GL:   Permanent Datum
 EPD .F              5005:   Elevation Permanent Datum
 LMF .                 KB:   Log Measured From
 DMF .                 KB:   Drilling Measured From
 DD  .F              2835:   Depth driller
 DL  .F              2836:   Depth logger
 BLI .F              2826:   Bottom log interval
 TLI .F               259:   Top log interval
 CBD1.      8.625" @ 258':   Casing driller 1
 CBL1.F               259:   Casing logger 1
 BS1 .IN            7.875:   Bit size
 DFT .                KCL:   Type fluid in hole
 DFD .                9.1:   Density
 DFV .                 35:   Viscosity
 DFPH.                  9:   pH
 DFL .                8.6:   Fluid loss
 MSS .              CIRC.:   Source of sample
 RMS .OHMM           0.22:   Rm
 MST .F                60:   Rm Meas. temp.
 RMF .OHMM           0.18:   Rmf
 MFST.F                60:   Rmf Meas. temp.
 RMC .OHMM           0.33:   Rmc
 MCST.F                60:   Rmc Meas. temp.
 MFSS.               MEAS:   Source Rmf.
 RMB .OHMM           0.12:   Rm. at BHT
 BHT .F               110:   BHT.
 TCS .HRS            0900:   Time Circ. stopped
 MRT .F               110:   Maximum recorded temp.
 LUN .               7980:   Logging unit number
 LUL .               CSPR:   Logging unit location
 ENGI.                FIX:   Recorded By
 WITN.               JAPP:   Witnessed by
 ORIG.           5" PRINT:   Origin of data
 UWI .     49025103130000:   Unique Well ID
 DICO. A2D TECHNOLOGIES, INC.:   Digitizing Company
 DAPD.                 11:   Feet Above Permanent Datum
 CS1 .              8.625:   Casing size
 BSD1.               2835:   Depth drilled with bit1
 MCSS.               CACL:   Source Rmc.
 TLAB.               1630:   Time logger at bottom
~OTHER INFORMATION
~A   DEPT      SPR        ILD        ILM        LL8       CALD         GRD      RHOB       CORR   
# ...
 2471.0000   -48.3600     8.3470     8.5180    23.0600     8.3780   136.6310     2.5360     0.0280
 2471.5000   -48.4720     7.8370     7.8220    18.0820     8.3800   133.4350     2.5360     0.0350
 2472.0000   -48.5990     7.3260     7.1260    14.3570     8.3830   142.5200     2.5300     0.0230
 2472.5000   -48.7190     6.8150     6.6780    10.6690     8.3860   148.3850     2.5190     0.0190
 2473.0000   -48.8400     6.3050     6.3740     8.9390     8.3880   148.8820     2.5140     0.0220
 2473.5000   -48.9630     5.7940     6.0500     8.4630     8.3910   149.0950     2.5160     0.0130
 2474.0000   -49.0840     5.2840     5.7250     8.1600     8.3940   148.4640     2.5130     0.0260
 2474.5000   -49.2060     5.1230     5.4010     7.9410     8.3960   147.7070     2.5710     0.0600
 2475.0000   -49.3270     4.9920     5.2220     7.8680     8.3990   147.4710     2.5580     0.0470
 2475.5000   -49.4490     4.8610     5.0810     8.3100     8.4010   146.1890     2.5530     0.0470
 2476.0000   -49.5720     4.7230     4.9830     8.0890     8.4040   141.8070     2.5650     0.0430
 2476.5000   -49.6920     4.7230     4.8850     7.7280     8.4070   143.5700     2.5300     0.0310
 2477.0000   -49.8150     4.7050     4.8100     7.4500     8.4090   145.0140     2.5190     0.0250
 2477.5000   -49.9380     4.6870     4.7230     7.7260     8.4120   145.9400     2.5250     0.0210
 2478.0000   -50.0520     4.6690     4.7390     7.4840     8.4150   146.0280     2.5070     0.0280
 2478.5000   -50.2050     4.6510     4.7630     7.0680     8.4170   143.8710     2.5350     0.0350
 2479.0000   -50.0300     4.6380     4.7880     6.8010     8.4200   145.0630     2.5320     0.0470
 2479.5000   -49.5960     4.6380     4.8100     6.8010     8.4190   145.5430     2.5480     0.0510
 2480.0000   -49.1750     4.6380     4.8100     6.8430     8.4150   145.1510     2.5520     0.0370
 2480.5000   -48.7550     4.8350     5.1190     6.8820     8.4100   142.6580     2.5380     0.0300
 2481.0000   -48.3320     5.0810     5.3660     6.9260     8.4060   141.5570     2.5720     0.0510
 2481.5000   -47.9100     5.4840     5.8850     8.4630     8.4020   143.3640     2.5590     0.0550
 2482.0000   -47.4870     6.1040     6.4640    13.8740     8.3980   128.6380     2.5360     0.0410
 2482.5000   -47.0690     6.7240     7.0430    18.3440     8.3940   123.9800     2.5140     0.0270
 2483.0000   -46.6370     7.3440     7.6220    17.8670     8.3900   120.8530     2.4970     0.0190
 2483.5000   -46.2260     7.9640     8.2000    17.8670     8.3860   120.6130     2.4950     0.0180
 2484.0000   -45.8600     8.6190     8.7790    18.5300     8.3810   121.2340     2.5100     0.0280
 2484.5000   -46.0440     9.1080     9.2710    16.9160     8.3770   124.2600     2.5130     0.0230
 2485.0000   -46.2210     9.4410     9.4410    17.2270     8.3730   126.6600     2.5050     0.0170
 2485.5000   -46.4220     9.4410     9.4410    16.9160     8.3690   124.8640     2.5120     0.0220
 2486.0000   -46.6120     9.2420     9.4410    16.0160     8.3650   127.4650     2.5180     0.0200
 2486.5000   -46.8030     8.9830     9.4410    16.0160     8.3620   127.1270     2.5230     0.0180
 2487.0000   -46.9960     8.7240     9.4410    19.5710     8.3640   124.5320     2.5080     0.0150
 2487.5000   -47.1870     8.4650     9.4410    19.2210     8.3660   122.3890     2.4840     0.0110
 2488.0000   -47.3780     8.1600     8.9600    17.5380     8.3680   121.6860     2.4740     0.0100
 2488.5000   -47.5720     7.9410     8.3600    15.8760     8.3700   122.4160     2.4840     0.0090
 2489.0000   -47.7620     7.5830     7.8930    14.2130     8.3730   123.9660     2.4740     0.0250
 2489.5000   -48.0650     7.2510     7.6090    12.6380     8.3750   125.4800     2.5220     0.0280
 2490.0000   -48.4200     6.9720     7.3250    11.1430     8.3770   126.5370     2.5150     0.0310
 2490.5000   -48.7720     6.6930     7.0410     9.6150     8.3790   126.9830     2.5240     0.0500
 2491.0000   -49.1210     6.4140     6.7570     9.4410     8.3810   126.9770     2.5190     0.0360
 2491.5000   -49.4800     6.0960     6.4720     9.5570     8.3830   126.9750     2.5400     0.0490
 2492.0000   -49.8210     6.0960     6.2080     9.6150     8.3850   126.9720     2.5410     0.0440
 2492.5000   -50.1780     6.1770     6.2080     9.2710     8.3870   126.9830     2.5490     0.0390
 2493.0000   -50.2110     6.4670     6.2080     9.4410     8.3890   127.2810     2.5480     0.0340
 2493.5000   -50.2360     6.8010     6.7730    11.2150     8.3910   128.5740     2.5440     0.0280
 2494.0000   -50.2460     7.2010     7.2910    12.8470     8.3940   129.2760     2.5610     0.0300
 2494.5000   -50.2650     7.6470     7.8100    14.6210     8.3960   127.9430     2.5830     0.0410
 2495.0000   -50.2820     8.0930     8.3290    13.5930     8.3980   126.9180     2.5790     0.0500
 2495.5000   -50.2970     8.5390     8.8480    13.8430     8.4000   124.8810     2.5930     0.0490
 2496.0000   -50.3140     8.9860     9.3670    27.1700     8.3950   124.2840     2.6050     0.0370
 2496.5000   -50.3300     9.4320     9.8860    25.5700     8.3500   124.5800     2.6170     0.0490
 2497.0000   -50.3470     9.8780    10.4040    20.8810     8.3220   121.9530     2.6270     0.0690
 2497.5000   -50.3640    10.3420    10.7260    17.5440     8.3240   122.4980     2.5990     0.0600
 2498.0000   -50.3800    10.1550    10.7260    17.2270     8.3260   121.3050     2.5690     0.0430
 2498.5000   -50.3970     9.9020    10.5610    17.2270     8.3280   118.7200     2.5740     0.0330
 2499.0000   -50.4140     9.6860    10.3470    17.2270     8.3300   116.2040     2.5620     0.0320
 2499.5000   -50.4300     9.4690    10.1330    15.5770     8.3320   114.6930     2.5680     0.0360
 2500.0000   -50.4470     9.2520     9.9190    14.1820     8.3340   113.9570     2.5760     0.0410
 2500.5000   -50.4630     9.0360     9.7050    12.8700     8.3360   113.1180     2.5630     0.0330
 2501.0000   -50.4800     8.7770     9.4910    13.4350     8.3380   111.6330     2.5380     0.0180
 2501.5000   -50.4970     8.7770     9.2770    14.3570     8.3400   111.8830     2.5470     0.0310
 2502.0000   -50.5130     8.7770     9.0630    14.5680     8.3410   113.8390     2.5490     0.0230
 2502.5000   -50.5300     8.7770     8.9390    14.9120     8.3430   114.9660     2.5560     0.0310
 2503.0000   -50.5470     8.7770     8.9790    15.2560     8.3450   113.7470     2.5690     0.0390
 2503.5000   -50.5620     8.7770     9.1590    15.5990     8.3470   111.9240     2.5780     0.0340
 2504.0000   -50.5800     8.7570     9.3390    16.0160     8.3490   114.0800     2.5600     0.0250
 2504.5000   -50.6000     8.6660     9.4410    15.5640     8.3510   115.6090     2.5450     0.0180
 2505.0000   -50.6820     8.5760     9.2100    14.3570     8.3530   115.1740     2.5490     0.0300
 2505.5000   -50.7600     8.4860     8.9870    12.6280     8.3550   125.6480     2.5450     0.0240
 2506.0000   -50.8410     8.3960     8.7640     9.4410     8.3570   129.5660     2.5390     0.0250
 2506.5000   -50.9210     8.3100     8.5410    10.5980     8.3590   129.1680     2.5450     0.0320
 2507.0000   -51.0010     8.1600     8.3100    13.1690     8.3610   116.3710     2.5510     0.0300
 2507.5000   -51.0820     8.1600     8.3100    16.6110     8.3560   120.2440     2.5600     0.0280
 2508.0000   -51.1600     8.1600     8.3100    15.6590     8.3470   123.3120     2.5700     0.0370
 2508.5000   -51.2440     8.1600     8.4120    14.6210     8.3380   126.3810     2.5670     0.0300
 2509.0000   -51.3210     8.4310     8.6300    14.3570     8.3290   129.1370     2.5760     0.0360
 2509.5000   -51.3790     8.6840     8.8490    14.3570     8.3200   124.1360     2.5450     0.0170
 2510.0000   -51.2630     8.9380     9.0670    14.3570     8.3110   122.3790     2.5440     0.0170
 2510.5000   -51.1620     9.1910     9.2850    14.3570     8.3020   115.0040     2.5530     0.0300
 2511.0000   -51.0510     9.2710     9.6150    14.7090     8.2930   117.2710     2.5600     0.0300
