~VERSION INFORMATION
 VERS.                2.0:   CWLS LOG ASCII STANDARD - VERSION 2.0
 WRAP.                 NO:   ONE LINE PER DEPTH STEP
~WELL INFORMATION
#MNEM.UNIT      DATA TYPE    INFORMATION
#----------   ------------   ------------------------------
 STRT.F          600.0000:   START DEPTH
 STOP.F         3201.0000:   STOP DEPTH
 STEP.F            0.5000:   STEP LENGTH
 NULL.          -999.2500:   NO VALUE
 COMP.    FENIX & SCISSON:   COMPANY
 WELL. FENIX & SCISSON 38 "AX" #3-34:   WELL
 FLD .              NPR 3:   FIELD
 LOC .      S34 T39N R78W:   LOCATION
 CNTY.            NATRONA:   COUNTY
 STAT.            WYOMING:   STATE
 CTRY. UNITED STATES OF AMERICA:   COUNTRY
 SRVC.              WELEX:   SERVICE COMPANY
 DATE.        16-SEP-1980:   LOGDATE
 API .     49025108560000:   API NUMBER
~CURVE INFORMATION
#MNEM.UNIT       API CODE    CURVE DESCRIPTION
#----------   ------------   ------------------------------
 DEPT.F                  :   
 CORR.G/C3   45 356 01 00:   DENSITY CORRECTION
 GRD .GAPI   45 310 01 00:   GAMMA RAY FROM DENSITY LOG
 RHOB.G/C3   45 350 01 00:   BULK DENSITY
 TEND.LBS    45 635 01 00:   TENSION FORM DENSITY LOG
 CALD.IN     45 280 60 00:   CALIPER FROM DENSITY LOG
 SPR .MV     07 010 01 00:   SPONTANEOUS POTENTIAL FROM RES.
 ILD .OHMM   07 120 46 00:   DEEP INDUCTION RESISTIVITY
 ILM .OHMM   07 120 44 00:   INDUCTION LOG MEDIUM RESISTIVITY
 GURD.OHMM   07 220 05 00:   GUARD LOG RESISTIVITY
~PARAMETER INFORMATION
#MNEM.UNIT          VALUE    DESCRIPTION
#----------   ------------   ------------------------------
 EKB .F         5205.0000:   Kelly bushing
 EGL .F         5195.0000:   Ground level
 TD  .F         3202.0000:   Total depth
 CLNT.            A2DTECH:   Client Code
 SL  . 582' FSL & 1600' FWL:   Surface Location
 PD  .                 GL:   Permanent Datum
 EPD .F              5195:   Elevation Permanent Datum
 LMF .                 KB:   Log Measured From
 DMF .                 KB:   Drilling Measured From
 DAPD.F                10:   Feet Above Permanent Datum
 DATE.        16-SEP-1980:   Date Logged [DD-MMM-YYYY]
 DD  .F              3200:   Depth driller
 DL  .F              3203:   Depth logger
 BLI .F              3201:   Bottom log interval
 TLI .F               600:   Top log interval
 CS1 .IN            8.625:   Casing size
 CBD1.      8.625" @ 580':   Casing driller 1
 CBL1.F               600:   Casing logger 1
 BS1 .IN            7.875:   Bit size
 BSD1.F              3200:   Depth drilled with bit1
 DFT .          DISPERSED:   Type fluid in hole
 DFD .                8.8:   Density
 DFV .                 40:   Viscosity
 DFPH.                 11:   pH
 DFL .                  8:   Fluid loss
 MSS .           FLOWLINE:   Source of sample
 RMS .OHMM           1.33:   Rm
 MST .F                65:   Rm Meas. temp.
 RMF .OHMM           1.15:   Rmf
 MFST.F                65:   Rmf Meas. temp.
 MFSS.               MEAS:   Source Rmf.
 RMC .OHMM           1.50:   Rmc
 MCST.F                65:   Rmc Meas. temp.
 MCSS.               MEAS:   Source Rmc.
 RMB .OHMM            .75:   Rm. at BHT
 BHT .F               115:   BHT.
 TCS .HRS               8:   Time Circ. stopped
 MRT .F               115:   Maximum recorded temp.
 LUN .               1892:   Logging unit number
 LUL .             CASPER:   Logging unit location
 ENGI.    PERIMMER / REIN:   Recorded By
 WITN.              FIVAS:   Witnessed by
 ORIG.         2.5" PRINT:   Origin of data
 UWI .     49025108560000:   Unique Well ID
 DICO. A2D TECHNOLOGIES, INC.:   Digitizing Company
~OTHER INFORMATION
~A   DEPT       CORR       GRD        RHOB      TEND       CALD       SPR          ILD        ILM       GURD 
# ...
 2461.5000     0.0619   109.4520     2.4989   537.5001     8.8863   -27.2696     3.3880     3.2399     3.3952
 2462.0000     0.0648   109.7692     2.5017   537.9518     9.0493   -27.2430     3.2941     3.1933     3.5372
 2462.5000     0.0648   111.7692     2.5073   538.4483     9.1038   -26.6190     3.2029     3.1477     3.7364
 2463.0000     0.0647   112.2117     2.5124   538.8777     8.8999   -26.2962     3.1039     3.0181     3.8391
 2463.5000     0.0677   110.9728     2.5109   539.3072     8.8171   -26.1190     2.9665     2.8114     3.8239
 2464.0000     0.0740   104.9900     2.5154   539.7590     8.8766   -25.8313     2.8100     2.6509     3.7295
 2464.5000     0.0863   104.5331     2.5259   540.2108     8.9061   -25.5437     2.6901     2.5424     3.6040
 2465.0000     0.0896   104.9771     2.5319   540.6627     8.8159   -25.8584     2.5964     2.5020     3.3338
 2465.5000     0.0915   106.7725     2.5280   541.1145     8.6657   -25.8723     2.5245     2.4452     2.9823
 2466.0000     0.0898   108.1174     2.5165   534.7695     8.6353   -26.1867     2.4888     2.4100     2.8992
 2466.5000     0.0763   107.2095     2.5059   511.8335     8.7305   -26.2003     2.4536     2.4087     3.1052
 2467.0000     0.0702   108.3654     2.4980   512.4058     8.8740   -26.2139     2.4189     2.4074     3.2351
 2467.5000     0.0672   111.0539     2.4957   512.8352     8.7685   -26.5286     2.4179     2.4062     3.2241
 2468.0000     0.0701   115.0571     2.4927   513.2529     8.7532   -26.5422     2.4169     2.4049     3.1289
 2468.5000     0.0731   112.1361     2.4882   513.7048     8.7014   -26.5580     2.4159     2.4035     3.0002
 2469.0000     0.0730   107.1747     2.4731   514.1566     8.6326   -26.8720     2.4149     2.4022     2.8443
 2469.5000     0.0737   104.9160     2.4716   514.6085     8.5723   -26.8848     2.4474     2.4344     2.8864
 2470.0000     0.0759   105.3600     2.4748   515.0601     8.6358   -26.8976     2.4464     2.4330     3.0490
 2470.5000     0.0758   107.1572     2.4761   515.5120     8.7211   -26.9111     2.4796     2.4656     3.3575
 2471.0000     0.0804   107.0562     2.4698   515.9638     8.6535   -26.9247     2.4786     2.4986     2.9606
 2471.5000     0.0878   105.7912     2.4588   516.4841     8.6004   -26.9383     2.5472     2.5320     2.9198
 2472.0000     0.0787   106.3725     2.4520   516.9132     8.6842   -26.9518     2.5817     2.5306     3.0778
 2472.5000     0.0666   107.1297     2.4489   517.3426     8.8523   -26.6642     2.5949     2.5646     3.3496
 2473.0000     0.0665   106.4228     2.4504   547.8922     8.7487   -26.5723     2.6154     2.5990     3.1217
 2473.5000     0.0664   103.5100     2.4564   548.3434     8.6585   -26.3901     2.6141     2.5974     2.9527
 2474.0000     0.0694   104.4045     2.4609   548.7953     8.5682   -26.1028     2.6131     2.6321     3.2067
 2474.5000     0.0693   105.2990     2.4577   549.2470     8.5678   -25.8144     2.6121     2.6304     3.2661
 2475.0000     0.0693   106.6439     2.4526   549.6987     8.6322   -25.7782     2.6111     2.6290     2.9069
 2475.5000     0.0692   105.7282     2.4478   550.1506     8.6867   -25.5389     2.6100     2.5915     2.7870
 2476.0000     0.0645   104.8288     2.4458   550.6024     8.6475   -25.5542     2.6089     2.5902     2.8827
 2476.5000     0.0600   104.9220     2.4497   551.0542     8.6140   -25.7234     2.6078     2.5888     3.1570
 2477.0000     0.0600   106.3123     2.4578   538.9004     8.5955   -26.1861     2.6067     2.5873     3.1738
 2477.5000     0.0630   108.3443     2.4638   521.8373     8.5950   -26.5001     2.6055     2.5737     3.0205
 2478.0000     0.0659   110.7058     2.4623   522.2891     8.6544   -26.5129     2.6044     2.5489     2.8167
 2478.5000     0.0690   112.4515     2.4593   522.7408     8.6840   -26.5257     2.5676     2.5122     3.4174
 2479.0000     0.0752   112.4451     2.4542   523.1927     8.6835   -26.5392     2.4965     2.4763     3.6603
 2479.5000     0.0741   113.3395     2.4481   523.6445     8.8028   -26.5527     2.3939     2.4750     3.4354
 2480.0000     0.0637   115.1349     2.4442   524.0964     8.6188   -26.5663     2.3535     2.4062     2.8185
 2480.5000     0.0522   116.9303     2.4499   548.2266     8.5624   -26.5798     2.3266     2.3701     2.5265
 2481.0000     0.0475   116.7389     2.4640   555.1205     8.5620   -26.5934     2.2936     2.3324     2.4435
 2481.5000     0.0474   104.6472     2.4742   555.5723     8.6183   -26.6090     2.2611     2.2953     2.4610
 2482.0000     0.0473   104.1439     2.4787   556.0240     8.7872   -26.6218     2.2290     2.2588     2.6886
 2482.5000     0.0503   104.2905     2.4847   556.4778     8.6504   -26.3334     2.1974     2.2390     3.0438
 2483.0000     0.0533   105.4682     2.4968   556.9277     8.5601   -26.0402     2.1966     2.2375     3.0845
 2483.5000     0.0594   106.9786     2.5119   557.3795     8.4998   -25.7566     2.1655     2.2364     2.8658
 2484.0000     0.0716   106.5217     2.5118   557.8314     8.4994   -25.6908     2.1646     2.2352     2.2403
 2484.5000     0.0816   102.9117     2.5122   558.2832     8.5658   -25.4810     2.1940     2.2652     2.5126
 2485.0000     0.0892    98.8512     2.5181   558.7349     8.7790   -25.4970     2.2052     2.2639     3.0686
 2485.5000     0.0951    96.9957     2.5314   559.2679     8.7158   -25.8142     2.2536     2.3018     2.9270
 2486.0000     0.0951    96.1351     2.5297   559.6385     8.4976   -25.8253     2.3158     2.3690     2.6021
 2486.5000     0.0950    97.1443     2.5177   560.0904     8.5121   -25.8398     2.4467     2.5756     2.8654
 2487.0000     0.0949    98.6958     2.5117   560.5422     8.6164   -26.1538     2.5851     2.8982     3.1552
 2487.5000     0.0979    99.7185     2.5041   560.9940     8.7956   -26.4684     2.7313     3.0617     3.3330
 2488.0000     0.1008    99.9099     2.4981   561.4459     8.8064   -26.7831     2.8508     3.1029     3.3775
 2488.5000     0.1008    97.9021     2.5428   561.8976     8.5552   -26.7967     2.9754     3.1444     3.4690
 2489.0000     0.1068    94.2920     2.5550   562.3495     8.5548   -27.0261     3.0628     3.2310     4.1161
 2489.5000     0.1067    89.7811     2.5660   562.8012     8.5543   -27.2907     3.1094     3.2292     4.9658
 2490.0000     0.1056    86.6215     2.5762   547.5272     8.5240   -27.4419     3.0872     3.2274     4.4437
 2490.5000     0.0936    85.2635     2.5657   533.5844     8.4434   -27.4547     3.0860     3.2256     3.7385
 2491.0000     0.0681    86.5392     2.5281   534.0362     8.3900   -27.4675     3.0424     3.2238     3.1395
 2491.5000     0.0582    91.5956     2.5221   534.4880     8.3922   -27.1742     3.0836     3.2667     3.0945
 2492.0000     0.0702    97.9650     2.5175   534.9427     8.7616   -26.8514     3.1288     3.3567     3.4351
 2492.5000     0.0762   101.0023     2.5175   535.3915     8.7912   -26.3011     3.2748     3.4491     4.0909
 2493.0000     0.0641   100.5450     2.5051   535.8434     8.7308   -26.0127     3.4560     3.4468     5.7939
 2493.5000     0.0549   101.4382     2.4693   536.2951     8.6705   -25.7274     3.4184     3.3453     7.5030
 2494.0000     0.0485   102.3326     2.4394   557.9319     8.7022   -25.7435     3.3181     3.3034     5.1135
 2494.5000     0.0428   103.2271     2.4295   567.3192     8.7648   -25.7563     3.3889     3.3818     3.7945
 2495.0000     0.0468   106.3738     2.4618   567.7711     8.8189   -25.7691     3.5313     3.5350     4.0083
 2495.5000     0.0544   107.7187     2.5370   568.2827     8.7053   -25.7819     3.6796     3.7353     4.5377
 2496.0000     0.0623   104.1381     2.5388   568.7118     8.6531   -25.7952     3.6741     3.5814     4.4677
 2496.5000     0.0637   100.7489     2.5339   539.0059     8.7276   -25.8087     3.4632     3.2941     4.1436
 2497.0000     0.0516    96.8886     2.5279   539.4579     8.7272   -25.8223     3.3691     3.2924     3.7641
 2497.5000     0.0425   104.3091     2.5298   539.9096     8.7268   -25.8358     3.3341     3.2906     3.2935
