~VERSION INFORMATION
 VERS.                2.0:   CWLS LOG ASCII STANDARD - VERSION 2.0
 WRAP.                 NO:   ONE LINE PER DEPTH STEP
~WELL INFORMATION
#MNEM.UNIT      DATA TYPE    INFORMATION
#----------   ------------   ------------------------------
 STRT.F          207.0000:   START DEPTH
 STOP.F         3130.0000:   STOP DEPTH
 STEP.F            0.5000:   STEP LENGTH
 NULL.          -999.2500:   NO VALUE
 COMP. FENIX & SCISSON U.S. NAVY:   COMPANY
 WELL.    FENIX "A" #61-3:   WELL
 FLD .             NPR #3:   FIELD
 LOC .       S3 T38N R78W:   LOCATION
 CNTY.            NATRONA:   COUNTY
 STAT.            WYOMING:   STATE
 CTRY. UNITED STATES OF AMERICA:   COUNTRY
 SRVC.              WELEX:   SERVICE COMPANY
 DATE.        13-MAY-1977:   LOGDATE
 API .     49025103630000:   API NUMBER
~CURVE INFORMATION
#MNEM.UNIT       API CODE    CURVE DESCRIPTION
#----------   ------------   ------------------------------
 DEPT.F                  :   
 SPR .MV     07 010 01 00:   SPONTANEOUS POTENTIAL
 SFLU.OHMM   07 220 01 00:   SPHERICALLY FOCUSED LOG UNAVERAGED RESISTIVITY
 ILD .OHMM   07 120 46 00:   INDUCTION LOG DEEP RESISTIVITY
 ILM .OHMM   07 120 44 00:   INDUCTION LOG MEDIUM RESISTIVITY
 CALD.IN     45 280 60 00:   CALIPER FROM DENSITY LOG
 GRD .GAPI   45 310 01 00:   GAMMA RAY FROM DENSITY LOG
 RHOB.G/C3   45 350 01 00:   BULK DENSITY
 CORR.G/C3   45 356 01 00:   DENSITY CORRECTION
~PARAMETER INFORMATION
#MNEM.UNIT          VALUE    DESCRIPTION
#----------   ------------   ------------------------------
 EKB .F         5109.0000:   Kelly bushing
 EGL .F         5099.0000:   Ground level
 EDF .F            0.0000:   Drilling floor
 TD  .F         3130.0000:   Total depth
 DATE.        13-MAY-1977:   Date logged
 CLNT.            A2DTECH:   Client Code
 SL  . 330' FNL & 1650' FEL:   Surface Location
 PD  .                 GL:   Permanent Datum
 EPD .F              5099:   Elevation Permanent Datum
 LMF .                 KB:   Log Measured From
 DMF .                 KB:   Drilling Measured From
 DAPD.F                10:   Feet Above Permanent Datum
 DD  .F              3126:   Depth driller
 DL  .F              3129:   Depth logger
 BLI .F              3127:   Bottom log interval
 TLI .F               210:   Top log interval
 CS1 .IN            8.625:   Casing size
 CBD1.      8.625" @ 200':   Casing driller 1
 CBL1.F               216:   Casing logger 1
 BS1 .IN            7.875:   Bit size
 BSD1.F              3126:   Depth drilled with bit1
 DFT .            KCL MUD:   Type fluid in hole
 DFD .                9.1:   Density
 DFV .                 32:   Viscosity
 DFPH.                  8:   pH
 DFL .                8.4:   Fluid loss
 MSS .           FLOWLINE:   Source of sample
 RMS .OHMM            .29:   Rm
 MST .F                68:   Rm Meas. temp.
 RMF .OHMM            .28:   Rmf
 MFST.F                68:   Rmf Meas. temp.
 RMC .OHMM            .43:   Rmc
 MCST.F                68:   Rmc Meas. temp.
 MFSS.           FANN KIT:   Source Rmf.
 MCSS.           FANN KIT:   Source Rmc.
 RMB .OHMM            .16:   Rm. at BHT
 BHT .F               123:   BHT.
 TCS .HRS             2.5:   Time Circ. stopped
 MRT .F               123:   Maximum recorded temp.
 LUN .               9685:   Logging unit number
 LUL .           BRIGHTON:   Logging unit location
 ENGI.          T. JOYNER:   Recorded By
 WITN.      B. HARRINGTON:   Witnessed by
 ORIG.           5" PRINT:   Origin of data
 UWI .     49025103630000:   Unique Well ID
 DICO. A2D TECHNOLOGIES, INC.:   Digitizing Company
~OTHER INFORMATION
~A   DEPT      SPR       SFLU        ILD        ILM       CALD        GRD       RHOB       CORR   
  207.0000  -999.2500  -999.2500  -999.2500  -999.2500  -999.2500   109.6551  -999.2500  -999.2500
  207.5000  -999.2500  -999.2500  -999.2500  -999.2500     8.6618   112.0660  -999.2500  -999.2500
  208.0000  -999.2500  -999.2500  -999.2500  -999.2500     8.6777   114.1798  -999.2500  -999.2500
  208.5000  -999.2500  -999.2500  -999.2500  -999.2500     8.6788   117.1851  -999.2500  -999.2500
  209.0000  -999.2500  -999.2500  -999.2500  -999.2500     8.6800   120.1905  -999.2500  -999.2500
  209.5000  -999.2500  -999.2500  -999.2500  -999.2500     8.6956   123.4985  -999.2500  -999.2500
  210.0000  -999.2500  -999.2500  -999.2500  -999.2500     8.6966   126.2067  -999.2500  -999.2500
  210.5000  -999.2500  -999.2500  -999.2500  -999.2500     8.6976   129.5092  -999.2500     0.0972
  211.0000  -999.2500  -999.2500  -999.2500  -999.2500     8.9226   132.5145  -999.2500     0.0912
  211.5000  -999.2500  -999.2500  -999.2500  -999.2500     9.3265   135.2171  -999.2500     0.0751
  212.0000  -999.2500  -999.2500  -999.2500  -999.2500     9.6857   133.7703  -999.2500     0.0711
  212.5000  -999.2500  -999.2500  -999.2500  -999.2500    10.1642   132.3180  -999.2500     0.0591
  213.0000  -999.2500  -999.2500  -999.2500  -999.2500    10.8370   130.5741  -999.2500     0.0471
  213.5000  -999.2500  -999.2500  -999.2500  -999.2500    11.2111   128.8246  -999.2500     0.0351
  214.0000  -999.2500  -999.2500  -999.2500  -999.2500    11.3761   128.5553  -999.2500    -0.0050
  214.5000  -999.2500  -999.2500  -999.2500  -999.2500    11.1085   132.4634  -999.2500     0.0030
  215.0000  -999.2500  -999.2500  -999.2500  -999.2500    10.7214   131.8970     2.4329     0.0270
  215.5000  -999.2500  -999.2500  -999.2500  -999.2500    10.1255   131.6278     2.4289     0.0170
  216.0000   -30.0131     7.1350     5.7762     6.0476     9.8578   134.1060     2.4188     0.0030
  216.5000   -29.4081     7.3355     5.8844     6.1604     9.7243   133.7807     2.4118     0.0010
  217.0000   -28.2020     7.6115     6.0499     6.1618     9.6954   133.2199     2.4118     0.0010
  217.5000   -26.7956     7.6117     6.1069     6.4529     9.6967   132.9675     2.4178     0.0010
  218.0000   -25.9896     7.6847     6.1081     6.6344     9.6977   133.0010     2.4178     0.0030
  218.5000   -25.9864     7.7574     6.1654     6.8838     9.6986   133.3317     2.4158     0.0010
  219.0000   -26.3831     7.7583     6.2811     7.0772     9.6996   133.6625     2.4155     0.0010
  219.5000   -26.3791     7.8314     6.4579     7.2098     9.7156   133.9988     2.4151     0.0030
  220.0000   -26.3752     7.9052     6.5783     7.2109     9.7315   134.0323     2.4147     0.0030
  220.5000   -26.7719     7.9061     6.7021     7.2128     9.7623   134.0659     2.4144     0.0030
  221.0000   -26.7679     8.0546     7.0832     7.2142     9.8080   134.0994     2.4140     0.0050
  221.5000   -26.5636     8.0565     7.0840     7.0843     9.8389   133.8302     2.4138     0.0030
  222.0000   -26.5597     8.0577     6.7673     6.8928     9.8547   134.1721     2.4128     0.0030
  222.5000   -26.1551     8.0596     6.5849     6.7070     9.8559   134.5029     2.4128     0.0050
  223.0000   -25.7506     8.0605     6.4072     6.5859     9.8717   135.4279     2.4128     0.0010
  223.5000   -25.3461     8.0621     6.2918     6.5870     9.8876   136.3530     2.4128     0.0010
  224.0000   -24.9432     7.9172     6.1217     6.5282     9.8887   136.9809     2.4108     0.0030
  224.5000   -27.9418     7.8464     6.1229     6.5298     9.8897   136.7117     2.4108     0.0030
  225.0000   -29.9405     7.7053     6.1243     6.5305     9.8756   135.5677     2.4128     0.0030
  225.5000   -30.5373     7.6357     6.2961     6.5323     9.8802   134.7098     2.4148     0.0050
  226.0000   -30.5332     7.5674     6.2976     6.5335     9.8926   133.8462     2.4168     0.0070
  226.5000   -30.3289     7.7819     6.2412     6.5345     9.8937   132.6966     2.4208     0.0010
  227.0000   -30.3249     7.7822     6.1853     6.5358     9.8947   131.8387     2.4259     0.0050
  227.5000   -30.3208     7.5721     6.1865     6.5368     9.8956   131.5694     2.4248     0.0070
  228.0000   -30.5170     7.5037     6.1311     6.5388     9.8965   131.0198     2.4248     0.0070
  228.5000   -30.3128     7.5055     6.1323     6.5398     9.8975   128.6760     2.4248     0.0050
  229.0000   -30.5090     7.7179     6.1337     6.5406     9.8987   126.3321     2.4248     0.0070
  229.5000   -30.3047     8.7786     6.1349     6.5424     9.8996   123.1023     2.4248     0.0050
  230.0000   -30.5009     8.9424     6.1927     6.6040     9.9155   121.0556     2.4248     0.0110
  230.5000   -31.4979     9.0264     6.2510     6.9158     9.9015   119.8949     2.4248     0.0110
  231.0000   -32.4949     8.7031     6.3097     7.8665     9.9025   118.7397     2.4248     0.0150
  231.5000   -34.2928     8.9481     6.5471     8.0137     9.9035   118.1789     2.4248     0.0170
  232.0000   -37.2917     9.2848     6.7317     8.1639     9.9045   117.9153     2.4238     0.0110
  232.5000   -40.2906     9.5462     6.9850     8.0165     9.9055   117.6517     2.4238     0.0150
  233.0000   -42.6887     9.7251     7.2479     7.8004     9.9067   117.3880     2.4228     0.0150
  233.5000   -43.8855     9.7271     7.3837     7.7308     9.9076   117.1300     2.4188     0.0150
  234.0000   -43.8812     9.7290     7.2507     7.7324     9.9235   117.1669     2.4178     0.0090
  234.5000   -43.8769     9.7309     7.3190     8.0231     9.9245   117.2083     2.4118     0.0130
  235.0000   -43.4722     9.7328     7.5948     8.3254     9.9403   117.5390     2.4058     0.0130
  235.5000   -43.4687     9.7347     7.5954     8.4039     9.9415   117.8698     2.4018     0.0130
  236.0000   -43.4644     9.7363     7.5280     8.8007     9.9423   118.2005     2.3988     0.0130
  236.5000   -43.4600     9.8289     7.4597     8.8833     9.9582   116.7426     2.3968     0.0130
  237.0000   -43.4557     9.8300     7.3938     8.8850     9.9742   115.5930     2.3948     0.0130
  237.5000   -43.4514     9.8320     7.3952     8.6452     9.9751   115.0266     2.3938     0.0130
  238.0000   -43.4470     9.8339     7.5335     8.3348    10.0061   115.0713     2.3898     0.0130
  238.5000   -43.4427     9.8354     7.8171     8.1843    10.0071   116.2936     2.3858     0.0130
  239.0000   -43.2382     9.6598     7.9633     8.1859    10.0080   117.5159     2.3868     0.0130
  239.5000   -43.2339     9.5722     7.9649     8.1875    10.0241   118.7325     2.3888     0.0130
  240.0000   -43.2296     9.3997     7.6792     8.1894    10.0400   116.9942     2.3908     0.0130
  240.5000   -43.0251     9.1459     7.3355     8.2663    10.0708   116.1306     2.3870     0.0130
  241.0000   -43.0208     8.8990     7.1377     8.2683    10.0867   115.2727     2.3840     0.0030
  241.5000   -43.0165     8.6587     7.1391     8.2699    10.1025   114.7118     2.3780     0.0030
  242.0000   -43.0121     8.6604     7.3401     8.2708    10.1037   114.7566     2.3689     0.0030
  242.5000   -43.0078     8.8228     7.4090     8.1971    10.1195   114.7901     2.3649     0.0030
  243.0000   -43.0035     8.8242     7.6176     7.9034    10.1354   114.8237     2.3589     0.0030
  243.5000   -42.9992     8.8262     7.6191     7.9047    10.1364   115.4516     2.3539     0.0030
  244.0000   -42.9949     8.8280     7.2783     7.9059    10.1823   116.3711     2.3537     0.0030
  244.5000   -42.9906     8.8297     7.2131     8.2805    10.1980   114.9188     2.3587     0.0050
  245.0000   -42.7861     8.8307     7.1485     8.1313    10.1991   115.2607     2.3627     0.0030
  245.5000   -42.7818     8.8328     7.1502     8.0576    10.2150   116.1858     2.3687     0.0030
  246.0000   -42.5774     8.8349     7.2843     7.8400    10.2309   117.4080     2.3707     0.0030
  246.5000   -42.5731     8.8359     7.4205     7.7695    10.2619   117.7387     2.3737     0.0030
  247.0000   -42.5688     8.8377     7.6297     7.8430    10.2628   117.7779     2.3778     0.0050
