~VERSION INFORMATION
 VERS.                2.0:   CWLS LOG ASCII STANDARD - VERSION 2.0
 WRAP.                 NO:   ONE LINE PER DEPTH STEP
~WELL INFORMATION
#MNEM.UNIT      DATA TYPE    INFORMATION
#----------   ------------   ------------------------------
 STRT.F            4.0000:   START DEPTH
 STOP.F         5696.0000:   STOP DEPTH
 STEP.F            0.5000:   STEP LENGTH
 NULL.          -999.2500:   NO VALUE
 COMP.       FLUOR DANIEL:   COMPANY
 WELL.   FLUOR "X" #72-10:   WELL
 FLD .             NPR #3:   FIELD
 LOC .      S10 T38N R78W:   LOCATION
 CNTY.            NATRONA:   COUNTY
 STAT.            WYOMING:   STATE
 CTRY. UNITED STATES OF AMERICA:   COUNTRY
 SRVC.      WESTERN ATLAS:   SERVICE COMPANY
 DATE.        26-SEP-1996:   LOGDATE
 API .     49025228080000:   API NUMBER
~CURVE INFORMATION
#MNEM.UNIT       API CODE    CURVE DESCRIPTION
#----------   ------------   ------------------------------
 DEPT.F                  :   
 GRR .GAPI   07 310 01 00:   GAMMA RAY FROM RESISTIVITY
 SPR .MV     07 010 01 00:   SPONTANEOUS POTENTIAL
 CALR.IN     07 280 01 00:   CALIPER FROM RESISTIVITY
 RD  .OHMM   07 220 10 00:   RESISTIVITY DEEP
 RS  .OHMM   07 220 09 00:   RESISTIVITY SHALLOW
 TENR.LBS    07 635 01 00:   TENSION FROM RESISTIVITY
~PARAMETER INFORMATION
#MNEM.UNIT          VALUE    DESCRIPTION
#----------   ------------   ------------------------------
 EKB .F         5178.0000:   Kelly bushing
 EGL .F         5168.0000:   Ground level
 EDF .F         5177.0000:   Drilling floor
 TD  .F         5698.0000:   Total depth
 CLNT.            A2DTECH:   Client Code
 SL  . 687' FNL & 1002' FEL:   Surface Location
 PD  .                 GL:   Permanent Datum
 EPD .F              5168:   Elevation Permanent Datum
 LMF .                 KB:   Log Measured From
 DMF .                 KB:   Drilling Measured From
 DAPD.F                10:   Feet Above Permanent Datum
 DATE.        26-SEP-1996:   Date Logged [DD-MMM-YYYY]
 DD  .F              5698:   Depth driller
 DL  .F              5697:   Depth logger
 BLI .F              5685:   Bottom log interval
 CS1 .IN            9.625:   Casing size
 CBD1.      9.625" @ 526':   Casing driller 1
 CBL1.F               526:   Casing logger 1
 BS1 .IN             8.75:   Bit size
 BSD1.F              5698:   Depth drilled with bit1
 DFT .               CHEM:   Type fluid in hole
 DFD .                9.1:   Density
 DFV .                 60:   Viscosity
 DFPH.                9.5:   pH
 DFL .                7.6:   Fluid loss
 MSS .               CIRC:   Source of sample
 RMS .OHMM           0.82:   Rm
 MST .F                64:   Rm Meas. temp.
 RMF .OHMM           0.64:   Rmf
 MFST.F                64:   Rmf Meas. temp.
 MFSS.               CALC:   Source Rmf.
 RMC .OHMM           1.08:   Rmc
 MCST.F                64:   Rmc Meas. temp.
 MCSS.               CALC:   Source Rmc.
 RMB .OHMM           0.29:   Rm. at BHT
 BHT .F               183:   BHT.
 TCS .HRS               5:   Time Circ. stopped
 MRT .F               183:   Maximum recorded temp.
 LUN .            HL-6530:   Logging unit number
 LUL .             CASPER:   Logging unit location
 ENGI.           BROWNLOW:   Recorded By
 ORIG.        2" 5" PRINT:   Origin of data
 UWI .     49025228080000:   Unique Well ID
 WITN.              HARDY:   Witnessed by
 DICO. A2D TECHNOLOGIES, INC.:   Digitizing Company
~OTHER INFORMATION
~A  DEPTH      GRR        SPR       CALR         RD         RS       TENR
# ...
  888.0000    93.8463   -49.8735     9.3453     8.6895     6.4148   -17.6162
  888.5000    92.0522   -49.7080     9.3437     8.7529     6.4611   -17.6162
  889.0000    91.7684   -49.6949     9.3435     8.7558     6.5079   -32.6087
  889.5000    93.5973   -50.2843     9.3397     8.8204     6.5553   -47.6012
  890.0000    94.8196   -50.5824     9.3302     8.8233     6.5570   -47.6012
  890.5000    96.6968   -51.1586     9.3312     8.8877     6.6044   -47.6012
  891.0000    98.4732   -51.4501     9.3321     8.9525     6.6522   -55.0975
  891.5000    97.8882   -51.5877     9.3330     8.9555     6.7469   -40.1049
  892.0000    95.4959   -51.7252     9.3339     8.9585     6.7491   -32.6087
  892.5000    94.9066   -51.7090     9.3348     8.9622     6.7038   -32.6087
  893.0000    94.9284   -51.5452     9.3358     8.9025     6.5679   -25.1124
  893.5000    95.5502   -51.3810     9.3367     8.6625     6.4792   -32.6087
  894.0000    96.8676   -51.3394     9.3376     8.4283     6.2168   -47.6012
  894.5000    98.5994   -51.1262     9.3385     8.3150     6.1327   -47.6012
  895.0000    98.9136   -50.8876     9.3394     8.2603     6.2205   -62.5937
  895.5000    96.8270   -50.7240     9.3403     8.4374     6.3972   -70.0900
  896.0000    93.8323   -50.7089     9.3412     8.4990     6.5789   -70.0900
  896.5000    91.1389   -50.5440     9.3421     8.5018     6.5806   -62.5937
  897.0000    90.2289   -50.3804     9.3430     8.4459     6.4468   -62.5937
  897.5000    89.6677   -50.3301     9.3439     8.4487     6.4040   -55.0975
  898.0000    90.2918   -50.2048     9.3448     8.5103     6.4061   -47.6012
  898.5000    91.2128   -50.1908     9.3458     8.5731     6.5880   -47.6012
  899.0000    92.7363   -50.0271     9.3467     8.6958     6.7752   -40.1049
  899.5000    94.2597   -50.0109     9.3628     8.8815     6.8716   -32.6087
  900.0000    96.0843   -49.9978     9.3636     8.9463     6.8734   -32.6087
  900.5000    95.7090   -50.1387     9.3496     9.0116     6.9236   -40.1049
  901.0000    92.5090   -50.2741     9.3504     9.0146     6.9736   -47.6012
  901.5000    89.2986   -50.4138     9.3513     9.0282     7.0240   -47.6012
  902.0000    85.0141   -50.5482     9.3515     9.2751     7.1736   -62.5937
  902.5000    88.0429   -50.5346     9.3508     9.5392     7.3264   -70.0900
  903.0000    89.6004   -50.6727     9.3501     9.6757     7.3793   -77.5862
  903.5000    90.1892   -50.9576     9.3494     9.8141     7.3303   -85.0825
  904.0000    91.1097   -51.3964     9.3487     9.8857     7.2610   -92.5787
  904.5000    91.4277   -51.6879     9.3480     9.8206     7.1831   -77.5862
  905.0000    88.7379   -51.8223     9.3474     9.7560     7.0861   -77.5862
  905.5000    86.3409   -51.8087     9.3467     9.4274     7.0394   -70.0900
  906.0000    88.4703   -51.6423     9.3311     9.2998     6.9926   -62.5937
  906.5000    91.2022   -51.3281     9.3320     9.1756     6.9950   -55.0975
  907.0000    91.8214   -51.1644     9.3177     9.1152     6.9968   -47.6012
  907.5000    91.2358   -51.0008     9.3189     9.1818     7.0964   -40.1049
  908.0000    90.9278   -50.8372     9.3047     9.4439     7.1975   -32.6087
  908.5000    90.0647   -50.6732     9.3059     9.5790     7.2495   -47.6012
  909.0000    89.7803   -50.5067     9.3070     9.5822     7.3024   -70.0900
  909.5000    90.1025   -50.3430     9.3080     9.5854     7.2533   -77.5862
  910.0000    91.3284   -50.3300     9.3091     9.5885     7.2051   -77.5862
  910.5000    92.5500   -50.3170     9.3102     9.4604     7.2075   -77.5862
  911.0000    93.7717   -50.3040     9.3112     9.4635     7.1595   -62.5937
  911.5000    91.9855   -50.2907     9.3123     9.4005     7.1120   -38.4643
  912.0000    88.3878   -50.4285     9.3133     9.3386     7.0722   -13.7181
  912.5000    87.7980   -50.4142     9.3144     9.2658     7.0204   -13.8942
  913.0000    92.4076   -50.3992     9.3155     9.2086     6.9888   -14.0336
  913.5000    97.4787   -50.3862     9.3317     9.0851     6.9472   -21.6692
  914.0000    98.7003   -50.3732     9.3329     9.0243     6.9000   -36.8359
  914.5000    98.7171   -50.5211     9.3339     8.9645     6.8061   -44.4715
  915.0000    98.7382   -50.7990     9.3043     8.9678     6.8072   -44.6108
  915.5000    99.3574   -50.7827     9.2587     8.9711     6.7608   -52.2489
  916.0000    98.4706   -51.0709     9.2460     8.9737     6.7149   -44.8895
  916.5000    93.7842   -51.2117     9.2472     8.9763     6.7628   -30.0364
  917.0000    89.1669   -51.3464     9.2482     8.9790     6.8109   -22.7136
  917.5000    90.3928   -51.4836     9.2494     8.8585     6.8592   -45.3773
  918.0000    96.7468   -51.3167     9.2655     8.8611     6.9079   -45.5167
  918.5000    98.8643   -51.1531     9.2666     8.8637     7.0055   -38.1559
  919.0000    96.1703   -50.9895     9.2676     8.9908     7.0065   -38.3340
  919.5000    93.1751   -50.8258     9.2688     8.9934     6.9108   -45.9696
  920.0000    94.0998   -50.6622     9.2698     8.9960     6.8165   -68.5977
  920.5000    94.4178   -50.6446     9.2556     8.8747     6.7235   -60.4719
  921.0000    92.9286   -50.4799     9.2568     8.6951     6.6319   -46.3876
  921.5000    90.5358   -50.3581     9.2578     8.6369     6.6328   -54.0581
  922.0000    93.5688   -50.2363     9.2436     8.6401     6.5423   -69.2928
  922.5000    94.4851   -50.1958     9.2297     8.7074     6.6809   -76.8256
  923.0000    93.0001   -50.1854     9.2306     8.8275     6.8223   -61.9724
  923.5000    91.8121   -50.1769     9.2317     8.8916     6.9184   -54.6503
  924.0000    90.9253   -50.0178     9.2172     8.8942     6.8671   -47.2934
  924.5000    92.4523   -50.0072     9.2034     8.7749     6.7780   -47.4676
  925.0000    94.2806   -49.9988     9.2045     8.5967     6.6393   -47.6070
  925.5000    96.4059   -50.1409     9.2056     8.4221     6.5486   -47.7511
  926.0000    98.8323   -50.1324     9.2069     8.3663     6.6412   -47.9206
  926.5000    99.7530   -50.1218     9.1924     8.8469     7.1686   -48.0599
  927.0000    97.9666   -50.1134     9.1937     9.6175     7.7379   -48.2009
  927.5000    92.8629   -50.1054     9.1947    10.2400     8.0734   -48.3735
  928.0000    89.5665   -50.2470     9.1958     9.9591     7.9579   -56.0091
  928.5000    89.5875   -50.2365     9.2120     9.4285     7.2727   -63.6447
  929.0000    90.2067   -50.3807     9.1979     9.1098     6.8335   -71.3151
  929.5000    88.4164   -50.6713     9.2143     8.8019     6.4657   -71.4545
  930.0000    88.5542   -50.6626     9.1999     8.3178     6.3332   -64.0930
  930.5000    91.7675   -50.6523     9.2011     8.1037     6.5124   -64.2718
  931.0000    94.1939   -50.4932     9.2175     8.3347     6.6297   -56.8801
  931.5000    95.7169   -50.3341     9.2185     8.5717     6.7911   -57.0543
  932.0000    96.3402   -50.0223     9.2043     8.8160     6.8393   -57.7988
  932.5000    94.5498   -50.0139     9.2053     8.9418     6.8878   -79.8566
  933.0000    93.3618   -49.7042     9.2065     8.8212     6.8411   -79.9959
  933.5000    93.0774   -49.5451     9.2075     8.7628     6.7946   -72.6387
  934.0000    93.3997   -49.5345     9.2085     8.7048     6.6558   -65.2821
  934.5000    94.3201   -49.6788     9.2097     8.6478     6.5650   -57.9252
  935.0000    94.9698   -49.7735     9.2107     8.5905     6.5204   -80.5882
  935.5000    95.5628   -49.9610     9.2269     8.5336     6.5669   -80.7624
  936.0000    95.5796   -49.9504     9.2279     8.5367     6.6595   -80.9018
  936.5000    93.4880   -50.0946     9.2291     8.4796     6.6606   -66.0138
  937.0000    88.6897   -50.0840     9.2452     8.4827     6.5242   -58.6917
  937.5000    86.8993   -50.0753     9.2614     8.4193     6.4352   -66.3621
  938.0000    89.3258   -50.2156     9.3081     8.2554     6.3863   -73.9978
  938.5000    95.9733   -50.2078     9.3242     8.1441     6.3043   -81.6342
  939.0000    97.4962   -50.1986     9.3858     8.0349     6.3053   -81.8076
  939.5000    95.1034   -50.1881     9.5688     8.0378     6.3062   -81.9469
