~VERSION INFORMATION
 VERS.                2.0:   CWLS LOG ASCII STANDARD - VERSION 2.0
 WRAP.                 NO:   ONE LINE PER DEPTH STEP
~WELL INFORMATION
#MNEM.UNIT      DATA TYPE    INFORMATION
#----------   ------------   ------------------------------
 STRT.F         2299.0000:   START DEPTH
 STOP.F         3387.5000:   STOP DEPTH
 STEP.F            0.5000:   STEP LENGTH
 NULL.          -999.2500:   NO VALUE
 COMP. LAWRENCE ALLISON AND ASSOCIATES:   COMPANY
 WELL. 		  62-AX-3:   WELL
 FLD .                NPR:   FIELD
 LOC .       S3 T38N R78W:   LOCATION
 CNTY.            NATRONA:   COUNTY
 STAT.            WYOMING:   STATE
 CTRY. UNITED STATES OF AMERICA:   COUNTRY
 SRVC.      DRESSER ATLAS:   SERVICE COMPANY
 DATE.        14-JUN-1985:   LOGDATE
 API .     49025110330000:   API NUMBER
~CURVE INFORMATION
#MNEM.UNIT       API CODE    CURVE DESCRIPTION
#----------   ------------   ------------------------------
 DEPT.F                  :   
 NPHI.DEC    42 890 01 00:   NEUTRON POROSITY
 TEND.LBS    45 635 01 00:   TENSION
 RHOB.G/C3   45 350 01 00:   BULK DENSITY
 CORR.DEC    45 356 01 00:   CORRECTION
~PARAMETER INFORMATION
#MNEM.UNIT          VALUE    DESCRIPTION
#----------   ------------   ------------------------------
 EKB .F         5160.0000:   Kelly bushing
 EGL .F         5148.0000:   Ground level
 EDF .F            0.0000:   Drilling floor
 EPD .F         5148.0000:   Permanent datum
 TD  .F         3380.0000:   Total depth
 DATE.        14-JUN-1985:   Date logged
 CLNT.            A2DTECH:   Client Code
 PD  .                 GL:   Permanent Datum
 LMF .                 KB:   Log Measured From
 DMF .                 KB:   Drilling Measured From
 DL  .F              3380:   Depth logger
 BLI .F              3378:   Bottom log interval
 CS1 .IN            8.625:   Casing size
 CBD1.      8.625" @ 603':   Casing driller 1
 DFT .        KCL POLYMER:   Type fluid in hole
 ENGI.               MACK:   Recorded By
 WITN.             STRONG:   Witnessed by
 ORIG.       2.5"5" PRINT:   Origin of data
 UWI .     49025110330000:   Unique Well ID
 DICO. A2D TECHNOLOGIES, INC.:   Digitizing Company
 DAPD.F                12:   Feet Above Permanent Datum
 BS1 .IN            7.875:   Bit size
 DFD .                8.9:   Density
 DFV .                 46:   Viscosity
 DFPH.                8.5:   pH
 DFL .                9.6:   Fluid loss
 MSS .           FLOWLINE:   Source of sample
 RMS .OHMM           0.38:   Rm
 MST .F                74:   Rm Meas. temp.
 RMF .OHMM           0.29:   Rmf
 MFST.F                74:   Rmf Meas. temp.
 MFSS.               MEAS:   Source Rmf.
 RMC .OHMM           0.23:   Rmc
 MCST.F               120:   Rmc Meas. temp.
 MCSS.               MEAS:   Source Rmc.
 RMB .OHMM           0.23:   Rm. at BHT
 BHT .F               120:   BHT.
 TCS .                  8:   Time Circ. stopped
 MRT .                122:   Maximum recorded temp.
 LUN .            HL-6274:   Logging unit number
 LUL .               GLTE:   Logging unit location
~OTHER INFORMATION
~A     DEPTH         CORR         NPHI         RHOB         TEND
# ...
   2981.0000      -0.0080       0.2931       2.4760       0.2433
   2981.5000      -0.0120       0.3192       2.4490       0.2433
   2982.0000      -0.0070       0.3443       2.4170       0.2433
   2982.5000       0.0100       0.3229       2.3670       0.2433
   2983.0000       0.0400       0.3058       2.3490       0.2433
   2983.5000       0.0290       0.2843       2.3730       0.2433
   2984.0000       0.0120       0.2627       2.4250       0.2433
   2984.5000       0.0010       0.2367       2.4850       0.2433
   2985.0000       0.0010       0.2318       2.5150       0.2433
   2985.5000      -0.0080       0.2290       2.5210       0.2433
   2986.0000      -0.0080       0.2284       2.5210       0.2433
   2986.5000      -0.0060       0.2301       2.5200       0.2433
   2987.0000       0.0080       0.2372       2.5170       0.2433
   2987.5000       0.0150       0.2467       2.5110       0.2433
   2988.0000       0.0060       0.2548       2.5050       0.2433
   2988.5000      -0.0020       0.2562       2.5010       0.2433
   2989.0000      -0.0080       0.2549       2.5040       0.2433
   2989.5000      -0.0130       0.2510       2.5060       0.2433
   2990.0000      -0.0150       0.2548       2.5080       0.2433
   2990.5000      -0.0150       0.2553       2.5100       0.2433
   2991.0000      -0.0150       0.2534       2.5080       0.2433
   2991.5000      -0.0170       0.2528       2.5030       0.2433
   2992.0000      -0.0220       0.2611       2.4980       0.2433
   2992.5000      -0.0240       0.2579       2.4970       0.2433
   2993.0000      -0.0160       0.2541       2.4980       0.2433
   2993.5000      -0.0070       0.2549       2.4990       0.2433
   2994.0000       0.0000       0.2557       2.5010       0.2433
   2994.5000      -0.0040       0.2566       2.5050       0.2433
   2995.0000      -0.0080       0.2610       2.5090       0.2433
   2995.5000      -0.0060       0.2858       2.5080       0.2433
   2996.0000       0.0010       0.3007       2.5070       0.2433
   2996.5000       0.0070       0.2839       2.5100       0.2433
   2997.0000       0.0130       0.2676       2.5180       0.2433
   2997.5000       0.0160       0.2648       2.5230       0.2433
   2998.0000       0.0140       0.2743       2.5230       0.2433
   2998.5000       0.0040       0.2821       2.5200       0.2433
   2999.0000       0.0010       0.2835       2.5200       0.2433
   2999.5000      -0.0020       0.2801       2.5230       0.2433
   3000.0000      -0.0050       0.2714       2.5190       0.2433
   3000.5000      -0.0090       0.2689       2.5050       0.2433
   3001.0000      -0.0140       0.2617       2.5020       0.2433
   3001.5000      -0.0190       0.2517       2.5040       0.2433
   3002.0000      -0.0130       0.2397       2.5080       0.2433
   3002.5000      -0.0060       0.2318       2.5100       0.2433
   3003.0000       0.0010       0.2342       2.5140       0.2433
   3003.5000       0.0080       0.2395       2.5210       0.2433
   3004.0000       0.0050       0.2415       2.5240       0.2433
   3004.5000      -0.0020       0.2384       2.5220       0.2433
   3005.0000      -0.0070       0.2321       2.5210       0.2433
   3005.5000      -0.0070       0.2323       2.5210       0.2433
   3006.0000      -0.0050       0.2312       2.5220       0.2433
   3006.5000      -0.0040       0.2199       2.5240       0.2433
   3007.0000      -0.0020       0.2199       2.5270       0.2438
   3007.5000       0.0100       0.2216       2.5320       0.2444
   3008.0000       0.0190       0.2275       2.5310       0.2451
   3008.5000       0.0130       0.2383       2.5240       0.2457
   3009.0000      -0.0020       0.2466       2.5100       0.2463
   3009.5000      -0.0160       0.2465       2.5000       0.2469
   3010.0000      -0.0160       0.2471       2.5040       0.2475
   3010.5000      -0.0120       0.2482       2.5110       0.2481
   3011.0000      -0.0070       0.2517       2.5180       0.2488
   3011.5000      -0.0030       0.2541       2.5270       0.2494
   3012.0000       0.0020       0.2504       2.5300       0.2500
   3012.5000       0.0050       0.2419       2.5310       0.2506
   3013.0000       0.0080       0.2317       2.5310       0.2512
   3013.5000       0.0120       0.2250       2.5290       0.2519
   3014.0000       0.0150       0.2286       2.5310       0.2525
   3014.5000       0.0180       0.2345       2.5350       0.2531
   3015.0000       0.0070       0.2341       2.5360       0.2537
   3015.5000      -0.0090       0.2338       2.5330       0.2543
   3016.0000      -0.0200       0.2325       2.5260       0.2550
   3016.5000      -0.0100       0.2306       2.5210       0.2556
   3017.0000      -0.0010       0.2288       2.5130       0.2562
   3017.5000       0.0010       0.2259       2.4980       0.2568
   3018.0000       0.0020       0.2155       2.4820       0.2574
   3018.5000       0.0130       0.2034       2.4670       0.2581
   3019.0000       0.0220       0.2004       2.4660       0.2587
   3019.5000       0.0220       0.2009       2.4730       0.2593
   3020.0000       0.0260       0.2068       2.4790       0.2599
   3020.5000       0.0410       0.2200       2.4640       0.2605
   3021.0000       0.0510       0.2331       2.4360       0.2611
   3021.5000       0.0340       0.2408       2.4080       0.2618
   3022.0000       0.0200       0.2348       2.4050       0.2624
   3022.5000       0.0110       0.2311       2.4140       0.2630
   3023.0000       0.0020       0.2304       2.4200       0.2556
   3023.5000       0.0080       0.2337       2.4150       0.2341
   3024.0000       0.0190       0.2390       2.3950       0.2090
   3024.5000       0.0250       0.2413       2.3590       0.1840
   3025.0000       0.0270       0.2422       2.3420       0.1739
   3025.5000       0.0280       0.2439       2.3360       0.1740
   3026.0000       0.0300       0.2474       2.3550       0.1742
   3026.5000       0.0230       0.2483       2.3730       0.1743
   3027.0000       0.0120       0.2485       2.3770       0.1745
   3027.5000       0.0020       0.2478       2.3700       0.1746
   3028.0000      -0.0080       0.2430       2.3620       0.1748
   3028.5000      -0.0040       0.2238       2.3480       0.1750
   3029.0000       0.0010       0.2195       2.3270       0.1751
   3029.5000       0.0000       0.2218       2.3040       0.1753
   3030.0000      -0.0060       0.2295       2.2920       0.1754
   3030.5000      -0.0120       0.2367       2.2830       0.1756
   3031.0000      -0.0180       0.2411       2.2720       0.1757
   3031.5000      -0.0130       0.2425       2.2680       0.1759
   3032.0000      -0.0030       0.2467       2.2700       0.1760
   3032.5000       0.0070       0.2595       2.2720       0.1762
   3033.0000       0.0030       0.2657       2.2660       0.1763
   3033.5000      -0.0050       0.2618       2.2620       0.1765
   3034.0000      -0.0050       0.2521       2.2620       0.1766
   3034.5000       0.0000       0.2479       2.2620       0.1768
   3035.0000       0.0040       0.2511       2.2650       0.1770
   3035.5000       0.0100       0.2553       2.2720       0.1771
   3036.0000       0.0160       0.2594       2.2770       0.1773
   3036.5000       0.0230       0.2589       2.2790       0.1774
   3037.0000       0.0190       0.2538       2.2750       0.1776
   3037.5000       0.0120       0.2502       2.2680       0.1777
   3038.0000      -0.0010       0.2471       2.2640       0.1779
   3038.5000      -0.0160       0.2507       2.2620       0.1780
   3039.0000      -0.0040       0.2524       2.2680       0.1782
   3039.5000       0.0080       0.2493       2.2720       0.1783
   3040.0000       0.0150       0.2355       2.2710       0.1785
   3040.5000       0.0170       0.2306       2.2640       0.1786
   3041.0000       0.0160       0.2297       2.2570       0.1788
   3041.5000       0.0130       0.2305       2.2520       0.1790
   3042.0000       0.0100       0.2340       2.2530       0.1791
   3042.5000       0.0100       0.2388       2.2590       0.1793
