~VERSION INFORMATION
 VERS.                2.0:   CWLS LOG ASCII STANDARD - VERSION 2.0
 WRAP.                 NO:   ONE LINE PER DEPTH STEP
~WELL INFORMATION
#MNEM.UNIT      DATA TYPE    INFORMATION
#----------   ------------   ------------------------------
 STRT.F            5.5000:   START DEPTH
 STOP.F         3261.0000:   STOP DEPTH
 STEP.F            0.5000:   STEP LENGTH
 NULL.          -999.2500:   NO VALUE
 COMP. LAWRENCE ALLISON & ASSOCIATES:   COMPANY
 WELL. LAWRENCE "X" #12-14:   WELL
 FLD .              NPR 3:   FIELD
 LOC .      S14 T38N R78W:   LOCATION
 CNTY.            NATRONA:   COUNTY
 STAT.            WYOMING:   STATE
 CTRY. UNITED STATES OF AMERICA:   COUNTRY
 SRVC.      DRESSER ATLAS:   SERVICE COMPANY
 DATE.        18-AUG-1986:   LOGDATE
 API .     49025111080000:   API NUMBER
~CURVE INFORMATION
#MNEM.UNIT       API CODE    CURVE DESCRIPTION
#----------   ------------   ------------------------------
 DEPT.F                  :   
 RILM.OHMM   07 120 44 00:   INDUCTION LOG MEDIUM RESISTIVITY
 GRR .GAPI   07 310 01 00:   GAMMA RAY FROM RESISTIVITY
 SPR .MV     07 010 01 00:   SPONTANEOUS POTENTIAL
 NPHI.DEC    42 890 03 00:   NEUTRON POROSITY SANDSTONE
 CALD.IN     45 280 60 00:   CALIPER FROM DENSITY LOG
 TEND.LBS    45 635 01 00:   TENSION FORM DENSITY LOG
 DRHO.G/C3   45 356 01 00:   DENSITY CORRECTION
 DEN .G/C3   45 350 01 00:   BULK DENSITY
 RILD.OHMM   07 120 46 00:   DEEP INDUCTION RESISTIVITY
 RFOC.OHMM   07 220 04 00:   RESISTIVITY FOCUSED LOG RES.
~PARAMETER INFORMATION
#MNEM.UNIT          VALUE    DESCRIPTION
#----------   ------------   ------------------------------
 EKB .F         5245.0000:   Kelly bushing
 EGL .F         5234.0000:   Ground level
 TD  .F         3250.0000:   Total depth
 CLNT.            A2DTECH:   Client Code
 SL  . 901' FNL & 485' FWL:   Surface Location
 PD  .                 GL:   Permanent Datum
 EPD .F              5234:   Elevation Permanent Datum
 LMF .                 KB:   Log Measured From
 DMF .                 KB:   Drilling Measured From
 DAPD.F                11:   Feet Above Permanent Datum
 DATE.        18-AUG-1986:   Date Logged [DD-MMM-YYYY]
 DD  .F              3250:   Depth driller
 DL  .F              3246:   Depth logger
 BLI .F              3244:   Bottom log interval
 TLI .F                 0:   Top log interval
 CS1 .IN            8.625:   Casing size
 CBD1.      8.625" @ 733':   Casing driller 1
 CBL1.F               735:   Casing logger 1
 BS1 .IN            7.875:   Bit size
 BSD1.F              3250:   Depth drilled with bit1
 DFT .            KCL-GEL:   Type fluid in hole
 DFD .                8.8:   Density
 DFV .                 36:   Viscosity
 DFPH.                8.5:   pH
 DFL .               12.8:   Fluid loss
 MSS .           FLOWLINE:   Source of sample
 RMS .OHMM          0.292:   Rm
 MST .F                73:   Rm Meas. temp.
 RMF .OHMM          0.224:   Rmf
 MFST.F                73:   Rmf Meas. temp.
 MFSS.               MEAS:   Source Rmf.
 RMC .OHMM          0.365:   Rmc
 MCST.F                73:   Rmc Meas. temp.
 MCSS.               CALC:   Source Rmc.
 RMB .OHMM          0.154:   Rm. at BHT
 BHT .F               138:   BHT.
 TCS .HRS               5:   Time Circ. stopped
 MRT .F               138:   Maximum recorded temp.
 LUN .            HL-6214:   Logging unit number
 LUL .           GILLETTE:   Logging unit location
 ENGI.             RAUTIO:   Recorded By
 WITN.             STRONG:   Witnessed by
 ORIG.        2" 5" PRINT:   Origin of data
 UWI .     49025111080000:   Unique Well ID
 DICO. A2D TECHNOLOGIES, INC.:   Digitizing Company
~OTHER INFORMATION
~A    DEPT    RILM         GRR       SPR       NPHI       CALD       TEND       DRHO        DEN       RILD       RFOC   
# ...
 3020.5000     4.5709   133.1712   -41.7707     0.2903     8.9091   -18.2513     0.0384     2.5243     4.3035     5.5047
 3021.0000     4.0810   137.1101   -41.6963     0.2927     8.9091   -10.5870     0.0051     2.5220     4.0427     5.3169
 3021.5000     3.6598   139.2434   -41.4471     0.2921     8.9091   -10.4414     0.0036     2.5174     3.7192     5.0621
 3022.0000     3.2747   142.5791   -40.8483     0.2949     8.9091   -17.8195     0.0141     2.4981     3.3276     4.7908
 3022.5000     2.9099   150.7412   -40.5413     0.3184     8.9091   -17.6691     0.0322     2.4736     2.9018     4.2562
 3023.0000     2.6958   164.9366   -39.9331     0.3472     8.9091   -32.5613     0.0458     2.4570     2.6638     3.6519
 3023.5000     2.7340   186.3718   -39.7767     0.3529     8.9091   -47.4533     0.0456     2.4404     2.6829     3.1995
 3024.0000     2.7926   187.5958   -39.4697     0.3172     8.9091   -47.2714     0.0276     2.4343     2.7398     2.7838
 3024.5000     2.9523   179.7707   -39.4639     0.2997     8.9091   -47.1259     0.0261     2.4464     2.7786     3.0276
 3025.0000     3.3004   157.7706   -39.4829     0.2807     8.9091   -39.4616     0.0260     2.4826     2.8377     3.4447
 3025.5000     3.7152   140.2918   -39.9026     0.2631     8.9091   -31.7973     0.0260     2.5045     2.8979     5.3237
 3026.0000     4.0674   124.3212   -40.1995     0.2528     8.9091   -31.6517     0.0245     2.5173     3.2736     5.5132
 3026.5000     4.2413   125.2436   -40.7947     0.2522     8.9091   -31.5037    -0.0101     2.5158     3.8296     5.5139
 3027.0000     4.6433   126.4676   -41.0901     0.2610     8.9091   -31.3243    -0.0251     2.5188     4.5583     5.5920
 3027.5000     5.1907   126.4857   -41.2349     0.2613     8.9091   -47.0794    -0.0221     2.5294     4.8537     5.8315
 3028.0000     5.1916   126.5067   -41.3797     0.2591     8.9091   -61.1084    -0.0100     2.5331     4.9914     5.8731
 3028.5000     5.1923   126.5240   -41.5245     0.2565     8.9091   -68.4817     0.0112     2.5331     5.0269     5.8741
 3029.0000     5.1568   126.5414   -41.6693     0.2550     8.9091   -68.3361     0.0447     2.5331     5.0981     5.7935
 3029.5000     5.1937   126.5588   -41.5114     0.2537     8.9091   -60.6719     0.0520     2.5316     5.0988     5.7140
 3030.0000     5.1584   127.7828   -41.5056     0.2553     8.9091   -60.5263     0.0355     2.5301     5.0997     5.4809
 3030.5000     5.1591   130.2178   -41.4998     0.2595     8.9091   -45.3384     0.0294     2.5300     5.1003     5.1485
 3031.0000     5.1240   132.6485   -41.4940     0.2610     8.9091   -45.1613     0.0265     2.5300     5.1010     4.9713
 3031.5000     5.1248   134.4758   -41.6389     0.2607     8.9091   -37.4970     0.0205     2.5300     5.0662     5.0085
 3032.0000     5.0545   133.8898   -41.4810     0.2595     8.9091   -44.9067     0.0054     2.5308     5.0670     5.2595
 3032.5000     4.9510   132.0973   -41.4752     0.2583     8.9091   -44.7247    -0.0051     2.5323     4.9629     5.4848
 3033.0000     4.8494   131.5113   -41.3188     0.2583     8.9091   -44.5792    -0.0113     2.5337     4.7896     5.6800
 3033.5000     4.6518   131.5792   -41.3130     0.2619     8.9091   -44.4336    -0.0095     2.5368     4.5666     5.8007
 3034.0000     4.4565   133.3604   -41.3072     0.2701     8.9091   -44.2857    -0.0035     2.5382     4.3803     5.6421
 3034.5000     4.1342   135.1877   -41.0000     0.2767     8.9091   -44.1062     0.0358     2.5397     3.9741     5.5206
 3035.0000     3.8569   138.2217   -40.5412     0.2946     8.9091   -43.9607     0.0509     2.5397     3.5805     5.2640
 3035.5000     3.5732   144.8755   -40.2341     0.2927     8.9091   -43.8152     0.0645     2.5397     3.4107     4.8763
 3036.0000     3.3104   152.4344   -40.0778     0.2855     8.9091   -43.6697     0.0677     2.5343     3.2489     4.4858
 3036.5000     3.0457   164.8241   -40.0720     0.3070     8.9091   -43.5241     0.0445     2.5200     3.0043     4.0131
 3037.0000     2.9213   179.6228   -40.0662     0.3317     8.9091   -43.3786     0.0179     2.5125     2.8472     3.3487
 3037.5000     2.8617   190.4999   -39.7590     0.3366     8.9066   -43.2331     0.0209     2.5109     2.8277     3.1420
 3038.0000     3.0259   192.3229   -39.7519     0.3248     8.8333   -35.5639     0.0285     2.5117     2.8879     3.0383
 3038.5000     3.2898   187.2164   -39.7461     0.3000     8.8030   -12.8305     0.0316     2.5155     2.9906     3.4209
 3039.0000     3.5767   174.5641   -39.7403     0.2930     8.7879   -12.6849     0.0226     2.5185     3.0969     3.7983
 3039.5000     3.9158   157.8197   -39.8851     0.2799     8.8030   -12.5394     0.0015     2.5277     3.1848     4.3973
 3040.0000     4.2870   134.7842   -40.1805     0.2622     8.8030   -12.4060    -0.0075     2.5388     3.4008     5.3825
 3040.5000     4.6694   126.9541   -40.7805     0.2565     8.8182   -27.2860     0.0054     2.5396     3.7651     5.4970
 3041.0000     5.2834   127.5791   -41.5229     0.2574     8.8182   -42.1805     0.0393     2.5395     4.2982     5.4979
 3041.5000     5.3581   127.5965   -41.8183     0.2586     8.8182   -42.0301     0.0378     2.5380     4.8053     5.6147
 3042.0000     5.6655   127.0106   -41.8125     0.2571     8.8485   -41.8506     0.0288     2.5297     5.2611     5.8146
 3042.5000     5.7059   126.7263   -42.1079     0.2531     8.8485   -41.7051     0.0062     2.5236     5.4104     6.0636
 3043.0000     5.7066   127.0497   -41.9515     0.2565     8.8333   -41.5596    -0.0118     2.5153     5.5254     6.1495
 3043.5000     5.7475   127.0670   -41.7951     0.2595     8.8485   -26.3764    -0.0284     2.5002     5.5701     6.0652
 3044.0000     5.8286   127.0844   -41.6386     0.2595     8.8333   -11.1933    -0.0314     2.4911     5.6831     6.0660
 3044.5000     5.8702   126.8001   -41.4809     0.2571     8.8182   -11.0477    -0.0223     2.4881     5.7636     6.1522
 3045.0000     5.9120   125.3092   -41.4751     0.2537     8.8182   -10.9023    -0.0298     2.4881     5.8860     6.2830
 3045.5000     5.8718   122.9176   -41.6213     0.2477     8.8182   -11.7524    -0.0388     2.4888     5.8868     6.2838
 3046.0000     5.7513   119.0135   -41.7661     0.2440     8.8333   -25.6488    -0.0373     2.4903     5.8467     6.3286
 3046.5000     5.7520   116.9149   -41.9096     0.2432     8.8182   -33.0221    -0.0267     2.4941     5.7667     6.3294
 3047.0000     5.6309   119.9532   -41.9037     0.2429     8.8333   -40.3953    -0.0040     2.4981     5.6482     6.3250
 3047.5000     5.4803   127.5120   -41.8965     0.2401     8.8333   -32.6946     0.0126     2.5016     5.5709     5.9881
 3048.0000     5.4051   128.1327   -41.7401     0.2353     8.8333   -25.0303     0.0043     2.4970     5.4948     5.7437
 3048.5000     5.3314   128.5022   -41.5837     0.2368     8.8333    -9.8472    -0.0159     2.4955     5.3075     5.6648
 3049.0000     5.5981   129.3785   -41.4273     0.2462     8.8333    -9.6992    -0.0144     2.4940     5.2712     5.6658
 3049.5000     5.6773   129.9991   -41.4215     0.2580     8.8333    -9.5198     0.0007     2.4940     5.3460     5.7061
 3050.0000     5.6781   130.3182   -41.4157     0.2571     8.8333   -24.4361     0.0189     2.4992     5.5748     5.7069
 3050.5000     5.6789   129.4306   -41.4096     0.2447     8.8333   -39.3403     0.0098     2.5040     5.6538     5.8754
 3051.0000     5.6798   127.3363   -41.5547     0.2347     8.8333   -46.6772     0.0023     2.5105     5.6942     6.2498
 3051.5000     5.6806   123.7382   -41.6980     0.2305     8.8333   -54.0868     0.0025     2.5166     5.7347     6.6551
 3052.0000     5.6813   118.6273   -41.6922     0.2299     8.8333   -61.4286     0.0100     2.5181     5.7355     6.8439
 3052.5000     5.6821   117.1364   -41.6864     0.2334     8.8333   -53.7594     0.0070     2.5211     5.7382     6.7032
 3053.0000     5.6828   118.9637   -41.6796     0.2395     8.8372   -38.5714     0.0010     2.5248     5.6996     6.5201
 3053.5000     5.6023   125.9193   -41.6738     0.2474     8.8485   -38.3944     0.0040     2.5271     5.6219     6.1981
