~VERSION INFORMATION
 VERS.                2.0:   CWLS LOG ASCII STANDARD - VERSION 2.0
 WRAP.                 NO:   ONE LINE PER DEPTH STEP
~WELL INFORMATION
#MNEM.UNIT      DATA TYPE    INFORMATION
#----------   ------------   ------------------------------
 STRT.F          206.0000:   START DEPTH
 STOP.F         3080.5000:   STOP DEPTH
 STEP.F            0.5000:   STEP LENGTH
 NULL.          -999.2500:   NO VALUE
 COMP.    FENIX & SCISSON:   COMPANY
 WELL.   FENIX "A" #61-28:   WELL
 FLD .           N P R #3:   FIELD
 LOC .      S28 T39N R78W:   LOCATION
 CNTY.            NATRONA:   COUNTY
 STAT.            WYOMING:   STATE
 CTRY. UNITED STATES OF AMERICA:   COUNTRY
 SRVC.        SCHLUMBEGER:   SERVICE COMPANY
 DATE.        16-MAY-1977:   LOGDATE
 API .     49025103680000:   API NUMBER
~CURVE INFORMATION
#MNEM.UNIT       API CODE    CURVE DESCRIPTION
#----------   ------------   ------------------------------
 DEPT.F                  :   
 SPR .MV     07 010 01 00:   SPONTANEOUS POTENTIAL
 LL8 .OHMM   07 220 08 00:   LATEROLOG-8 RES.
 ILM .OHMM   07 120 44 00:   INDUCTION LOG MEDIUM RESISTIVITY
 ILD .OHMM   07 120 46 00:   DEEP INDUCTION RESISTIVITY
 CALD.IN     45 280 60 00:   CALIPER FROM DENSITY LOG
 GRD .GAPI   45 310 01 00:   GAMMA RAY FROM DENSITY LOG
 RHOB.G/C3   45 350 01 00:   BULK DENSITY
 CORR.G/C3   45 356 01 00:   DENSITY CORRECTION
~PARAMETER INFORMATION
#MNEM.UNIT          VALUE    DESCRIPTION
#----------   ------------   ------------------------------
 EKB .F         5019.0000:   Kelly bushing
 EGL .F         5009.0000:   Ground level
 EDF .F            0.0000:   Drilling floor
 TD  .F         3050.0000:   Total depth
 DATE.        16-MAY-1977:   Date logged
 CLNT.            A2DTECH:   Client Code
 SL  . 330' FNL & 1650' FEL:   Surface Location
 PD  .                 GL:   Permanent Datum
 DD  .F              3050:   Depth driller
 DL  .F              3079:   Depth logger
 BLI .F              3072:   Bottom log interval
 CS1 .IN            8.625:   Casing size
 CBD1.      8.625" @ 213':   Casing driller 1
 CBL1.F               213:   Casing logger 1
 BS1 .IN            7.875:   Bit size
 DFT .            KCL-MUD:   Type fluid in hole
 DFD .                9.2:   Density
 DFV .                 32:   Viscosity
 DFPH.                  8:   pH
 DFL .                7.6:   Fluid loss
 MSS .              CIRC.:   Source of sample
 RMS .OHMM          0.128:   Rm
 MST .F                62:   Rm Meas. temp.
 RMF .OHMM          0.126:   Rmf
 MFST.F                62:   Rmf Meas. temp.
 RMC .OHMM          0.192:   Rmc
 MCST.F                62:   Rmc Meas. temp.
 MFSS.               MEAS:   Source Rmf.
 RMB .OHMM           0.07:   Rm. at BHT
 BHT .F               112:   BHT.
 TCS .HRS            0900:   Time Circ. stopped
 MRT .F               112:   Maximum recorded temp.
 LUN .               7711:   Logging unit number
 LUL .               CSPR:   Logging unit location
 ENGI.             SAYLER:   Recorded By
 WITN.         PETTINGILL:   Witnessed by
 ORIG.           5" PRINT:   Origin of data
 UWI .     49025103680000:   Unique Well ID
 DICO. A2D TECHNOLOGIES, INC.:   Digitizing Company
 DAPD.                 10:   Feet Above Permanent Datum
 BSD1.               3050:   Depth drilled with bit1
 MCSS.               CALC:   Source Rmc.
 EPD .F              5009:   Elevation Permanent Datum
 LMF .                 KB:   Log Measured From
 DMF .                 KB:   Drilling Measured From
 TLI .F               213:   Top log interval
 TLAB.               1100:   Time logger at bottom
~OTHER INFORMATION
~A   DEPT      SPR        LL8        ILM        ILD       CALD         GRD      RHOB       CORR   
# ...
 2838.5000   -57.3940     6.0810     5.3530     5.1910     9.2090   137.9440     2.5230     0.0130
 2839.0000   -57.3740     6.1770     5.3790     5.2140     9.2020   134.7020     2.5200     0.0110
 2839.5000   -57.3540     6.2730     5.4010     5.2370     9.1950   140.1120     2.5180     0.0090
 2840.0000   -57.3340     6.3690     5.4240     5.2600     9.1890   145.0150     2.5150     0.0140
 2840.5000   -57.3140     6.4650     5.4460     5.2830     9.1820   147.9330     2.5160     0.0130
 2841.0000   -57.2940     6.5610     5.4690     5.3050     9.1760   147.9650     2.5140     0.0040
 2841.5000   -57.2730     6.6370     5.4910     5.3230     9.1730   147.0200     2.5120     0.0060
 2842.0000   -57.2530     6.5690     5.5130     5.3040     9.1700   145.1350     2.5090     0.0080
 2842.5000   -57.2330     6.4850     5.5230     5.2550     9.1660   143.8390     2.5100     0.0030
 2843.0000   -57.2130     6.3980     5.4930     5.2070     9.1630   144.6060     2.5160     0.0060
 2843.5000   -57.1930     6.3980     5.4550     5.1580     9.1590   145.5100     2.5250     0.0080
 2844.0000   -57.1730     6.2420     5.4170     5.1100     9.1530   145.5260     2.5320     0.0090
 2844.5000   -57.1520     6.1900     5.3780     5.0610     9.1450   145.8330     2.5270     0.0070
 2845.0000   -57.1320     6.1380     5.3400     5.0120     9.1360   146.2660     2.5180     0.0090
 2845.5000   -57.1120     6.0860     5.3020     4.9640     9.1280   145.9760     2.5100     0.0060
 2846.0000   -57.0920     6.0340     5.2630     4.9150     9.1190   146.5000     2.5020     0.0030
 2846.5000   -57.0720     5.9820     5.2250     4.8670     9.1110   147.1220     2.5000     0.0050
 2847.0000   -57.0520     5.9300     5.1870     4.8180     9.1020   147.1210     2.4980     0.0070
 2847.5000   -57.0310     5.8780     5.1480     4.7690     9.0990   147.4800     2.4960     0.0090
 2848.0000   -57.0120     5.8260     5.1100     4.7210     9.1030   148.9370     2.4930     0.0060
 2848.5000   -56.9810     5.7740     5.0720     4.6720     9.1060   151.1910     2.4910    -0.0010
 2849.0000   -56.9360     5.7220     5.0340     4.6240     9.1090   150.4720     2.4910    -0.0040
 2849.5000   -56.8920     5.6700     4.9950     4.5950     9.1130   152.0140     2.4890    -0.0020
 2850.0000   -56.8480     5.6180     4.9570     4.5830     9.1160   151.5730     2.4890     0.0000
 2850.5000   -56.8040     5.5660     4.9190     4.5710     9.1150   153.3800     2.4940     0.0020
 2851.0000   -56.7600     5.5230     4.8800     4.5590     9.1100   153.6840     2.5000     0.0010
 2851.5000   -56.7160     5.6510     4.8560     4.5470     9.1060   151.4840     2.5060     0.0100
 2852.0000   -56.6720     5.7620     4.8900     4.5340     9.1010   147.8130     2.5130     0.0200
 2852.5000   -56.6280     5.8360     4.9540     4.5220     9.0930   143.3830     2.5190     0.0300
 2853.0000   -56.5840     5.8130     5.0170     4.5120     9.0780   139.3650     2.5220     0.0350
 2853.5000   -56.5400     5.7700     5.0810     4.5870     9.0620   139.0620     2.5140     0.0250
 2854.0000   -56.4960     5.7290     5.1440     4.6540     9.0470   142.8790     2.5030     0.0180
 2854.5000   -56.4520     5.8360     5.2080     4.7220     9.0310   144.8480     2.5160     0.0370
 2855.0000   -56.4070     5.9350     5.2710     4.7900     9.0160   143.8440     2.5180     0.0340
 2855.5000   -56.3630     6.0510     5.3340     4.8580     9.0010   143.4930     2.5130     0.0280
 2856.0000   -56.3190     6.1670     5.3980     4.9260     8.9850   142.8630     2.5130     0.0220
 2856.5000   -56.2750     6.1670     5.4610     4.9940     8.9700   141.5260     2.5190     0.0230
 2857.0000   -56.2310     6.1670     5.5250     5.0620     8.9540   140.4870     2.5250     0.0270
 2857.5000   -56.1870     6.1670     5.5880     5.1300     8.9390   138.7450     2.5290     0.0100
 2858.0000   -56.1430     6.1670     5.6520     5.1970     8.9230   137.1860     2.5270     0.0100
 2858.5000   -56.0990     6.1670     5.7150     5.2650     8.9180   137.3200     2.5250     0.0110
 2859.0000   -56.0550     6.3670     5.7790     5.3330     8.9180   136.1790     2.5230     0.0120
 2859.5000   -56.0110     6.6390     5.8360     5.4010     8.9180   134.7570     2.5170     0.0100
 2860.0000   -55.9670     6.9110     5.7700     5.4220     8.9180   135.1700     2.5110     0.0030
 2860.5000   -55.9230     7.2760     5.6750     5.3510     8.9180   136.3830     2.5050    -0.0040
 2861.0000   -55.8780     7.1980     5.5800     5.2710     8.9180   136.0950     2.4980    -0.0100
 2861.5000   -55.8340     6.8850     5.4840     5.1900     8.9190   134.2240     2.4990    -0.0040
 2862.0000   -55.7960     6.5730     5.3890     5.1100     8.9220   133.3280     2.5000     0.0020
 2862.5000   -55.7780     6.2600     5.2940     5.0290     8.9240   135.9420     2.5030     0.0030
 2863.0000   -55.7590     5.9480     5.1990     4.9490     8.9270   139.0110     2.5120     0.0080
 2863.5000   -55.7400     5.6250     5.1040     4.8680     8.9300   141.1980     2.5210     0.0150
 2864.0000   -55.7220     5.6250     4.9460     4.7880     8.9330   140.4800     2.5270     0.0160
 2864.5000   -55.7030     5.6940     4.9860     4.7670     8.9350   139.5160     2.5240     0.0130
 2865.0000   -55.6850     5.8950     5.1030     4.7670     8.9380   138.8810     2.5320     0.0080
 2865.5000   -55.6660     6.0960     5.2210     4.8850     8.9410   138.7210     2.5320     0.0040
 2866.0000   -55.6470     6.2960     5.3380     4.9900     8.9440   138.6110     2.5280     0.0030
 2866.5000   -55.6290     6.4970     5.4550     5.0960     8.9460   136.4510     2.5240     0.0050
 2867.0000   -55.6100     6.6980     5.5720     5.2010     8.9490   134.0500     2.5210     0.0050
 2867.5000   -55.5920     6.8990     5.6900     5.3060     8.9520   132.7140     2.5180     0.0040
 2868.0000   -55.5730     7.0140     5.8070     5.4110     8.9540   129.4770     2.5150     0.0010
 2868.5000   -55.5550     6.7920     5.9240     5.5160     8.9570   126.4010     2.5120    -0.0010
 2869.0000   -55.5360     6.5750     6.0420     5.6210     8.9560   125.0410     2.5090    -0.0070
 2869.5000   -55.5170     6.3980     6.1590     5.7260     8.9520   125.0430     2.5060    -0.0100
 2870.0000   -55.4990     6.4770     6.2810     5.8360     8.9480   127.0670     2.5090    -0.0030
 2870.5000   -55.4810     6.6930     6.2810     5.8360     8.9440   130.0440     2.5120    -0.0010
 2871.0000   -55.4620     6.9100     6.0900     5.7290     8.9410   130.7610     2.5080    -0.0050
 2871.5000   -55.4430     7.0140     5.8320     5.7290     8.9360   131.3140     2.5050    -0.0040
 2872.0000   -55.4260     6.7990     5.5740     5.4050     8.9300   134.1890     2.5140     0.0020
 2872.5000   -55.4020     6.5090     5.3160     5.1140     8.9240   137.3890     2.5230     0.0080
 2873.0000   -55.4420     6.2200     5.0590     4.8220     8.9180   141.6320     2.5310     0.0100
 2873.5000   -55.5190     5.9440     4.8010     4.5310     8.9120   145.8270     2.5200     0.0080
 2874.0000   -55.5870     5.4200     4.5430     4.2390     8.9060   149.7580     2.5080     0.0050
 2874.5000   -55.6590     4.9100     4.2850     3.9480     8.9000   150.8810     2.4960     0.0070
 2875.0000   -55.7270     4.3890     4.0270     3.6570     8.8940   157.7920     2.4870     0.0110
 2875.5000   -55.7920     3.8670     3.7690     3.3650     8.8880   164.8900     2.4840     0.0140
 2876.0000   -55.7280     3.3450     3.5110     3.1240     8.8820   171.1460     2.4650     0.0050
 2876.5000   -55.6590     2.7970     3.2400     2.9020     8.8760   171.7690     2.4750     0.0180
 2877.0000   -55.5840     3.3360     3.5970     2.9020     8.8700   161.5640     2.4940     0.0280
 2877.5000   -55.5130     4.6430     3.9710     3.3430     8.8650   151.2630     2.5130     0.0250
 2878.0000   -55.4410     6.0540     4.3450     3.7310     8.8590   139.8020     2.5330     0.0280
 2878.5000   -55.3690     6.0870     4.7190     4.1180     8.8620   129.6920     2.5460     0.0160
