~VERSION INFORMATION
 VERS.                2.0:   CWLS LOG ASCII STANDARD - VERSION 2.0
 WRAP.                 NO:   ONE LINE PER DEPTH STEP
~WELL INFORMATION
#MNEM.UNIT      DATA TYPE    INFORMATION
#----------   ------------   ------------------------------
 STRT.F            0.0000:   START DEPTH
 STOP.F         4030.0000:   STOP DEPTH
 STEP.F            0.5000:   STEP LENGTH
 NULL.          -999.2500:   NO VALUE
 COMP.  FENIX AND SCISSON:   COMPANY
 WELL.  FENIX "LX" #33-10:   WELL
 FLD . TEAPOT DOME (NPR #3):   FIELD
 LOC .      S10 T38N R78W:   LOCATION
 CNTY.            NATRONA:   COUNTY
 STAT.            WYOMING:   STATE
 CTRY. UNITED STATES OF AMERICA:   COUNTRY
 SRVC.       SCHLUMBERGER:   SERVICE COMPANY
 DATE.        03-APR-1978:   LOGDATE
 API .     49025105980000:   API NUMBER
~CURVE INFORMATION
#MNEM.UNIT       API CODE    CURVE DESCRIPTION
#----------   ------------   ------------------------------
 DEPT.F                  :   
 SPR .MV     07 010 01 00:   SPONTANEOUS POTENTIAL
 ILD .OHMM   07 120 46 00:   DEEP INDUCTION RESISTIVITY
 SFL .OHMM   07 220 01 00:   SHALLOW FOCUSED LOG RESISTIVITY
 ILM .OHMM   07 120 44 00:   INDUCTION LOG MEDIUM RESISTIVITY
 NPHI.DEC    42 890 03 00:   NEUTRON POROSITY SANDSTONE
 GRD .GAPI   45 310 01 00:   GAMMA RAY FROM DENSITY LOG
 CALD.IN     45 280 60 00:   CALIPER FROM DENSITY LOG
 RHOB.G/C3   45 350 01 00:   BULK DENSITY
 CORR.G/C3   45 356 01 00:   DENSITY CORRECTION
~PARAMETER INFORMATION
#MNEM.UNIT          VALUE    DESCRIPTION
#----------   ------------   ------------------------------
 EKB .F         5232.0000:   Kelly bushing
 EGL .F         5222.0000:   Ground level
 EDF .F            0.0000:   Drilling floor
 EPD .F         5222.0000:   Permanent datum
 TD  .F         4040.0000:   Total depth
 DATE.        03-APR-1978:   Date logged
 CLNT.            A2DTECH:   Client Code
 SL  . 1700' FNL & 1700' FWL:   Surface Location
 PD  .                 GL:   Permanent Datum
 DD  .F              4040:   Depth driller
 DL  .F              4031:   Depth logger
 BLI .F              4025:   Bottom log interval
 CS1 .IN            8.625:   Casing size
 CBD1.      8.625" @ 503':   Casing driller 1
 CBL1.F               504:   Casing logger 1
 BS1 .IN            7.875:   Bit size
 DFT .           CHEM GEL:   Type fluid in hole
 DFD .                9.5:   Density
 DFV .                 43:   Viscosity
 DFPH.               11.5:   pH
 DFL .                4.4:   Fluid loss
 MSS .            MUD PIT:   Source of sample
 RMS .OHMM           1.16:   Rm
 MST .F                80:   Rm Meas. temp.
 RMF .OHMM           0.93:   Rmf
 MFST.F                80:   Rmf Meas. temp.
 RMC .OHMM           1.74:   Rmc
 MCST.F                80:   Rmc Meas. temp.
 MFSS.               MEAS:   Source Rmf.
 RMB .OHMM          0.742:   Rm. at BHT
 BHT .F               125:   BHT.
 TCS .HRS            0800:   Time Circ. stopped
 MRT .F               125:   Maximum recorded temp.
 LUN .               7660:   Logging unit number
 LUL .                GLT:   Logging unit location
 ENGI.            TOEPPER:   Recorded By
 WITN.           MCGINLEY:   Witnessed by
 ORIG.         2.5" PRINT:   Origin of data
 UWI .     49025105980000:   Unique Well ID
 DICO. A2D TECHNOLOGIES, INC.:   Digitizing Company
 DAPD.                 10:   Feet Above Permanent Datum
 BSD1.               4040:   Depth drilled with bit1
 MCSS.               CALC:   Source Rmc.
 LMF .                 KB:   Log Measured From
 DMF .                 KB:   Drilling Measured From
 TLI .                504:   Top log interval
 TLAB.               1000:   Time logger at bottom
~OTHER INFORMATION
~A    DEPT     SPR        ILD        SFL        ILM       NPHI         GRD      CALD       RHOB       CORR   
# ...
 1679.0000   -39.0670     6.7600     7.4320     6.8860     0.2860    92.6760    11.5190     2.5780     0.0340
 1679.5000   -38.9400     6.7850     7.5010     6.9170     0.2850    94.6340    11.5170     2.6020     0.0230
 1680.0000   -38.8070     6.8110     7.5690     6.9510     0.2900    96.6570    11.5160     2.6080     0.0290
 1680.5000   -38.6760     6.8380     7.6380     6.9850     0.2950    98.6320    11.5140     2.5930     0.0380
 1681.0000   -38.5440     6.8650     7.6890     7.0190     0.3000    98.0780    11.5130     2.5740     0.0150
 1681.5000   -38.4140     6.8920     7.6050     7.0530     0.2990    97.3990    11.5110     2.5530    -0.0020
 1682.0000   -38.2830     6.9180     7.5070     7.0880     0.2950    96.5740    11.5100     2.5630     0.0090
 1682.5000   -38.1460     6.9450     7.4110     7.1220     0.2880    96.6130    11.5080     2.5820     0.0200
 1683.0000   -38.0540     6.9720     7.4390     7.1560     0.2810    97.1780    11.5070     2.6000     0.0320
 1683.5000   -38.0490     6.9990     7.5680     7.1900     0.2750    97.6900    11.5050     2.6090     0.0380
 1684.0000   -38.0240     7.0260     7.6980     7.2240     0.2690    98.2390    11.5030     2.5900     0.0300
 1684.5000   -38.2540     7.0530     7.8310     7.2590     0.2750    98.8040    11.5020     2.5670     0.0220
 1685.0000   -38.4270     7.0790     7.7580     7.2930     0.2820    99.1900    11.5000     2.5550     0.0140
 1685.5000   -38.7680     7.1060     7.6280     7.3270     0.2850   100.9480    11.4990     2.5470     0.0070
 1686.0000   -38.9280     7.1330     7.4980     7.3610     0.2830   103.9500    11.4970     2.5630     0.0150
 1686.5000   -39.0300     7.1600     7.4110     7.3950     0.2800   106.4090    11.4960     2.5830     0.0250
 1687.0000   -39.1000     7.1860     7.4760     7.4300     0.2780   103.4380    11.4940     2.6010     0.0350
 1687.5000   -39.2020     7.2130     7.5460     7.4640     0.2760   100.5900    11.4930     2.6230     0.0430
 1688.0000   -39.2880     7.2400     7.6150     7.4980     0.2780    99.4930    11.4910     2.6080     0.0390
 1688.5000   -39.3750     7.2670     7.6850     7.5330     0.2810    99.4960    11.4900     2.6290     0.0440
 1689.0000   -39.4690     7.2930     7.7550     7.5670     0.2840    98.0310    11.4880     2.6240     0.0620
 1689.5000   -39.5560     7.3200     7.8250     7.6010     0.2870    96.5880    11.4870     2.6090     0.0550
 1690.0000   -39.6250     7.3470     7.8950     7.6360     0.2890    95.2290    11.4850     2.5810     0.0280
 1690.5000   -39.4950     7.3750     7.9770     7.6880     0.2820    94.2470    11.4840     2.5940     0.0330
 1691.0000   -39.3670     7.4090     7.9190     7.6600     0.2720    96.4510    11.4820     2.6140     0.0390
 1691.5000   -39.1050     7.3770     7.8490     7.5890     0.2600    98.4640    11.4810     2.6030     0.0450
 1692.0000   -38.8170     7.3190     7.7790     7.5180     0.2620    99.7430    11.4790     2.6020     0.0500
 1692.5000   -38.8540     7.2600     7.7100     7.4460     0.2650    99.5640    11.4780     2.5860     0.0220
 1693.0000   -38.8400     7.2030     7.6400     7.3760     0.2680    99.4770    11.4760     2.5730     0.0050
 1693.5000   -38.8560     7.1450     7.5700     7.3050     0.2700    97.7520    11.4750     2.5700     0.0000
 1694.0000   -38.6860     7.0870     7.5000     7.2340     0.2720    96.0330    11.4730     2.5790     0.0040
 1694.5000   -38.2350     7.0150     7.4300     7.1470     0.2740    94.0150    11.4720     2.5480     0.0100
 1695.0000   -38.0210     7.0190     7.4110     7.1530     0.2750    94.0720    11.4700     2.5670     0.0160
 1695.5000   -38.0960     7.0250     7.4870     7.1660     0.2770    96.2520    11.4690     2.5960     0.0230
 1696.0000   -38.2920     7.0320     7.5690     7.1790     0.2790    97.9440    11.4670     2.5780     0.0090
 1696.5000   -38.6990     7.0390     7.6510     7.1910     0.2820    97.8460    11.4650     2.5830     0.0020
 1697.0000   -38.4040     7.0460     7.7330     7.2040     0.2840    97.6890    11.4640     2.5850     0.0090
 1697.5000   -38.4670     7.0530     7.8150     7.2170     0.2870    97.4790    11.4620     2.5890     0.0160
 1698.0000   -38.5280     7.0600     7.8980     7.2290     0.2950    97.2860    11.4610     2.5610     0.0230
 1698.5000   -38.9190     7.0670     7.9770     7.2420     0.3030    98.1010    11.4590     2.5790     0.0300
 1699.0000   -39.2740     7.0730     7.7940     7.2550     0.3030    99.3740    11.4580     2.5910     0.0380
 1699.5000   -39.6100     7.0800     7.6180     7.2680     0.2980   100.4910    11.4570     2.6030     0.0460
 1700.0000   -39.4330     7.0870     7.5490     7.2810     0.2880   101.8330    11.4690     2.5990     0.0510
 1700.5000   -39.2590     7.0940     7.5490     7.2930     0.2790   100.2580    11.4810     2.5920     0.0370
 1701.0000   -39.0230     7.1010     7.5660     7.3060     0.2710    98.1450    11.4940     2.5840     0.0260
 1701.5000   -38.8400     7.1080     7.5840     7.3190     0.2820    95.8740    11.5060     2.5770     0.0150
 1702.0000   -38.1030     7.1150     7.6010     7.3320     0.2890    93.8250    11.5190     2.5690     0.0040
 1702.5000   -37.9880     7.1220     7.6180     7.3440     0.2880    91.8760    11.5300     2.5770     0.0190
 1703.0000   -37.8720     7.1290     7.6360     7.3570     0.2860    93.3800    11.5540     2.6050     0.0370
 1703.5000   -37.8000     7.1350     7.6530     7.3700     0.2860    95.0010    11.5880     2.6400     0.0550
 1704.0000   -37.6980     7.1420     7.6700     7.3820     0.2860    95.7080    11.6180     2.6360     0.0440
 1704.5000   -37.6400     7.1270     7.6880     7.3950     0.2900    95.5910    11.6480     2.5890     0.0250
 1705.0000   -37.6540     7.1040     7.6710     7.4080     0.2920    95.9390    11.6820     2.6090     0.0240
 1705.5000   -37.6500     7.0810     7.6380     7.3850     0.2960    96.5350    11.6840     2.6140     0.0240
 1706.0000   -37.6290     7.0580     7.6040     7.3490     0.3000    97.0750    11.6570     2.5760     0.0290
 1706.5000   -37.8560     7.0350     7.5720     7.3130     0.3040    97.5970    11.6340     2.5920     0.0330
 1707.0000   -38.0380     7.0130     7.5390     7.2780     0.3060    98.4890    11.6100     2.6140     0.0370
 1707.5000   -38.3700     6.9900     7.5060     7.2430     0.3050   100.6450    11.5860     2.6020     0.0410
 1708.0000   -38.3480     6.9670     7.4730     7.2080     0.3040   100.2900    11.5630     2.6240     0.0450
 1708.5000   -38.2180     6.9440     7.4410     7.1720     0.3040    98.5280    11.5380     2.6030     0.0320
 1709.0000   -38.4750     6.9220     7.4120     7.1370     0.3030    96.9330    11.5140     2.6300     0.0200
 1709.5000   -38.4430     6.8990     7.4480     7.1020     0.2920    95.3630    11.4960     2.6140     0.0060
 1710.0000   -38.4430     6.8760     7.4970     7.0660     0.2880    93.7920    11.5000     2.5680     0.0230
 1710.5000   -38.4880     6.8540     7.5460     7.0310     0.2850    92.0830    11.5050     2.5750     0.0180
 1711.0000   -38.5290     6.8310     7.5950     6.9950     0.2890    92.4410    11.5100     2.5800     0.0140
 1711.5000   -38.5800     6.8080     7.6440     6.9600     0.2860    93.9070    11.5150     2.5860     0.0070
 1712.0000   -38.6260     6.7850     7.6890     6.9250     0.2810    95.2690    11.5200     2.5840     0.0030
 1712.5000   -38.6750     6.7600     7.6410     6.8860     0.2760    96.5100    11.5250     2.5710     0.0130
 1713.0000   -38.7210     6.8300     7.5970     6.9820     0.2710    97.8910    11.5290     2.5850     0.0350
 1713.5000   -38.7670     6.9070     7.5490     7.0890     0.2660    97.0860    11.5340     2.6030     0.0540
 1714.0000   -38.8270     6.9840     7.6250     7.1960     0.2630    96.1700    11.5390     2.6350     0.0750
 1714.5000   -38.7780     7.0610     7.7820     7.3030     0.2600    95.1130    11.5440     2.6560     0.0780
 1715.0000   -38.6170     7.1390     7.9390     7.4100     0.2550    95.9030    11.5490     2.6340     0.0700
