~VERSION INFORMATION
 VERS.                2.0:   CWLS LOG ASCII STANDARD - VERSION 2.0
 WRAP.                 NO:   ONE LINE PER DEPTH STEP
~WELL INFORMATION
#MNEM.UNIT      DATA TYPE    INFORMATION
#----------   ------------   ------------------------------
 STRT.F          174.0000:   START DEPTH
 STOP.F         3492.0000:   STOP DEPTH
 STEP.F            0.5000:   STEP LENGTH
 NULL.          -999.2500:   NO VALUE
 COMP.    FENIX & SCISSON:   COMPANY
 WELL.   FENIX "AX" #18-3:   WELL
 FLD .        TEAPOT DOME:   FIELD
 LOC .       S3 T38N R78W:   LOCATION
 CNTY.            NATRONA:   COUNTY
 STAT.            WYOMING:   STATE
 CTRY. UNITED STATES OF AMERICA:   COUNTRY
 SRVC.       SCHLUMBERGER:   SERVICE COMPANY
 DATE.        09-FEB-1981:   LOGDATE
 API .     49025108630000:   API NUMBER
~CURVE INFORMATION
#MNEM.UNIT       API CODE    CURVE DESCRIPTION
#----------   ------------   ------------------------------
 DEPT.F                  :   
 CALD.IN     45 280 60 00:   CALIPER FROM DENSITY LOG
 GRD .GAPI   45 310 01 00:   GAMMA RAY FROM DENSITY LOG
 RHOB.G/C3   45 350 01 00:   BULK DENSITY
 DRHO.G/C3   45 356 01 00:   DENSITY CORRECTION
 TENR.LBS    07 635 01 00:   TENSION FROM RESISTIVITY
 SPR .MV     07 010 01 00:   SPONTANEOUS POTENTIAL
 ILM .OHMM   07 120 44 00:   INDUCTION LOG MEDIUM RESISTIVITY
 ILD .OHMM   07 120 46 00:   INDUCTION LOG DEEP RESISTIVITY
 SFLU.OHMM   07 220 01 00:   SPHERICALLY FOCUSED LOG UNAVERAGED RESISTIVITY
~PARAMETER INFORMATION
#MNEM.UNIT          VALUE    DESCRIPTION
#----------   ------------   ------------------------------
 EKB .F         5267.0000:   Kelly bushing
 EGL .F         5257.0000:   Ground level
 EDF .F            0.0000:   Drilling floor
 TD  .F         3472.0000:   Total depth
 DATE.        09-FEB-1981:   Date logged
 CLNT.            A2DTECH:   Client Code
 SL  . 669' FSL & 42' FWL:   Surface Location
 PD  .                 GL:   Permanent Datum
 DD  .F              3401:   Depth driller
 DL  .F              3472:   Depth logger
 BLI .F              3466:   Bottom log interval
 CS1 .IN            8.625:   Casing size
 CBD1.      8.625" @ 200':   Casing driller 1
 CBL1.F               196:   Casing logger 1
 BS1 .IN            7.875:   Bit size
 DFT .            KCL/GEL:   Type fluid in hole
 DFD .                  9:   Density
 DFV .                 60:   Viscosity
 DFPH.                8.5:   pH
 DFL .                 10:   Fluid loss
 MSS .            MUD/PIT:   Source of sample
 RMS .OHMM           1.88:   Rm
 MST .F                75:   Rm Meas. temp.
 RMF .OHMM           1.12:   Rmf
 MFST.F                75:   Rmf Meas. temp.
 MFSS.               MEAS:   Source Rmf.
 RMB .OHMM           1.21:   Rm. at BHT
 BHT .F               120:   BHT.
 TCS .HRS            1800:   Time Circ. stopped
 MRT .F               120:   Maximum recorded temp.
 LUN .               8043:   Logging unit number
 LUL .               CSPR:   Logging unit location
 ENGI.            CONNETT:   Recorded By
 WITN.              SCOTT:   Witnessed by
 ORIG.           5" PRINT:   Origin of data
 UWI .     49025108630000:   Unique Well ID
 DICO. A2D TECHNOLOGIES, INC.:   Digitizing Company
 DAPD.F                10:   Feet Above Permanent Datum
 BSD1.F              3401:   Depth drilled with bit1
 EPD .F              5257:   Elevation Permanent Datum
 LMF .                 KB:   Log Measured From
 DMF .                 KB:   Drilling Measured From
 TLI .F               196:   Top log interval
 TLAB.               0000:   Time logger at bottom
~OTHER INFORMATION
~A   DEPT     CALD         GRD      RHOB       DRHO       TENR        SPR        ILM        ILD       SFLU   
# ...
 1707.0000     8.8980    95.4290     2.6160     0.0830   784.9600   -50.1980     7.7080     8.1030    10.3410
 1707.5000     8.8980    95.7080     2.6370     0.1050   785.2550   -50.1980     7.8090     8.1030    10.2030
 1708.0000     8.8980    99.4410     2.6520     0.1230   785.5500   -50.1900     7.6550     8.1030     9.6470
 1708.5000     8.8970   103.0670     2.6480     0.1290   785.8450   -50.1830     7.5340     8.1030     9.0070
 1709.0000     8.8970   103.9490     2.6350     0.1280   786.1400   -50.1750     7.4130     8.0280     8.3670
 1709.5000     8.8970   102.6510     2.6220     0.1250   786.4350   -50.1680     7.2920     7.9600     7.7270
 1710.0000     8.8970   100.8790     2.6070     0.1110   786.7300   -50.1600     7.1700     7.8130     7.2540
 1710.5000     8.8970    99.1220     2.5940     0.0950   787.0250   -50.1530     7.0560     7.6660     8.1520
 1711.0000     8.8970    96.5450     2.5960     0.0890   787.3200   -50.1450     7.2540     7.5270     8.8640
 1711.5000     8.8960    93.3380     2.6060     0.0920   787.6150   -50.1380     7.3210     7.5270     9.5760
 1712.0000     8.8960    96.6960     2.6260     0.1150   787.9100   -50.1300     7.3890     7.5270    10.3930
 1712.5000     8.8960   101.3450     2.6440     0.1400   788.2050   -50.1230     7.3890     7.5270     9.8480
 1713.0000     8.8960   105.2650     2.6670     0.1630   788.5000   -50.1160     7.3210     7.5270     9.2070
 1713.5000     8.8960   108.0330     2.6590     0.1780   788.7950   -50.1080     7.3210     7.5270     8.5670
 1714.0000     8.8950   107.9900     2.6320     0.1570   789.0900   -50.1010     7.3270     7.5270     7.8820
 1714.5000     8.8950   107.1140     2.5750     0.1300   789.3850   -50.0930     7.3370     7.5270     8.1030
 1715.0000     8.8950   105.2300     2.5820     0.1020   789.6790   -50.0860     7.3460     7.5270     8.4070
 1715.5000     8.8950   102.6570     2.5920     0.1010   789.9740   -50.0780     7.3560     7.5370     8.3910
 1716.0000     8.8950    99.6640     2.5980     0.1010   790.2690   -50.0710     7.3650     7.5790     8.3720
 1716.5000     8.8950    96.9630     2.5920     0.0940   790.5640   -50.0630     7.3740     7.6210     8.3530
 1717.0000     8.8940    96.5560     2.5850     0.0870   790.7910   -50.0560     7.3890     7.6630     8.3300
 1717.5000     8.8940    98.1150     2.5920     0.0840   790.2670   -50.0480     7.3730     7.7050     8.7810
 1718.0000     8.8940   101.4620     2.6120     0.1130   789.7600   -50.0410     7.3360     7.7380     9.3240
 1718.5000     8.8940   105.1140     2.6290     0.1320   789.2530   -50.0330     7.2990     7.6160     9.7440
 1719.0000     8.8940   108.7660     2.6300     0.1410   788.7460   -50.0260     7.2610     7.4980     8.8670
 1719.5000     8.8940   111.7810     2.6150     0.1330   788.2390   -50.0180     7.2240     7.3800     8.1520
 1720.0000     8.8930   111.8260     2.6070     0.1190   787.7320   -50.0110     7.1880     7.2610     7.8820
 1720.5000     8.8930   109.2910     2.6220     0.1310   787.2250   -50.0030     7.1250     7.1430     7.9220
 1721.0000     8.8930   105.8150     2.6390     0.1560   786.7180   -50.0000     7.0640     7.0840     7.9870
 1721.5000     8.8930   103.3900     2.6590     0.1810   786.2110   -50.0000     7.0030     7.0370     8.0520
 1722.0000     8.8930   105.2660     2.6420     0.1880   785.7030   -50.0000     6.9920     6.9920     8.1030
 1722.5000     8.8930   107.8790     2.6170     0.1440   785.1960   -50.0190     7.0520     7.0980     7.9120
 1723.0000     8.8920   110.5700     2.5920     0.1180   784.6890   -50.0540     7.1110     7.2040     7.8820
 1723.5000     8.8920   109.8220     2.5800     0.0940   784.1820   -50.0890     7.1700     7.3100     8.0500
 1724.0000     8.8920   106.8890     2.5940     0.0980   783.6750   -50.1240     7.2300     7.4150     8.1900
 1724.5000     8.8920   102.9630     2.6080     0.1020   783.1680   -50.1600     7.2890     7.5210     8.3290
 1725.0000     8.8920   103.3980     2.6130     0.1010   782.6610   -50.1970     7.3480     7.6260     8.4690
 1725.5000     8.8920   104.7560     2.6070     0.1010   782.1540   -50.1700     7.4080     7.7320     8.6080
 1726.0000     8.8910   106.4250     2.6070     0.1000   781.6470   -50.1300     7.4670     7.8380     8.7470
 1726.5000     8.8910   106.5790     2.6080     0.0970   781.1400   -50.0890     7.5270     7.9430     8.9440
 1727.0000     8.8910   106.2160     2.6170     0.0950   780.6320   -50.0490     7.3890     8.0280     9.0940
 1727.5000     8.8910   105.8410     2.6290     0.0990   780.1250   -50.0090     7.3660     7.8040     9.3050
 1728.0000     8.8910   105.9470     2.6360     0.1030   779.6180   -49.9690     7.3360     7.6150     9.1430
 1728.5000     8.8900   106.7740     2.6250     0.1070   779.1110   -49.9280     7.3070     7.4270     8.7290
 1729.0000     8.8900   107.4650     2.6090     0.0980   778.6040   -49.8880     7.2770     7.2380     8.3140
 1729.5000     8.8900   107.5460     2.5870     0.0850   778.0970   -49.8480     7.2470     7.1330     7.8090
 1730.0000     8.8900   107.6470     2.5750     0.0740   777.5900   -49.8080     7.2180     7.2370     7.8470
 1730.5000     8.8900   107.7510     2.5780     0.0790   777.0830   -49.8500     7.1880     7.3210     7.8960
 1731.0000     8.8900   107.2020     2.5810     0.0840   776.5760   -49.9060     7.3620     7.4050     7.9440
 1731.5000     8.8890   107.2540     2.5770     0.0790   776.0680   -49.9620     7.4310     7.4890     8.3660
 1732.0000     8.8890   108.2790     2.5730     0.0710   775.5610   -50.0170     7.5010     7.5720     8.8960
 1732.5000     8.8890   109.1780     2.5760     0.0670   775.0540   -50.0730     7.5700     7.6560     9.4260
 1733.0000     8.8890   107.9260     2.5890     0.0750   774.5470   -50.1290     7.6400     7.7400     9.6540
 1733.5000     8.8890   105.9500     2.5990     0.0830   774.0400   -50.1850     7.7090     7.8820     9.6000
 1734.0000     8.8890   103.6200     2.5970     0.0910   773.5330   -50.2410     7.8090     7.8640     9.2760
 1734.5000     8.8880   101.2570     2.5960     0.0970   773.0260   -50.2970     7.6670     7.8320     8.9510
 1735.0000     8.8880   100.2630     2.6060     0.1030   772.5190   -50.3530     7.6440     7.8010     8.6270
 1735.5000     8.8880   102.8330     2.6140     0.1070   772.0120   -50.3950     7.6200     7.7690     8.3020
 1736.0000     8.8880   105.2060     2.6130     0.0980   771.5040   -50.3130     7.5960     7.7380     8.0280
 1736.5000     8.8880   103.8790     2.6030     0.0880   770.9970   -50.2300     7.5720     7.7060     8.2150
 1737.0000     8.8880   102.3950     2.5940     0.0780   770.4800   -50.1480     7.5480     7.6740     8.3770
 1737.5000     8.8870   102.6060     2.5970     0.0700   769.9530   -50.0660     7.5240     7.6430     8.5380
 1738.0000     8.8870   103.5410     2.6030     0.0740   769.4270   -49.9970     7.5010     7.6110     8.6430
 1738.5000     8.8870   104.4990     2.6120     0.0840   768.9000   -49.9920     7.4770     7.5800     8.5340
 1739.0000     8.8870   105.4610     2.6140     0.0940   768.3740   -49.9860     7.4530     7.5480     8.4530
 1739.5000     8.8870   106.4380     2.5980     0.0910   767.8470   -49.9790     7.4290     7.5160     8.3720
 1740.0000     8.8870   107.3240     2.5880     0.0830   767.3210   -49.9730     7.4050     7.4850     8.2910
 1740.5000     8.8860   104.4210     2.5830     0.0800   766.7950   -49.9660     7.3890     7.4570     8.2540
 1741.0000     8.8860   101.2770     2.5990     0.0920   766.2680   -49.9600     7.3760     7.4520     8.2690
 1741.5000     8.8860    99.5920     2.6080     0.0990   765.7420   -49.9530     7.3590     7.4470     8.2830
 1742.0000     8.8860   101.1710     2.6030     0.0990   765.2150   -49.9470     7.3420     7.4420     8.2960
 1742.5000     8.8860   102.6820     2.5980     0.0760   764.6890   -49.9400     7.3240     7.4370     8.3100
 1743.0000     8.8850   104.0850     2.6060     0.0800   764.1630   -49.9340     7.3070     7.4320     8.3230
