~VERSION INFORMATION
 VERS.                2.0:   CWLS LOG ASCII STANDARD - VERSION 2.0
 WRAP.                 NO:   ONE LINE PER DEPTH STEP
~WELL INFORMATION
#MNEM.UNIT      DATA TYPE    INFORMATION
#----------   ------------   ------------------------------
 STRT.F          198.0000:   START DEPTH
 STOP.F         3140.0000:   STOP DEPTH
 STEP.F            0.5000:   STEP LENGTH
 NULL.          -999.2500:   NO VALUE
 COMP.    FENIX & SCISSON:   COMPANY
 WELL. FENIX NPR 3 "AX" #43-34:   WELL
 FLD .                NPR:   FIELD
 LOC .      S34 T39N R78W:   LOCATION
 CNTY.            NATRONA:   COUNTY
 STAT.            WYOMING:   STATE
 CTRY. UNITED STATES OF AMERICA:   COUNTRY
 SRVC.              WELEX:   SERVICE COMPANY
 DATE.        02-JUL-1977:   LOGDATE
 API .     49025103890000:   API NUMBER
~CURVE INFORMATION
#MNEM.UNIT       API CODE    CURVE DESCRIPTION
#----------   ------------   ------------------------------
 DEPT.F                  :   
 CALD.IN     45 280 60 00:   CALIPER FROM DENSITY LOG
 GRD .GAPI   45 310 01 00:   GAMMA RAY FROM DENSITY LOG
 RHOB.G/C3   45 350 01 00:   BULK DENSITY
 CORR.G/C3   45 356 01 00:   DENSITY CORRECTION
 SPR .MV     07 010 01 00:   SPONTANEOUS POTENTIAL
 SFLU.OHMM   07 220 01 00:   SPHERICALLY FOCUSED LOG UNAVERAGED RESISTIVITY
 ILD .OHMM   07 120 46 00:   DEEP INDUCTION RESISTIVITY
 ILM .OHMM   07 120 44 00:   INDUCTION LOG MEDIUM RESISTIVITY
~PARAMETER INFORMATION
#MNEM.UNIT          VALUE    DESCRIPTION
#----------   ------------   ------------------------------
 EKB .F         5118.0000:   Kelly bushing
 EGL .F         5108.0000:   Ground level
 TD  .F         3145.0000:   Total depth
 DATE.        02-JUL-1977:   Date logged
 CLNT.            A2DTECH:   Client Code
 SL  . 1650' FNL & 2310' FWL:   Surface Location
 PD  .                 GL:   Permanent Datum
 EPD .F              5108:   Elevation Permanent Datum
 LMF .                 KB:   Log Measured From
 DMF .                 KB:   Drilling Measured From
 DAPD.F                10:   Feet Above Permanent Datum
 DD  .F              3145:   Depth driller
 DL  .F              3143:   Depth logger
 BLI .F              3141:   Bottom log interval
 TLI .F               200:   Top log interval
 CS1 .IN            8.625:   Casing size
 CBD1.      8.625" @ 203':   Casing driller 1
 CBL1.F               224:   Casing logger 1
 BS1 .IN            7.875:   Bit size
 BSD1.F              3145:   Depth drilled with bit1
 DFT .            KCL/MUD:   Type fluid in hole
 DFD .                  9:   Density
 DFV .                 34:   Viscosity
 DFPH.                7.5:   pH
 DFL .                9.2:   Fluid loss
 MSS .           FLOWLINE:   Source of sample
 RMS .OHMM            .18:   Rm
 MST .F                75:   Rm Meas. temp.
 RMF .OHMM            .16:   Rmf
 MFST.F                75:   Rmf Meas. temp.
 RMC .OHMM            .30:   Rmc
 MCST.F                75:   Rmc Meas. temp.
 MFSS.               FANN:   Source Rmf.
 MCSS.                KIT:   Source Rmc.
 RMB .OHMM            .11:   Rm. at BHT
 BHT .F               118:   BHT.
 TCS .HRS            3.75:   Time Circ. stopped
 MRT .F               118:   Maximum recorded temp.
 LUN .               8766:   Logging unit number
 LUL .             CASPER:   Logging unit location
 ENGI.          T. JOYNER:   Recorded By
 WITN.     W. PETTNG/GILL:   Witnessed by
 ORIG.           5" PRINT:   Origin of data
 UWI .     49025103890000:   Unique Well ID
 DICO. A2D TECHNOLOGIES, INC.:   Digitizing Company
~OTHER INFORMATION
~A   DEPT     CALD         GRD        RHOB     CORR        SPR       SFLU        ILD        ILM   
# ...
  765.0000     9.0379   121.3944     2.4970     0.0402   -38.5266     9.3772     7.8019     6.6126
  765.5000     9.0380   118.2266     2.5010     0.0402   -38.5246     9.3792     7.8042     6.6136
  766.0000     9.0382   115.8484     2.5090     0.0402   -38.5216     9.3806     7.8056     6.6146
  766.5000     9.0384   115.4537     2.5209     0.0522   -38.5196     9.3820     7.8059     6.6156
  767.0000     9.0386   115.8546     2.5249     0.0562   -38.5176     9.3834     7.8071     7.1225
  767.5000     9.0387   117.8420     2.5190     0.0562   -38.5146     9.3855     7.8088     7.2557
  768.0000     9.0388   119.0332     2.5130     0.0562   -38.5127     9.3876     7.8111     7.5280
  768.5000     9.0390   119.8286     2.5090     0.0602   -38.5097     9.3890     7.9566     7.5297
  769.0000     9.0393   119.8308     2.4971     0.0523   -38.5077     9.3910     7.9596     7.8146
  769.5000     9.0394   119.8336     2.4891     0.0483   -38.5047     9.5660     7.9608     7.6728
  770.0000     9.0396   119.8363     2.4891     0.0523   -38.5027     9.7464     7.9619     7.3975
  770.5000     9.0398   119.8397     2.4891     0.0523   -38.4997     9.9279     8.1103     7.3986
  771.0000     9.0399   120.6344     2.4911     0.0523   -38.4977    10.1151     8.2632     8.4165
  771.5000     9.0401   121.4303     2.4911     0.0563   -38.4948    10.1166     8.2649     8.2644
  772.0000     9.0403   121.4320     2.4971     0.0603   -38.4928     9.9345     8.2662     8.1151
  772.5000     9.0404   121.0396     2.5011     0.0603   -38.4898     9.5773     8.2675     7.9684
  773.0000     9.0406   120.2498     2.5001     0.0644   -38.4878     9.4050     8.2687     7.6830
  773.5000     9.0408   119.8563     2.5001     0.0644   -38.4848     9.4063     8.2699     7.3099
  774.0000     9.0409   117.8778     2.5001     0.0644   -38.4828     9.5830     8.2724     7.2724
  774.5000     9.0411   119.0694     2.4991     0.0644   -38.4798     9.7450     8.2736     7.2740
  775.0000     9.0413   119.4684     2.4951     0.0604   -38.0771    10.3181     8.2748     7.8314
  775.5000     9.0414   120.6562     2.4902     0.0605   -38.0751    10.3196     8.2760     7.9779
  776.0000     9.0416   119.4702     2.4832     0.0485   -38.4729    10.7085     8.2773     8.4315
  776.5000     9.0418   117.4956     2.4792     0.0406   -38.4709    10.7100     8.2797     8.4333
  777.0000     9.0419   114.3253     2.4802     0.0366   -38.4679    10.7124     8.2815     8.7511
  777.5000     9.0421   114.3319     2.4812     0.0366   -38.4659    10.7140     8.2828     8.7528
  778.0000     9.0423   116.3153     2.4842     0.0366   -38.4629    10.7164     8.2846     8.7544
  778.5000     9.0424   118.2992     2.4882     0.0406   -38.4609    10.7184     8.2858     8.7556
  779.0000     9.0426   118.3020     2.4892     0.0406   -38.4579    10.3333     8.2871     8.7569
  779.5000     9.0428   115.5319     2.4892     0.0447   -38.4560    10.1466     8.2883     8.7582
  780.0000     9.0430   112.7612     2.4892     0.0447   -38.4530    10.1489     8.2901     8.6006
  780.5000     9.0431   113.9527     2.4892     0.0407   -38.4510    10.1496     8.4213     8.4458
  781.0000     9.0433   115.9365     2.4972     0.0487   -38.4480    10.3402     8.6044     8.1421
  781.5000     9.0435   115.1469     2.5092     0.0567   -38.4460    10.3418     8.7654     8.1441
  782.0000     9.0436   113.5650     2.5112     0.0567   -38.4430    10.5360     8.9293     8.1451
  782.5000     9.0438   114.3602     2.5122     0.0567   -38.4410    10.7338     9.0970     8.2975
  783.0000     9.0440   113.9669     2.5122     0.0567   -38.4380    10.7354     9.0984     8.4533
  783.5000     9.0441   116.3462     2.5082     0.0568   -38.4360    11.3467     9.2692     8.7712
  784.0000     9.0443   118.3299     2.5032     0.0528   -38.4340    11.3483     9.2712     8.3024
  784.5000     9.0445   118.3327     2.4963     0.0528   -38.4310    11.5615     9.2727     8.0039
  785.0000     9.0446   118.3355     2.4923     0.0448   -38.4291    11.5632     9.2740     8.0057
  785.5000     9.0448   118.3383     2.4873     0.0449   -38.4261    10.9451     9.2754     8.0068
  786.0000     9.0450   117.5493     2.4873     0.0449   -38.4241    10.7473     9.6256     8.1566
  786.5000     9.0451   115.5713     2.4893     0.0489   -38.4211    10.7489     9.6271     8.6216
  787.0000     9.0453   113.9895     2.5073     0.0489   -38.4191    10.7513     9.6285     8.7823
  787.5000     9.0455   114.3885     2.5133     0.0569   -38.4161    10.7537     9.8093     8.9478
  788.0000     9.0456   117.1644     2.5173     0.0569   -38.4141    11.3651    10.1782     8.9492
  788.5000     9.0458   118.7512     2.5173     0.0569   -38.4111    11.7934    10.3693     8.9505
  789.0000     9.0460   119.5462     2.5213     0.0569   -38.4091    11.7951    10.5633     8.9525
  789.5000     9.0461   117.5650     2.5233     0.0610   -38.4061    11.7969    10.7617     8.6312
  790.0000     9.0463   117.1717     2.5233     0.0610   -38.8054    11.7995    10.7633     8.6325
  790.5000     9.0465   117.5706     2.5233     0.0610   -38.4011    11.5863    10.7649     7.8761
  791.0000     9.0466   118.7651     2.5273     0.0650   -38.3991    11.5889    10.7665     8.0235
  791.5000     9.0468   120.3524     2.5253     0.0610   -38.7975    11.3803    10.7696     8.4809
  792.0000     9.0470   120.7512     2.5153     0.0610   -38.7955    11.3820    10.5750     8.0264
  792.5000     9.0472   122.3384     2.5054     0.0571   -38.7935    11.3845     9.6485     7.8820
  793.0000     9.0473   125.1139     2.4954     0.0491   -38.7905    11.1788     9.4741     7.7587
  793.5000     9.0276   126.7022     2.4795     0.0451   -38.7886    10.7760     9.1341     7.5997
  794.0000     9.0279   127.8882     2.4673     0.0372   -39.1870    10.2008     8.9684     7.6008
  794.5000     9.0280   125.5198     2.4565     0.0332   -37.9808    10.0172     8.8076     7.6030
  795.0000     9.0281   125.1248     2.4496     0.0253   -37.9777     9.6570     8.8093     7.7241
  795.5000     9.0284   125.1276     2.4476     0.0253   -37.9757     9.4832     8.6504     7.7458
  796.0000     9.0285   123.1499     2.4516     0.0213   -37.9727     9.3112     8.6520     7.7476
  796.5000     9.0287   125.5291     2.4536     0.0253   -37.9707     9.1443     8.6523     7.7487
  797.0000     9.0289   126.3239     2.4576     0.0253   -37.9677     9.3160     8.4966     7.7504
  797.5000     9.0290   125.5345     2.4596     0.0253   -37.9657     9.3167     8.3437     7.7516
  798.0000     9.0292   122.7648     2.4646     0.0254   -37.9627     9.1490     8.3449     7.7527
  798.5000     9.0294   122.7675     2.4666     0.0294   -37.9607     9.3201     8.3468     7.7544
  799.0000     9.0692   125.9404     2.4676     0.0294   -37.9576     9.4952     8.1959     7.6154
  799.5000     9.0693   125.9414     2.4716     0.0334   -38.7588     9.4959     8.1972     7.6166
  800.0000     9.0694   127.5284     2.4716     0.0334   -38.7568     9.4980     8.0496     7.3432
  800.5000     9.0697   128.4199     2.4816     0.0430   -39.0018     9.5007     8.0517     7.0716
  801.0000     9.0696   128.3232     2.4875     0.0494   -39.3127     9.5027     7.9340     6.8257
  801.5000     9.0696   126.7402     2.4905     0.0494   -39.5546     9.5043     7.9077     6.5799
  802.0000     9.0696   123.9692     2.4905     0.0494   -39.9549     9.5067     7.7664     6.5823
  802.5000     9.0697   123.1783     2.4875     0.0494   -39.9527     9.5083     7.7678     6.5834
  803.0000     9.0895   125.1599     2.4826     0.0454   -40.3526     9.5108     7.4894     6.5847
  803.5000     9.1093   123.9729     2.4776     0.0414   -40.3513     9.3391     7.4907     6.5858
  804.0000     9.1093   121.9937     2.4716     0.0374   -40.7521     9.3415     7.2223     6.5876
  804.5000     9.1292   121.2028     2.4686     0.0334   -40.7502     9.1730     7.2242     6.5900
  805.0000     9.1292   120.0157     2.4646     0.0294   -40.7475     9.0082     7.0940     6.5912
