~VERSION INFORMATION
 VERS.                2.0:   CWLS LOG ASCII STANDARD - VERSION 2.0
 WRAP.                 NO:   ONE LINE PER DEPTH STEP
~WELL INFORMATION
#MNEM.UNIT      DATA TYPE    INFORMATION
#----------   ------------   ------------------------------
 STRT.F           46.0000:   START DEPTH
 STOP.F         2952.5000:   STOP DEPTH
 STEP.F            0.5000:   STEP LENGTH
 NULL.          -999.2500:   NO VALUE
 COMP.    FENIX & SCISSON:   COMPANY
 WELL. FENIX NPR 3 "SHX" #11-15:   WELL
 FLD .        TEAPOT DOME:   FIELD
 LOC .      S15 T38N R78W:   LOCATION
 CNTY.            NATRONA:   COUNTY
 STAT.            WYOMING:   STATE
 CTRY. UNITED STATES OF AMERICA:   COUNTRY
 SRVC.           BIRDWELL:   SERVICE COMPANY
 DATE.        19-JAN-1979:   LOGDATE
 API .     49025107640000:   API NUMBER
~CURVE INFORMATION
#MNEM.UNIT       API CODE    CURVE DESCRIPTION
#----------   ------------   ------------------------------
 DEPT.F                  :   
 GRD .GAPI   45 310 01 00:   GAMMA RAY FROM DENSITY LOG
 CALD.IN     45 280 60 00:   CALIPER FROM DENSITY LOG
 RHOB.G/C3   45 350 01 00:   BULK DENSITY
 CORR.G/C3   45 356 01 00:   DENSITY CORRECTION
 SPR .MV     07 010 01 00:   SPONTANEOUS POTENTIAL
 SN  .OHMM   01 040 00 00:   SHORT NORMAL
 ILD .OHMM   07 120 46 00:   INDUCTION LOG DEEP RESISTIVITY
~PARAMETER INFORMATION
#MNEM.UNIT          VALUE    DESCRIPTION
#----------   ------------   ------------------------------
 EKB .F         5258.0000:   Kelly bushing
 EGL .F         5248.0000:   Ground level
 EDF .F            0.0000:   Drilling floor
 TD  .F         1300.0000:   Total depth
 DATE.        19-JAN-1979:   Date logged
 CLNT.            A2DTECH:   Client Code
 SL  . 177' FNL & 155' FWL:   Surface Location
 PD  .                 GL:   Permanent Datum
 EPD .F              5248:   Elevation Permanent Datum
 LMF .                 KB:   Log Measured From
 DMF .                 KB:   Drilling Measured From
 DAPD.F                10:   Feet Above Permanent Datum
 DD  .F              1300:   Depth driller
 DL  .F              1283:   Depth logger
 BLI .F              1277:   Bottom log interval
 TLI .F               100:   Top log interval
 CBD1.F                40:   Casing driller 1
 CBL1.F                40:   Casing logger 1
 BS1 .IN            7.875:   Bit size
 BSD1.F              1300:   Depth drilled with bit1
 DFT .           CHEM/GEL:   Type fluid in hole
 DFD .                8.8:   Density
 DFV .                 37:   Viscosity
 DFL .               15.4:   Fluid loss
 MSS .           FLOWLINE:   Source of sample
 RMS .OHMM            .75:   Rm
 MST .F                68:   Rm Meas. temp.
 RMF .OHMM            .75:   Rmf
 MFST.F                64:   Rmf Meas. temp.
 RMC .OHMM            1.3:   Rmc
 MCST.F                68:   Rmc Meas. temp.
 MFSS.               MEAS:   Source Rmf.
 MCSS.               MEAS:   Source Rmc.
 RMB .OHMM            .73:   Rm. at BHT
 BHT .F                70:   BHT.
 TCS .HRS               2:   Time Circ. stopped
 MRT .F                70:   Maximum recorded temp.
 LUN .               3029:   Logging unit number
 LUL .               CSPR:   Logging unit location
 ENGI.            ROLLINS:   Recorded By
 WITN.           DINSMORE:   Witnessed by
 ORIG.           5" PRINT:   Origin of data
 UWI .     49025107640000:   Unique Well ID
 DICO. A2D TECHNOLOGIES, INC.:   Digitizing Company
~OTHER INFORMATION
~A   DEPT      GRD       CALD       RHOB       CORR        SPR           SN        ILD 
# ...
 2639.5000   124.6030     9.1310     2.5000     0.0450  -999.2500  -999.2500  -999.2500
 2640.0000   128.6890     9.1160     2.4990     0.0430  -999.2500  -999.2500  -999.2500
 2640.5000   132.4520     9.0990     2.5000     0.0410  -999.2500  -999.2500  -999.2500
 2641.0000   130.9620     9.0940     2.5000     0.0390  -999.2500  -999.2500  -999.2500
 2641.5000   129.2100     9.0800     2.5000     0.0360  -999.2500  -999.2500  -999.2500
 2642.0000   129.2780     9.0710     2.5000     0.0340  -999.2500  -999.2500  -999.2500
 2642.5000   133.9610     9.0590     2.5010     0.0320  -999.2500  -999.2500  -999.2500
 2643.0000   133.5240     9.0670     2.5010     0.0290  -999.2500  -999.2500  -999.2500
 2643.5000   132.8460     9.0820     2.5010     0.0280  -999.2500  -999.2500  -999.2500
 2644.0000   132.4400     9.0960     2.5020     0.0280  -999.2500  -999.2500  -999.2500
 2644.5000   132.4470     9.1100     2.5030     0.0280  -999.2500  -999.2500  -999.2500
 2645.0000   133.0370     9.1240     2.5060     0.0280  -999.2500  -999.2500  -999.2500
 2645.5000   134.2690     9.1380     2.5110     0.0280  -999.2500  -999.2500  -999.2500
 2646.0000   135.7450     9.1520     2.5160     0.0280  -999.2500  -999.2500  -999.2500
 2646.5000   137.2830     9.1660     2.5130     0.0280  -999.2500  -999.2500  -999.2500
 2647.0000   140.0120     9.1770     2.5090     0.0280  -999.2500  -999.2500  -999.2500
 2647.5000   142.7340     9.1800     2.5040     0.0280  -999.2500  -999.2500  -999.2500
 2648.0000   144.9520     9.1880     2.5000     0.0280  -999.2500  -999.2500  -999.2500
 2648.5000   146.6590     9.1960     2.4950     0.0280  -999.2500  -999.2500  -999.2500
 2649.0000   148.4880     9.2040     2.4950     0.0280  -999.2500  -999.2500  -999.2500
 2649.5000   150.2730     9.2110     2.4950     0.0280  -999.2500  -999.2500  -999.2500
 2650.0000   154.3210     9.2190     2.4950     0.0290  -999.2500  -999.2500  -999.2500
 2650.5000   158.3400     9.2270     2.4950     0.0290  -999.2500  -999.2500  -999.2500
 2651.0000   161.2540     9.2350     2.4950     0.0300  -999.2500  -999.2500  -999.2500
 2651.5000   159.4510     9.2430     2.4960     0.0300  -999.2500  -999.2500  -999.2500
 2652.0000   154.7930     9.2500     2.5010     0.0310  -999.2500  -999.2500  -999.2500
 2652.5000   147.0560     9.2580     2.5040     0.0310  -999.2500  -999.2500  -999.2500
 2653.0000   143.0760     9.2660     2.5090     0.0320  -999.2500  -999.2500  -999.2500
 2653.5000   141.2110     9.2740     2.5110     0.0320  -999.2500  -999.2500  -999.2500
 2654.0000   139.8050     9.2820     2.5110     0.0320  -999.2500  -999.2500  -999.2500
 2654.5000   138.5930     9.2890     2.5110     0.0280  -999.2500  -999.2500  -999.2500
 2655.0000   139.0170     9.2970     2.5110     0.0250  -999.2500  -999.2500  -999.2500
 2655.5000   139.9930     9.3050     2.5110     0.0220  -999.2500  -999.2500  -999.2500
 2656.0000   143.7290     9.3130     2.5090     0.0180  -999.2500  -999.2500  -999.2500
 2656.5000   140.1780     9.3200     2.5030     0.0150  -999.2500  -999.2500  -999.2500
 2657.0000   136.4420     9.3280     2.4980     0.0120  -999.2500  -999.2500  -999.2500
 2657.5000   133.1880     9.3360     2.4930     0.0080  -999.2500  -999.2500  -999.2500
 2658.0000   131.8560     9.3440     2.4880     0.0080  -999.2500  -999.2500  -999.2500
 2658.5000   131.1310     9.3510     2.4840     0.0090  -999.2500  -999.2500  -999.2500
 2659.0000   132.8930     9.3600     2.4830     0.0130  -999.2500  -999.2500  -999.2500
 2659.5000   136.9690     9.3670     2.4830     0.0170  -999.2500  -999.2500  -999.2500
 2660.0000   139.7820     9.3730     2.4830     0.0210  -999.2500  -999.2500  -999.2500
 2660.5000   140.2160     9.3590     2.4860     0.0250  -999.2500  -999.2500  -999.2500
 2661.0000   140.8010     9.3470     2.4880     0.0290  -999.2500  -999.2500  -999.2500
 2661.5000   142.1790     9.3330     2.4900     0.0330  -999.2500  -999.2500  -999.2500
 2662.0000   143.4150     9.3210     2.4930     0.0370  -999.2500  -999.2500  -999.2500
 2662.5000   144.7010     9.3080     2.4950     0.0410  -999.2500  -999.2500  -999.2500
 2663.0000   145.8940     9.2950     2.4970     0.0450  -999.2500  -999.2500  -999.2500
 2663.5000   144.5240     9.2820     2.4990     0.0490  -999.2500  -999.2500  -999.2500
 2664.0000   140.0610     9.2690     2.5000     0.0520  -999.2500  -999.2500  -999.2500
 2664.5000   135.5250     9.2560     2.5000     0.0520  -999.2500  -999.2500  -999.2500
 2665.0000   131.5770     9.2430     2.5000     0.0530  -999.2500  -999.2500  -999.2500
 2665.5000   128.4520     9.2300     2.5010     0.0540  -999.2500  -999.2500  -999.2500
 2666.0000   123.9640     9.2170     2.5010     0.0550  -999.2500  -999.2500  -999.2500
 2666.5000   120.6660     9.2040     2.4990     0.0560  -999.2500  -999.2500  -999.2500
 2667.0000   120.9140     9.1910     2.4950     0.0540  -999.2500  -999.2500  -999.2500
 2667.5000   124.9250     9.1780     2.4910     0.0500  -999.2500  -999.2500  -999.2500
 2668.0000   128.3970     9.1650     2.4880     0.0470  -999.2500  -999.2500  -999.2500
 2668.5000   131.2340     9.1520     2.4850     0.0440  -999.2500  -999.2500  -999.2500
 2669.0000   133.7360     9.1400     2.4830     0.0410  -999.2500  -999.2500  -999.2500
 2669.5000   132.9080     9.1260     2.4830     0.0380  -999.2500  -999.2500  -999.2500
 2670.0000   129.2140     9.1140     2.4880     0.0360  -999.2500  -999.2500  -999.2500
 2670.5000   128.9110     9.1000     2.5000     0.0350  -999.2500  -999.2500  -999.2500
 2671.0000   130.5430     9.1100     2.5130     0.0340  -999.2500  -999.2500  -999.2500
 2671.5000   132.5680     9.1240     2.5180     0.0340  -999.2500  -999.2500  -999.2500
 2672.0000   132.5860     9.1380     2.5150     0.0330  -999.2500  -999.2500  -999.2500
 2672.5000   127.9640     9.1520     2.5090     0.0320  -999.2500  -999.2500  -999.2500
 2673.0000   123.3890     9.1670     2.5030     0.0340  -999.2500  -999.2500  -999.2500
 2673.5000   118.2270     9.1690     2.5020     0.0550  -999.2500  -999.2500  -999.2500
 2674.0000   112.7290     9.1320     2.5030     0.0750  -999.2500  -999.2500  -999.2500
 2674.5000   105.2080     9.0960     2.5050     0.0840  -999.2500  -999.2500  -999.2500
 2675.0000   102.7910     9.0610     2.5060     0.0540  -999.2500  -999.2500  -999.2500
 2675.5000   106.9150     9.0610     2.5070     0.0390  -999.2500  -999.2500  -999.2500
 2676.0000   109.9240     9.0560     2.5060     0.0400  -999.2500  -999.2500  -999.2500
 2676.5000   115.0680     9.0910     2.5000     0.0480  -999.2500  -999.2500  -999.2500
 2677.0000   121.9270     9.1560     2.4930     0.0630  -999.2500  -999.2500  -999.2500
 2677.5000   127.0520     9.2150     2.4930     0.0690  -999.2500  -999.2500  -999.2500
 2678.0000   130.4810     9.2750     2.4950     0.0620  -999.2500  -999.2500  -999.2500
 2678.5000   131.9320     9.3400     2.4870     0.0560  -999.2500  -999.2500  -999.2500
 2679.0000   130.1460     9.3750     2.4780     0.0520  -999.2500  -999.2500  -999.2500
 2679.5000   126.0310     9.3430     2.4790     0.0520  -999.2500  -999.2500  -999.2500
 2680.0000   120.5580     9.3140     2.4790     0.0560  -999.2500  -999.2500  -999.2500
 2680.5000   123.1400     9.2830     2.4800     0.0660  -999.2500  -999.2500  -999.2500
 2681.0000   130.6480     9.2520     2.4800     0.0720  -999.2500  -999.2500  -999.2500
 2681.5000   133.6470     9.2220     2.4800     0.0710  -999.2500  -999.2500  -999.2500
 2682.0000   133.8060     9.1910     2.4800     0.0640  -999.2500  -999.2500  -999.2500
 2682.5000   138.1480     9.1610     2.4810     0.0600  -999.2500  -999.2500  -999.2500
 2683.0000   142.9850     9.1300     2.4810     0.0540  -999.2500  -999.2500  -999.2500
 2683.5000   147.4800     9.0990     2.4790     0.0500  -999.2500  -999.2500  -999.2500
 2684.0000   146.5850     9.0690     2.4730     0.0430  -999.2500  -999.2500  -999.2500
 2684.5000   141.6760     9.0380     2.4680     0.0540  -999.2500  -999.2500  -999.2500
