~VERSION INFORMATION
 VERS.                2.0:   CWLS LOG ASCII STANDARD - VERSION 2.0
 WRAP.                 NO:   ONE LINE PER DEPTH STEP
~WELL INFORMATION
#MNEM.UNIT      DATA TYPE    INFORMATION
#----------   ------------   ------------------------------
 STRT.F           36.0000:   START DEPTH
 STOP.F         3488.0000:   STOP DEPTH
 STEP.F            0.5000:   STEP LENGTH
 NULL.          -999.2500:   NO VALUE
 COMP. LAWRENCE - ALLISON  & ASSOCIATE:   COMPANY
 WELL. LAWRENCE "STX" #76-23:   WELL
 FLD .              NPR 3:   FIELD
 LOC .      S23 T38N R78W:   LOCATION
 CNTY.            NATRONA:   COUNTY
 STAT.            WYOMING:   STATE
 CTRY. UNITED STATES OF AMERICA:   COUNTRY
 SRVC.       SCHLUMBERGER:   SERVICE COMPANY
 DATE.        07-MAY-1982:   LOGDATE
 API .     49025108920000:   API NUMBER
~CURVE INFORMATION
#MNEM.UNIT       API CODE    CURVE DESCRIPTION
#----------   ------------   ------------------------------
 DEPT.F                  :   
 CORR.G/C3   45 356 01 00:   DENSITY CORRECTION
 CALD.IN     45 280 60 00:   CALIPER FROM DENSITY LOG
 GRD .GAPI   45 310 01 00:   GAMMA RAY FROM DENSITY LOG
 RHOB.G/C3   45 350 01 00:   BULK DENSITY
 SFL .OHMM   07 220 01 00:   SHALLOW FOCUSED LOG RESISTIVITY
 ILD .OHMM   07 120 46 00:   DEEP INDUCTION RESISTIVITY
 ILM .OHMM   07 120 44 00:   INDUCTION LOG MEDIUM RESISTIVITY
 TENR.LBS    07 635 01 00:   TENSION
 SPR .MV     07 010 01 00:   SPONTANEOUS POTENTIAL
 NPHI.DEC    42 890 03 00:   NEUTRON POROSITY SANDSTONE
 TEND.LBS    45 635 01 00:   TENSION FROM DENSITY LOG
~PARAMETER INFORMATION
#MNEM.UNIT          VALUE    DESCRIPTION
#----------   ------------   ------------------------------
 EKB .F         5441.0000:   Kelly bushing
 EGL .F         5431.0000:   Ground level
 EDF .F            0.0000:   Drilling floor
 EPD .F            0.0000:   Permanent datum
 TD  .F         3788.0000:   Total depth
 DATE.        07-MAY-1982:   Date logged
 CLNT.            A2DTECH:   Client Code
 SL  . 1327' FSL & 1190' FEL:   Surface Location
 PD  .                 GL:   Permanent Datum
 DAPD.F                10:   Feet Above Permanent Datum
 DD  .F              3788:   Depth driller
 DL  .F              3478:   Depth logger
 BLI .F              3471:   Bottom log interval
 TLI .F              1615:   Top log interval
 CS1 .IN            9.625:   Casing size
 CBD1.     9.625" @ 1603':   Casing driller 1
 CBL1.F              1615:   Casing logger 1
 BS1 .IN            7.875:   Bit size
 BSD1.F              3788:   Depth drilled with bit1
 DFT .                AIR:   Type fluid in hole
 TCS .HRS            1230:   Time Circ. stopped
 TLAB.HRS            1500:   Time logger at bottom
 MRT .F               125:   Maximum recorded temp.
 LUN .               8035:   Logging unit number
 LUL .               CSPR:   Logging unit location
 ENGI.              PENNY:   Recorded By
 WITN.    JENNINGS/STRONG:   Witnessed by
 ORIG.       2.5"5" PRINT:   Origin of data
 UWI .     49025108920000:   Unique Well ID
 DICO. A2D TECHNOLOGIES, INC.:   Digitizing Company
~OTHER INFORMATION
~A   DEPT       CORR     CALD        GRD         RHOB      SFL        ILD        ILM       TENR        SPR        NPHI      TEND   
# ...
 2964.0000     0.2460    10.4630   189.7010     2.5070  -999.2500     5.2670     5.2390  2282.8279  -999.2500  -999.2500  -999.2500
 2964.5000     0.2460    10.7330   189.2740     2.4630  -999.2500     5.1570     5.1560  2282.8279  -999.2500  -999.2500  -999.2500
 2965.0000     0.2460    11.0000   188.6960     2.4260  -999.2500     5.0470     5.0590  2282.8279  -999.2500  -999.2500  -999.2500
 2965.5000     0.2470    11.2470   185.2010     2.4010  -999.2500     4.9370     4.9620  2282.8279  -999.2500  -999.2500  -999.2500
 2966.0000     0.2480    11.3660   181.4710     2.3290  -999.2500     4.8270     4.8660  2282.8279  -999.2500  -999.2500  -999.2500
 2966.5000     0.2470    11.4850   178.2860     2.2240  -999.2500     4.7170     4.7690  2282.8279  -999.2500  -999.2500  -999.2500
 2967.0000     0.2470    11.6110   179.5040     2.1190  -999.2500     4.6070     4.6720  2282.8279  -999.2500  -999.2500  -999.2500
 2967.5000     0.2180    11.4590   180.7320     2.0840  -999.2500     4.5140     4.5750  2282.8279  -999.2500  -999.2500  -999.2500
 2968.0000     0.1530    10.9040   180.1470     2.1440  -999.2500     4.5340     4.5140  2282.8279  -999.2500  -999.2500  -999.2500
 2968.5000     0.0560    10.3880   178.7910     2.2360  -999.2500     4.5890     4.6560  2282.8279  -999.2500  -999.2500  -999.2500
 2969.0000     0.0900    10.2480   177.6550     2.3280  -999.2500     4.6440     4.8010  2282.8279  -999.2500  -999.2500  -999.2500
 2969.5000     0.1630    10.2010   177.1350     2.3770  -999.2500     4.6990     4.9460  2282.8279  -999.2500  -999.2500  -999.2500
 2970.0000     0.2480    10.4020   174.6580     2.1370  -999.2500     4.7540     5.1420  2282.8279  -999.2500  -999.2500  -999.2500
 2970.5000     0.2460    10.6310   172.0670     2.0350  -999.2500     4.8090     5.0210  2282.8279  -999.2500  -999.2500  -999.2500
 2971.0000     0.2430    10.8080   171.2750     1.8340  -999.2500     4.8640     4.7730  2282.8279  -999.2500  -999.2500  -999.2500
 2971.5000     0.2070    10.6110   172.9770     1.9350  -999.2500     4.9190     4.8010  2282.8279  -999.2500  -999.2500  -999.2500
 2972.0000     0.1760    10.4170   174.6550     2.1070  -999.2500     4.9740     4.8420  2282.8279  -999.2500  -999.2500  -999.2500
 2972.5000     0.2080    10.3320   175.3320     2.3040  -999.2500     5.0290     4.8830  2282.8279  -999.2500  -999.2500  -999.2500
 2973.0000     0.2350    10.3780   174.8410     2.4520  -999.2500     5.0840     4.9240  2282.8279  -999.2500  -999.2500  -999.2500
 2973.5000     0.2470    10.4250   175.8040     2.5010  -999.2500     5.1420     4.9650  2282.8279  -999.2500  -999.2500  -999.2500
 2974.0000     0.2470    10.5950   177.4850     2.5210  -999.2500     5.1050     5.0060  2282.8279  -999.2500  -999.2500  -999.2500
 2974.5000     0.2480    10.7840   176.7510     2.5320  -999.2500     5.0660     5.0470  2282.8279  -999.2500  -999.2500  -999.2500
 2975.0000     0.2480    10.9920   175.6790     2.3410  -999.2500     5.0280     5.0470  2282.8279  -999.2500  -999.2500  -999.2500
 2975.5000     0.2480    10.8690   176.2270     2.0770  -999.2500     4.9890     5.0470  2282.8279  -999.2500  -999.2500  -999.2500
 2976.0000     0.2460    10.6480   177.5400     2.0860  -999.2500     4.9500     5.0470  2282.8279  -999.2500  -999.2500  -999.2500
 2976.5000     0.2380    10.4600   175.7080     2.2090  -999.2500     4.9120     5.0020  2282.8279  -999.2500  -999.2500  -999.2500
 2977.0000     0.2430    10.5230   173.9440     2.3640  -999.2500     4.8730     4.9480  2282.8279  -999.2500  -999.2500  -999.2500
 2977.5000     0.2460    10.5430   174.2110     2.3260  -999.2500     4.8340     4.8940  2282.8279  -999.2500  -999.2500  -999.2500
 2978.0000     0.1750    10.4480   177.4100     2.3130  -999.2500     4.7960     4.8400  2282.8279  -999.2500  -999.2500  -999.2500
 2978.5000     0.1420    10.3790   180.4960     2.3590  -999.2500     4.7570     4.7860  2282.8279  -999.2500  -999.2500  -999.2500
 2979.0000     0.1820    10.4590   179.6680     2.4110  -999.2500     4.7180     4.7320  2282.8279  -999.2500  -999.2500  -999.2500
 2979.5000     0.2020    10.4420   176.5550     2.4480  -999.2500     4.6850     4.6850  2282.8279  -999.2500  -999.2500  -999.2500
 2980.0000     0.1480    10.2480   175.7610     2.4310  -999.2500     4.9230     4.9230  2282.8279  -999.2500  -999.2500  -999.2500
 2980.5000     0.1120    10.1030   178.3090     2.4540  -999.2500     5.1310     5.1310  2282.8279  -999.2500  -999.2500  -999.2500
 2981.0000     0.1200     9.9930   180.4570     2.4810  -999.2500     5.3400     5.3400  2282.8279  -999.2500  -999.2500  -999.2500
 2981.5000     0.1220     9.9930   180.1130     2.4940  -999.2500     5.5480     5.5480  2282.8279  -999.2500  -999.2500  -999.2500
 2982.0000     0.1090     9.9990   179.8090     2.4880  -999.2500     5.7560     5.7560  2282.8279  -999.2500  -999.2500  -999.2500
 2982.5000     0.0920    10.0040   181.0090     2.4810  -999.2500     5.9650     5.9650  2282.8279  -999.2500  -999.2500  -999.2500
 2983.0000     0.0840    10.0090   185.4390     2.4740  -999.2500     6.0790     6.0790  2282.8279  -999.2500  -999.2500  -999.2500
 2983.5000     0.0910    10.0180   189.8330     2.4670  -999.2500     6.0790     6.0790  2282.8279  -999.2500  -999.2500  -999.2500
 2984.0000     0.0890    10.0270   194.2200     2.4570  -999.2500     6.0790     6.0790  2282.8279  -999.2500  -999.2500  -999.2500
 2984.5000     0.1000    10.0360   198.6600     2.4880  -999.2500     5.8220     5.8380  2282.8279  -999.2500  -999.2500  -999.2500
 2985.0000     0.1590    10.0450   204.5440     2.5370  -999.2500     5.4520     5.4900  2282.8279  -999.2500  -999.2500  -999.2500
 2985.5000     0.2350    10.0530   215.5960     2.5820  -999.2500     5.0810     5.1410  2282.8279  -999.2500  -999.2500  -999.2500
 2986.0000     0.2480    10.0670   229.9990     2.6020  -999.2500     4.7100     4.7930  2282.8279  -999.2500  -999.2500  -999.2500
 2986.5000     0.2480    10.0800   254.3800     2.4150  -999.2500     4.3390     4.4450  2282.8279  -999.2500  -999.2500  -999.2500
 2987.0000     0.2460    10.0780   278.9250     2.3200  -999.2500     3.9690     4.0960  2282.8279  -999.2500  -999.2500  -999.2500
 2987.5000     0.2450    10.0320   291.6650     2.2660  -999.2500     3.8900     3.6110  2282.8279  -999.2500  -999.2500  -999.2500
 2988.0000     0.2140     9.9490   287.3560     2.2330  -999.2500     3.8900     3.7690  2282.8279  -999.2500  -999.2500  -999.2500
 2988.5000     0.1090     9.8310   280.7600     2.1820  -999.2500     3.9630     4.0290  2282.8279  -999.2500  -999.2500  -999.2500
 2989.0000     0.0040     9.7510   274.2120     2.2010  -999.2500     4.3950     4.2890  2282.8279  -999.2500  -999.2500  -999.2500
 2989.5000    -0.0330     9.7600   267.6950     2.2680  -999.2500     5.0730     4.7680  2282.8279  -999.2500  -999.2500  -999.2500
 2990.0000    -0.0250     9.7670   261.2070     2.3550  -999.2500     5.7500     5.5060  2282.8279  -999.2500  -999.2500  -999.2500
 2990.5000    -0.0080     9.7750   255.7110     2.4410  -999.2500     6.4280     6.2440  2282.8279  -999.2500  -999.2500  -999.2500
 2991.0000     0.0030     9.7820   256.1220     2.4640  -999.2500     7.1050     6.9810  2282.8279  -999.2500  -999.2500  -999.2500
 2991.5000     0.0030     9.7890   256.5500     2.4570  -999.2500     7.7830     7.7190  2282.8279  -999.2500  -999.2500  -999.2500
 2992.0000     0.0000     9.7970   255.4990     2.4500  -999.2500     8.4980     8.4980  2282.8279  -999.2500  -999.2500  -999.2500
 2992.5000    -0.0030     9.8040   251.7230     2.4460  -999.2500     8.8850     8.8850  2282.8279  -999.2500  -999.2500  -999.2500
 2993.0000     0.0120     9.8120   247.9920     2.4510  -999.2500     9.3750     9.3750  2282.8279  -999.2500  -999.2500  -999.2500
 2993.5000     0.0370     9.8190   244.2780     2.4600  -999.2500     9.5060     9.5060  2282.8279  -999.2500  -999.2500  -999.2500
 2994.0000     0.0870     9.8260   240.6000     2.4690  -999.2500     9.6360     9.6360  2282.8279  -999.2500  -999.2500  -999.2500
