~VERSION INFORMATION
 VERS.                2.0:   CWLS LOG ASCII STANDARD - VERSION 2.0
 WRAP.                 NO:   ONE LINE PER DEPTH STEP
~WELL INFORMATION
#MNEM.UNIT      DATA TYPE    INFORMATION
#----------   ------------   ------------------------------
 STRT.F          417.0000:   START DEPTH
 STOP.F         4133.0000:   STOP DEPTH
 STEP.F            0.5000:   STEP LENGTH
 NULL.          -999.2500:   NO VALUE
 COMP.    FENIX & SCISSON:   COMPANY
 WELL. FENIX  "LX" #18-11:   WELL
 FLD .              NPR 3:   FIELD
 LOC .      S11 T38N R78W:   LOCATION
 CNTY.            NATRONA:   COUNTY
 STAT.            WYOMING:   STATE
 CTRY. UNITED STATES OF AMERICA:   COUNTRY
 SRVC.       SCHLUMBERGER:   SERVICE COMPANY
 DATE.        14-JAN-1978:   LOGDATE
 API .     49025105590000:   API NUMBER
~CURVE INFORMATION
#MNEM.UNIT       API CODE    CURVE DESCRIPTION
#----------   ------------   ------------------------------
 DEPT.F                  :   
 SPR .MV     07 010 01 00:   SPONTANEOUS POTENTIAL
 SFL .OHMM   07 220 01 00:   SHALLOW FOCUSED LOG RESISTIVITY
 ILD .OHMM   07 120 46 00:   DEEP INDUCTION RESISTIVITY
 ILM .OHMM   07 120 44 00:   INDUCTION LOG MEDIUM RESISTIVITY
 CALD.IN     45 280 60 00:   CALIPER FROM DENSITY LOG
 GRD .GAPI   45 310 01 00:   GAMMA RAY FROM DENSITY LOG
 RHOB.G/C3   45 350 01 00:   BULK DENSITY
 CORR.G/C3   45 356 01 00:   DENSITY CORRECTION
 NPHI.DEC    42 890 03 00:   NEUTRON POROSITY SANDSTONE
~PARAMETER INFORMATION
#MNEM.UNIT          VALUE    DESCRIPTION
#----------   ------------   ------------------------------
 EKB .F         5220.0000:   Kelly bushing
 EGL .F         5210.0000:   Ground level
 EDF .F            0.0000:   Drilling floor
 TD  .F         4125.0000:   Total depth
 DATE.        14-JAN-1978:   Date logged
 CLNT.            A2DTECH:   Client Code
 SL  . 330' FSL & 530' FWL:   Surface Location
 PD  .                 GL:   Permanent Datum
 EPD .F              5210:   Elevation Permanent Datum
 LMF .                 KB:   Log Measured From
 DMF .                 KB:   Drilling Measured From
 DAPD.F                10:   Feet Above Permanent Datum
 DD  .F              4125:   Depth driller
 DL  .F              4121:   Depth logger
 BLI .F              4116:   Bottom log interval
 TLI .F               427:   Top log interval
 CS1 .IN            8.625:   Casing size
 CBD1.      8.625" @ 513':   Casing driller 1
 CBL1.F               427:   Casing logger 1
 BS1 .IN            7.875:   Bit size
 BSD1.F              4125:   Depth drilled with bit1
 DFT .                KCL:   Type fluid in hole
 DFD .                8.8:   Density
 DFV .                 40:   Viscosity
 DFPH.                 12:   pH
 DFL .                7.4:   Fluid loss
 MSS .           MUD TANK:   Source of sample
 RMS .OHMM           .418:   Rm
 MST .F                60:   Rm Meas. temp.
 RMF .OHMM           .343:   Rmf
 MFST.F                60:   Rmf Meas. temp.
 MFSS.               MEAS:   Source Rmf.
 RMB .OHMM            .20:   Rm. at BHT
 BHT .F               123:   BHT.
 TCS .HRS            0600:   Time Circ. stopped
 TLAB.HRS            0845:   Time logger at bottom
 MRT .F               123:   Maximum recorded temp.
 LUN .               8035:   Logging unit number
 LUL .               CSPR:   Logging unit location
 ENGI.             MARTIN:   Recorded By
 WITN.         HARRINGTON:   Witnessed by
 ORIG.      2.5" 5" PRINT:   Origin of data
 UWI .     49025105590000:   Unique Well ID
 DICO. A2D TECHNOLOGIES, INC.:   Digitizing Company
~OTHER INFORMATION
~A   DEPT      SPR        SFL        ILD        ILM       CALD         GRD      RHOB       CORR       NPHI   
# ...
 1402.5000   -34.0560     7.9700     7.9700     6.7530    11.2330   109.1760     2.4970     0.0330     0.3230
 1403.0000   -33.9900     7.9460     7.9700     6.6450    11.2460   106.2220     2.5200     0.0680     0.3190
 1403.5000   -33.9240     7.9220     7.9700     6.5020    11.2760   103.3790     2.5370     0.0990     0.3240
 1404.0000   -33.8560     7.8960     7.9690     6.5530    11.3060   100.5320     2.5370     0.1310     0.3310
 1404.5000   -33.8970     7.8970     7.9700     6.6260    11.3390    97.3670     2.5260     0.1080     0.3300
 1405.0000   -33.9990     7.8900     7.9760     6.7000    11.3510    97.0900     2.5150     0.0630     0.3100
 1405.5000   -34.1030     7.9760     7.9820     6.7730    11.3410   100.0900     2.5070     0.0150     0.2960
 1406.0000   -34.2070     7.9690     7.9880     6.8730    11.3330   102.6900     2.5080     0.0080     0.2890
 1406.5000   -34.3100     7.9700     7.9950     6.8730    11.3250   105.2950     2.5120     0.0040     0.2840
 1407.0000   -34.4130     7.9700     8.0010     6.8730    11.3170   105.3790     2.5230     0.0040     0.2840
 1407.5000   -34.5150     7.9700     8.0080     6.8740    11.3090   104.2170     2.5180     0.0030     0.2880
 1408.0000   -34.6140     7.9700     8.0140     6.8740    11.3010   103.1380     2.5110     0.0000     0.2950
 1408.5000   -35.3220     7.9690     8.0200     6.8410    11.2930   102.0730     2.5100    -0.0060     0.3020
 1409.0000   -35.5810     7.9710     8.0270     6.7540    11.2850   101.0020     2.5190    -0.0030     0.3110
 1409.5000   -35.8450     7.8610     8.0330     6.6660    11.2770    99.8250     2.5290    -0.0020     0.3130
 1410.0000   -35.9730     7.7730     8.0400     6.6240    11.2600    99.3790     2.5370     0.0000     0.3150
 1410.5000   -35.7810     7.7510     8.0550     6.6760    11.2400   100.1500     2.5360     0.0020     0.3180
 1411.0000   -35.5940     7.8370     8.0840     6.7160    11.2190   100.7940     2.5350     0.0030     0.3200
 1411.5000   -35.4070     7.8990     8.1140     6.7560    11.1990   101.4660     2.5350     0.0040     0.3180
 1412.0000   -35.2200     7.9610     8.1440     6.7960    11.1790   102.1590     2.5290     0.0040     0.3130
 1412.5000   -35.0330     8.0240     8.1740     6.8360    11.1590   102.3250     2.5160     0.0040     0.3090
 1413.0000   -34.8460     8.0860     8.2030     6.8730    11.1390   102.4210     2.5090     0.0040     0.3110
 1413.5000   -34.6590     8.1880     8.2330     6.8730    11.1180   100.8010     2.5050     0.0070     0.3190
 1414.0000   -34.4720     8.4310     8.2630     6.9370    11.0980    98.8890     2.5020     0.0120     0.3300
 1414.5000   -34.2850     8.6730     8.4120     7.0920    11.0770    93.0500     2.4950     0.0130     0.3390
 1415.0000   -34.0970     8.9150     8.5980     7.3240    11.0580    91.1900     2.4900     0.0070     0.3400
 1415.5000   -33.9110     9.1580     8.7830     7.5560    11.0410    92.8330     2.4960     0.0040     0.3220
 1416.0000   -33.7230     9.4000     8.9050     7.7510    11.0700    95.4510     2.5020     0.0040     0.3070
 1416.5000   -33.7410     9.5890     8.9880     7.6650    11.1000    95.7720     2.5040     0.0110     0.2920
 1417.0000   -33.9470     9.3150     8.9880     7.5910    11.1200    96.5660     2.4990     0.0210     0.2890
 1417.5000   -34.1550     8.9840     8.9880     7.5160    11.1180    98.0410     2.4910     0.0310     0.2770
 1418.0000   -34.3630     8.6530     8.9360     7.4420    11.1740    99.4170     2.4830     0.0420     0.2820
 1418.5000   -34.5710     8.5020     8.8400     7.3670    11.2460   100.0280     2.4880     0.0530     0.2960
 1419.0000   -34.7790     8.5020     8.7440     7.2930    11.3110    97.2010     2.5010     0.0650     0.3010
 1419.5000   -34.9860     8.4240     8.6490     7.2180    11.3090    94.9620     2.5020     0.0780     0.3020
 1420.0000   -35.1940     8.4250     8.5530     7.1990    11.2960    93.9330     2.5060     0.0890     0.3040
 1420.5000   -35.4040     8.4240     8.4580     7.1990    11.2800    96.2980     2.5100     0.1320     0.3050
 1421.0000   -35.6190     8.4240     8.4240     7.1990    11.2740    98.4900     2.5520     0.1990     0.3070
 1421.5000   -35.6310     8.4240     8.4240     7.1990    11.2750   100.8930     2.5650     0.2500     0.3160
 1422.0000   -35.6290     8.4240     8.4240     7.1980    11.2750   104.4450     2.5470     0.2500     0.3250
 1422.5000   -35.6290     8.4240     8.4240     7.1990    11.2750   107.8000     2.5030     0.2280     0.3340
 1423.0000   -35.6270     8.4240     8.4240     7.1980    11.2740   109.3430     2.4730     0.1350     0.3430
 1423.5000   -35.4930     8.4410     8.4240     7.2850    11.2760   110.8820     2.4820     0.1040     0.3240
 1424.0000   -35.1370     8.5620     8.4240     7.3520    11.2570   112.1680     2.4970     0.0780     0.3070
 1424.5000   -34.7840     8.6840     8.4240     7.4200    11.1980   108.7310     2.5000     0.0520     0.3030
 1425.0000   -34.4330     8.8050     8.4940     7.4870    11.1460   102.9270     2.4860     0.0360     0.3050
 1425.5000   -34.2340     8.9270     8.5510     7.5550    11.0830    96.6020     2.4910     0.0410     0.3090
 1426.0000   -34.1130     9.0480     8.6080     7.6090    11.0790    95.6690     2.5020     0.0510     0.3130
 1426.5000   -33.9760     9.0710     8.6610     7.5840    11.0780    95.8660     2.5080     0.0660     0.3170
 1427.0000   -33.8390     8.9730     8.6610     7.4810    11.0850    97.4980     2.5020     0.0590     0.3180
 1427.5000   -33.7020     8.8270     8.6610     7.3780    11.0910    99.0710     2.4930     0.0450     0.3200
 1428.0000   -33.5620     8.6810     8.6170     7.2750    11.0980    98.2000     2.4920     0.0310     0.3160
 1428.5000   -33.4480     8.5350     8.5030     7.1720    11.1050    97.2900     2.5050     0.0290     0.3120
 1429.0000   -33.7750     8.3880     8.3890     7.0690    11.1110    96.8490     2.5150     0.0370     0.3090
 1429.5000   -34.1130     8.2420     8.2760     6.9370    11.1170    98.5320     2.5280     0.0370     0.3060
 1430.0000   -34.4490     8.0960     8.1620     6.9370    11.1150   100.5550     2.5270     0.0300     0.3060
 1430.5000   -34.6270     8.0440     8.0480     6.9370    11.1130   102.5530     2.5260     0.0240     0.3110
 1431.0000   -34.4790     8.0440     7.9700     6.9370    11.1100   104.6460     2.5270     0.0180     0.3110
 1431.5000   -34.4190     8.0910     8.0080     6.9380    11.1080   105.6190     2.5320     0.0120     0.3070
 1432.0000   -34.7030     8.1780     8.0380     6.9420    11.1050   104.8540     2.5290     0.0060     0.2920
 1432.5000   -35.0390     8.2650     8.0670     6.9460    11.1030   103.0920     2.5250    -0.0010     0.2940
 1433.0000   -35.3740     8.3520     8.0970     6.9500    11.1000   101.3900     2.5180    -0.0020     0.2950
 1433.5000   -35.6350     8.4240     8.1260     6.9540    11.0980    99.6250     2.5110     0.0020     0.2990
 1434.0000   -35.6290     8.3780     8.1550     6.9580    11.0950    97.9600     2.5110     0.0060     0.2990
 1434.5000   -35.6290     8.3200     8.1940     6.9620    11.0930    96.1180     2.5150     0.0100     0.2960
 1435.0000   -35.6310     8.2620     8.1940     6.9660    11.0900    96.8390     2.5120     0.0070     0.2960
 1435.5000   -35.5030     8.2050     8.1940     6.9700    11.0880    98.3880     2.5110     0.0040     0.3020
 1436.0000   -35.3190     8.1470     8.1940     6.9740    11.0860    99.9630     2.5160     0.0020     0.3120
 1436.5000   -35.1310     8.0890     8.1940     6.9780    11.0830   101.3890     2.5180     0.0020     0.3240
 1437.0000   -34.9440     8.0310     8.1940     6.9820    11.0810   103.0340     2.5170     0.0030     0.3330
 1437.5000   -34.7570     7.9730     8.1940     6.9860    11.0790   103.1230     2.5150     0.0040     0.3330
 1438.0000   -34.5700     7.9150     8.1940     6.9900    11.0780   103.1560     2.5180     0.0040     0.3200
 1438.5000   -34.3830     7.8960     8.1940     6.9940    11.0780   103.1820     2.5200     0.0040     0.3030
