~VERSION INFORMATION
 VERS.                2.0:   CWLS LOG ASCII STANDARD - VERSION 2.0
 WRAP.                 NO:   ONE LINE PER DEPTH STEP
~WELL INFORMATION
#MNEM.UNIT      DATA TYPE    INFORMATION
#----------   ------------   ------------------------------
 STRT.F          648.0000:   START DEPTH
 STOP.F         3196.0000:   STOP DEPTH
 STEP.F            0.5000:   STEP LENGTH
 NULL.          -999.2500:   NO VALUE
 COMP.    FENIX & SCISSON:   COMPANY
 WELL.   FENIX "AX" #18-2:   WELL
 FLD .             NPR #3:   FIELD
 LOC .       S2 T38N R78W:   LOCATION
 CNTY.            NATRONA:   COUNTY
 STAT.            WYOMING:   STATE
 CTRY. UNITED STATES OF AMERICA:   COUNTRY
 SRVC.              WELEX:   SERVICE COMPANY
 DATE.        05-OCT-1980:   LOGDATE
 API .     49025108500000:   API NUMBER
~CURVE INFORMATION
#MNEM.UNIT       API CODE    CURVE DESCRIPTION
#----------   ------------   ------------------------------
 DEPT.F                  :   
 GRD .GAPI   45 310 01 00:   GAMMA RAY FROM DENSITY LOG
 CALD.IN     45 280 60 00:   CALIPER FROM DENSITY LOG
 CORR.G/C3   45 356 01 00:   DENSITY CORRECTION
 RHOB.G/C3   45 350 01 00:   BULK DENSITY
 SPR .MV     07 010 01 00:   SPONTANEOUS POTENTIAL FROM RES.
 ILD .OHMM   07 120 46 00:   INDUCTION LOG DEEP RESISTIVITY
 ILM .OHMM   07 120 44 00:   INDUCTION LOG MEDIUM RESISTIVITY
 SGRD.OHMM   07 220 05 00:   SHORT GUARD RESISTIVITY
~PARAMETER INFORMATION
#MNEM.UNIT          VALUE    DESCRIPTION
#----------   ------------   ------------------------------
 EKB .F         5162.0000:   Kelly bushing
 EGL .F         5152.0000:   Ground level
 EDF .F            0.0000:   Drilling floor
 TD  .F         3200.0000:   Total depth
 CLNT.            A2DTECH:   Client Code
 PD  .                 GL:   Permanent Datum
 EPD .F              5152:   Elevation Permanent Datum
 LMF .                 KB:   Log Measured From
 DMF .                 KB:   Drilling Measured From
 DAPD.F                10:   Feet Above Permanent Datum
 DATE.        05-OCT-1980:   Date Logged [DD-MMM-YYYY]
 DD  .F              3200:   Depth driller
 DL  .F              3198:   Depth logger
 BLI .F              3196:   Bottom log interval
 TLI .F               646:   Top log interval
 CS1 .IN            8.625:   Casing size
 CBD1.      8.625" @ 647':   Casing driller 1
 CBL1.F               650:   Casing logger 1
 BS1 .IN            7.875:   Bit size
 BSD1.F              3200:   Depth drilled with bit1
 DFT .           CHEM GEL:   Type fluid in hole
 DFD .                8.6:   Density
 DFV .                 38:   Viscosity
 DFPH.                9.5:   pH
 MSS .           FLOWLINE:   Source of sample
 MFSS.               MEAS:   Source Rmf.
 MCSS.               MEAS:   Source Rmc.
 RMB .OHMM           1.24:   Rm. at BHT
 BHT .F               118:   BHT.
 TCS .HRS               5:   Time Circ. stopped
 MRT .F               118:   Maximum recorded temp.
 LUN .               1892:   Logging unit number
 LUL .             CASPER:   Logging unit location
 ORIG.           5" PRINT:   Origin of data
 UWI .     49025108500000:   Unique Well ID
 DICO. A2D TECHNOLOGIES, INC.:   Digitizing Company
 SL  . 313' FSL & 565' FWL:   Surface Location
 RMS .               2.34:   Rm
~OTHER INFORMATION
~A   DEPT       GRD      CALD       CORR       RHOB        SPR        ILD        ILM       SGRD   
# ...
 1498.5000    81.1272    11.6734     0.1632     2.4587   -35.3081     7.0094     7.0708     7.8915
 1499.0000    82.0149    11.7112     0.1588     2.4423   -35.2919     7.0108     7.1231     7.8412
 1499.5000    79.3890    11.7547     0.1514     2.4169   -35.1270     7.0607     7.1272     7.7937
 1500.0000    77.2003    11.8006     0.1335     2.3780   -34.9630     7.1110     7.2489     8.2982
 1500.5000    76.5485    11.8462     0.1231     2.4087   -34.7985     7.2530     7.3536     8.0790
 1501.0000    76.7818    11.8918     0.1414     2.4822   -34.7791     7.3072     7.3575     7.8630
 1501.5000    76.3522    11.9375     0.1551     2.5227   -34.6150     7.2598     7.3107     7.8142
 1502.0000    72.8885    11.9537     0.1538     2.4868   -34.5992     7.2146     7.2643     7.8777
 1502.5000    69.7785    11.9700     0.1524     2.4785   -34.7354     7.1688     7.2181     7.5555
 1503.0000    71.6031    11.9862     0.1586     2.4927   -34.6902     7.1232     7.2730     7.4619
 1503.5000    74.2617    12.0319     0.1709     2.5085   -34.6059     7.0789     7.2768     7.8918
 1504.0000    76.0406    12.0628     0.1831     2.5183   -34.5252     7.0827     7.2807     7.9504
 1504.5000    77.5995    12.0744     0.1908     2.5295   -34.8043     7.0368     7.2344     7.5298
 1505.0000    79.3783    12.0653     0.1985     2.5483   -35.0792     7.0414     7.1894     7.2793
 1505.5000    80.7172    12.0556     0.2077     2.5408   -35.2145     6.9967     7.1932     7.2852
 1506.0000    81.3963    12.0867     0.2177     2.5325   -35.3455     7.0013     7.0974     7.5460
 1506.5000    80.9648    12.1325     0.2103     2.5379   -35.3240     6.9559     7.0533     7.4476
 1507.0000    80.1153    12.1796     0.2089     2.5302   -35.4550     6.8651     7.0570     7.2987
 1507.5000    83.2186    12.2393     0.2074     2.5357   -35.4336     6.8215     7.0608     7.6134
 1508.0000    82.3581    12.2852     0.2166     2.5500   -35.4165     6.8724     7.0655     7.9955
 1508.5000    81.2777    12.3016     0.2424     2.5523   -35.3993     6.9237     7.0692     7.6236
 1509.0000    80.6324    12.2740     0.2393     2.5216   -35.2340     6.9283     7.0730     7.2690
 1509.5000    79.5568    12.2607     0.2315     2.4610   -35.2169     6.9800     7.0271     7.4786
 1510.0000    78.6963    12.2482     0.2231     2.4551   -35.0516     6.9837     6.9834     7.6400
 1510.5000    79.3754    12.2500     0.2307     2.4933   -35.0341     6.9874     7.0355     7.5404
 1511.0000    80.0545    12.2518     0.2520     2.5301   -34.8681     6.9911     7.0402     7.3400
 1511.5000    79.8257    12.2687     0.2687     2.5308   -34.8477     6.9467     7.0439     7.3449
 1512.0000    76.9175    12.2705     0.2718     2.4814   -34.8305     6.9026     7.0477     7.4006
 1512.5000    77.9178    12.2870     0.2658     2.4643   -34.6667     6.9072     7.0514     7.2959
 1513.0000    80.1366    12.3034     0.2599     2.4718   -34.6481     6.8624     7.0066     7.1592
 1513.5000    81.0356    12.3052     0.2570     2.4666   -34.6309     6.8669     6.9621     7.3656
 1514.0000    78.1957    12.3070     0.2448     2.4561   -34.7619     6.8706     6.9110     7.4203
 1514.5000    76.4554    12.2794     0.2471     2.4696   -34.8886     6.8269     6.8266     7.1747
 1515.0000    75.5950    12.2054     0.2588     2.4368   -34.8741     6.6845     6.7366     7.0323
 1515.5000    75.6143    12.0484     0.2514     2.3769   -35.0068     6.6023     6.6938     7.1929
 1516.0000    78.2729    12.0062     0.2349     2.3545   -34.9854     6.5152     6.6982     7.8108
 1516.5000    79.8321    11.9928     0.2365     2.4414   -34.9682     6.5195     6.7018     7.5510
 1517.0000    78.5362    12.0059     0.2502     2.4893   -35.0993     6.5230     6.7054     7.2998
 1517.5000    77.8957    12.0086     0.2699     2.4998   -35.0815     6.5265     6.7098     7.0570
 1518.0000    78.3549    12.0385     0.2836     2.4939   -35.2088     6.5300     6.7134     6.7753
 1518.5000    79.6938    12.1135     0.2520     2.3481   -35.1916     6.4884     6.7169     6.6409
 1519.0000    80.1530    12.2767     0.2099     2.3257   -35.1745     6.4472     6.6734     6.6989
 1519.5000    80.1723    12.4399     0.1979     2.3009   -35.3098     6.4063     6.6318     6.8369
 1520.0000    81.0714    12.5442     0.1965     2.3211   -35.2883     6.3656     6.5897     6.8889
 1520.5000    79.9909    12.5604     0.1982     2.3788   -35.1230     6.3698     6.5941     6.9412
 1521.0000    77.1464    12.5618     0.2043     2.4567   -34.9570     6.3732     6.5976     6.9458
 1521.5000    76.2905    12.5338     0.2165     2.4792   -34.7881     6.4216     6.6011     7.0470
 1522.0000    77.4144    12.5205     0.2271     2.4807   -34.4747     6.4250     6.6046     7.1497
 1522.5000    78.9732    12.5073     0.2348     2.4687   -34.4575     6.4284     6.6081     7.1556
 1523.0000    80.3122    12.5090     0.2379     2.4755   -34.2922     6.4318     6.6117     7.1099
 1523.5000    81.4312    12.5105     0.2382     2.4434   -34.2751     6.4352     6.6160     7.0183
 1524.0000    82.3254    12.5162     0.2351     2.4502   -34.2578     6.4387     6.5740     6.8791
 1524.5000    75.3114    12.5427     0.2322     2.4816   -34.5328     6.3978     6.5775     6.9313
 1525.0000    73.7911    12.5589     0.2325     2.4689   -34.6681     6.4020     6.5348     7.0810
 1525.5000    73.5902    12.5897     0.2384     2.4143   -34.9472     6.3605     6.6301     7.2841
 1526.0000    74.7273    12.6353     0.2461     2.4570   -35.0782     6.3647     6.6796     7.3393
 1526.5000    75.6092    12.6812     0.2567     2.4967   -35.0568     6.4122     6.6833     7.0475
 1527.0000    75.1928    12.7120     0.2629     2.4839   -35.0382     6.4601     6.6407     6.8131
 1527.5000    74.3323    12.7576     0.2328     2.3973   -35.0222     6.4636     6.5985     6.7696
 1528.0000    73.0320    12.8325     0.2058     2.3457   -35.0044     6.4224     6.6029     7.1597
 1528.5000    74.5909    12.8928     0.2056     2.3472   -34.9839     6.4267     6.5600     7.2140
 1529.0000    76.1497    12.9383     0.2361     2.4243   -34.9668     6.3850     6.4743     6.9273
 1529.5000    77.2687    12.8221     0.2560     2.5000   -34.9496     6.3893     6.3890     6.7887
 1530.0000    78.3877    12.7353     0.2667     2.5090   -34.9333     6.3486     6.3484     6.7944
 1530.5000    79.2868    12.7385     0.2727     2.4791   -34.7674     6.3521     6.3966     6.8460
 1531.0000    78.8662    12.8267     0.2637     2.4020   -34.7496     6.3563     6.4890     6.9457
 1531.5000    79.8437    12.8870     0.2337     2.3456   -34.7286     6.3596     6.6283     6.9984
 1532.0000    82.4287    12.9472     0.2021     2.3265   -34.5633     6.4071     6.7707     7.0517
 1532.5000    81.3483    12.9928     0.1947     2.3722   -34.3980     6.4105     6.9161     7.0574
 1533.0000    79.6080    13.0089     0.1948     2.3737   -34.2327     6.4584     6.9686     7.1602
 1533.5000    76.7681    13.0104     0.1873     2.3528   -34.0674     6.5066     7.0206     7.3655
 1534.0000    74.5880    12.9824     0.1830     2.3551   -33.9021     6.5109     7.0243     7.2682
 1534.5000    71.3082    12.9243     0.1966     2.4315   -33.7368     6.5143     7.0280     7.2742
 1535.0000    68.4682    12.8652     0.2027     2.4525   -34.0160     6.4721     7.0382     7.4348
 1535.5000    68.4908    12.8102     0.2074     2.4383   -34.2951     6.4764     6.8913     7.5917
 1536.0000    73.1256    12.7679     0.2105     2.4624   -34.5743     6.4798     6.8004     7.2899
 1536.5000    70.9455    12.7542     0.2076     2.4788   -34.8491     6.4833     6.7572     6.9990
 1537.0000    73.8288    12.7560     0.2016     2.4586   -34.8320     6.4876     6.8557     6.8590
 1537.5000    75.3877    12.7280     0.1972     2.4601   -34.9630     6.5360     6.9547     7.6132
 1538.0000    76.5067    12.7295     0.1973     2.4879   -35.0940     6.5395     7.0551     7.3599
 1538.5000    73.6668    12.7015     0.2020     2.5104   -35.2207     6.5883     7.0589     7.1576
