~VERSION INFORMATION
 VERS.                2.0:   CWLS LOG ASCII STANDARD - VERSION 2.0
 WRAP.                 NO:   ONE LINE PER DEPTH STEP
~WELL INFORMATION
#MNEM.UNIT      DATA TYPE    INFORMATION
#----------   ------------   ------------------------------
 STRT.F          210.5000:   START DEPTH
 STOP.F         3234.0000:   STOP DEPTH
 STEP.F            0.5000:   STEP LENGTH
 NULL.          -999.2500:   NO VALUE
 COMP.    FENIX & SCISSON:   COMPANY
 WELL.   FENIX "A" #21-10:   WELL
 FLD .              NPR-3:   FIELD
 LOC .      S10 T38N R78W:   LOCATION
 CNTY.            NATRONA:   COUNTY
 STAT.            WYOMING:   STATE
 CTRY. UNITED STATES OF AMERICA:   COUNTRY
 SRVC.      DRESSER ATLAS:   SERVICE COMPANY
 DATE.        31-AUG-1977:   LOGDATE
 API .     49025104260000:   API NUMBER
~CURVE INFORMATION
#MNEM.UNIT       API CODE    CURVE DESCRIPTION
#----------   ------------   ------------------------------
 DEPT.F                  :   
 GRD .GAPI   45 310 01 00:   GAMMA RAY FROM DENSITY LOG
 CALD.IN     45 280 60 00:   CALIPER FROM DENSITY LOG
 RHOB.G/C3   45 350 01 00:   BULK DENSITY
 CORR.G/C3   45 356 01 00:   DENSITY CORRECTION
 SPR .MV     11 010 01 00:   SPONTANEOUS POTENTIAL
 LLS .OHMM   11 220 09 00:   LATEROLOG SHALLOW
 LLD .OHMM   11 220 10 00:   LATEROLOG DEEP
 TEND.LBS    45 635 01 00:   TENSION FROM DENSITY LOG
 TENR.LBS    07 635 01 00:   TENSION
~PARAMETER INFORMATION
#MNEM.UNIT          VALUE    DESCRIPTION
#----------   ------------   ------------------------------
 EKB .F         5258.0000:   Kelly bushing
 EGL .F         5248.0000:   Ground level
 EDF .F            0.0000:   Drilling floor
 TD  .F         3222.0000:   Total depth
 DATE.        31-AUG-1977:   Date logged
 CLNT.            A2DTECH:   Client Code
 SL  . 330' FNL & 990' FWL:   Surface Location
 PD  .                 GL:   Permanent Datum
 EPD .F              5248:   Elevation Permanent Datum
 LMF .                 KB:   Log Measured From
 DMF .                 KB:   Drilling Measured From
 DAPD.F                10:   Feet Above Permanent Datum
 DD  .F              3222:   Depth driller
 DL  .F              3219:   Depth logger
 BLI .F              3218:   Bottom log interval
 TLI .F               221:   Top log interval
 CS1 .IN             8.75:   Casing size
 CBD1.       8.75" @ 219':   Casing driller 1
 CBL1.F               221:   Casing logger 1
 BS1 .IN            7.875:   Bit size
 BSD1.F              3222:   Depth drilled with bit1
 DFT .                KCL:   Type fluid in hole
 DFD .                9.1:   Density
 DFV .                 36:   Viscosity
 DFPH.                 11:   pH
 DFL .                  8:   Fluid loss
 MSS .           FLOWLINE:   Source of sample
 RMS .OHMM           0.14:   Rm
 MST .F                72:   Rm Meas. temp.
 RMF .OHMM           0.08:   Rmf
 MFST.F                72:   Rmf Meas. temp.
 RMC .OHMM           0.20:   Rmc
 MCST.F                72:   Rmc Meas. temp.
 MFSS.               CALC:   Source Rmf.
 MCSS.               CALC:   Source Rmc.
 RMB .OHMM           0.08:   Rm. at BHT
 BHT .F               125:   BHT.
 TCS .HRS               3:   Time Circ. stopped
 MRT .F               125:   Maximum recorded temp.
 LUN .               6080:   Logging unit number
 LUL .              WLSTN:   Logging unit location
 ENGI.               RALL:   Recorded By
 WITN.         PETTINGILL:   Witnessed by
 ORIG.           5" PRINT:   Origin of data
 UWI .     49025104260000:   Unique Well ID
 DICO. A2D TECHNOLOGIES, INC.:   Digitizing Company
~OTHER INFORMATION
~A   DEPT      GRD       CALD       RHOB       CORR        SPR        LLS        LLD       TEND        TENR  
# ...
 3203.5000   113.2750     7.4450     2.4740     0.0090   -52.8640     4.8900     5.0260  1013.6780  1290.9630
 3204.0000   114.5490     7.4140     2.4720     0.0080   -52.9790     4.7660     4.9130  1026.6840  1309.9790
 3204.5000   113.7120     7.3830     2.4710     0.0070   -52.7590     4.6280     4.7800  1039.6899  1328.9950
 3205.0000   112.8890     7.3840     2.4700     0.0070   -52.5170     4.4220     4.6930  1052.6960  1348.0110
 3205.5000   112.2540     7.3850     2.4690     0.0060   -52.2740     4.4590     4.6710  1065.7010  1367.0270
 3206.0000   113.0300     7.3870     2.4680     0.0050   -52.0340     4.5320     4.6930  1078.7070  1378.8101
 3206.5000   113.8120     7.3650     2.4670     0.0050   -51.7930     4.6050     4.8020  1091.7130  1373.7170
 3207.0000   114.6040     7.3650     2.4670     0.0020   -51.5410     4.7140     4.9130  1104.7190  1368.6250
 3207.5000   113.3000     7.3630     2.4690     0.0020   -51.0810     4.6350     5.0260  1117.7250  1363.5320
 3208.0000   110.6390     7.3580     2.4710     0.0010   -50.0450  -999.2500  -999.2500  1130.7310  1358.4399
 3208.5000   108.4390     7.3530     2.4720     0.0010   -49.0400  -999.2500  -999.2500  1143.7371  1353.3470
 3209.0000   108.2090     7.3490     2.4740     0.0010   -48.0350  -999.2500  -999.2500  1156.7430  1348.2550
 3209.5000   109.6720     7.3440     2.4760     0.0040   -47.3720  -999.2500  -999.2500  1169.7490  1343.1620
 3210.0000   111.4050     7.3400     2.4770     0.0080   -47.0490  -999.2500  -999.2500  1182.7550  1340.6160
 3210.5000   113.2360     7.3350     2.4790     0.0120   -46.6830  -999.2500  -999.2500  1195.7610  1349.5530
 3211.0000   115.8030     7.3300     2.4820     0.0160   -46.3260  -999.2500  -999.2500  1208.7670  1359.4840
 3211.5000   115.7160     7.3260     2.4880     0.0210   -45.4170  -999.2500  -999.2500  1221.7729  1369.4139
 3212.0000   113.6790     7.3210     2.4960     0.0250   -44.3870  -999.2500  -999.2500  1234.7780  1379.3450
 3212.5000   113.8330     7.3170     2.5020     0.0290   -43.3500  -999.2500  -999.2500  1247.7841  1389.2750
 3213.0000   113.9500     7.3120     2.5060     0.0330   -42.3170  -999.2500  -999.2500  1260.7900  1399.2061
 3213.5000   114.0590     7.3070     2.5110     0.0370   -41.2750  -999.2500  -999.2500  1273.7960  1409.1360
 3214.0000   114.1720     7.3270     2.5160     0.0410   -41.1320  -999.2500  -999.2500  1297.0300  1419.0670
 3214.5000   114.2830     7.3400     2.5190     0.0460   -41.5730  -999.2500  -999.2500  1322.7200  1428.9969
 3215.0000   114.3980     7.3560     2.5210     0.0500   -42.0190  -999.2500  -999.2500  1338.7180  1438.9280
 3215.5000   114.5470     7.3730     2.5240     0.0540   -42.4700  -999.2500  -999.2500  1354.7159  1448.8580
 3216.0000   113.2220     7.3900     2.5260     0.0580   -42.9200  -999.2500  -999.2500  1370.7140  1459.7820
 3216.5000   111.4230     7.4070     2.5260     0.0620   -43.3700  -999.2500  -999.2500  1386.7120  1476.4650
 3217.0000   109.6070     7.4240     2.5240     0.0660   -43.8200  -999.2500  -999.2500  1402.7100  1500.2980
 3217.5000   107.8320     7.4410     2.5240     0.0660   -44.2700  -999.2500  -999.2500  1418.7080  1524.1310
 3218.0000   108.9890     7.4580     2.5270     0.0650   -44.7180  -999.2500  -999.2500  1435.6440  1547.9640
 3218.5000   109.3830     7.4750     2.5290     0.0630   -45.1630  -999.2500  -999.2500  1395.8879  1571.7970
 3219.0000  -999.2500     7.4920     2.5250     0.0610  -999.2500  -999.2500  -999.2500  1146.8101  1578.9470
 3219.5000  -999.2500     7.5090     2.5200     0.0600  -999.2500  -999.2500  -999.2500   897.7310  1439.9210
 3220.0000  -999.2500     7.5240     2.5160     0.0580  -999.2500  -999.2500  -999.2500   648.6520   930.1560
 3220.5000  -999.2500  -999.2500  -999.2500  -999.2500  -999.2500  -999.2500  -999.2500   399.5740   466.7330
 3221.0000  -999.2500  -999.2500  -999.2500  -999.2500  -999.2500  -999.2500  -999.2500   262.0460   294.7790
 3221.5000  -999.2500  -999.2500  -999.2500  -999.2500  -999.2500  -999.2500  -999.2500   250.7880   247.7400
 3222.0000  -999.2500  -999.2500  -999.2500  -999.2500  -999.2500  -999.2500  -999.2500   239.5310   200.7000
 3222.5000  -999.2500  -999.2500  -999.2500  -999.2500  -999.2500  -999.2500  -999.2500   228.2730   148.9570
 3223.0000  -999.2500  -999.2500  -999.2500  -999.2500  -999.2500  -999.2500  -999.2500   217.0150   264.5770
 3223.5000  -999.2500  -999.2500  -999.2500  -999.2500  -999.2500  -999.2500  -999.2500   205.7570   456.0930
 3224.0000  -999.2500  -999.2500  -999.2500  -999.2500  -999.2500  -999.2500  -999.2500   194.4990   647.6100
 3224.5000  -999.2500  -999.2500  -999.2500  -999.2500  -999.2500  -999.2500  -999.2500   183.2420   703.4090
 3225.0000  -999.2500  -999.2500  -999.2500  -999.2500  -999.2500  -999.2500  -999.2500   171.9840   701.0450
 3225.5000  -999.2500  -999.2500  -999.2500  -999.2500  -999.2500  -999.2500  -999.2500   160.7260   698.6810
 3226.0000  -999.2500  -999.2500  -999.2500  -999.2500  -999.2500  -999.2500  -999.2500   148.5150   696.3160
 3226.5000  -999.2500  -999.2500  -999.2500  -999.2500  -999.2500  -999.2500  -999.2500   225.7980   693.9520
 3227.0000  -999.2500  -999.2500  -999.2500  -999.2500  -999.2500  -999.2500  -999.2500   310.2310   691.5870
 3227.5000  -999.2500  -999.2500  -999.2500  -999.2500  -999.2500  -999.2500  -999.2500   394.6640   689.2230
 3228.0000  -999.2500  -999.2500  -999.2500  -999.2500  -999.2500  -999.2500  -999.2500   479.0980   686.8590
 3228.5000  -999.2500  -999.2500  -999.2500  -999.2500  -999.2500  -999.2500  -999.2500   544.5540   684.4940
 3229.0000  -999.2500  -999.2500  -999.2500  -999.2500  -999.2500  -999.2500  -999.2500   508.6470   682.1300
 3229.5000  -999.2500  -999.2500  -999.2500  -999.2500  -999.2500  -999.2500  -999.2500   427.5910   679.7650
 3230.0000  -999.2500  -999.2500  -999.2500  -999.2500  -999.2500  -999.2500  -999.2500   386.1390   677.4010
 3230.5000  -999.2500  -999.2500  -999.2500  -999.2500  -999.2500  -999.2500  -999.2500  -999.2500   675.0370
 3231.0000  -999.2500  -999.2500  -999.2500  -999.2500  -999.2500  -999.2500  -999.2500  -999.2500   672.6720
 3231.5000  -999.2500  -999.2500  -999.2500  -999.2500  -999.2500  -999.2500  -999.2500  -999.2500   670.3080
 3232.0000  -999.2500  -999.2500  -999.2500  -999.2500  -999.2500  -999.2500  -999.2500  -999.2500   667.9430
 3232.5000  -999.2500  -999.2500  -999.2500  -999.2500  -999.2500  -999.2500  -999.2500  -999.2500   665.3430
 3233.0000  -999.2500  -999.2500  -999.2500  -999.2500  -999.2500  -999.2500  -999.2500  -999.2500   665.3430
 3233.5000  -999.2500  -999.2500  -999.2500  -999.2500  -999.2500  -999.2500  -999.2500  -999.2500   665.3430
 3234.0000  -999.2500  -999.2500  -999.2500  -999.2500  -999.2500  -999.2500  -999.2500  -999.2500   665.3430
