~VERSION INFORMATION
 VERS.                2.0:   CWLS LOG ASCII STANDARD - VERSION 2.0
 WRAP.                 NO:   ONE LINE PER DEPTH STEP
~WELL INFORMATION
#MNEM.UNIT      DATA TYPE    INFORMATION
#----------   ------------   ------------------------------
 STRT.F          517.0000:   START DEPTH
 STOP.F         3222.0000:   STOP DEPTH
 STEP.F            0.5000:   STEP LENGTH
 NULL.          -999.2500:   NO VALUE
 COMP.    FENIX & SCISSON:   COMPANY
 WELL.  FENIX "TX" #53-33:   WELL
 FLD .             NPR #3:   FIELD
 LOC .      S33 T39N R78W:   LOCATION
 CNTY.            NATRONA:   COUNTY
 STAT.            WYOMING:   STATE
 CTRY. UNITED STATES OF AMERICA:   COUNTRY
 SRVC.              WELEX:   SERVICE COMPANY
 DATE.        24-AUG-1980:   LOGDATE
 API .     49025108460000:   API NUMBER
~CURVE INFORMATION
#MNEM.UNIT       API CODE    CURVE DESCRIPTION
#----------   ------------   ------------------------------
 DEPT.F                  :   
 CALD.IN     45 280 60 00:   CALIPER FROM DENSITY LOG
 GRD .GAPI   45 310 01 00:   GAMMA RAY FROM DENSITY LOG
 CORR.G/C3   45 356 01 00:   DENSITY CORRECTION
 RHOB.G/C3   45 350 01 00:   BULK DENSITY
 SPR .MV     07 010 01 00:   SPONTANEOUS POTENTIAL
 ILD .OHMM   07 120 46 00:   DEEP INDUCTION RESISTIVITY
 ILM .OHMM   07 120 44 00:   INDUCTION LOG MEDIUM RESISTIVITY
 SGRD.OHMM   07 220 05 00:   SHALLOW SHORT GUARD RESISTIVITY
~PARAMETER INFORMATION
#MNEM.UNIT          VALUE    DESCRIPTION
#----------   ------------   ------------------------------
 EKB .F         5173.0000:   Kelly bushing
 EGL .F         5163.0000:   Ground level
 EDF .F            0.0000:   Drilling floor
 EPD .F            0.0000:   Permanent datum
 TD  .F         3224.0000:   Total depth
 CLNT.            A2DTECH:   Client Code
 SL  . 1650' FNL & 2500' FEL:   Surface Location
 PD  .                 GL:   Permanent Datum
 DAPD.F                10:   Feet Above Permanent Datum
 DATE.        24-AUG-1980:   Date Logged [DD-MMM-YYYY]
 DD  .F              3190:   Depth driller
 DL  .F              3224:   Depth logger
 BLI .F              3222:   Bottom log interval
 TLI .F               528:   Top log interval
 CS1 .IN            8.625:   Casing size
 CBD1.      8.625" @ 532':   Casing driller 1
 CBL1.F               528:   Casing logger 1
 BS1 .IN            7.875:   Bit size
 BSD1.F              3190:   Depth drilled with bit1
 DFT .     WATER BASE MUD:   Type fluid in hole
 DFD .                8.8:   Density
 DFV .                 45:   Viscosity
 DFL .                9.4:   Fluid loss
 MSS .            MUD PIT:   Source of sample
 RMS .OHMM           2.10:   Rm
 MST .F                65:   Rm Meas. temp.
 RMF .OHMM           1.68:   Rmf
 MFST.F                65:   Rmf Meas. temp.
 MFSS.               CALC:   Source Rmf.
 RMC .OHMM           2.52:   Rmc
 MCST.F                65:   Rmc Meas. temp.
 MCSS.               CALC:   Source Rmc.
 RMB .OHMM           1.14:   Rm. at BHT
 BHT .F               120:   BHT.
 TCS .HRS               3:   Time Circ. stopped
 MRT .F               120:   Maximum recorded temp.
 LUN .               1892:   Logging unit number
 LUL .             CASPER:   Logging unit location
 ENGI.           WACHTEIL:   Recorded By
 ORIG.         2.5" PRINT:   Origin of data
 UWI .     49025108460000:   Unique Well ID
 DICO. A2D TECHNOLOGIES, INC.:   Digitizing Company
~OTHER INFORMATION
~A   DEPT     CALD         GRD      CORR       RHOB        SPR        ILD        ILM       SGRD   
# ...
  881.5000    11.6719    80.2725     0.0999     2.5369   -27.2166     8.2361     8.3517     8.4065
  882.0000    11.6713    79.9279     0.0847     2.5433   -26.9189     8.2301     8.4041     8.4037
  882.5000    11.6707    81.4302     0.0756     2.5534   -26.9221     8.2241     8.5179     8.2853
  883.0000    11.6701    84.9368     0.0786     2.5545   -27.2252     8.2182     8.5150     8.2826
  883.5000    11.6998    86.1802     0.0906     2.5276   -27.2282     8.2122     8.5122     8.2798
  884.0000    11.7294    84.8085     0.0966     2.5185   -27.1792     8.2062     8.5094     8.2770
  884.5000    11.7589    82.5390     0.0815     2.5125   -26.8554     8.1992     8.5065     8.2741
  885.0000    11.7885    81.1705     0.0814     2.5230   -26.5315     8.1935     8.5036     8.2713
  885.5000    11.7878    82.5159     0.0850     2.5275   -26.2077     8.1878     8.5006     8.2684
  886.0000    11.7872    85.2343     0.0921     2.5259   -26.0420     8.1821     8.4977     8.2655
  886.5000    11.8169    86.6951     0.1017     2.5285   -25.7453     8.1764     8.4947     8.2627
  887.0000    11.8163    87.4078     0.1115     2.5384   -25.7482     8.1705     8.4918     8.2598
  887.5000    11.8170    88.0068     0.1144     2.5488   -25.7511     8.1646     8.4889     8.2564
  888.0000    11.8454    88.2703     0.1174     2.5590   -25.7539     8.1586     8.4854     8.2537
  888.5000    11.8447    88.0008     0.1113     2.5695   -25.7568     8.1527     8.4826     8.3660
  889.0000    11.8441    86.4294     0.1052     2.5755   -25.7768     8.1468     8.4798     8.3632
  889.5000    11.8738    86.8626     0.1112     2.5761   -26.0631     8.1408     8.4769     8.3604
  890.0000    11.8731    87.2959     0.1142     2.5664   -26.3664     8.1338     8.4703     8.4366
  890.5000    11.8724    87.2786     0.1107     2.5573   -26.3694     8.1281     8.4712     8.4712
  891.0000    11.8718    87.7119     0.0990     2.5557   -26.3724     8.1225     8.4683     8.4915
  891.5000    11.8712    83.9924     0.1050     2.5574   -26.3754     8.1168     8.4654     8.5834
  892.0000    11.8707    83.0811     0.1110     2.5506   -26.3790     8.1111     8.4625     8.5805
  892.5000    11.8701    82.5713     0.1121     2.5366   -26.6821     8.1054     8.4595     8.5775
  893.0000    11.8695    81.7838     0.1155     2.5396   -26.6850     8.0995     8.4566     8.5745
  893.5000    11.8689    82.6441     0.1092     2.5442   -26.6879     8.0936     8.4537     8.5710
  894.0000    11.8683    83.8048     0.0987     2.5510   -26.6908     8.0877     8.4502     8.5681
  894.5000    11.8677    84.4295     0.0987     2.5645   -26.6852     8.0819     8.4474     8.5653
  895.0000    11.8671    83.5114     0.1047     2.5750   -26.0959     8.0760     8.4449     8.6819
  895.5000    11.8665    83.0437     0.1077     2.5509   -26.0991     8.0701     8.4420     8.6790
  896.0000    11.8657    82.1255     0.1137     2.5506   -26.1021     8.1767     8.4390     8.6761
  896.5000    11.8652    81.6577     0.1227     2.5569   -25.9905     8.1708     8.4361     8.6731
  897.0000    11.8344    81.6922     0.1187     2.5615   -25.8078     8.1643     8.4332     8.6701
  897.5000    11.8338    82.6164     0.1105     2.5634   -25.8108     8.1589     8.4303     8.5479
  898.0000    11.8332    83.0901     0.1114     2.5732   -25.8143     8.1529     8.3114     8.5449
  898.5000    11.8326    83.3908     0.1134     2.5793   -25.8172     8.1470     8.3086     8.5419
  899.0000    11.8320    83.3694     0.1089     2.5687   -26.1204     8.1411     8.3057     8.4215
  899.5000    11.8502    83.3513     0.1030     2.5592   -26.1233     8.1352     8.3028     8.3022
  900.0000    11.9639    83.3305     0.1223     2.5656   -26.1261     8.1293     8.2995     8.1853
  900.5000    11.9627    83.3132     0.1253     2.5731   -25.8258     8.0765     8.1826     8.0701
  901.0000    11.9614    83.2960     0.1258     2.5685   -26.4264     7.9500     8.0674     7.9112
  901.5000    11.9905    82.8283     0.1192     2.5730   -26.7267     7.7803     7.9538     7.7365
  902.0000    11.9892    81.9099     0.1131     2.5776   -27.0270     7.5625     7.7339     7.6275
  902.5000    11.9880    81.8356     0.1100     2.5805   -27.0270     7.5572     7.7312     7.6249
  903.0000    12.0169    79.3287     0.1100     2.5659   -27.0270     7.4481     7.7285     7.5174
  903.5000    12.0157    78.1133     0.1130     2.5513   -27.0270     7.3405     7.7259     7.4114
  904.0000    12.0446    78.4144     0.1160     2.5496   -27.0270     7.2345     7.7232     7.3763
  904.5000    12.0432    79.7890     0.1159     2.5480   -27.0270     7.2292     7.6976     7.3044
  905.0000    12.0722    81.3478     0.1128     2.5471   -27.0270     7.2239     7.6117     7.2534
  905.5000    12.0710    82.6819     0.1128     2.5486   -27.0270     7.2187     7.7152     7.1990
  906.0000    12.1301    83.1171     0.1097     2.5501   -26.7267     7.2510     7.7125     7.1961
  906.5000    12.1591    83.0979     0.1097     2.5500   -26.7267     7.3087     7.7095     7.2943
  907.0000    12.1578    83.0807     0.1023     2.5440   -26.6123     7.3034     7.7070     7.2916
  907.5000    12.1566    81.6930     0.0968     2.5378   -25.9892     7.2972     7.8119     7.2891
  908.0000    12.1554    81.7537     0.0906     2.5285   -25.5255     7.2921     7.8092     7.2867
  908.5000    12.1241    83.1284     0.0844     2.5206   -25.5255     7.2870     7.8065     7.2842
  909.0000    12.1096    84.1953     0.0781     2.5128   -25.5255     7.2819     7.8252     7.3394
  909.5000    12.0916    84.7963     0.0713     2.5053   -25.5255     7.2769     7.9103     7.3810
  910.0000    12.0600    85.2252     0.0650     2.5015   -25.8258     7.2716     7.9072     7.3477
  910.5000    12.0589    84.7532     0.0728     2.5062   -25.8258     7.3681     7.9045     7.2741
  911.0000    12.0577    84.2856     0.0751     2.5075   -25.8258     7.3623     7.9017     7.3186
  911.5000    12.0565    83.8179     0.0659     2.4833   -26.1425     7.3570     7.8985     7.3705
  912.0000    12.0554    84.7016     0.0873     2.4953   -26.4264     7.3516     7.7873     7.3675
  912.5000    12.0542    85.5852     0.0972     2.4983   -26.4264     7.2452     7.7847     7.3650
  913.0000    12.0832    84.6667     0.0989     2.4983   -26.7267     7.2389     7.7821     7.3626
  913.5000    12.1121    84.6487     0.0957     2.5142   -26.7267     7.2339     7.7795     7.3601
  914.0000    12.1411    84.5255     0.0880     2.5313   -26.7267     7.2288     7.6699     7.4603
  914.5000    12.1494    83.2641     0.0799     2.5425   -26.7267     7.1244     7.6672     7.3552
  915.0000    12.1807    85.9834     0.0773     2.5407   -26.7267     7.1195     7.6646     7.2882
  915.5000    12.2422    89.5391     0.0772     2.5305   -26.7267     7.0166     7.5565     7.1657
  916.0000    12.2867    91.7623     0.0832     2.5290   -26.7267     7.0115     7.5138     7.1152
  916.5000    12.3456    91.7451     0.1073     2.5259   -26.7267     7.0064     7.4474     7.1118
  917.0000    12.3747    91.7279     0.1223     2.5243   -26.7267     7.0013     7.3425     7.1083
  917.5000    12.3433    91.7106     0.1101     2.5167   -26.7267     6.9962     7.3395     7.1049
  918.0000    12.3120    91.6934     0.1251     2.5491   -26.7267     7.0887     7.3371     7.1008
  918.5000    12.2807    91.2252     0.1220     2.5686   -26.4264     7.0835     7.3346     7.1970
  919.0000    12.2795    91.2072     0.1189     2.5742   -26.3733     7.1761     7.3322     7.2935
  919.5000    12.2482    90.5209     0.1188     2.5758   -26.1261     7.2712     7.3297     7.2901
  920.0000    12.2108    87.4876     0.1185     2.5783   -26.4264     7.3679     7.3272     7.3884
  920.5000    12.1857    86.6453     0.1092     2.5768   -26.5470     7.4650     7.3718     7.4879
  921.0000    12.2253    86.6280     0.0995     2.5730   -26.7267     7.5639     7.9829     7.6079
  921.5000    12.2735    84.8088     0.0943     2.5751   -26.7267     7.7708     8.3662     7.8278
