~VERSION INFORMATION
 VERS.                2.0:   CWLS LOG ASCII STANDARD - VERSION 2.0
 WRAP.                 NO:   ONE LINE PER DEPTH STEP
~WELL INFORMATION
#MNEM.UNIT      DATA TYPE    INFORMATION
#----------   ------------   ------------------------------
 STRT.F          480.0000:   START DEPTH
 STOP.F         4609.5000:   STOP DEPTH
 STEP.F            0.5000:   STEP LENGTH
 NULL.          -999.2500:   NO VALUE
 COMP.   FENNIX & SCISSON:   COMPANY
 WELL. FENNIX NPR-3 "LX" #58-14:   WELL
 FLD .              NPR-3:   FIELD
 LOC .      S14 T38N R78W:   LOCATION
 CNTY.            NATRONA:   COUNTY
 STAT.            WYOMING:   STATE
 CTRY. UNITED STATES OF AMERICA:   COUNTRY
 SRVC.       SCHLUMBERGER:   SERVICE COMPANY
 DATE.        08-MAR-1978:   LOGDATE
 API .     49025105920000:   API NUMBER
~CURVE INFORMATION
#MNEM.UNIT       API CODE    CURVE DESCRIPTION
#----------   ------------   ------------------------------
 DEPT.F                  :   
 SPR .MV     07 010 01 00:   SPONTANEOUS POTENTIAL
 SFL .OHMM   07 220 01 00:   SHALLOW FOCUSED LOG RESISTIVITY
 ILD .OHMM   07 120 46 00:   DEEP INDUCTION RESISTIVITY
 ILM .OHMM   07 120 44 00:   INDUCTION LOG MEDIUM RESISTIVITY
 CALD.IN     45 280 60 00:   CALIPER FROM DENSITY LOG
 GRD .GAPI   45 310 01 00:   GAMMA RAY FROM DENSITY LOG
 CORR.G/C3   45 356 01 00:   DENSITY CORRECTION
 RHOB.G/C3   45 350 01 00:   BULK DENSITY
 NPHI.DEC    42 890 03 00:   NEUTRON POROSITY SANDSTONE
~PARAMETER INFORMATION
#MNEM.UNIT          VALUE    DESCRIPTION
#----------   ------------   ------------------------------
 EKB .F         5320.0000:   Kelly bushing
 EGL .F         5310.0000:   Ground level
 EDF .F            0.0000:   Drilling floor
 TD  .F         4635.0000:   Total depth
 DATE.        08-MAR-1978:   Date logged
 CLNT.            A2DTECH:   Client Code
 SL  . 810' FSL & 1830' FEL:   Surface Location
 PD  .                 GL:   Permanent Datum
 DD  .F              4635:   Depth driller
 DL  .F              4608:   Depth logger
 BLI .F              4607:   Bottom log interval
 DFT .                FGM:   Type fluid in hole
 DFD .                9.1:   Density
 DFV .                 38:   Viscosity
 DFPH.                 11:   pH
 MSS .           FLOWLINE:   Source of sample
 RMS .OHMM           1.53:   Rm
 MST .F                58:   Rm Meas. temp.
 RMF .OHMM           1.06:   Rmf
 MFST.F                58:   Rmf Meas. temp.
 MFSS.               MEAS:   Source Rmf.
 RMB .OHMM           0.68:   Rm. at BHT
 BHT .F               131:   BHT.
 TCS .HRS            0630:   Time Circ. stopped
 MRT .F               131:   Maximum recorded temp.
 LUN .               8039:   Logging unit number
 LUL .               CSPP:   Logging unit location
 ENGI.           PETERSON:   Recorded By
 ORIG.           5" PRINT:   Origin of data
 UWI .     49025105920000:   Unique Well ID
 DICO. A2D TECHNOLOGIES, INC.:   Digitizing Company
 DAPD.                 20:   Feet Above Permanent Datum
 BSD1.               4635:   Depth drilled with bit1
 EPD .               5310:   Elevation Permanent Datum
 LMF .                 KB:   Log Measured From
 DMF .                 KB:   Drilling Measured From
 TLI .                508:   Top log interval
 CS1 .              8.625:   Casing size
 CBL1.                508:   Casing logger 1
 BS1 .              7.875:   Bit size
~OTHER INFORMATION
~A   DEPT      SPR        SFL        ILD        ILM       CALD         GRD      CORR       RHOB         NPHI 
# ...
 3217.5000   -54.1610    18.0680    14.8160    13.4260     9.6030    55.8080     0.0190     2.4220     0.2130
 3218.0000   -54.1580    20.5150    16.3940    14.8060     9.5850    50.4530     0.0220     2.4240     0.2080
 3218.5000   -54.1580    22.9610    17.6830    16.1100     9.5650    45.4070     0.0250     2.4180     0.1940
 3219.0000   -54.1620    24.1750    18.2010    16.8550     9.5460    43.9090     0.0250     2.4070     0.1830
 3219.5000   -54.3060    23.0840    18.4840    16.6390     9.5460    43.8470     0.0230     2.3920     0.1770
 3220.0000   -54.4580    21.8730    18.6600    16.4780     9.5590    44.0730     0.0170     2.3800     0.1800
 3220.5000   -54.4740    20.8750    18.4560    16.3170     9.5720    47.9370     0.0100     2.3730     0.1860
 3221.0000   -54.2490    20.2760    18.1950    16.1550     9.5850    52.9670     0.0060     2.3810     0.1840
 3221.5000   -54.1590    18.8830    17.9000    15.9940     9.5970    57.3790     0.0070     2.4040     0.1850
 3222.0000   -54.1590    19.1820    17.4580    15.8330     9.6250    59.8900     0.0110     2.4280     0.1890
 3222.5000   -54.1580    20.0930    17.0120    15.6980     9.6580    60.2460     0.0200     2.4450     0.1980
 3223.0000   -54.1580    21.0440    17.0120    15.5710     9.6790    60.6360     0.0240     2.4420     0.2030
 3223.5000   -54.1580    20.4370    17.1700    15.3800     9.6660    61.0750     0.0250     2.4270     0.2090
 3224.0000   -54.1570    19.3630    18.5350    15.6920     9.6530    62.3740     0.0120     2.4100     0.2110
 3224.5000   -54.0850    19.9140    20.0790    16.5160     9.6400    63.6960     0.0010     2.4020     0.2100
 3225.0000   -53.8970    22.2100    21.8810    17.7820     9.6280    65.0220    -0.0030     2.4160     0.1960
 3225.5000   -53.7140    30.6660    23.6830    19.7110     9.6210    66.3090     0.0010     2.4670     0.1770
 3226.0000   -53.6070    52.2580    25.1160    23.5940     9.6210    65.1530     0.0090     2.5320     0.1510
 3226.5000   -53.8620    89.0480    27.0120    26.2480     9.6200    63.6770     0.0220     2.5990     0.1100
 3227.0000   -54.1110   114.3030    26.8860    27.7720     9.6600    62.8320     0.0310     2.6270     0.0930
 3227.5000   -54.3580    88.2650    26.5780    25.3250     9.7160    66.5900     0.0410     2.6340     0.0850
 3228.0000   -54.6040    56.6240    26.2730    22.6140     9.7730    71.9280     0.0550     2.6150     0.1000
 3228.5000   -54.7950    28.5530    25.0510    19.9030     9.8290    73.8920     0.0680     2.5580     0.1460
 3229.0000   -54.9020    21.7360    23.8440    18.3040     9.8580    71.1160     0.0600     2.4980     0.1840
 3229.5000   -55.0090    20.0930    22.6590    18.2390     9.8550    67.2500     0.0370     2.4460     0.2000
 3230.0000   -55.1150    20.6580    21.2660    18.1740     9.8530    65.9270     0.0270     2.4150     0.2040
 3230.5000   -55.2220    20.6230    19.8960    17.9180     9.8500    69.2930     0.0290     2.4140     0.1970
 3231.0000   -55.3310    20.5410    18.7740    17.5440     9.8470    73.0480     0.0330     2.4240     0.1980
 3231.5000   -55.2780    20.4580    18.5070    17.2810     9.8450    76.8150     0.0420     2.4310     0.1990
 3232.0000   -55.1960    20.3760    18.2410    17.1670     9.8420    80.5510     0.0490     2.4360     0.2040
 3232.5000   -55.1130    20.2930    17.9820    17.0540     9.8400    81.6990     0.0420     2.4300     0.2090
 3233.0000   -55.0310    19.7690    17.5950    16.7070     9.8650    82.3800     0.0300     2.4220     0.2120
 3233.5000   -54.9480    18.6600    17.2180    16.2250     9.8970    83.7990     0.0180     2.4180     0.2150
 3234.0000   -54.8330    17.8220    16.8550    15.7420     9.9400    85.2170     0.0130     2.4210     0.2180
 3234.5000   -54.7180    17.0110    16.4440    15.2590     9.9820    86.3510     0.0120     2.4370     0.2220
 3235.0000   -54.6030    16.2590    16.0480    14.7130    10.0240    83.2790     0.0200     2.4520     0.2270
 3235.5000   -54.4880    15.9450    15.5200    14.1390    10.0570    80.3400     0.0360     2.4670     0.2320
 3236.0000   -54.3740    15.9450    15.5560    14.3560    10.0500    78.7980     0.0490     2.4750     0.2360
 3236.5000   -54.3570    15.9450    15.6290    14.4890    10.0420    79.3170     0.0570     2.4780     0.2400
 3237.0000   -54.3560    15.9450    15.7020    14.6220    10.0220    79.8830     0.0570     2.4790     0.2320
 3237.5000   -54.3560    15.9450    15.7750    14.7540    10.0280    77.9890     0.0530     2.4820     0.2240
 3238.0000   -54.3570    15.9450    15.8470    14.8870    10.0390    75.9880     0.0410     2.4800     0.2150
 3238.5000   -54.3570    16.2430    15.9450    15.0200    10.0490    74.0810     0.0200     2.4670     0.2060
 3239.0000   -54.1450    16.8550    15.8500    15.2250    10.0600    74.4880     0.0090     2.4450     0.1970
 3239.5000   -53.8970    16.7180    15.7040    15.0730    10.0700    75.2640     0.0020     2.4210     0.1930
 3240.0000   -53.5250    16.5240    15.5590    14.7410    10.0800    77.4640    -0.0020     2.4140     0.1930
 3240.5000   -52.8980    15.8470    15.2730    14.4080    10.0910    79.8020     0.0040     2.4150     0.1970
 3241.0000   -52.1790    15.1710    14.9150    14.0760    10.0930    82.4530     0.0090     2.4230     0.2030
 3241.5000   -51.4180    14.4940    14.5570    13.7440    10.0810    84.9730     0.0140     2.4340     0.2100
 3242.0000   -50.6580    14.2160    14.1990    13.4210    10.0700    85.9740     0.0190     2.4450     0.2170
 3242.5000   -49.9010    13.9990    13.9830    13.1220    10.0580    87.0400     0.0160     2.4500     0.2190
 3243.0000   -49.3500    13.7830    13.8870    12.8230    10.0460    88.9720     0.0100     2.4510     0.2200
 3243.5000   -48.8310    13.5400    13.7910    12.5240    10.0350    91.5480     0.0020     2.4520     0.2230
 3244.0000   -48.3110    13.1010    13.6950    12.1950    10.0230    94.1200    -0.0010     2.4540     0.2260
 3244.5000   -47.7730    12.7720    13.6070    12.2980    10.0120    95.7640     0.0010     2.4660     0.2290
 3245.0000   -47.6280    13.3700    13.5370    12.4500    10.0010    93.0780     0.0150     2.4770     0.2300
 3245.5000   -47.6230    14.0500    13.4680    12.6020     9.9900    89.8550     0.0260     2.4880     0.2250
 3246.0000   -47.6230    14.9460    13.3760    12.7540     9.9790    89.0770     0.0260     2.4830     0.2150
 3246.5000   -47.6240    14.5900    13.4660    12.5810     9.9730    91.3710     0.0120     2.4700     0.2130
 3247.0000   -47.6200    13.8550    13.5980    12.3650     9.9670    92.4880     0.0090     2.4570     0.2180
 3247.5000   -47.8070    12.6870    13.7300    12.1490     9.9610    90.6130     0.0130     2.4570     0.2250
 3248.0000   -48.0710    12.1950    13.8620    11.9730     9.9550    88.2090     0.0210     2.4580     0.2310
 3248.5000   -48.3350    12.5590    13.9940    11.8610     9.9490    85.7790     0.0260     2.4490     0.2320
 3249.0000   -48.8070    13.2990    14.1260    12.3060     9.9430    83.9530     0.0230     2.4390     0.2320
 3249.5000   -49.1970    14.2930    14.3230    12.6510     9.9320    82.4160     0.0200     2.4320     0.2330
 3250.0000   -49.1090    15.3170    14.5280    12.9950     9.9100    80.8360     0.0190     2.4240     0.2300
 3250.5000   -49.0350    16.2430    14.7330    13.3630     9.8990    81.8050     0.0180     2.4120     0.2240
 3251.0000   -48.7600    16.3940    14.9380    13.2920     9.8990    83.9640     0.0120     2.4000     0.2180
 3251.5000   -48.4040    15.3770    15.1950    13.1990     9.8990    86.1730     0.0090     2.3930     0.2140
 3252.0000   -48.1760    14.2300    15.5840    13.1310     9.8990    85.2740     0.0110     2.4050     0.2200
 3252.5000   -48.0860    13.6260    15.9450    13.8920     9.8710    79.1260     0.0230     2.4190     0.2310
 3253.0000   -48.0420    14.6500    16.1050    14.4870     9.8380    73.1160     0.0270     2.4290     0.2320
 3253.5000   -48.1480    16.0940    16.2550    14.8080     9.8050    71.0880     0.0280     2.4390     0.2220
