~VERSION INFORMATION
 VERS.                2.0:   CWLS LOG ASCII STANDARD - VERSION 2.0
 WRAP.                 NO:   ONE LINE PER DEPTH STEP
~WELL INFORMATION
#MNEM.UNIT      DATA TYPE    INFORMATION
#----------   ------------   ------------------------------
 STRT.F          590.0000:   START DEPTH
 STOP.F         3123.0000:   STOP DEPTH
 STEP.F            0.5000:   STEP LENGTH
 NULL.          -999.2500:   NO VALUE
 COMP.         U. S. NAVY:   COMPANY
 WELL. U.S. NPR 3 "A" #402-33:   WELL
 FLD .             TEAPOT:   FIELD
 LOC .      S33 T39N R78W:   LOCATION
 CNTY.            NATRONA:   COUNTY
 STAT.            WYOMING:   STATE
 CTRY. UNITED STATES OF AMERICA:   COUNTRY
 SRVC.         MCCULLOUGH:   SERVICE COMPANY
 DATE.        23-OCT-1967:   LOGDATE
 API .     49025104460000:   API NUMBER
~CURVE INFORMATION
#MNEM.UNIT       API CODE    CURVE DESCRIPTION
#----------   ------------   ------------------------------
 DEPT.F                  :   
 GRN .GAPI   35 310 01 00:   GAMMA RAY FROM NEUTRON
 NEUT.NAPI   35 330 01 00:   NEUTRON
~PARAMETER INFORMATION
#MNEM.UNIT          VALUE    DESCRIPTION
#----------   ------------   ------------------------------
 EKB .F            0.0000:   Kelly bushing
 EGL .F         5160.5000:   Ground level
 EDF .F         5162.0000:   Drilling floor
 TD  .F         3123.5000:   Total depth
 CLNT.            A2DTECH:   Client Code
 PD  .                 GL:   Permanent Datum
 EPD .F            5160.5:   Elevation Permanent Datum
 LMF .                 DF:   Log Measured From
 DMF .                 DF:   Drilling Measured From
 DAPD.F               1.5:   Feet Above Permanent Datum
 DATE.        23-OCT-1967:   Date Logged [DD-MMM-YYYY]
 DL  .F            3123.5:   Depth logger
 BLI .F              3122:   Bottom log interval
 TLI .F               600:   Top log interval
 CS1 .IN           5.1875:   Casing size
 DFT .              WATER:   Type fluid in hole
 TCS .HRS             4.5:   Time Circ. stopped
 ENGI.         COWLTHORPE:   Recorded By
 WITN.           THOMASON:   Witnessed by
 ORIG.         2.5" PRINT:   Origin of data
 UWI .     49025104460000:   Unique Well ID
 DICO. A2D TECHNOLOGIES, INC.:   Digitizing Company
 LUN .               1498:   Logging unit number
~OTHER INFORMATION
~A   DEPT       GRN      NEUT   
# ...
 1076.0000    36.5112   385.0257
 1076.5000    37.0894   347.9830
 1077.0000    36.8052   355.4062
 1077.5000    36.4640   365.2996
 1078.0000    35.9054   355.3975
 1078.5000    33.3806   358.4460
 1079.0000    31.8783   385.0987
 1079.5000    32.8218   364.3299
 1080.0000    33.0178   369.9714
 1080.5000    35.5247   425.4229
 1081.0000    37.4584   463.6384
 1081.5000    37.0894   458.9806
 1082.0000    33.7543   435.7985
 1082.5000    34.1712   428.9513
 1083.0000    34.2948   419.9308
 1083.5000    33.5459   396.5643
 1084.0000    32.0868   362.0675
 1084.5000    34.3796   363.9986
 1085.0000    37.7147   392.4172
 1085.5000    38.7569   429.1821
 1086.0000    39.5906   453.1902
 1086.5000    40.2160   427.0499
 1087.0000    39.1738   427.5568
 1087.5000    36.8809   430.8038
 1088.0000    35.8387   402.6161
 1088.5000    32.8598   360.6328
 1089.0000    28.7517   353.2822
 1089.5000    28.7963   375.4791
 1090.0000    31.1898   363.1396
 1090.5000    32.0868   373.0331
 1091.0000    28.3022   387.8672
 1091.5000    28.1264   419.9936
 1092.0000    28.3793   421.4550
 1092.5000    28.7517   407.6663
 1093.0000    28.7517   400.2670
 1093.5000    28.2106   420.0423
 1094.0000    27.0842   417.5840
 1094.5000    29.1217   417.5963
 1095.0000    30.4193   417.6087
 1095.5000    30.7993   387.9767
 1096.0000    31.7365   396.7813
 1096.5000    32.9073   440.1835
 1097.0000    33.9599   420.1275
 1097.5000    35.8596   429.3635
 1098.0000    37.5284   439.9144
 1098.5000    37.1766   431.9160
 1099.0000    37.0894   426.2391
 1099.5000    37.9231   410.5317
 1100.0000    38.3400   395.5005
 1100.5000    38.3376   388.0984
 1101.0000    38.3355   413.7074
 1101.5000    36.6659   425.7859
 1102.0000    33.1203   397.8671
 1102.5000    31.2423   385.4908
 1103.0000    32.0740   384.7698
 1103.5000    37.4914   410.1449
 1104.0000    37.6980   422.4720
 1104.5000    37.9044   402.6848
 1105.0000    38.5274   389.0758
 1105.5000    38.7340   405.1058
 1106.0000    38.3148   427.3142
 1106.5000    35.3945   422.3489
 1107.0000    32.8912   417.3837
 1107.5000    33.7229   409.9507
 1108.0000    38.3065   422.2751
 1108.5000    36.2200   444.4835
 1109.0000    33.9251   372.8194
 1109.5000    36.8412   369.8941
 1110.0000    38.2983   432.0580
 1110.5000    34.3357   422.1521
 1111.0000    32.6661   404.8352
 1111.5000    34.3316   409.7513
 1112.0000    33.4958   441.8409
 1112.5000    34.1190   429.4647
 1113.0000    38.4942   387.4446
 1113.5000    39.5343   342.9541
 1114.0000    40.1576   333.0482
 1114.5000    36.9201   333.0236
 1115.0000    34.5255   340.4099
 1115.5000    30.9799   389.7919
 1116.0000    31.8116   352.7124
 1116.5000    31.8096   372.4504
 1117.0000    31.8141   397.1291
 1117.5000    35.5570   360.0496
 1118.0000    34.3043   355.0023
 1118.5000    34.0938   369.8817
 1119.0000    33.8832   362.4461
 1119.5000    36.3825   354.9076
 1120.0000    38.0479   362.3969
 1120.5000    38.7249   352.4909
 1121.0000    38.0438   357.5304
 1121.5000    42.0021   372.2044
 1122.0000    36.9974   367.0763
 1122.5000    35.0292   362.2733
 1123.0000    35.7426   365.0897
 1123.5000    36.3659   379.9485
 1124.0000    36.7809   396.7846
 1124.5000    36.5702   391.2624
 1125.0000    35.5259   381.9135
 1125.5000    33.0225   403.9160
 1126.0000    30.1023   417.4358
 1126.5000    29.2664   436.1869
 1127.0000    28.6391   414.6690
 1127.5000    27.8032   391.0524
 1128.0000    31.3446   386.0461
 1128.5000    33.8438   379.2710
 1129.0000    30.9236   398.7612
 1129.5000    29.6709   423.6877
 1130.0000    27.7928   379.1972
 1130.5000    31.9596   410.9759
 1131.0000    34.2504   421.1435
 1131.5000    32.1639   420.6431
 1132.0000    35.7053   418.6215
 1132.5000    37.7876   371.6606
 1133.0000    38.8277   423.5951
 1133.5000    38.4059   416.3230
 1134.0000    36.5114   434.3328
 1134.5000    32.9410   426.0713
 1135.0000    28.6059   403.6544
 1135.5000    29.0207   411.0408
 1136.0000    28.5464   383.1805
 1136.5000    25.6814   375.0443
 1137.0000    25.8327   366.5011
 1137.5000    29.5161   372.8546
 1138.0000    30.4694   378.8036
 1138.5000    30.2589   341.1439
 1139.0000    31.0906   329.3478
 1139.5000    27.5735   344.0794
 1140.0000    26.7092   359.7603
 1140.5000    27.5706   371.2696
 1141.0000    25.7916   336.4091
 1141.5000    23.9932   331.6951
 1142.0000    25.7751   336.6112
 1142.5000    29.5992   337.5084
 1143.0000    31.6921   343.3918
 1143.5000    34.7033   386.1621
 1144.0000    35.6555   373.5627
 1144.5000    36.5112   381.0508
 1145.0000    37.5273   400.2752
 1145.5000    33.4235   365.8307
 1146.0000    31.0085   363.3356
 1146.5000    31.8051   391.3080
 1147.0000    34.2226   362.9156
 1147.5000    38.5868   365.5671
 1148.0000    39.2433   392.6332
 1148.5000    39.3888   393.4736
 1149.0000    35.4260   368.6223
 1149.5000    35.9082   366.4667
 1150.0000    35.2134   380.6773
 1150.5000    33.9545   386.8902
 1151.0000    31.8367   419.3708
 1151.5000    28.7459   444.8316
 1152.0000    31.9363   438.5488
 1152.5000    34.3901   390.4335
 1153.0000    35.2135   375.0120
 1153.5000    35.8680   382.9734
 1154.0000    36.9143   370.5971
 1154.5000    37.6960   405.1571
 1155.0000    34.8589   387.8402
 1155.5000    33.2458   422.4002
 1156.0000    31.2109   419.9053
 1156.5000    28.3265   429.7620
 1157.0000    26.5799   427.2670
 1157.5000    26.0109   390.1875
 1158.0000    34.3464   400.0443
 1158.5000    32.6687   392.5472
 1159.0000    30.7988   380.2324
 1159.5000    34.9949   350.5639
 1160.0000    36.2141   340.6580
 1160.5000    32.7788   348.0649
 1161.0000    30.9987   335.6682
 1161.5000    31.8618   378.3185
 1162.0000    34.2712   419.6100
 1162.5000    34.7447   404.4540
 1163.0000    33.2748   387.4466
 1163.5000    33.0730   413.1333
 1164.0000    34.2296   406.5001
 1164.5000    34.5279   397.2532
 1165.0000    34.4630   388.9937
 1165.5000    32.6475   369.5773
 1166.0000    32.2285   365.0648
 1166.5000    31.8096   368.5809
 1167.0000    30.9691   387.5367
 1167.5000    29.5126   392.1659
 1168.0000    33.2679   381.5995
 1168.5000    33.2526   368.8316
 1169.0000    32.5940   352.5668
 1169.5000    30.9514   377.2455
 1170.0000    30.5304   360.3383
 1170.5000    30.8145   363.3540
 1171.0000    32.4702   389.3152
 1171.5000    32.8310   409.7327
 1172.0000    32.6204   405.2818
 1172.5000    32.5940   383.9917
 1173.0000    30.2706   389.9578
 1173.5000    29.2222   379.2075
 1174.0000    28.8603   357.4221
 1174.5000    30.3698   349.8259
 1175.0000    32.6081   365.8541
 1175.5000    32.5322   374.4799
 1176.0000    30.9364   384.9925
 1176.5000    32.8476   376.9011
 1177.0000    33.4335   395.1946
 1177.5000    31.5832   399.0848
 1178.0000    30.2553   396.5899
 1178.5000    30.6075   407.9669
 1179.0000    31.7577   417.0817
 1179.5000    31.4934   423.6897
 1180.0000    30.5999   412.9562
 1180.5000    30.0840   423.6405
 1181.0000    32.3161   404.4666
 1181.5000    34.8894   381.5957
 1182.0000    36.3310   374.1602
 1182.5000    35.7899   393.5847
 1183.0000    33.1358   414.0012
 1183.5000    31.7390   401.5639
 1184.0000    35.5134   379.0024
 1184.5000    37.4368   379.3227
 1185.0000    37.5691   365.3613
 1185.5000    36.9928   385.9638
 1186.0000    36.4085   393.0619
 1186.5000    33.3540   412.8821
 1187.0000    33.2679   418.3745
 1187.5000    34.4839   407.0284
 1188.0000    36.4223   370.2361
 1188.5000    36.7468   346.1057
 1189.0000    35.7915   328.0676
 1189.5000    36.5670   364.9537
 1190.0000    38.3678   407.1098
 1190.5000    38.5880   407.5911
 1191.0000    39.3072   408.2955
 1191.5000    40.0430   376.1566
 1192.0000    39.9353   385.0253
 1192.5000    38.3438   397.2079
 1193.0000    32.5981   394.2390
 1193.5000    33.1052   375.7696
 1194.0000    34.4241   380.2327
 1194.5000    35.5844   404.9730
 1195.0000    36.6933   410.5683
 1195.5000    33.2849   410.5435
 1196.0000    31.6866   408.0436
 1196.5000    31.5601   400.6080
 1197.0000    30.8482   398.1131
