~VERSION INFORMATION
 VERS.                2.0:   CWLS LOG ASCII STANDARD - VERSION 2.0
 WRAP.                 NO:   ONE LINE PER DEPTH STEP
~WELL INFORMATION
#MNEM.UNIT      DATA TYPE    INFORMATION
#----------   ------------   ------------------------------
 STRT.F            0.0000:   START DEPTH
 STOP.F         1064.0000:   STOP DEPTH
 STEP.F            0.5000:   STEP LENGTH
 NULL.          -999.2500:   NO VALUE
 COMP.  JOHN BROWN E. & C:   COMPANY
 WELL. JOHN BROWN NPR 3-1 "X" #68-2:   WELL
 FLD .                NPR:   FIELD
 LOC .       S2 T38N R78W:   LOCATION
 CNTY.            NATRONA:   COUNTY
 STAT.            WYOMING:   STATE
 CTRY. UNITED STATES OF AMERICA:   COUNTRY
 SRVC.     ATLAS WIRELINE:   SERVICE COMPANY
 DATE.        25-JAN-1992:   LOGDATE
 API .     49025224850000:   API NUMBER
~CURVE INFORMATION
#MNEM.UNIT       API CODE    CURVE DESCRIPTION
#----------   ------------   ------------------------------
 DEPT.F                  :   
 GRR .GAPI   07 310 01 00:   GAMMA RAY FROM RESISTIVITY
 TENR.LBS    07 635 01 00:   TENSION
 RILD.OHMM   07 120 46 00:   INDUCTION LOG DEEP RESISTIVITY
 RILM.OHMM   07 120 44 00:   INDUCTION LOG MEDIUM RESISTIVITY
~PARAMETER INFORMATION
#MNEM.UNIT          VALUE    DESCRIPTION
#----------   ------------   ------------------------------
 EKB .F         5197.0000:   Kelly bushing
 EGL .F         5187.0000:   Ground level
 TD  .F         1060.0000:   Total depth
 DATE.        25-JAN-1992:   Date logged
 CLNT.            A2DTECH:   Client Code
 PD  .                 GL:   Permanent Datum
 EPD .F               518:   Elevation Permanent Datum
 LMF .                 KB:   Log Measured From
 DMF .                 KB:   Drilling Measured From
 DAPD.F                10:   Feet Above Permanent Datum
 DD  .F              1060:   Depth driller
 DL  .F              1057:   Depth logger
 BLI .F              1055:   Bottom log interval
 CS1 .IN            10.75:   Casing size
 CBD1.       10.75" @ 50':   Casing driller 1
 CBL1.F                50:   Casing logger 1
 BS1 .IN             8.75:   Bit size
 BSD1.F              1060:   Depth drilled with bit1
 DFT .                AIR:   Type fluid in hole
 LUN .            HL-6307:   Logging unit number
 LUL .             CASPER:   Logging unit location
 ENGI.             ZIEGER:   Recorded By
 WITN.             STRONG:   Witnessed by
 ORIG.           5" PRINT:   Origin of data
 UWI .     49025224850000:   Unique Well ID
 DICO. A2D TECHNOLOGIES, INC.:   Digitizing Company
~OTHER INFORMATION
~A    DEPT      GRR      TENR       RILD       RILM   
# ...
  438.0000   103.4170   -36.2730    12.1850    11.9970
  438.5000   102.3920   -36.3610    12.3610    12.0980
  439.0000   102.5140   -36.4480    12.5380    12.1980
  439.5000   103.7770   -36.5350    12.7190    12.2980
  440.0000   102.8130   -36.6220    12.8610    12.3980
  440.5000   102.0440   -36.7090    12.8930    12.4980
  441.0000   103.8630   -36.7970    12.9240    12.5980
  441.5000   106.3500   -36.8840    12.9560    12.6990
  442.0000   105.0080   -36.9710    13.1740    12.9240
  442.5000   102.6490   -37.0580    13.3920    13.1810
  443.0000   103.2080   -37.1450    13.6110    13.4380
  443.5000   104.4570   -37.2320    13.8180    13.6950
  444.0000   103.4990   -37.3200    14.1140    13.9520
  444.5000   102.0740   -37.4070    14.3420    14.2090
  445.0000   102.5700   -37.4940    14.4180    14.4660
  445.5000   103.7370   -37.5810    14.6300    14.8140
  446.0000   104.6680   -37.6680    15.2670    15.2760
  446.5000   104.3620   -37.7560    15.9030    15.7390
  447.0000   103.0610   -37.8430    16.5400    16.1720
  447.5000   101.2630   -37.9300    18.2590    18.5830
  448.0000   101.6840   -38.0170    20.1460    20.8500
  448.5000   102.2670   -38.1040    22.0340    23.1180
  449.0000   100.2390   -38.1920    23.9220    25.3850
  449.5000    91.6790   -38.2790    26.1060    27.6520
  450.0000    83.2790   -38.3660    28.4240    28.1500
  450.5000    74.6880   -38.4530    30.0300    28.1500
  451.0000    73.7010   -38.5400    29.7540    26.8470
  451.5000    76.1340   -38.6280    26.6270    25.6660
  452.0000    81.6100   -38.7150    23.8890    22.7100
  452.5000    90.0430   -38.8020    21.8780    19.5340
  453.0000    98.3290   -38.8890    19.8690    18.0980
  453.5000   101.2640   -38.9760    17.8720    17.2350
  454.0000   103.1800   -39.0640    16.5960    16.3720
  454.5000   105.0840   -39.1510    16.4270    15.5090
  455.0000   107.0400   -39.2380    16.2570    15.1590
  455.5000   107.5040   -39.3250    16.0880    15.2160
  456.0000   107.8930   -39.4120    15.8500    15.2730
  456.5000   108.5710   -39.5000    15.5690    15.3300
  457.0000   110.2870   -39.5870    15.3000    15.3870
  457.5000   111.8880   -39.6740    15.4010    15.4420
  458.0000   111.6530   -39.7610    15.5210    15.4420
  458.5000   111.3450   -39.8480    15.5850    15.0360
  459.0000   110.7710   -39.9350    14.9370    14.7870
  459.5000   109.4220   -40.0230    14.0650    14.2150
  460.0000   109.9170   -40.1100    12.9430    12.8430
  460.5000   113.4350   -40.1970    11.8210    11.4710
  461.0000   116.8700   -40.2840    10.7000    10.0990
  461.5000   120.2910   -40.3710     9.5780     8.7270
  462.0000   123.2440   -40.4590     8.4560     7.7260
  462.5000   124.9900   -40.5460     7.4910     7.0490
  463.0000   126.0770   -40.6330     6.8210     6.4200
  463.5000   127.7520   -40.7200     6.4170     6.2370
  464.0000   131.3050   -40.8070     6.0960     6.0460
  464.5000   134.9620   -40.8950     5.9630     5.8540
  465.0000   135.7580   -40.9820     5.9340     5.8720
  465.5000   134.4410   -41.0690     5.9050     5.9190
  466.0000   132.2030   -41.1560     5.8760     5.9650
  466.5000   129.6960   -41.2430     5.8540     6.0120
  467.0000   129.9650   -41.3310     5.9880     6.0580
  467.5000   129.9160   -41.4180     6.0980     6.1300
  468.0000   127.4810   -41.5050     6.2450     6.1100
  468.5000   124.8240   -41.5920     6.1870     6.0660
  469.0000   125.2800   -41.6790     6.1490     6.0210
  469.5000   128.2190   -41.7670     6.1130     5.9630
  470.0000   132.1300   -41.8540     6.0740     5.9940
  470.5000   135.9860   -41.9410     6.1120     6.0560
  471.0000   136.6120   -42.0280     6.1880     6.1190
  471.5000   136.6230   -42.1150     6.2640     6.1810
  472.0000   135.9050   -42.2020     6.3400     6.2430
  472.5000   133.1600   -42.2900     6.4200     6.3060
  473.0000   128.9460   -42.3770     6.4200     6.3680
  473.5000   126.0580   -42.4640     6.4200     6.4200
  474.0000   126.6180   -42.5510     6.4200     6.3450
  474.5000   129.2480   -42.6380     6.4070     6.2800
  475.0000   130.3970   -42.7260     6.3340     6.2150
  475.5000   130.3000   -42.8130     6.2620     6.1510
  476.0000   131.9030   -42.9000     6.1900     6.0860
  476.5000   134.4840   -42.9870     6.1180     6.0210
  477.0000   134.0340   -43.0740     6.0460     5.9570
  477.5000   131.9470   -43.1620     5.9630     5.9080
  478.0000   131.2280   -43.2490     5.9890     5.9740
  478.5000   133.5510   -43.3360     6.0430     6.0270
  479.0000   135.6350   -43.4230     6.1300     6.0810
  479.5000   136.4620   -43.5100     6.2260     6.1340
  480.0000   136.5810   -43.5980     6.3140     6.1870
  480.5000   134.4510   -43.6850     6.4030     6.2450
  481.0000   130.7950   -43.7720     6.4910     6.3210
  481.5000   129.8410   -43.8590     6.5800     6.4050
  482.0000   132.2730   -43.9460     6.6680     6.4890
  482.5000   134.5160   -44.0340     6.7570     6.5730
  483.0000   133.4310   -44.1210     6.8450     6.6560
  483.5000   132.8710   -44.2080     6.9340     6.7400
  484.0000   132.6730   -44.2950     7.0220     6.8240
  484.5000   131.2580   -44.3830     7.0770     6.9080
  485.0000   129.2230   -44.2330     7.1230     6.9920
  485.5000   127.1880   -44.0820     7.1680     7.0420
  486.0000   124.5410   -43.9310     7.2130     7.1730
  486.5000   121.1720   -43.7800     7.3070     7.1600
  487.0000   117.6950   -43.6290     7.2200     7.1390
  487.5000   117.3970   -43.4780     7.2020     7.1180
  488.0000   122.0660   -43.3260     7.1830     7.0490
  488.5000   129.6130   -43.1750     7.0730     6.9230
  489.0000   131.9140   -43.0240     6.8580     6.7960
  489.5000   130.1840   -42.8730     6.6620     6.6690
  490.0000   128.4650   -42.7220     6.6060     6.4800
  490.5000   127.4640   -42.5710     6.5550     6.5780
  491.0000   128.0350   -42.4190     6.5400     6.7030
  491.5000   127.5380   -42.2680     6.7860     6.8270
  492.0000   126.5830   -42.1170     6.7630     6.9520
  492.5000   122.4470   -41.9660     6.7200     7.1070
  493.0000   113.8930   -41.8150     6.6770     7.0490
  493.5000   103.4560   -41.6640     6.6350     6.9710
  494.0000    99.1340   -41.5120     6.5920     6.8940
  494.5000   111.5450   -41.3610     6.5490     6.8160
  495.0000   123.3500   -41.2100     6.5400     6.7390
  495.5000   130.7890   -41.0590     6.5400     6.6610
  496.0000   132.4080   -40.9080     6.5400     6.5980
  496.5000   129.4430   -40.7570     6.5400     6.5860
  497.0000   129.7650   -40.6050     6.5400     6.5740
  497.5000   131.6230   -40.4540     6.5400     6.5630
  498.0000   132.8070   -40.3030     6.5400     6.5510
  498.5000   131.8250   -40.1520     6.5400     6.5400
  499.0000   130.9490   -40.0010     6.6150     6.6280
  499.5000   130.2150   -39.8490     6.7270     6.7100
  500.0000   129.0310   -39.6980     6.8490     6.7920
  500.5000   126.2550   -39.5470     6.8620     6.8490
  501.0000   127.1430   -39.3960     6.8790     6.8270
  501.5000   129.0030   -39.2450     6.8970     6.8110
  502.0000   129.5230   -39.0940     6.9130     6.7860
  502.5000   129.9970   -38.9420     6.9370     6.8020
  503.0000   131.6430   -38.7910     6.9640     6.8490
  503.5000   132.8950   -38.6400     6.9770     6.7650
  504.0000   132.4530   -38.4890     6.8250     6.6040
  504.5000   132.3850   -38.3380     6.7050     6.4440
  505.0000   133.4580   -38.1870     6.5840     6.2830
  505.5000   134.5160   -38.0350     6.4640     6.1230
  506.0000   131.3640   -37.8840     6.3440     6.0140
  506.5000   128.3970   -37.7330     6.2240     6.0040
  507.0000   130.3550   -37.5820     6.1030     5.9930
  507.5000   131.6870   -37.4310     6.0740     5.9820
  508.0000   131.3400   -37.2800     6.0740     5.9720
  508.5000   130.9660   -37.1280     6.0740     5.9630
  509.0000   132.9080   -36.9770     6.0590     5.9240
  509.5000   135.2730   -36.8260     6.0170     5.8840
  510.0000   135.9220   -36.6750     5.9750     5.8430
  510.5000   134.2110   -36.5240     5.9340     5.8030
