~VERSION INFORMATION
 VERS.                2.0:   CWLS LOG ASCII STANDARD - VERSION 2.0
 WRAP.                 NO:   ONE LINE PER DEPTH STEP
~WELL INFORMATION
#MNEM.UNIT      DATA TYPE    INFORMATION
#----------   ------------   ------------------------------
 STRT.F          196.5000:   START DEPTH
 STOP.F         3202.0000:   STOP DEPTH
 STEP.F            0.5000:   STEP LENGTH
 NULL.          -999.2500:   NO VALUE
 COMP.    FENIX & SCISSON:   COMPANY
 WELL.   FENIX "AX" #26-3:   WELL
 FLD .              NPR-3:   FIELD
 LOC .       S3 T38N R78W:   LOCATION
 CNTY.            NATRONA:   COUNTY
 STAT.            WYOMING:   STATE
 CTRY. UNITED STATES OF AMERICA:   COUNTRY
 SRVC.              WELEX:   SERVICE COMPANY
 DATE.        19-JUN-1977:   LOGDATE
 API .     49025103800000:   API NUMBER
~CURVE INFORMATION
#MNEM.UNIT       API CODE    CURVE DESCRIPTION
#----------   ------------   ------------------------------
 DEPT.F                  :   
 CALD.IN     45 280 60 00:   CALIPER FROM DENSITY LOG
 GRD .GAPI   45 310 01 00:   GAMMA RAY FROM DENSITY LOG
 RHOB.G/C3   45 350 01 00:   BULK DENSITY
 CORR.G/C3   45 356 01 00:   DENSITY CORRECTION
 SPR .MV     07 010 01 00:   SPONTANEOUS POTENTIAL
 ILD .OHMM   07 120 46 00:   DEEP INDUCTION RESISTIVITY
 ILM .OHMM   07 120 44 00:   INDUCTION LOG MEDIUM RESISTIVITY
 SGRD.OHMM   07 220 05 00:   SHALLOW SHORT GUARD RESISTIVITY
~PARAMETER INFORMATION
#MNEM.UNIT          VALUE    DESCRIPTION
#----------   ------------   ------------------------------
 EKB .F         5231.0000:   Kelly bushing
 EGL .F         5221.0000:   Ground level
 EDF .F            0.0000:   Drilling floor
 TD  .F         3204.0000:   Total depth
 CLNT.            A2DTECH:   Client Code
 SL  . 1320' FSL & 740' FWL:   Surface Location
 PD  .                 GL:   Permanent Datum
 EPD .F              5221:   Elevation Permanent Datum
 LMF .                 KB:   Log Measured From
 DMF .                 KB:   Drilling Measured From
 DAPD.F                10:   Feet Above Permanent Datum
 DATE.        19-JUN-1977:   Date Logged [DD-MMM-YYYY]
 DD  .F              3200:   Depth driller
 DL  .F              3204:   Depth logger
 BLI .F              3202:   Bottom log interval
 TLI .F               220:   Top log interval
 CS1 .IN            8.625:   Casing size
 CBD1.      8.625" @ 220':   Casing driller 1
 CBL1.F               220:   Casing logger 1
 BS1 .IN            7.875:   Bit size
 BSD1.F              3200:   Depth drilled with bit1
 DFT .                KCL:   Type fluid in hole
 DFD .                9.1:   Density
 RMS .OHMM           1.19:   Rm
 MST .F                65:   Rm Meas. temp.
 TCS .HRS               4:   Time Circ. stopped
 MRT .F               115:   Maximum recorded temp.
 LUN .               8766:   Logging unit number
 ENGI.          T. JOYNER:   Recorded By
 WITN.         PETTINGILL:   Witnessed by
 ORIG.           5" PRINT:   Origin of data
 UWI .     49025103800000:   Unique Well ID
 DICO. A2D TECHNOLOGIES, INC.:   Digitizing Company
 DFPH.                7.5:   pH
 DFL .                4.2:   Fluid loss
 MSS .            MUD PIT:   Source of sample
 RMF .OHMM           1.19:   Rmf
 MFST.F                65:   Rmf Meas. temp.
 MFSS.               MEAS:   Source Rmf.
 RMC .OHMM           2.01:   Rmc
 MCST.F                65:   Rmc Meas. temp.
 MCSS.               MEAS:   Source Rmc.
 RMB .OHMM            .67:   Rm. at BHT
 BHT .F               115:   BHT.
~OTHER INFORMATION
~A   DEPT     CALD         GRD      RHOB       CORR        SPR        ILD        ILM       SGRD   
# ...
 1776.0000     9.6603    93.7282     2.4691     0.0088   -57.6982     7.2806     8.7401     9.3823
 1776.5000     9.6472    93.8719     2.4631     0.0080   -57.6277     7.2856     8.7064     9.3357
 1777.0000     9.6650    97.1296     2.4580     0.0060   -57.5192     7.2399     8.6892     9.3302
 1777.5000     9.6518    97.7614     2.4536     0.0054   -57.5037     7.2460     8.6958     9.3106
 1778.0000     9.6547    95.7252     2.4507     0.0047   -57.4862     7.2506     8.7125     9.2347
 1778.5000     9.6571    95.7703     2.4485     0.0041   -57.4726     7.2558     8.7666     9.1548
 1779.0000     9.6594    96.7124     2.4479     0.0042   -57.4571     7.2607     8.7720     9.0645
 1779.5000     9.6623    97.0452     2.4472     0.0043   -57.4405     7.2657     8.7775     8.9985
 1780.0000     9.6491    94.9676     2.4480     0.0044   -57.4260     7.2706     8.7830     8.9837
 1780.5000     9.6520    98.3426     2.4512     0.0045   -57.4100     7.2756     8.7884     8.9326
 1781.0000     9.6543    97.4910     2.4535     0.0046   -57.3950     7.2269     8.7949     8.9398
 1781.5000     9.6567    99.6308     2.4551     0.0047   -57.3794     7.1860     8.8003     8.8852
 1782.0000     9.6435    95.2010     2.4530     0.0048   -57.3639     7.1918     8.7437     8.8907
 1782.5000     9.6464    96.1430     2.4500     0.0049   -57.3491     7.1461     8.7504     8.8556
 1783.0000     9.6339    95.2913     2.4486     0.0050   -57.4808     7.1277     8.7557     8.7813
 1783.5000     9.6363    95.9344     2.4480     0.0051   -57.5032     7.1066     8.6395     8.7681
 1784.0000     9.6237    96.5662     2.4496     0.0053   -57.5980     7.1126     8.6461     8.6727
 1784.5000     9.6111    94.8176     2.4535     0.0054   -57.5790     7.1174     8.5915     8.6787
 1785.0000     9.6140    95.5307     2.4573     0.0055   -57.5638     7.1223     8.5971     8.6856
 1785.5000     9.6163    93.4236     2.4544     0.0056   -57.5485     7.1271     8.6023     8.6644
 1786.0000     9.6186    94.8254     2.4537     0.0064   -57.5371     7.1319     8.6076     8.6967
 1786.5000     9.6210    90.8355     2.4568     0.0065   -57.6698     7.1367     8.6726     8.7037
 1787.0000     9.6233    95.6640     2.4629     0.0074   -57.7110     7.1416     8.6780     8.7087
 1787.5000     9.6256    93.3175     2.4705     0.0082   -57.9693     7.1465     8.7537     8.7285
 1788.0000     9.6279    94.5585     2.4736     0.0091   -57.9527     7.1676     8.8107     8.8425
 1788.5000     9.6303    96.9840     2.4767     0.0099   -57.9357     7.2067     8.8161     8.8484
 1789.0000     9.6331    94.9478     2.4776     0.0100   -57.9197     7.2314     8.8827     8.9363
 1789.5000     9.6348    95.2919     2.4768     0.0094   -58.0497     7.2656     8.9497     9.0456
 1790.0000     9.6223    96.5722     2.4725     0.0087   -58.0303     7.2706     8.9381     9.1143
 1790.5000     9.6252    92.3927     2.4644     0.0074   -58.0155     7.2761     8.8363     9.2471
 1791.0000     9.6121    96.1935     2.4585     0.0060   -57.9985     7.3309     8.7408     9.2534
 1791.5000     9.6000    99.0600     2.4586     0.0046   -57.8327     7.2847     8.5480     9.3883
 1792.0000     9.6024    96.1157     2.4602     0.0039   -57.8166     7.2906     8.4585     9.4035
 1792.5000     9.6048    98.2648     2.4633     0.0033   -57.7996     7.2956     8.3827     9.5330
 1793.0000     9.6071   100.1037     2.4649     0.0034   -57.7817     7.3007     8.3880     9.6719
 1793.5000     9.5945    97.1593     2.4619     0.0042   -57.7624     7.3057     8.5254     9.6785
 1794.0000     9.5974    98.6993     2.4575     0.0043   -57.7458     7.3107     8.6076     9.6850
 1794.5000     9.5997   100.5777     2.4554     0.0052   -57.7293     7.3157     8.7050     9.6916
 1795.0000     9.6020    99.3871     2.4562     0.0061   -57.7127     7.3217     8.7657     9.6982
 1795.5000     9.6043   100.6503     2.4601     0.0062   -57.8482     7.3267     8.8932     9.7047
 1796.0000     9.5918   101.8695     2.4617     0.0070   -57.8284     7.3316     8.9659     9.6429
 1796.5000     9.5941    98.3385     2.4633     0.0071   -57.8110     7.3366     9.0578     9.6511
 1797.0000     9.5964    97.7745     2.4641     0.0072   -57.7944     7.2411     9.1591     9.6574
 1797.5000     9.5987   100.8205     2.4635     0.0073   -57.7774     7.2323     9.2283     9.7310
 1798.0000     9.5713   101.1646     2.4636     0.0074   -57.9092     7.2000     9.2979     9.7377
 1798.5000     9.5742   100.6119     2.4637     0.0075   -57.8885     7.1554     9.3681     9.8806
 1799.0000     9.5765   100.0478     2.4625     0.0076   -57.8743     7.2109     9.4388     9.8865
 1799.5000     9.5789    99.8042     2.4649     0.0078   -57.8554     7.2657     9.4446     9.9630
 1800.0000     9.5812    98.6627     2.4657     0.0079   -57.8402     7.3208     9.5819    10.1082
 1800.5000     9.5686    95.6651     2.4614     0.0072   -57.8223     7.3764     9.5878    10.3978
 1801.0000     9.5709    98.4566     2.4600     0.0065   -57.8057     7.4838     9.5938    10.9193
 1801.5000     9.5575    98.7841     2.4601     0.0067   -57.7892     7.5938     9.6009    10.7770
 1802.0000     9.5596    93.1883     2.4603     0.0068   -57.7722     7.7043     9.6068    10.4910
 1802.5000     9.5472    94.7146     2.4626     0.0060   -57.7519     7.7095     9.6126    10.3544
 1803.0000     9.5492    93.2692     2.4597     0.0068   -57.8833     7.7680     9.6185    10.1493
 1803.5000     9.5359    90.9221     2.4567     0.0069   -57.8691     7.8269     9.6244     9.9480
 1804.0000     9.5533    95.1332     2.4584     0.0078   -57.9981     7.8322     9.5639     9.8209
 1804.5000     9.5553    93.6878     2.4600     0.0086   -57.9816     7.8375     9.5698     9.5622
 1805.0000     9.5573    94.1061     2.4563     0.0087   -57.9660     7.8428     9.5083     9.3087
 1805.5000     9.5594    93.7788     2.4609     0.0095   -57.9485     7.8481     9.3835     9.0603
 1806.0000     9.5762    92.6305     2.4663     0.0111   -57.9319     7.7459     9.2616     8.8200
 1806.5000     9.5634    92.0699     2.4680     0.0119   -57.9149     7.6981     9.0773     8.5877
 1807.0000     9.5808    89.4358     2.4711     0.0135   -58.0459     7.6479     8.8949     8.4759
 1807.5000     9.5828    92.4480     2.4757     0.0136   -58.0260     7.5509     8.7739     8.4821
 1808.0000     9.5695    90.4082     2.4765     0.0136   -58.1615     7.5042     8.6646     8.4475
 1808.5000     9.5720    90.4588     2.4714     0.0122   -58.1428     7.4972     8.6712     8.3780
 1809.0000     9.5587    91.6880     2.4700     0.0115   -58.1243     7.4628     8.6154     8.3841
 1809.5000     9.5612    92.9070     2.4678     0.0102   -58.2567     7.4584     8.6095     8.3901
 1810.0000     9.5632    89.9851     2.4649     0.0095   -58.0917     7.4640     8.5666     8.4550
 1810.5000     9.5504    92.1210     2.4628     0.0096   -58.0747     7.4685     8.5141     8.4610
 1811.0000     9.5673    93.3373     2.4621     0.0104   -58.0577     7.4218     8.4593     8.4692
 1811.5000     9.5545    90.9987     2.4623     0.0105   -58.0374     7.3742     8.4799     8.4895
 1812.0000     9.5570    94.9126     2.4616     0.0113   -58.0237     7.3797     8.3677     8.5098
 1812.5000     9.5590    95.2401     2.4617     0.0129   -58.0042     7.2831     8.2584     8.5302
 1813.0000     9.5610    94.3890     2.4641     0.0130   -57.9863     7.2376     8.2071     8.5511
 1813.5000     9.5631    96.2227     2.4665     0.0153   -57.9726     7.1923     8.1012     8.4384
 1814.0000     9.5502    96.2631     2.4688     0.0161   -57.9556     7.1473     7.9954     8.3302
 1814.5000     9.5523    96.3036     2.4712     0.0178   -57.9386     7.1025     7.9457     8.1093
 1815.0000     9.5543    94.7590     2.4728     0.0193   -57.9216     7.1079     7.8419     7.7862
 1815.5000     9.5414    96.6918     2.4744     0.0194   -57.9046     7.1121     7.7395     7.2727
 1816.0000     9.5435    94.6520     2.4699     0.0195   -57.8842     7.2649     7.6384     6.7930
