~VERSION INFORMATION
 VERS.                2.0:   CWLS LOG ASCII STANDARD - VERSION 2.0
 WRAP.                 NO:   ONE LINE PER DEPTH STEP
~WELL INFORMATION
#MNEM.UNIT      DATA TYPE    INFORMATION
#----------   ------------   ------------------------------
 STRT.F          906.0000:   START DEPTH
 STOP.F         3426.0000:   STOP DEPTH
 STEP.F            0.5000:   STEP LENGTH
 NULL.          -999.2500:   NO VALUE
 COMP.    FENIX & SCISSON:   COMPANY
 WELL. FENIX NPR 3 "AX" #46-11:   WELL
 FLD .                NPR:   FIELD
 LOC .      S11 T38N R78W:   LOCATION
 CNTY.            NATRONA:   COUNTY
 STAT.            WYOMING:   STATE
 CTRY. UNITED STATES OF AMERICA:   COUNTRY
 SRVC.       SCHLUMBERGER:   SERVICE COMPANY
 DATE.        16-MAY-1981:   LOGDATE
 API .     49025108720000:   API NUMBER
~CURVE INFORMATION
#MNEM.UNIT       API CODE    CURVE DESCRIPTION
#----------   ------------   ------------------------------
 DEPT.F                  :   
 SPR .MV     07 010 01 00:   SPONTANEOUS POTENTIAL
 ILD .OHMM   07 120 46 00:   INDUCTION LOG DEEP RESISTIVITY
 SFL .OHMM   07 220 01 00:   SHALLOW FOCUSED LOG RESISTIVITY
 TENR.LBS    07 635 01 00:   TENSION
 ILM .OHMM   07 120 44 00:   INDUCTION LOG MEDIUM RESISTIVITY
 CALD.IN     45 280 60 00:   CALIPER FROM DENSITY LOG
 GRD .GAPI   45 310 01 00:   GAMMA RAY FROM DENSITY LOG
 RHOB.G/C3   45 350 01 00:   BULK DENSITY
 TEND.LBS    45 635 01 00:   TENSION FROM DENSITY LOG
 CORR.G/C3   45 356 01 00:   DENSITY CORRECTION
~PARAMETER INFORMATION
#MNEM.UNIT          VALUE    DESCRIPTION
#----------   ------------   ------------------------------
 EKB .F         5199.0000:   Kelly bushing
 EGL .F         5189.0000:   Ground level
 EDF .F            0.0000:   Drilling floor
 TD  .F         3422.0000:   Total depth
 DATE.        16-MAY-1981:   Date logged
 CLNT.            A2DTECH:   Client Code
 SL  . 1867' FSL & 2100' FWL:   Surface Location
 PD  .                 GL:   Permanent Datum
 EPD .F              5189:   Elevation Permanent Datum
 LMF .                 KB:   Log Measured From
 DMF .                 KB:   Drilling Measured From
 DAPD.F                10:   Feet Above Permanent Datum
 DD  .F              3421:   Depth driller
 DL  .F              3422:   Depth logger
 BLI .F              3416:   Bottom log interval
 TLI .F               926:   Top log interval
 CS1 .IN            8.625:   Casing size
 CBD1.      8.625" @ 925':   Casing driller 1
 CBL1.F               926:   Casing logger 1
 BS1 .IN            7.875:   Bit size
 BSD1.F              3421:   Depth drilled with bit1
 DFT .                FGM:   Type fluid in hole
 DFD .                8.5:   Density
 DFV .                 60:   Viscosity
 DFPH.                  9:   pH
 DFL .                 12:   Fluid loss
 MSS .               PITS:   Source of sample
 RMS .OHMM           1.17:   Rm
 MST .F                73:   Rm Meas. temp.
 RMF .OHMM           1.03:   Rmf
 MFST.F                73:   Rmf Meas. temp.
 MFSS.               MEAS:   Source Rmf.
 RMB .OHMM            .71:   Rm. at BHT
 BHT .F               120:   BHT.
 TCS .HRS            1200:   Time Circ. stopped
 TLAB.HRS            1745:   Time logger at bottom
 MRT .F               120:   Maximum recorded temp.
 LUN .               8133:   Logging unit number
 LUL .               CSPR:   Logging unit location
 ENGI.             TAYLOR:   Recorded By
 WITN.              RIVAS:   Witnessed by
 ORIG.           5" PRINT:   Origin of data
 UWI .     49025108720000:   Unique Well ID
 DICO. A2D TECHNOLOGIES, INC.:   Digitizing Company
~OTHER INFORMATION
~A   DEPT      SPR        ILD        SFL       TENR        ILM       CALD         GRD        RHOB     TEND        CORR  
# ...
 2078.5000   -27.4130     6.9150     8.3100   829.3630     6.5450     8.1670   138.9900     2.5370   882.1910     0.0060
 2079.0000   -27.4060     6.9570     8.2470   828.7390     6.6660     8.1670   136.0830     2.5330   882.3430     0.0000
 2079.5000   -27.3990     7.0360     8.1540   828.1150     6.7940     8.1670   135.4830     2.5260   882.4960    -0.0010
 2080.0000   -27.3920     7.1140     8.3050   827.4910     6.9220     8.1670   135.9190     2.5210   882.6480    -0.0020
 2080.5000   -27.3840     7.1920     8.7410   826.8670     7.0500     8.1670   137.1870     2.5210   882.8010    -0.0020
 2081.0000   -27.3770     7.2710     9.1300   826.2430     7.1780     8.1670   138.4500     2.5220   882.9540     0.0000
 2081.5000   -27.3700     7.3490     9.5200   825.6180     7.3060     8.1670   138.5790     2.5130   883.1060     0.0000
 2082.0000   -27.3620     7.4270     9.9090   825.0500     7.4350     8.1670   135.6120     2.5060   883.2590    -0.0010
 2082.5000   -27.3550     7.5050    10.3450   825.0500     7.5780     8.1670   130.9120     2.5020   883.4110    -0.0010
 2083.0000   -27.3480     7.5780    10.3450   825.0500     7.5040     8.1670   126.5390     2.4980   883.5640    -0.0030
 2083.5000   -27.3410     7.4170    10.2830   825.3960     7.4190     8.1670   127.2850     2.4950   883.7160    -0.0060
 2084.0000   -27.3330     7.2670     9.7180   825.7180     7.3350     8.1670   135.5210     2.4910   883.8690    -0.0090
 2084.5000   -27.3260     7.1160     8.6140   826.0410     7.2110     8.1670   140.6090     2.4960   884.0220    -0.0050
 2085.0000   -27.3190     6.9660     8.5310   826.3630     7.0660     8.1670   140.7850     2.5040   884.1740     0.0010
 2085.5000   -27.3110     6.8160     8.3420   826.6850     6.9210     8.1670   140.3810     2.5110   884.3270     0.0030
 2086.0000   -27.3040     6.6650     8.1540   827.0080     6.7760     8.1670   140.3630     2.5070   884.4790     0.0010
 2086.5000   -27.2970     6.5150     7.8610   827.3300     6.6310     8.1670   141.4140     2.5040   884.6320    -0.0010
 2087.0000   -27.2900     6.4270     7.8610   827.6530     6.4870     8.1670   139.5100     2.5060   884.7840    -0.0010
 2087.5000   -27.2820     6.4000     7.8610   827.9750     6.3420     8.1670   139.0440     2.5080   884.9370     0.0010
 2088.0000   -27.2750     6.3740     7.8610   828.2980     6.1960     8.1670   138.4620     2.5040   885.0900     0.0010
 2088.5000   -27.2680     6.3480     8.0290   828.6200     6.1860     8.1670   139.2160     2.4950   885.2420    -0.0020
 2089.0000   -27.2600     6.3220     8.1990   828.9430     6.1700     8.1670   140.4320     2.4870   885.3950    -0.0050
 2089.5000   -27.2530     6.2960     8.3690   829.2650     6.1530     8.1660   141.7040     2.4840   885.5470     0.0000
 2090.0000   -27.2460     6.2700     8.6140   829.5880     6.1370     8.1660   142.5500     2.4890   885.7000     0.0120
 2090.5000   -27.2390     6.2440     8.3430   829.9100     6.1200     8.1650   143.0810     2.4950   885.8520     0.0260
 2091.0000   -27.2310     6.2180     7.8560   830.2330     6.1040     8.1650   143.5860     2.4910   886.0050     0.0210
 2091.5000   -27.2240     6.1960     7.3690   830.5550     6.0880     8.1640   145.2350     2.4810   886.1580     0.0130
 2092.0000   -27.2170     6.2920     7.0430   830.8780     6.1630     8.1640   146.9270     2.4760   886.3100     0.0050
 2092.5000   -27.2090     6.3770     7.7680   831.2000     6.2710     8.1630   148.3120     2.4820   886.4630     0.0030
 2093.0000   -27.2020     6.4620     8.5510   831.5230     6.3800     8.1630   139.4520     2.4880   886.6150     0.0110
 2093.5000   -27.1950     6.5470     8.9360   831.8450     6.4890     8.1620   139.9120     2.4940   886.7680     0.0130
 2094.0000   -27.1880     6.6320     9.1010   832.1680     6.5970     8.1620   135.4820     2.4940   886.9200     0.0120
 2094.5000   -27.1800     6.7170     9.1010   832.4900     6.7060     8.1610   137.6850     2.4990   887.0730     0.0070
 2095.0000   -27.1730     6.8020     9.1010   832.8130     6.8140     8.1610   137.9410     2.5030   887.2260     0.0030
 2095.5000   -27.1660     6.8870     8.8120   833.1350     6.9150     8.1600   137.7820     2.4970   887.3780    -0.0010
 2096.0000   -27.1580     6.9980     8.4820   833.4570     6.7140     8.1600   137.6120     2.4920   887.5310    -0.0030
 2096.5000   -27.1510     6.8280     8.3050   833.7800     6.5260     8.1590   137.4500     2.4890   887.6830    -0.0010
 2097.0000   -27.1440     6.6580     8.2900   834.1020     6.3390     8.1590   137.2240     2.4990   887.8360     0.0030
 2097.5000   -27.1370     6.4880     8.2330   834.4250     6.0830     8.1580   135.6500     2.5090   887.9890     0.0070
 2098.0000   -27.1290     6.3100     8.1760   834.7470     6.1600     8.1580   134.0780     2.5170   888.1410     0.0110
 2098.5000   -27.1220     6.3530     8.1190   835.0700     6.2810     8.1570   132.6620     2.5110   888.2940     0.0120
 2099.0000   -27.1150     6.4540     8.0630   835.3920     6.4020     8.1570   132.7640     2.5050   888.4460     0.0090
 2099.5000   -27.1070     6.5540     8.0060   835.7150     6.5230     8.1560   132.3080     2.4980   888.5540     0.0040
 2100.0000   -27.1000     6.6550     8.3690   836.0370     6.6440     8.1560   131.2200     2.4910   888.5540     0.0000
 2100.5000   -27.0930     6.7550     8.7300   836.3600     6.7660     8.1550   130.0930     2.4840   888.5540    -0.0050
 2101.0000   -27.0850     6.8560     9.0900   836.6820     6.8870     8.1550   130.5510     2.4770   888.5540    -0.0090
 2101.5000   -27.0790     6.9560     9.4510   837.0050     6.9150     8.1540   133.3660     2.4760   888.5540    -0.0040
 2102.0000   -27.0650     7.0430     9.6150   837.3270     6.7740     8.1540   136.2540     2.4840   888.5540     0.0010
 2102.5000   -27.0460     6.9780     9.3550   837.6500     6.6250     8.1530   139.0840     2.4890   888.5540     0.0070
 2103.0000   -27.0280     6.8890     8.9990   837.9720     6.4760     8.1530   137.6890     2.4860   888.5540     0.0050
 2103.5000   -27.0100     6.7900     8.6430   838.2950     6.3100     8.1520   136.0040     2.4800   888.5540     0.0010
 2104.0000   -26.9910     6.7900     8.2050   838.6170     6.3620     8.1520   134.2380     2.4820   888.5540    -0.0030
 2104.5000   -26.9730     6.8500     7.6780   838.9400     6.4690     8.1510   129.2580     2.4930   888.5540    -0.0050
 2105.0000   -26.9540     6.9070     7.1730   839.2620     6.5760     8.1510   123.9400     2.5040   888.5540    -0.0040
 2105.5000   -26.9360     6.9640     8.3680   839.5850     6.6830     8.1500   119.5380     2.5140   888.5540     0.0010
 2106.0000   -26.9170     7.0430     9.9730   839.9070     6.7900     8.1500   122.1190     2.5180   888.5540     0.0060
 2106.5000   -26.8990     6.9820     9.7220   840.2300     6.7230     8.1490   128.2950     2.5080   888.5540     0.0110
 2107.0000   -26.8810     6.8810     9.3040   840.5520     6.6560     8.1490   134.5120     2.4970   888.5540     0.0090
 2107.5000   -26.8620     6.7800     8.8860   840.8740     6.5900     8.1480   136.5840     2.4860   888.5540     0.0020
 2108.0000   -26.8440     6.6790     8.5270   841.1970     6.5230     8.1480   136.8960     2.4830   888.5540     0.0020
 2108.5000   -26.8250     6.5780     8.2780   841.5190     6.4570     8.1470   138.6950     2.4970   888.5540     0.0070
 2109.0000   -26.8070     6.4770     8.0060   841.8420     6.3910     8.1480   140.5440     2.5090   888.5540     0.0130
 2109.5000   -26.7880     6.4270     7.8610   842.1640     6.3240     8.1490   142.3040     2.5120   888.5540     0.0190
 2110.0000   -26.7700     6.3980     7.9390   842.4870     6.2580     8.1500   144.0990     2.5080   888.5540     0.0110
 2110.5000   -26.7520     6.3720     8.0060   842.8090     6.1960     8.1510   145.9220     2.4970   888.5540     0.0030
 2111.0000   -26.7330     6.3460     7.8890   843.1320     6.1790     8.1520   147.7460     2.4900   888.5540    -0.0010
 2111.5000   -26.7150     6.3100     7.7180   843.4540     6.1540     8.1530   149.5170     2.4890   888.5540     0.0000
