~VERSION INFORMATION
 VERS.                2.0:   CWLS LOG ASCII STANDARD - VERSION 2.0
 WRAP.                 NO:   ONE LINE PER DEPTH STEP
~WELL INFORMATION
#MNEM.UNIT      DATA TYPE    INFORMATION
#----------   ------------   ------------------------------
 STRT.F          648.0000:   START DEPTH
 STOP.F         3196.0000:   STOP DEPTH
 STEP.F            0.5000:   STEP LENGTH
 NULL.          -999.2500:   NO VALUE
 COMP.    FENIX & SCISSON:   COMPANY
 WELL.   FENIX "AX" #18-2:   WELL
 FLD .             NPR #3:   FIELD
 LOC .       S2 T38N R78W:   LOCATION
 CNTY.            NATRONA:   COUNTY
 STAT.            WYOMING:   STATE
 CTRY. UNITED STATES OF AMERICA:   COUNTRY
 SRVC.              WELEX:   SERVICE COMPANY
 DATE.        05-OCT-1980:   LOGDATE
 API .     49025108500000:   API NUMBER
~CURVE INFORMATION
#MNEM.UNIT       API CODE    CURVE DESCRIPTION
#----------   ------------   ------------------------------
 DEPT.F                  :   
 GRD .GAPI   45 310 01 00:   GAMMA RAY FROM DENSITY LOG
 CALD.IN     45 280 60 00:   CALIPER FROM DENSITY LOG
 CORR.G/C3   45 356 01 00:   DENSITY CORRECTION
 RHOB.G/C3   45 350 01 00:   BULK DENSITY
 SPR .MV     07 010 01 00:   SPONTANEOUS POTENTIAL FROM RES.
 ILD .OHMM   07 120 46 00:   INDUCTION LOG DEEP RESISTIVITY
 ILM .OHMM   07 120 44 00:   INDUCTION LOG MEDIUM RESISTIVITY
 SGRD.OHMM   07 220 05 00:   SHORT GUARD RESISTIVITY
~PARAMETER INFORMATION
#MNEM.UNIT          VALUE    DESCRIPTION
#----------   ------------   ------------------------------
 EKB .F         5162.0000:   Kelly bushing
 EGL .F         5152.0000:   Ground level
 EDF .F            0.0000:   Drilling floor
 TD  .F         3200.0000:   Total depth
 CLNT.            A2DTECH:   Client Code
 PD  .                 GL:   Permanent Datum
 EPD .F              5152:   Elevation Permanent Datum
 LMF .                 KB:   Log Measured From
 DMF .                 KB:   Drilling Measured From
 DAPD.F                10:   Feet Above Permanent Datum
 DATE.        05-OCT-1980:   Date Logged [DD-MMM-YYYY]
 DD  .F              3200:   Depth driller
 DL  .F              3198:   Depth logger
 BLI .F              3196:   Bottom log interval
 TLI .F               646:   Top log interval
 CS1 .IN            8.625:   Casing size
 CBD1.      8.625" @ 647':   Casing driller 1
 CBL1.F               650:   Casing logger 1
 BS1 .IN            7.875:   Bit size
 BSD1.F              3200:   Depth drilled with bit1
 DFT .           CHEM GEL:   Type fluid in hole
 DFD .                8.6:   Density
 DFV .                 38:   Viscosity
 DFPH.                9.5:   pH
 MSS .           FLOWLINE:   Source of sample
 MFSS.               MEAS:   Source Rmf.
 MCSS.               MEAS:   Source Rmc.
 RMB .OHMM           1.24:   Rm. at BHT
 BHT .F               118:   BHT.
 TCS .HRS               5:   Time Circ. stopped
 MRT .F               118:   Maximum recorded temp.
 LUN .               1892:   Logging unit number
 LUL .             CASPER:   Logging unit location
 ORIG.           5" PRINT:   Origin of data
 UWI .     49025108500000:   Unique Well ID
 DICO. A2D TECHNOLOGIES, INC.:   Digitizing Company
 SL  . 313' FSL & 565' FWL:   Surface Location
 RMS .               2.34:   Rm
~OTHER INFORMATION
~A   DEPT       GRD      CALD       CORR       RHOB        SPR        ILD        ILM       SGRD   
# ...
 1822.5000    85.5784    13.0455     0.1093     2.5281   -37.3731     6.1124     6.4062     7.1308
 1823.0000    86.7050    13.0469     0.1079     2.5371   -37.3075     6.1162     6.3664     7.1365
 1823.5000    87.1699    13.0484     0.1051     2.5425   -37.2418     6.2049     6.3718     7.1424
 1824.0000    86.9728    13.0208     0.1022     2.5480   -37.1764     6.2957     6.4202     7.1221
 1824.5000    87.8847    12.9636     0.1024     2.5456   -37.1095     6.3869     6.5170     7.1047
 1825.0000    89.0113    12.8917     0.1056     2.5315   -37.1492     6.4795     6.6624     7.1119
 1825.5000    89.4761    12.7905     0.1073     2.5128   -37.2554     6.5734     6.8465     7.1062
 1826.0000    88.6174    12.6892     0.1059     2.5009   -37.3628     6.6229     6.9463     7.0735
 1826.5000    87.5381    12.5880     0.1016     2.4943   -37.4703     6.7189     6.9991     7.0802
 1827.0000    86.8940    12.4868     0.0927     2.4943   -37.5777     6.7695     6.9556     7.0859
 1827.5000    88.6883    12.4284     0.0868     2.5042   -37.6851     6.6349     6.9113     7.0914
 1828.0000    91.8002    12.3434     0.0854     2.5177   -37.7925     6.5030     6.8212     7.1469
 1828.5000    93.8270    12.3008     0.0962     2.5230   -37.8999     6.4178     6.6411     7.1523
 1829.0000    94.9416    12.2726     0.1054     2.5239   -38.0074     6.3776     6.5998     7.1862
 1829.5000    94.5240    12.2447     0.1116     2.5112   -38.1143     6.4266     6.6518     7.2694
 1830.0000    92.3418    12.2318     0.1163     2.4731   -38.2256     6.5197     6.7471     7.3255
 1830.5000    91.0360    12.2039     0.1029     2.4230   -38.1161     6.6600     6.8465     7.4285
 1831.0000    91.2861    12.1613     0.0533     2.4044   -37.9082     6.7565     6.9944     7.5636
 1831.5000    91.5303    12.1628     0.0291     2.4022   -37.6970     6.8545     7.1455     7.6647
 1832.0000    91.5540    12.1495     0.0324     2.4405   -37.4859     7.0039     7.2496     7.7610
 1832.5000    91.3570    12.1363     0.0523     2.5200   -37.2750     7.1601     7.3047     7.9295
 1833.0000    91.3809    12.1230     0.0570     2.5291   -37.0638     7.4090     7.3097     7.9908
 1833.5000    91.1837    12.1098     0.0526     2.5237   -36.8527     7.6208     7.2131     8.1084
 1834.0000    90.9867    12.0823     0.0497     2.5150   -36.6448     7.7313     7.1695     8.2278
 1834.5000    90.1339    12.0837     0.0620     2.5211   -36.5072     7.6288     7.1746     8.2358
 1835.0000    87.2899    12.0704     0.0742     2.5384   -36.5536     7.4258     7.3346     8.2425
 1835.5000    84.6665    12.0719     0.0895     2.5482   -36.5959     7.2293     7.4890     8.1908
 1836.0000    83.1460    12.0880     0.1032     2.5543   -36.6388     7.0855     7.4940     8.1411
 1836.5000    82.9431    12.1044     0.1000     2.5558   -36.6816     6.8497     7.4463     7.9825
 1837.0000    83.4139    12.1645     0.0915     2.5469   -36.7244     6.7536     7.3504     7.8254
 1837.5000    84.5404    12.3419     0.0917     2.5343   -36.7672     6.6724     7.2546     7.5144
 1838.0000    85.9117    12.7245     0.0994     2.5275   -36.8100     6.6306     7.2095     7.2657
 1838.5000    86.5789    12.9605     0.1146     2.5269   -36.8528     6.5427     7.0670     7.0975
 1839.0000    87.2643    12.9326     0.1238     2.5323   -36.8956     6.4137     7.0220     7.0308
 1839.5000    88.3909    12.7434     0.1209     2.5316   -36.9384     6.2862     6.8839     7.0379
 1840.0000    85.5469    12.5543     0.1151     2.5197   -36.9809     6.1189     6.7011     6.9938
 1840.5000    84.2411    12.3306     0.1122     2.5078   -37.0261     5.8341     6.5230     6.9036
 1841.0000    85.3736    12.2492     0.1140     2.5064   -37.0734     5.6004     6.0088     6.7691
 1841.5000    86.5001    12.2510     0.1382     2.5387   -37.2517     5.4050     5.5717     6.5001
 1842.0000    88.2885    12.2817     0.1550     2.5747   -37.0067     5.0927     5.1927     6.2417
 1842.5000    90.5476    12.3271     0.1612     2.5755   -36.7709     4.8893     4.8624     5.8710
 1843.0000    91.6456    12.4019     0.1628     2.4941   -36.5394     4.7265     4.7007     5.3720
 1843.5000    90.7918    12.4913     0.1510     2.4446   -36.3075     4.5691     4.6394     4.9826
 1844.0000    86.6242    12.6686     0.1375     2.4155   -36.0760     4.4170     4.6426     4.8857
 1844.5000    84.4420    12.8167     0.1015     2.3287   -35.8472     4.3584     4.7429     5.1324
 1845.0000    83.5832    12.8328     0.0715     2.2644   -35.8197     4.4529     5.3000     5.6961
 1845.5000    82.9451    12.7319     0.0320     2.2547   -36.0686     4.6128     6.0048     6.2352
 1846.0000    85.8364    12.6307     0.0083     2.2817   -36.3138     4.8845     6.4826     6.7319
 1846.5000    88.9483    12.5148     0.0011     2.3770   -36.5602     5.1923     6.7611     7.0218
 1847.0000    90.0807    12.3550     0.0360     2.4956   -36.8067     5.5280     6.9551     7.1744
 1847.5000    90.3191    12.2098     0.0497     2.5146   -37.0534     5.8450     6.9609     7.2799
 1848.0000    89.9074    12.0939     0.0619     2.5263   -37.2773     6.0955     6.9389     7.3361
 1848.5000    90.5928    11.9633     0.0817     2.5368   -37.2814     6.2267     6.9916     7.3929
 1849.0000    92.6018    11.8592     0.0955     2.5467   -37.2781     6.2747     7.0439     7.4502
 1849.5000    93.7224    11.7320     0.1137     2.5550   -37.2388     6.1943     6.9500     7.4575
 1850.0000    91.5461    11.6307     0.1290     2.5626   -37.2005     6.1575     6.8584     7.2599
 1850.5000    89.7765    11.5442     0.1447     2.5679   -37.0275     6.0368     6.5392     7.3140
 1851.0000    88.0183    11.4870     0.1610     2.5672   -37.3096     5.9609     6.2340     6.8304
 1851.5000    88.6974    11.4591     0.1641     2.5268   -37.7639     5.8833     5.9402     6.1110
 1852.0000    89.8115    11.4605     0.1523     2.4447   -37.8794     5.7283     5.7383     5.7552
 1852.5000    83.8972    11.4619     0.1313     2.2798   -37.8652     5.6955     5.8283     6.4751
 1853.0000    82.5952    11.4635     0.0983     2.2162   -37.7056     5.7008     6.1201     5.9634
 1853.5000    83.5418    11.4499     0.0653     2.2036   -37.6942     5.7457     6.6066     6.6633
 1854.0000    85.0595    11.4224     0.0323     2.3010   -37.3865     5.7910     6.9375     7.1921
 1854.5000    86.1785    11.4091     0.0762     2.4322   -37.2267     5.8830     7.1355     7.5517
 1855.0000    83.7987    11.4106     0.1023     2.4967   -37.0646     6.0908     7.1888     7.6606
 1855.5000    80.3011    11.4120     0.1162     2.5103   -36.9050     6.1814     7.1927     7.6648
 1856.0000    86.4988    11.4135     0.1295     2.5171   -36.8936     6.2733     7.1967     7.6161
 1856.5000    84.8097    11.4152     0.1341     2.5063   -37.0332     6.4107     7.3015     7.6212
 1857.0000    81.4703    11.4460     0.1223     2.4925   -37.1674     6.5511     7.5100     7.7847
 1857.5000    81.4917    11.4327     0.1209     2.5136   -37.3039     6.6485     7.6713     7.9516
 1858.0000    85.2520    11.4049     0.1301     2.5444   -37.2896     6.7953     7.7285     8.3492
 1858.5000    88.7925    11.3183     0.1499     2.5400   -37.1301     6.8953     7.6266     8.3536
 1859.0000    91.0133    11.1585     0.1546     2.5536   -37.1187     6.9992     7.5260     8.0746
 1859.5000    92.3543    11.0866     0.1655     2.5776   -37.1073     7.0544     7.5301     7.9138
 1860.0000    86.8772    11.0587     0.1990     2.5882   -37.0959     7.1592     7.5865     8.0291
 1860.5000    86.0188    11.0752     0.2079     2.5763   -37.0844     7.2657     7.6970     8.1449
 1861.0000    85.8203    11.1202     0.2065     2.5138   -37.0703     7.3737     7.7545     8.2056
 1861.5000    88.0464    11.1220     0.2022     2.4641   -37.2070     7.3806     7.8124     8.1536
 1862.0000    88.9422    11.1234     0.1993     2.4147   -37.1956     7.4388     7.9252     8.0462
 1862.5000    86.1097    11.1098     0.2100     2.4036   -37.1842     7.4976     8.0397     7.9906
