~VERSION INFORMATION
 VERS.                2.0:   CWLS LOG ASCII STANDARD - VERSION 2.0
 WRAP.                 NO:   ONE LINE PER DEPTH STEP
~WELL INFORMATION
#MNEM.UNIT      DATA TYPE    INFORMATION
#----------   ------------   ------------------------------
 STRT.F           11.5000:   START DEPTH
 STOP.F         1726.0000:   STOP DEPTH
 STEP.F            0.5000:   STEP LENGTH
 NULL.          -999.2500:   NO VALUE
 COMP. LAWRENCE ALLISON & ASSOC WEST:   COMPANY
 WELL. LAWRENCE NPR 3 "X" #51-26:   WELL
 FLD .                NPR:   FIELD
 LOC .      S26 T38N R78W:   LOCATION
 CNTY.            NATRONA:   COUNTY
 STAT.            WYOMING:   STATE
 CTRY. UNITED STATES OF AMERICA:   COUNTRY
 SRVC.      DRESSER ATLAS:   SERVICE COMPANY
 DATE.        13-AUG-1983:   LOGDATE
 API .     49025109270000:   API NUMBER
~CURVE INFORMATION
#MNEM.UNIT       API CODE    CURVE DESCRIPTION
#----------   ------------   ------------------------------
 DEPT.F                  :   
 CALD.IN     45 280 60 00:   CALIPER FROM DENSITY LOG
 RHOB.G/C3   45 350 01 00:   BULK DENSITY
 CORR.G/C3   45 356 01 00:   DENSITY CORRECTION
 TEND.LBS    45 635 01 00:   TENSION FROM DENSITY LOG
 GRR .GAPI   07 310 01 00:   GAMMA RAY FROM RESISTIVITY
 RILD.OHMM   07 120 46 00:   INDUCTION LOG DEEP RESISTIVITY
 RILM.OHMM   07 120 44 00:   INDUCTION LOG MEDIUM RESISTIVITY
 TENR.LBS    07 635 01 00:   TENSION
~PARAMETER INFORMATION
#MNEM.UNIT          VALUE    DESCRIPTION
#----------   ------------   ------------------------------
 EKB .F         5455.0000:   Kelly bushing
 EGL .F         5444.0000:   Ground level
 EDF .F            0.0000:   Drilling floor
 EPD .F         5444.0000:   Permanent datum
 TD  .F         1726.0000:   Total depth
 DATE.        13-AUG-1983:   Date logged
 CLNT.            A2DTECH:   Client Code
 PD  .                 GL:   Permanent Datum
 LMF .                 KB:   Log Measured From
 DMF .                 KB:   Drilling Measured From
 DAPD.F                11:   Feet Above Permanent Datum
 DD  .F              1726:   Depth driller
 DL  .F              1724:   Depth logger
 BLI .F              1718:   Bottom log interval
 CBD1.F                47:   Casing driller 1
 CBL1.F                48:   Casing logger 1
 BS1 .IN            12.25:   Bit size
 BSD1.F              1726:   Depth drilled with bit1
 DFT .           AIR/FOAM:   Type fluid in hole
 TCS .HRS               1:   Time Circ. stopped
 MRT .F                85:   Maximum recorded temp.
 LUN .               6270:   Logging unit number
 LUL .              WLSTN:   Logging unit location
 ENGI.            QUICKEL:   Recorded By
 WITN.           JENNINGS:   Witnessed by
 ORIG.           5" PRINT:   Origin of data
 UWI .     49025109270000:   Unique Well ID
 DICO. A2D TECHNOLOGIES, INC.:   Digitizing Company
~OTHER INFORMATION
~A   DEPT     CALD       RHOB       CORR       TEND         GRR      RILD       RILM       TENR   
# ...
 1672.0000    12.6060     2.4570     0.0130   156.3630   109.8630    10.1890    10.0030    85.4100
 1672.5000    12.6060     2.4510     0.0070   158.8360   111.3100    10.1540    10.0030    86.0060
 1673.0000    12.6070     2.4450     0.0010   161.3100   112.6990    10.1150    10.0030    86.6020
 1673.5000    12.6070     2.4530    -0.0010   163.7830   113.1340    10.0760    10.0030    87.1980
 1674.0000    12.6070     2.4650    -0.0010   166.2570   111.8520    10.0370    10.0030    87.7940
 1674.5000    12.6080     2.4780     0.0030   168.7300   110.3610     9.9970    10.0030    88.3900
 1675.0000    12.6080     2.4810     0.0170   171.2040   109.7830     9.9580    10.0030    89.1730
 1675.5000    12.6080     2.4770     0.0280   173.6770   109.1810     9.9190    10.0030    90.2850
 1676.0000    12.6090     2.4730     0.0110   176.1510   107.4900     9.8800    10.0030    91.3960
 1676.5000    12.6090     2.4680    -0.0120   178.6240   106.0750     9.8410    10.0030    92.5080
 1677.0000    12.6090     2.4660    -0.0150   181.0980   106.4220     9.7570    10.0030    93.6190
 1677.5000    12.6100     2.4640    -0.0050   183.5710   107.1780     9.6180    10.0030    94.7310
 1678.0000    12.6100     2.4630    -0.0010   186.0450   109.3910     9.4670    10.0030    95.8420
 1678.5000    12.6100     2.4640    -0.0060   188.5180   111.9160     9.4830    10.0030    96.9540
 1679.0000    12.6090     2.4680    -0.0110   190.9920   111.9360     9.5060    10.0030    98.0660
 1679.5000    12.6080     2.4740    -0.0110   193.4650   111.4610     9.5280     9.9250    99.1770
 1680.0000    12.6060     2.4800     0.0060   195.9390   112.5060     9.5510     9.8160   100.2890
 1680.5000    12.6050     2.4810     0.0250   198.4120   114.3240     9.4430     9.7070   101.4000
 1681.0000    12.6040     2.4760     0.0270   200.8860   114.9760     9.3280     9.5980   102.5120
 1681.5000    12.6020     2.4710     0.0170   203.3590   115.7770     9.2130     9.4890   103.6230
 1682.0000    12.6010     2.4690     0.0070   205.8330   117.8140     9.0980     9.3800   104.7350
 1682.5000    12.6000     2.4690    -0.0040   208.3060   121.1250     8.9830     9.2720   105.8460
 1683.0000    12.5990     2.4730    -0.0040   210.7800   121.2000     8.8690     9.1630   106.9580
 1683.5000    12.5970     2.4770    -0.0020   213.2530   120.3970     8.7540     9.0540   108.0690
 1684.0000    12.5960     2.4790    -0.0010   215.7270   120.4400     8.6390     8.9280   109.1810
 1684.5000    12.5950     2.4790     0.0010   218.2000   122.0780     8.5240     8.7980   110.2920
 1685.0000    12.5940     2.4760    -0.0100   220.6730   125.0630     8.4090     8.6690   111.4040
 1685.5000    12.5920     2.4710    -0.0220   223.1470   126.9530     8.2940     8.5390   112.5150
 1686.0000    12.5910     2.4700    -0.0530   225.6200   126.5620     8.1790     8.4100   113.6270
 1686.5000    12.5900     2.4750    -0.0310   228.0940   125.3300     8.0640     8.2810   114.7380
 1687.0000    12.5880     2.4770    -0.0090   230.3990   124.0900     7.9490     8.1510   115.8500
 1687.5000    12.5870     2.4750    -0.0070   234.0380   122.8640     7.8340     8.0220   116.9620
 1688.0000    12.5860     2.4730    -0.0250   237.6770   121.8370     7.7190     7.8930   118.0730
 1688.5000    12.5850     2.4710    -0.0220   241.3170   122.8510     7.6040     7.7630   119.1850
 1689.0000    12.5830     2.4690    -0.0150   244.9560   123.9240     7.4430     7.5820   120.2960
 1689.5000    12.5820     2.4680    -0.0200   248.5950   124.2310     7.4570     7.6210   121.4080
 1690.0000    12.5810     2.4660    -0.0300   252.2350   119.6950     7.4800     7.6870   122.5190
 1690.5000    12.5790     2.4650    -0.0220   255.8740   115.2250     7.5040     7.7530   123.6310
 1691.0000    12.5780     2.4670     0.0050   259.5130   114.2020     7.5270     7.8180   124.7420
 1691.5000    12.5770     2.4700     0.0300   263.1530   120.5270     7.5510     7.8670   125.8540
 1692.0000    12.5760     2.4740     0.0580   266.7920   125.8000     7.5820     7.7610   126.9650
 1692.5000    12.5740     2.4780     0.0460   270.4310   128.9230     7.5180     7.6390   128.0770
 1693.0000    12.5730     2.4790     0.0200   274.0710   128.7730     7.4230     7.5170   128.6360
 1693.5000    12.5720     2.4800    -0.0050   277.7100   127.7930     7.3290     7.3940   128.6360
 1694.0000    12.5710     2.4810    -0.0170   281.3490   124.4720     7.2350     7.2720   128.6360
 1694.5000    12.5720     2.4820    -0.0210   284.9890   126.2980     7.1410     7.1500   128.6360
 1695.0000    12.5730     2.4800    -0.0240   288.6280   128.6460     7.0470     7.0270   128.6360
 1695.5000    12.5740     2.4760    -0.0270   292.2670   130.9620     6.9530     6.9050   128.6360
 1696.0000    12.5760     2.4730    -0.0310   295.9070  -999.2500     6.8580     6.7830   128.6360
 1696.5000    12.5770     2.4710    -0.0340   299.5460  -999.2500     6.7640     6.6600   128.6360
 1697.0000    12.5780     2.4730    -0.0340   303.1850  -999.2500     6.6700     6.5400   128.6360
 1697.5000    12.5790     2.4760    -0.0160   306.8250  -999.2500     6.5760     6.4860   128.6360
 1698.0000    12.5810     2.4780     0.0020   309.7390  -999.2500     6.4820     6.3980   128.6360
 1698.5000    12.5820     2.4740     0.0080   310.6020  -999.2500     6.3880     6.3110   128.6360
 1699.0000    12.5830     2.4690    -0.0310   311.6690  -999.2500     6.2930     6.2240   128.6360
 1699.5000    12.5840     2.4640    -0.0450   312.7370  -999.2500     6.1990     6.1360   128.6360
 1700.0000    12.5860     2.4610    -0.0380   313.8040  -999.2500     6.1050     6.0490   128.6360
 1700.5000    12.5870     2.4610    -0.0320   314.8710  -999.2500     6.0110     5.9610   128.6360
 1701.0000    12.5880     2.4690    -0.0240   315.9380  -999.2500     5.9170     5.8740   128.6360
 1701.5000    12.5900     2.4790    -0.0140   317.0060  -999.2500     5.8540     5.7870   128.6360
 1702.0000    12.5910     2.4900    -0.0050   318.0730  -999.2500     5.8540     5.7470   128.6360
 1702.5000    12.5920     2.5000     0.0040   319.1400  -999.2500     5.8540     6.1460   128.6360
 1703.0000    12.5930     2.5040     0.0140   320.2080  -999.2500     6.0900     6.4440   128.6360
 1703.5000    12.5950     2.5050     0.0490   321.2750  -999.2500     6.4010     6.7420   128.6360
 1704.0000    12.5960     2.5050     0.0660   322.3420  -999.2500     6.7110     7.0400   128.6360
 1704.5000    12.5970     2.5090     0.0230   323.4100  -999.2500     7.0220     7.3380   128.6360
 1705.0000    12.5980     2.5180     0.0340   324.4770  -999.2500     7.3320     7.6360   129.4670
 1705.5000    12.6000     2.5280     0.0510   325.5440  -999.2500     7.5430     7.8900   133.3690
 1706.0000    12.6010     2.5350     0.0680   326.6110  -999.2500     7.6810     7.9930   137.2710
 1706.5000    12.6020     2.5230     0.0590   327.6790  -999.2500     7.8190     8.0960   141.1740
 1707.0000    12.6030     2.5120     0.0520   328.7460  -999.2500     7.9020     8.1990   145.0760
 1707.5000    12.6050     2.5010     0.0430   329.8130  -999.2500     7.9550     8.3030   148.6960
 1708.0000    12.6060     2.4900     0.0340   330.8810  -999.2500     8.0140     8.3150   163.7410
 1708.5000    12.6070     2.4870     0.0250   331.9480  -999.2500     7.9920     8.3150   163.7410
 1709.0000    12.6080     2.4900     0.0150   333.0150  -999.2500     7.9490     8.3040   163.7410
 1709.5000    12.6100     2.4960     0.0120   334.0830  -999.2500     7.9050     8.1950   163.7410
 1710.0000    12.6110     2.5030     0.0390   335.1500  -999.2500     7.8670     8.0860   163.7410
 1710.5000    12.6120     2.5090     0.0650   336.2170  -999.2500     8.0050     8.0140   163.7410
 1711.0000    12.6130     2.5110     0.0580   337.2840  -999.2500     8.1520     7.8680   163.7410
 1711.5000    12.6150     2.5060     0.0510   338.3520  -999.2500     8.3000     7.6020   163.7410
 1712.0000    12.6160     2.5050     0.0560   339.4190  -999.2500  -999.2500     7.3370   163.7410
