~VERSION INFORMATION
 VERS.                2.0:   CWLS LOG ASCII STANDARD - VERSION 2.0
 WRAP.                 NO:   ONE LINE PER DEPTH STEP
~WELL INFORMATION
#MNEM.UNIT      DATA TYPE    INFORMATION
#----------   ------------   ------------------------------
 STRT.F          196.0000:   START DEPTH
 STOP.F         3430.0000:   STOP DEPTH
 STEP.F            0.5000:   STEP LENGTH
 NULL.          -999.2500:   NO VALUE
 COMP.    FENIX $ SCISSON:   COMPANY
 WELL.   FENIX "A" #23-10:   WELL
 FLD .              N P R:   FIELD
 LOC .      S10 T38N R78W:   LOCATION
 CNTY.            NATRONA:   COUNTY
 STAT.            WYOMING:   STATE
 CTRY. UNITED STATES OF AMERICA:   COUNTRY
 SRVC.              WELEX:   SERVICE COMPANY
 DATE.        23-JUL-1977:   LOGDATE
 API .     49025103990000:   API NUMBER
~CURVE INFORMATION
#MNEM.UNIT       API CODE    CURVE DESCRIPTION
#----------   ------------   ------------------------------
 DEPT.F                  :   
 SPR .MV     07 010 01 00:   SPONTANEOUS POTENTIAL
 GURD.OHMM   07 220 05 00:   GUARD LOG RESISTIVITY
 FORX.OHMM   07 220 00 00:   FORMATION FACTOR
 NPHI.DEC    42 890 03 00:   NEUTRON POROSITY SANDSTONE
 CALD.IN     45 280 60 00:   CALIPER FROM DENSITY LOG
 CORR.G/C3   45 356 01 00:   DENSITY CORRECTION
 GRD .GAPI   45 310 01 00:   GAMMA RAY FROM DENSITY LOG
 RHOB.G/C3   45 350 01 00:   BULK DENSITY
~PARAMETER INFORMATION
#MNEM.UNIT          VALUE    DESCRIPTION
#----------   ------------   ------------------------------
 EKB .F         5251.0000:   Kelly bushing
 EGL .F         5241.0000:   Ground level
 EDF .F            0.0000:   Drilling floor
 EPD .F         5241.0000:   Permanent datum
 TD  .F         3430.0000:   Total depth
 DATE.        23-JUL-1977:   Date logged
 CLNT.            A2DTECH:   Client Code
 SL  . 1650' FNL & 990' FWL:   Surface Location
 PD  .                 GL:   Permanent Datum
 DD  .F              3430:   Depth driller
 DL  .F              3430:   Depth logger
 BLI .F              3428:   Bottom log interval
 CS1 .IN            8.625:   Casing size
 CBD1.      8.625" @ 220':   Casing driller 1
 BS1 .IN            7.875:   Bit size
 DFT .            KCL MUD:   Type fluid in hole
 DFD .                8.9:   Density
 DFV .                 33:   Viscosity
 DFPH.                  8:   pH
 DFL .                  8:   Fluid loss
 MSS .           FLOWLINE:   Source of sample
 RMS .OHMM            .49:   Rm
 MST .F                94:   Rm Meas. temp.
 RMF .OHMM            .46:   Rmf
 MFST.F                90:   Rmf Meas. temp.
 RMC .OHMM            .40:   Rmc
 MCST.F                90:   Rmc Meas. temp.
 MFSS.               FANN:   Source Rmf.
 RMB .OHMM            .15:   Rm. at BHT
 BHT .F               122:   BHT.
 TCS .HRS               6:   Time Circ. stopped
 MRT .F               122:   Maximum recorded temp.
 LUN .               8611:   Logging unit number
 LUL .             CASPER:   Logging unit location
 ENGI.            C. DOAK:   Recorded By
 WITN.      B. HARRINGTON:   Witnessed by
 ORIG.           5" PRINT:   Origin of data
 UWI .     49025103990000:   Unique Well ID
 DICO. A2D TECHNOLOGIES, INC.:   Digitizing Company
 DAPD.                 10:   Feet Above Permanent Datum
 BSD1.               3430:   Depth drilled with bit1
 MCSS.                KIT:   Source Rmc.
 TLI .                200:   Top log interval
~OTHER INFORMATION
~A   DEPT      SPR         GURD     FORX       NPHI       CALD       CORR        GRD       RHOB   
# ...
 2747.5000   -58.4060     4.9920    10.7540     0.3000     9.0970     0.0330   103.5860     2.4830
 2748.0000   -56.1470     4.8780    11.8980     0.2990     9.0670     0.0290    97.6710     2.4680
 2748.5000   -53.8880     5.5530    12.1720     0.2940     9.0380     0.0260    91.8220     2.4530
 2749.0000   -51.6290     6.5510    11.3640     0.2830     9.0080     0.0280    86.0020     2.4460
 2749.5000   -49.3740     7.2550    26.3220     0.2630     8.9780     0.0310    80.1880     2.4400
 2750.0000   -47.1180     7.9340    41.1530     0.2430     8.9480     0.0330    74.3990     2.4390
 2750.5000   -45.4980     8.5460     9.2080     0.2220     8.9180     0.0360    70.3150     2.4420
 2751.0000   -44.5170     7.7950     9.0310     0.2010     8.8880     0.0390    71.8660     2.4460
 2751.5000   -43.5350     8.4590     9.1980     0.1800     8.8620     0.0390    73.2420     2.4440
 2752.0000   -42.5580     9.2800    10.6640     0.1590     8.8510     0.0370    74.6230     2.4380
 2752.5000   -41.5780     7.9400     9.9920     0.1490     8.8400     0.0360    76.0130     2.4310
 2753.0000   -40.5650    11.3610    10.1830     0.1470     8.8280     0.0340    77.4050     2.4290
 2753.5000   -40.0590    13.7830    10.4610     0.1490     8.8160     0.0330    78.7730     2.4320
 2754.0000   -39.5550    11.2370    12.7640     0.1500     8.8050     0.0310    79.6450     2.4340
 2754.5000   -39.0620     7.3100    14.9720     0.1510     8.7930     0.0300    78.5850     2.4320
 2755.0000   -38.5680    10.6560    10.0840     0.1500     8.7820     0.0280    77.6010     2.4300
 2755.5000   -38.0730     9.3850    10.1770     0.1490     8.7710     0.0270    77.5060     2.4330
 2756.0000   -37.5780     8.8660    13.5320     0.1470     8.7600     0.0290    79.0710     2.4520
 2756.5000   -37.0830    11.7910    58.9020     0.1430     8.7040     0.0300    80.4720     2.4700
 2757.0000   -36.5880    14.0820   110.7080     0.1390     8.6500     0.0320    79.2250     2.4880
 2757.5000   -36.0930    24.8940   243.6410     0.1370     8.5960     0.0330    78.1890     2.5070
 2758.0000   -35.5980    37.5570   409.6450     0.1360     8.5430     0.0380    77.1940     2.5250
 2758.5000   -35.1030    40.4790   405.8960     0.1340     8.4890     0.0450    76.1720     2.5390
 2759.0000   -34.6080    40.7600   302.0930     0.1330     8.4360     0.0530    76.6290     2.5390
 2759.5000   -34.1130    41.0420   184.2460     0.1320     8.3810     0.0600    78.0570     2.5330
 2760.0000   -33.6190    41.3240    71.0080     0.1320     8.3670     0.0590    79.5110     2.5050
 2760.5000   -33.1230    41.5330    17.5500     0.1340     8.3800     0.0530    81.0000     2.4730
 2761.0000   -32.6270    33.4180     8.6250     0.1350     8.4070     0.0470    80.1340     2.4410
 2761.5000   -32.1370    20.0190     9.1980     0.1390     8.4350     0.0430    79.0510     2.4310
 2762.0000   -31.5780    11.5350     8.2380     0.1430     8.4620     0.0430    77.9060     2.4210
 2762.5000   -31.2820    10.7620     7.2940     0.1480     8.4890     0.0430    79.2840     2.4170
 2763.0000   -30.9800    10.3360     7.0460     0.1520     8.5180     0.0430    81.2680     2.4120
 2763.5000   -30.7120     9.9990     8.2380     0.1540     8.5380     0.0410    83.2620     2.4100
 2764.0000   -30.4840     9.8100     8.6440     0.1550     8.5650     0.0340    85.3160     2.4120
 2764.5000   -30.6240    11.2590     8.8660     0.1570     8.5910     0.0280    85.4520     2.4020
 2765.0000   -30.7730    12.8060     8.1620     0.1590     8.6180     0.0210    84.6960     2.3950
 2765.5000   -30.9260    12.5180     9.6460     0.1590     8.6440     0.0250    83.9180     2.4030
 2766.0000   -31.0800    12.0850    12.5730     0.1580     8.6710     0.0310    83.0990     2.4130
 2766.5000   -31.2340    12.3690     8.4680     0.1560     8.6970     0.0360    81.7940     2.4220
 2767.0000   -31.3870    12.9240     9.3900     0.1540     8.7240     0.0410    81.6110     2.4210
 2767.5000   -31.5410    12.2310     8.0140     0.1530     8.7510     0.0420    82.6510     2.4160
 2768.0000   -31.6940    14.0390     8.3140     0.1550     8.7770     0.0430    83.6890     2.4260
 2768.5000   -31.8480    12.5070     7.4450     0.1580     8.8040     0.0410    84.7350     2.4210
 2769.0000   -32.0010    11.5920     9.3690     0.1610     8.8300     0.0370    85.7820     2.4130
 2769.5000   -32.0040    11.1570     9.0310     0.1640     8.8570     0.0340    86.8290     2.4150
 2770.0000   -31.7410    11.7570    13.5320     0.1650     8.8830     0.0300    87.8680     2.4170
 2770.5000   -31.4850    12.7230     8.1620     0.1660     8.9100     0.0270    88.9090     2.4030
 2771.0000   -31.2280    13.2860    11.5050     0.1660     8.9360     0.0260    88.8270     2.4060
 2771.5000   -31.1670    13.2860     7.9360     0.1670     8.9600     0.0270    87.6220     2.4110
 2772.0000   -31.2560    12.6680     7.3770     0.1680     8.9660     0.0280    86.4200     2.4170
 2772.5000   -31.3510    11.6600     7.7240     0.1700     8.9720     0.0290    85.2090     2.4140
 2773.0000   -31.4330    10.9540     8.4680     0.1710     8.9770     0.0290    83.9890     2.4070
 2773.5000   -31.6670    11.4690     7.2430     0.1720     8.9830     0.0320    82.7300     2.4060
 2774.0000   -31.6650    10.8530    10.0840     0.1710     8.9880     0.0350    83.0620     2.4120
 2774.5000   -31.6700    11.6040     9.6270     0.1690     8.9940     0.0380    83.8600     2.4170
 2775.0000   -31.6280    13.2180     8.8660     0.1640     8.9990     0.0380    84.6540     2.4200
 2775.5000   -31.3080    14.8350    21.0370     0.1600     9.0050     0.0350    84.6730     2.4140
 2776.0000   -31.0220    13.5320    15.2100     0.1560     9.0100     0.0330    83.9170     2.4020
 2776.5000   -30.7450    14.3880     8.0880     0.1510     9.0160     0.0310    83.1590     2.3890
 2777.0000   -30.4640    14.5650     6.7920     0.1470     9.0210     0.0290    82.3950     2.3810
 2777.5000   -30.1510    12.9020     7.8680     0.1430     9.0270     0.0260    81.9320     2.3720
 2778.0000   -29.3630    11.4690     7.4420     0.1390     9.0320     0.0240    83.5510     2.3620
 2778.5000   -28.5760    11.5750     6.8540     0.1400     9.0380     0.0190    85.1030     2.3590
 2779.0000   -27.8010    11.3970     7.7960     0.1420     9.0430     0.0230    86.6390     2.3650
 2779.5000   -27.1410    11.0550     7.1550     0.1470     9.0490     0.0270    88.2230     2.3720
 2780.0000   -26.9640    11.2570     7.7700     0.1530     9.0540     0.0310    88.2540     2.3810
 2780.5000   -26.7230    11.6810     6.4860     0.1560     9.0600     0.0350    86.1300     2.3970
 2781.0000   -26.4750    11.3910     7.2040     0.1590     9.0650     0.0390    84.4530     2.4140
 2781.5000   -26.2260    10.6560     8.1260     0.1600     9.0710     0.0410    82.7290     2.4210
 2782.0000   -25.9930    11.3290     8.7050     0.1600     9.0760     0.0420    82.5100     2.4250
 2782.5000   -25.6780    12.2000     7.7210     0.1600     9.0800     0.0420    83.3640     2.4280
 2783.0000   -25.3640    12.9240     6.8540     0.1610     9.0810     0.0420    84.2090     2.4310
 2783.5000   -25.0490    12.0080     7.2460     0.1620     9.0820     0.0430    85.0570     2.4280
 2784.0000   -24.7330    12.2220     8.2380     0.1630     9.0830     0.0430    85.9140     2.4360
 2784.5000   -24.4190    12.4580     8.0080     0.1640     9.0840     0.0430    86.5540     2.4360
 2785.0000   -24.2360    11.0550     7.5840     0.1630     9.0850     0.0440    84.4660     2.4300
 2785.5000   -24.3860    11.2270     8.1620     0.1590     9.0860     0.0450    82.5640     2.4340
 2786.0000   -24.5330    11.3640     8.1400     0.1550     9.0870     0.0460    83.3100     2.4420
 2786.5000   -24.6790    11.3640     8.0880     0.1510     9.0880     0.0460    84.8060     2.4460
 2787.0000   -24.8260    11.4690     9.7200     0.1490     9.0890     0.0470    85.8330     2.4280
 2787.5000   -24.9730    12.3760     7.1110     0.1520     9.0900     0.0470    84.7710     2.4250
