~VERSION INFORMATION
 VERS.                2.0:   CWLS LOG ASCII STANDARD - VERSION 2.0
 WRAP.                 NO:   ONE LINE PER DEPTH STEP
~WELL INFORMATION
#MNEM.UNIT      DATA TYPE    INFORMATION
#----------   ------------   ------------------------------
 STRT.F          195.5000:   START DEPTH
 STOP.F         3197.0000:   STOP DEPTH
 STEP.F            0.5000:   STEP LENGTH
 NULL.          -999.2500:   NO VALUE
 COMP.    FENIX & SCISSON:   COMPANY
 WELL.  FENIX "AX" #17-11:   WELL
 FLD .              NPR-3:   FIELD
 LOC .      S11 T38N R78W:   LOCATION
 CNTY.            NATRONA:   COUNTY
 STAT.            WYOMING:   STATE
 CTRY. UNITED STATES OF AMERICA:   COUNTRY
 SRVC.              WELEX:   SERVICE COMPANY
 DATE.        16-SEP-1977:   LOGDATE
 API .     49025104170000:   API NUMBER
~CURVE INFORMATION
#MNEM.UNIT       API CODE    CURVE DESCRIPTION
#----------   ------------   ------------------------------
 DEPT.F                  :   
 GRD .GAPI   45 310 01 00:   GAMMA RAY FROM DENSITY LOG
 CALD.IN     45 280 60 00:   CALIPER FROM DENSITY LOG
 CORR.G/C3   45 356 01 00:   DENSITY CORRECTION
 TEND.LBS    45 635 01 00:   TENSION FORM DENSITY LOG
 RHOB.G/C3   45 350 01 00:   BULK DENSITY
 SPR .MV     07 010 01 00:   SPONTANEOUS POTENTIAL
 TENR.LBS    07 635 01 00:   TENSION FROM RESISTIVITY
 ILD .OHMM   07 120 46 00:   DEEP INDUCTION RESISTIVITY
 ILM .OHMM   07 120 44 00:   INDUCTION LOG MEDIUM RESISTIVITY
 SGRD.OHMM   07 220 05 00:   SHALLOW SHORT GUARD RESISTIVITY
~PARAMETER INFORMATION
#MNEM.UNIT          VALUE    DESCRIPTION
#----------   ------------   ------------------------------
 EKB .F         5212.0000:   Kelly bushing
 EGL .F         5202.0000:   Ground level
 TD  .F         3195.0000:   Total depth
 CLNT.            A2DTECH:   Client Code
 SL  . 1090' FSL & 330' FWL:   Surface Location
 PD  .                 GL:   Permanent Datum
 EPD .F              5202:   Elevation Permanent Datum
 LMF .                 KB:   Log Measured From
 DMF .                 KB:   Drilling Measured From
 DAPD.F                10:   Feet Above Permanent Datum
 DATE.        16-SEP-1977:   Date Logged [DD-MMM-YYYY]
 DD  .F              3195:   Depth driller
 DL  .F              3195:   Depth logger
 BLI .F              3193:   Bottom log interval
 TLI .F               217:   Top log interval
 CS1 .IN            8.625:   Casing size
 CBD1.      8.625" @ 216':   Casing driller 1
 CBL1.F               217:   Casing logger 1
 BS1 .IN            7.875:   Bit size
 BSD1.F              3195:   Depth drilled with bit1
 DFT .            KCL MUD:   Type fluid in hole
 DFD .                9.2:   Density
 DFV .                 36:   Viscosity
 DFPH.                 11:   pH
 DFL .                8.8:   Fluid loss
 MSS .           FLOWLINE:   Source of sample
 RMS .OHMM           2.76:   Rm
 MST .F                99:   Rm Meas. temp.
 RMF .OHMM           1.54:   Rmf
 MFST.F                99:   Rmf Meas. temp.
 MFSS.               MEAS:   Source Rmf.
 RMC .OHMM           3.01:   Rmc
 MCST.F                99:   Rmc Meas. temp.
 MCSS.               MEAS:   Source Rmc.
 RMB .OHMM           2.40:   Rm. at BHT
 BHT .F               112:   BHT.
 TCS .HRS               6:   Time Circ. stopped
 MRT .F               112:   Maximum recorded temp.
 LUN .               8611:   Logging unit number
 LUL .             CASPER:   Logging unit location
 ENGI.          D. LAWSON:   Recorded By
 WITN.         HARRINGTON:   Witnessed by
 ORIG.           5" PRINT:   Origin of data
 UWI .     49025104170000:   Unique Well ID
 DICO. A2D TECHNOLOGIES, INC.:   Digitizing Company
~OTHER INFORMATION
~A   DEPT       GRD      CALD       CORR       TEND       RHOB        SPR       TENR        ILD        ILM       SGRD   
# ...
  631.0000    90.6607    10.1089     0.0193  1308.5944     2.4883   -66.4364  1050.2095     6.0253     7.8511     8.9379
  631.5000    89.5813    10.1073     0.0222  1324.1648     2.4920   -66.5950  1051.2183     5.9832     7.8506     8.9975
  632.0000    88.3834    10.1060     0.0237  1310.1796     2.4980   -66.7524  1052.2271     5.9004     7.7957     9.1271
  632.5000    87.3174    10.1047     0.0221  1311.0029     2.4995   -66.7582  1053.2358     5.8188     7.7413     9.2449
  633.0000    87.1580    10.1335     0.0192  1303.2456     2.4941   -66.7641  1054.2446     5.7383     7.6340     9.1781
  633.5000    89.8542    10.1476     0.0177  1297.6277     2.4887   -66.7700  1055.2534     5.6983     7.3060     8.7421
  634.0000    91.8003    10.1761     0.0192  1283.4583     2.4858   -66.7758  1056.2622     5.6979     6.9255     8.5013
  634.5000    93.5959    10.2050     0.0191  1284.4590     2.4880   -66.7818  1057.2710     5.7372     6.9250     8.4405
  635.0000    94.9396    10.2187     0.0206  1270.2897     2.4917   -66.4860  1058.2798     5.7368     6.9728     8.4969
  635.5000    93.8313    10.2325     0.0206  1271.0903     2.4940   -66.4918  1059.2886     5.7763     7.1688     8.5534
  636.0000    90.6747    10.2158     0.0206  1256.8862     2.4947   -66.4977  1060.2974     5.8160     7.3703     8.4267
  636.5000    93.5461    10.2144     0.0191  1227.7815     2.4931   -66.3506  1061.3062     5.8156     7.6302     8.2578
  637.0000    94.5915    10.2131     0.0161  1228.5929     2.4886   -66.5094  1062.3149     5.8152     7.7965     8.3711
  637.5000    92.4684    10.2420     0.0161  1231.9048     2.4848   -66.5153  1063.3237     5.8148     7.6823     8.3683
  638.0000    91.2519    10.2557     0.0161  1238.8232     2.4825   -66.5212  1064.3325     5.8144     7.0185     8.1943
  638.5000    90.3365    10.2695     0.0190  1230.9841     2.4832   -66.5285  1065.3413     5.8140     6.9212     8.0239
  639.0000    89.2706    10.3134     0.0205  1231.9850     2.4831   -66.8374  1066.3501     5.7708     6.9690     7.9665
  639.5000    88.0541    10.3595     0.0175  1217.6154     2.4824   -66.8432  1067.3589     5.6935     7.0172     7.8550
  640.0000    87.5906    10.3859     0.0145  1218.5627     2.4756   -67.0006  1068.3677     5.6148     7.1148     7.7449
  640.5000    89.3831    10.4147     0.0130  1204.4163     2.4643   -66.8549  1069.2590     5.5371     7.4243     7.7424
  641.0000    91.6305    10.4134     0.0100  1205.2395     2.4567   -66.8608  1068.0192     5.3854     7.5203     7.9026
  641.5000    95.2332    10.4121     0.0100  1206.0630     2.4558   -66.8667  1066.9087     5.2378     7.0151     8.0661
  642.0000    98.7868    10.4262     0.0129  1191.9161     2.4634   -66.8727  1065.7981     5.0942     6.6817     8.0083
  642.5000   102.1365    10.4245     0.0159  1192.7462     2.4710   -66.8798  1064.6875     4.9204     6.1898     7.3687
  643.0000   104.5344    10.4081     0.0189  1178.5928     2.4779   -66.8857  1063.5770     4.8188     5.9368     6.4598
  643.5000   106.1793    10.3766     0.0204  1179.5776     2.4851   -66.8916  1062.4664     4.7852     6.3633     5.8622
  644.0000   102.1014    10.3599     0.0219  1180.2395     2.4911   -66.5929  1061.3560     4.8182     6.8243     6.4071
  644.5000   100.2299    10.3740     0.0248  1181.1122     2.4993   -66.4487  1060.2454     4.8514     7.2098     7.4628
  645.0000    98.6131    10.4029     0.0248  1181.9128     2.5068   -66.3030  1059.1349     4.9529     7.4640     7.9398
  645.5000    94.0833    10.4314     0.0248  1212.6538     2.5135   -66.0059  1058.0243     4.9871     7.6208     8.2169
  646.0000    91.0595    10.4807     0.0218  1228.4431     2.5014   -66.0132  1056.9138     5.1268     7.8349     8.3875
  646.5000    90.2948    10.5192     0.0158  1229.2664     2.4931   -66.0191  1055.8032     5.3491     8.0551     8.4434
  647.0000    93.4457    10.5179     0.0127  1230.2260     2.4901   -66.0250  1054.6927     5.6876     7.9433     8.4992
  647.5000    96.1897    10.5156     0.0096  1245.9967     2.4932   -66.0308  1053.5822     5.9287     8.2808     8.5578
  648.0000    97.0368    10.4697     0.0068  1246.7067     2.4975   -65.7336  1052.4717     6.1800     8.7001     8.7522
  648.5000    93.8595    10.4686     0.0053  1247.5980     2.4982   -65.7395  1051.3611     6.3975     9.1252     9.1628
  649.0000    92.0405    10.4522     0.0023  1248.3533     2.4862   -65.5848  1050.2506     6.6686     9.2523     9.4826
  649.5000    90.5228    10.4392     0.0008  1249.1766     2.4745   -65.4482  1049.1400     6.7579     8.8739     9.6794
  650.0000    89.3063    10.4041    -0.0022  1250.0000     2.4692   -65.4545  1047.9403     6.8534     8.5111     9.8116
  650.5000    88.6921    10.3969    -0.0023  1250.8234     2.4654   -65.4576  1046.5160     6.9488     8.7503     9.6070
  651.0000    88.5298    10.3562    -0.0023  1266.7716     2.4646   -65.1574  1044.9672     7.0469     8.8721     9.6044
  651.5000    89.1224    10.3398     0.0007  1252.4020     2.4654   -65.1611  1043.4185     7.0464     8.6904     9.6018
  652.0000    91.5120    10.3234     0.0038  1253.2694     2.4677   -65.1640  1041.8698     7.0459     8.6302     9.6658
  652.5000    96.3231    10.3067     0.0081  1239.1467     2.4743   -65.1670  1040.3209     7.0453     8.6302     9.6624
  653.0000    94.2029    10.3207     0.0111  1239.9674     2.4811   -65.3215  1038.7722     6.9962     8.4456     9.5951
  653.5000    91.4803    10.3342     0.0126  1225.6647     2.4863   -65.4759  1037.2234     6.9474     8.2780     9.5283
  654.0000    89.8120    10.3483     0.0141  1226.6467     2.4870   -65.4789  1035.6747     6.8990     8.3938     9.3966
  654.5000    88.4449    10.3675     0.0096  1227.4701     2.4810   -65.4818  1034.1260     6.8509     8.6302     9.2667
  655.0000    87.5295    10.3756     0.0085  1228.4003     2.4735   -65.5000  1032.5771     6.8031     8.8120     9.2659
  655.5000    86.7648    10.3893     0.0069  1219.0682     2.4727   -65.4877  1031.0284     6.7090     8.8734     9.2014
  656.0000    87.2128    10.3963     0.0038  1214.9700     2.4765   -65.4914  1029.4797     6.6622     8.8120     9.0742
  656.5000    88.6323    10.4034     0.0067  1213.4329     2.4779   -65.4939  1027.9309     6.5657     8.7510     9.0110
  657.0000    91.0942    10.4306     0.0096  1201.6466     2.4689   -65.4973  1026.3822     6.4791     8.6302     8.8864
  657.5000    92.1367    10.4443     0.0109  1207.7094     2.4636   -65.5000  1024.8334     6.3453     8.5112     8.7636
  658.0000    91.2214    10.4427     0.0093  1218.2634     2.4613   -65.6833  1023.2847     6.2576     8.2780     8.7630
  658.5000    89.4024    10.4178     0.0045  1219.1682     2.4605   -65.8091  1021.7359     6.0861     8.1638     8.6372
  659.0000    88.4871    10.3797     0.0016  1226.5818     2.4612   -66.0131  1020.1872     5.9604     7.9401     8.4543
  659.5000    90.5838    10.3633     0.0015  1235.7037     2.4650   -66.1182  1018.6384     5.8780     7.8305     8.4045
  660.0000    92.9817    10.3317     0.0029  1236.5270     2.4696   -66.1218  1018.7702     5.8776     7.8305     8.4625
  660.5000    91.7440    10.3151     0.0072  1237.4745     2.4800   -66.2763  1020.1981     5.9592     8.0511     8.5207
  661.0000    90.0240    10.3140     0.0131  1238.2751     2.4882   -66.2792  1021.6260     6.0003     8.2780     8.6989
  661.5000    88.8774    10.3125     0.0175  1254.0458     2.4980   -66.2822  1023.0540     6.1258     8.1638     8.8810
  662.0000    91.2753    10.2960     0.0174  1284.7866     2.4942   -66.1329  1024.4818     6.2976     7.8305     8.9495
  662.5000    92.0195    10.2949     0.0172  1285.5873     2.4927   -66.1366  1025.9098     6.4295     7.8305     8.6371
  663.0000    90.1977    10.2935     0.0156  1283.1074     2.4949   -66.1395  1027.3376     6.5187     7.9401     8.4590
  663.5000    88.3787    10.2921     0.0140  1272.0851     2.4965   -66.1424  1028.7656     6.6093     8.0511     8.6358
  664.0000    90.7766    10.2908     0.0139  1273.0859     2.4895   -65.8424  1030.1935     6.6549     8.2780     8.8778
