~VERSION INFORMATION
 VERS.                2.0:   CWLS LOG ASCII STANDARD - VERSION 2.0
 WRAP.                 NO:   ONE LINE PER DEPTH STEP
~WELL INFORMATION
#MNEM.UNIT      DATA TYPE    INFORMATION
#----------   ------------   ------------------------------
 STRT.F            0.0000:   START DEPTH
 STOP.F         4000.0000:   STOP DEPTH
 STEP.F            0.5000:   STEP LENGTH
 NULL.          -999.2500:   NO VALUE
 COMP. LAWRENCE &  ALLISON ASSOC.:   COMPANY
 WELL. LAWRENCE NPR 3 "TX" #14-28:   WELL
 FLD .              N P R:   FIELD
 LOC .      S28 T39N R78W:   LOCATION
 CNTY.            NATRONA:   COUNTY
 STAT.            WYOMING:   STATE
 CTRY. UNITED STATES OF AMERICA:   COUNTRY
 SRVC.      DRESSER ATLAS:   SERVICE COMPANY
 DATE.        11-APR-1984:   LOGDATE
 API .     49025109710000:   API NUMBER
~CURVE INFORMATION
#MNEM.UNIT       API CODE    CURVE DESCRIPTION
#----------   ------------   ------------------------------
 DEPT.F                  :   
 RHOB.G/C3   45 350 01 00:   BULK DENSITY
 CORR.G/C3   45 356 01 00:   DENSITY CORRECTION
 TEND.LBS    45 635 01 00:   TENSION FROM DENSITY LOG
 CNC .DEC    42 890 03 00:   NEUTRON PORISITY SANDSTONE
 DT  .US/F   60 520 00 00:   DELTA TIME
 TENS.LBS    60 635 01 00:   TENSION FROM SONIC LOG
 GRR .GAPI   07 310 01 00:   GAMMA RAY FROM RESISTIVITY
 SPR .MV     07 010 01 00:   SPONTANEOUS POTENTIAL
 CALR.IN     07 280 01 00:   CALIPER FROM RESISTIVITY
 TENR.LBS    07 635 01 00:   TENSION
 RILD.OHMM   07 120 46 00:   INDUCTION LOG DEEP RESISTIVITY
 RILM.OHMM   07 120 44 00:   INDUCTION LOG MEDIUM RESISTIVITY
 RFOC.OHMM   07 220 01 00:   RESISTIVITY FOCUSED LOG RES.
~PARAMETER INFORMATION
#MNEM.UNIT          VALUE    DESCRIPTION
#----------   ------------   ------------------------------
 EKB .F         5024.0000:   Kelly bushing
 EGL .F         5014.0000:   Ground level
 TD  .F         3996.0000:   Total depth
 DATE.        11-APR-1984:   Date logged
 CLNT.            A2DTECH:   Client Code
 SL  . 250' FWL & 2100' FNL:   Surface Location
 PD  .                 GL:   Permanent Datum
 EPD .F              5014:   Elevation Permanent Datum
 LMF .                 KB:   Log Measured From
 DMF .                 KB:   Drilling Measured From
 DD  .F              3996:   Depth driller
 DL  .F              3994:   Depth logger
 BLI .F              3992:   Bottom log interval
 CS1 .IN            8.625:   Casing size
 CBD1.      8.625" @ 404':   Casing driller 1
 CBL1.F               404:   Casing logger 1
 BS1 .IN            7.875:   Bit size
 DFT .            GEL/KCL:   Type fluid in hole
 DFD .                9.1:   Density
 DFV .                 38:   Viscosity
 DFPH.                  8:   pH
 DFL .                 14:   Fluid loss
 MSS .           FLOWLINE:   Source of sample
 RMS .OHMM           .417:   Rm
 MST .F                90:   Rm Meas. temp.
 RMF .OHMM           .313:   Rmf
 MFST.F                90:   Rmf Meas. temp.
 RMC .OHMM           .521:   Rmc
 MCST.F                90:   Rmc Meas. temp.
 MFSS.               CALC:   Source Rmf.
 RMB .OHMM            .25:   Rm. at BHT
 BHT .F               150:   BHT.
 TCS .HRS               3:   Time Circ. stopped
 MRT .F               150:   Maximum recorded temp.
 LUN .               6307:   Logging unit number
 LUL .               GLTE:   Logging unit location
 ENGI.           FAHLSING:   Recorded By
 WITN.             STRONG:   Witnessed by
 ORIG.           5" PRINT:   Origin of data
 UWI .     49025109710000:   Unique Well ID
 DICO. A2D TECHNOLOGIES, INC.:   Digitizing Company
 DAPD.F                10:   Feet Above Permanent Datum
 BSD1.F              3996:   Depth drilled with bit1
 MCSS.               CALC:   Source Rmc.
~OTHER INFORMATION
~A    DEPT    RHOB       CORR       TEND        CNC         DT       TENS         GRR       SPR       CALR       TENR       RILD       RILM       RFOC   
# ...
 2548.0000     2.4930     0.0210    41.9170     0.1810    79.1580    31.9550   100.0640   -43.4800     8.2510   -27.0680     9.9600     9.5720     9.2970
 2548.5000     2.4780     0.0070    42.0790     0.1810    79.3990    31.7440   101.7390   -43.4360     8.2540   -26.9900    10.0050     9.6450     9.5120
 2549.0000     2.4670    -0.0100    42.0790     0.1820    79.6530    31.5330   102.2270   -43.4390     8.2520   -26.9120     9.9630     9.6450     9.8230
 2549.5000     2.4650    -0.0260    42.0790     0.1860    79.6530    31.3220    99.5410   -44.1010     8.2510   -26.8340     9.9160     9.6450    10.1340
 2550.0000     2.4700    -0.0240    42.0790     0.1930    79.2080    31.1110    95.6690   -44.7490     8.2490   -26.7570     9.8690     9.6140    10.4750
 2550.5000     2.4760    -0.0140    42.0790     0.1990    78.9600    30.9000    95.4080   -45.3920     8.2480   -26.6790     9.8220     9.5110    10.4750
 2551.0000     2.4750    -0.0160    42.0790     0.1960    78.9240    30.6890    95.9000   -46.0500     8.2460   -26.6010     9.7750     9.4090    10.4750
 2551.5000     2.4740    -0.0160    42.0790     0.1910    78.8610    30.4780    97.6500   -46.6490     8.2440   -26.5230     9.7340     9.2970    10.2610
 2552.0000     2.4830    -0.0080    42.0790     0.1890    79.1720    30.2670    99.6420   -47.2720     8.2430   -26.4450     9.7340     9.3120    10.0260
 2552.5000     2.4940     0.0020    42.0790     0.1910    79.5540    30.0560   100.3070   -47.9020     8.2410   -26.3670     9.7340     9.3280     9.7910
 2553.0000     2.5040     0.0170    42.0790     0.1950    79.5540    29.8450    98.1470   -47.8520     8.2400   -26.2900     9.7340     9.3440     9.5560
 2553.5000     2.5090     0.0320    42.0790     0.1990    79.4550    29.6340    95.9380   -47.7540     8.2380   -26.2120     9.7340     9.3600     9.3210
 2554.0000     2.5090     0.0470    42.0790     0.1990    79.2570    29.4230    95.4870   -47.6580     8.2370   -26.1340     9.7340     9.3830     9.0860
 2554.5000     2.5080     0.0570    42.0790     0.1910    78.9600    29.2120    95.7680   -47.5610     8.2350   -26.0560     9.7350     9.3280     8.8510
 2555.0000     2.5090     0.0570    42.0790     0.1870    79.0590    29.0010    96.3290   -47.5130     8.2340   -25.9780     9.7450     9.2280     8.6170
 2555.5000     2.5150     0.0440    42.0790     0.1860    79.3560    28.7900    98.5880   -47.4630     8.2340   -25.9000     9.7540     9.1280     8.5610
 2556.0000     2.5160     0.0130    42.0790     0.1910    79.8980    28.5800   101.0580   -47.4140     8.2340   -25.8230     9.7630     9.0450     8.5610
 2556.5000     2.5130    -0.0100    42.0790     0.1980    80.2480    28.3690   103.3010   -47.3630     8.2340   -25.7450     9.7730     9.1140     8.5610
 2557.0000     2.5100    -0.0120    42.0790     0.1990    80.2480    28.1580   102.5200   -47.5490     8.2340   -25.6670     9.7820     9.1730     8.6090
 2557.5000     2.5070    -0.0020    42.0790     0.1920    80.2480    27.9470   100.8200   -47.9180     8.2340   -25.5890     9.7920     9.2330     8.6910
 2558.0000     2.5040     0.0070    42.0790     0.1820    80.0690    27.7360    99.0080   -48.2890     8.2340   -25.5110     9.8010     9.2920     8.7740
 2558.5000     2.5020     0.0160    42.0790     0.1850    79.9260    27.5250    97.8140   -48.6600     8.2340   -25.4650     9.8100     9.3510     8.8570
 2559.0000     2.5080     0.0240    42.0790     0.1930    79.8510    27.3140    97.8350   -49.0400     8.2340   -25.5430     9.8230     9.4100     8.9400
 2559.5000     2.5090     0.0240    42.0790     0.2010    79.8510    27.1030    98.1090   -49.1140     8.2340   -25.6210     9.8170     9.4690     9.0220
 2560.0000     2.5060     0.0210    42.0790     0.2040    79.8510    26.8920    99.8410   -49.1150     8.2340   -25.7000     9.8060     9.5280     9.1050
 2560.5000     2.5020     0.0190    42.0790     0.2000    79.8510    26.6810   101.5650   -49.1140     8.2340   -25.7780     9.7950     9.5880     9.1880
 2561.0000     2.4990     0.0130    42.0790     0.2010    79.8510    26.4700   103.4740   -49.1140     8.2340   -25.8560     9.7840     9.6450     9.2710
 2561.5000     2.4920     0.0060    42.0790     0.2000    79.8510    26.2590   105.9770   -49.1140     8.2340   -25.9340     9.7730     9.4380     9.3530
 2562.0000     2.4880     0.0100    42.0790     0.1940    79.7350    26.0480   106.1760   -49.1140     8.2340   -26.0130     9.7620     9.3880     9.4070
 2562.5000     2.4920     0.0200    42.0790     0.1890    79.5760    25.8370    99.9870   -49.1140     8.2340   -26.0910     9.7510     9.3390     9.4450
 2563.0000     2.5040     0.0310    42.0790     0.1830    79.4170    25.6260    95.0000   -49.1140     8.2340   -26.1690     9.7400     9.2890     9.4830
 2563.5000     2.5150     0.0400    42.0790     0.1800    79.2580    25.4150    94.2650   -49.1170     8.2340   -26.2470     9.6790     9.2390     9.5210
 2564.0000     2.5150     0.0420    42.0790     0.1810    79.1580    25.2040    97.1390   -48.9110     8.2340   -26.3260     9.5600     9.1320     9.5570
 2564.5000     2.5160     0.0240    42.0790     0.1870    79.1580    24.9930   100.2280   -48.5840     8.2340   -26.4040     9.4410     8.9580     9.5570
 2565.0000     2.5170    -0.0030    42.0790     0.1930    79.3630    24.7820   101.5820   -48.2550     8.2340   -26.4820     9.3210     8.7840     9.5570
 2565.5000     2.5180    -0.0270    42.0790     0.1950    79.7060    24.5720   102.1460   -47.9250     8.2340   -26.5600     9.2020     8.6110     9.2380
 2566.0000     2.5190    -0.0170    42.0790     0.1940    80.0500    24.3610   102.6830   -47.5960     8.2340   -26.6390     9.0830     8.4370     8.9430
 2566.5000     2.5190     0.0390    42.0790     0.1950    80.3470    24.1500   103.2180   -47.2660     8.2340   -26.7170     8.9640     8.2630     8.6480
 2567.0000     2.5200     0.0480    42.0790     0.1980    80.4320    23.9390   103.7600   -46.9370     8.2340   -26.7950     8.8710     8.0500     8.3530
 2567.5000     2.5210     0.0400    42.0790     0.2000    80.5160    23.7280   104.5530   -46.6080     8.2340   -26.8740     8.8400     7.7970     8.0590
 2568.0000     2.5250     0.0260    42.0790     0.2000    80.5990    23.5170   105.3340   -46.2760     8.2340   -26.9520     8.8080     7.5440     7.7390
 2568.5000     2.5290     0.0120    42.0790     0.2010    80.6440    23.3060   106.1990   -46.0980     8.2340   -27.0300     8.4910     7.2920     7.4030
 2569.0000     2.5340     0.0080    42.0790     0.2050    80.7960    23.0950   108.8880   -45.9990     8.2340   -27.1080     8.0620     7.0390     7.0360
 2569.5000     2.5350     0.0160    42.0790     0.2130    81.0400    22.8840   111.5840   -45.9000     8.2340   -27.1870     7.6330     6.7860     6.6690
 2570.0000     2.5340     0.0410    42.0790     0.2230    82.5480    22.6730   114.2560   -45.8010     8.2340   -27.2650     7.2040     6.5330     6.3020
 2570.5000     2.5250     0.0310    42.0790     0.2330    83.9320    22.4620   116.7840   -45.7020     8.2330   -27.3430     6.7740     6.2800     5.9360
 2571.0000     2.5170     0.0160    42.0790     0.2400    85.0720    22.2510   116.2620   -45.6040     8.2320   -27.4210     6.3250     6.0270     5.7700
 2571.5000     2.5100     0.0020    42.0790     0.2390    85.9810    22.0400   116.8380   -45.5050     8.2310   -27.5000     6.2670     5.7750     5.7170
 2572.0000     2.5050    -0.0030    42.0790     0.2300    86.5840    21.8290   119.0560   -45.4060     8.2290   -27.5780     6.1900     5.5220     5.7700
 2572.5000     2.5040    -0.0130    42.0790     0.2230    86.6980    21.6180   123.1130   -45.3070     8.2280   -27.6560     6.1090     5.3620     5.9310
 2573.0000     2.5050    -0.0230    42.0790     0.2250    86.7820    21.4070   124.7410   -45.2060     8.2270   -27.7340     6.0290     5.4110     6.0890
 2573.5000     2.5010    -0.0310    42.0790     0.2290    86.6830    21.1960   121.7090   -45.2140     8.2260   -27.8130     5.9490     5.4300     6.2930
