~VERSION INFORMATION
 VERS.                2.0:   CWLS LOG ASCII STANDARD - VERSION 2.0
 WRAP.                 NO:   ONE LINE PER DEPTH STEP
~WELL INFORMATION
#MNEM.UNIT      DATA TYPE    INFORMATION
#----------   ------------   ------------------------------
 STRT.F          200.0000:   START DEPTH
 STOP.F         3058.0000:   STOP DEPTH
 STEP.F            0.5000:   STEP LENGTH
 NULL.          -999.2500:   NO VALUE
 COMP.    FENIX & SCISSON:   COMPANY
 WELL. FENIX & SCISSON "A" #45-34:   WELL
 FLD .              N P R:   FIELD
 LOC .      S34 T39N R78W:   LOCATION
 CNTY.            NATRONA:   COUNTY
 STAT.            WYOMING:   STATE
 CTRY. UNITED STATES OF AMERICA:   COUNTRY
 SRVC.              WELEX:   SERVICE COMPANY
 DATE.        11-MAY-1977:   LOGDATE
 API .     49025103760000:   API NUMBER
~CURVE INFORMATION
#MNEM.UNIT       API CODE    CURVE DESCRIPTION
#----------   ------------   ------------------------------
 DEPT.F                  :   
 GRD .GAPI   45 310 01 00:   GAMMA RAY FROM DENSITY LOG
 CALD.IN     45 280 60 00:   CALIPER FROM DENSITY LOG
 RHOB.G/C3   45 350 01 00:   BULK DENSITY
 CORR.G/C3   45 356 01 00:   DENSITY CORRECTION
 SPR .MV     07 010 01 00:   SPONTANEOUS POTENTIAL
 ILD .OHMM   07 120 46 00:   DEEP INDUCTION RESISTIVITY
 ILM .OHMM   07 120 44 00:   INDUCTION LOG MEDIUM RESISTIVITY
 GURD.OHMM   07 220 05 00:   GUARD LOG RESISTIVITY
~PARAMETER INFORMATION
#MNEM.UNIT          VALUE    DESCRIPTION
#----------   ------------   ------------------------------
 EKB .F         5123.0000:   Kelly bushing
 EGL .F         5113.0000:   Ground level
 EDF .F            0.0000:   Drilling floor
 EPD .F            0.0000:   Permanent datum
 TD  .F         3060.0000:   Total depth
 DATE.        11-MAY-1977:   Date logged
 CLNT.            A2DTECH:   Client Code
 SL  . 2310' FSL & 2310' FWL:   Surface Location
 PD  .                 GL:   Permanent Datum
 DD  .F              3060:   Depth driller
 DL  .F              3060:   Depth logger
 BLI .F              3058:   Bottom log interval
 CS1 .IN            8.625:   Casing size
 CBD1.      8.625" @ 205':   Casing driller 1
 CBL1.F               214:   Casing logger 1
 BS1 .IN            7.875:   Bit size
 DFT .            KCL/MUD:   Type fluid in hole
 DFD .                8.8:   Density
 DFV .                 45:   Viscosity
 MSS .           FLOWLINE:   Source of sample
 RMS .OHMM            3.2:   Rm
 MST .F                85:   Rm Meas. temp.
 RMF .OHMM            2.7:   Rmf
 MFST.F                85:   Rmf Meas. temp.
 RMC .OHMM            3.6:   Rmc
 MCST.F                85:   Rmc Meas. temp.
 MFSS.               CALC:   Source Rmf.
 RMB .OHMM           2.44:   Rm. at BHT
 BHT .F               112:   BHT.
 TCS .HRS             2.5:   Time Circ. stopped
 MRT .F               112:   Maximum recorded temp.
 LUN .               8611:   Logging unit number
 LUL .           GILLETTE:   Logging unit location
 ENGI.            C. DOAK:   Recorded By
 WITN.      B. HARRINGTON:   Witnessed by
 ORIG.           5" PRINT:   Origin of data
 UWI .     49025103760000:   Unique Well ID
 DICO. A2D TECHNOLOGIES, INC.:   Digitizing Company
 DAPD.F                10:   Feet Above Permanent Datum
 BSD1.F              3060:   Depth drilled with bit1
 MCSS.               CALC:   Source Rmc.
 TLI .F               200:   Top log interval
~OTHER INFORMATION
~A   DEPT       GRD      CALD         RHOB      CORR       SPR        ILD        ILM       GURD   
# ...
 2468.0000   124.1850    10.1020     2.4860     0.0000   -35.4900     6.5140     7.1560     9.6890
 2468.5000   123.9070    10.1110     2.4860     0.0050   -35.4900     6.3860     7.0720     9.4600
 2469.0000   123.6320    10.1300     2.4930     0.0080   -35.4900     6.2580     7.0000     9.2310
 2469.5000   123.3410    10.1520     2.5000     0.0120   -35.4900     6.1310     6.9530     9.0020
 2470.0000   123.0820    10.1700     2.5070     0.0160   -35.4900     6.0030     6.9060     8.7450
 2470.5000   122.7800    10.1900     2.5110     0.0190   -35.4900     5.8750     6.8600     8.6830
 2471.0000   123.0950    10.2110     2.5080     0.0190   -35.4900     5.7290     6.8130     8.5520
 2471.5000   123.5080    10.2290     2.5050     0.0190   -35.4900     5.7940     6.7660     8.4290
 2472.0000   123.9360    10.2460     2.5060     0.0200   -35.4900     5.8690     6.7200     8.4970
 2472.5000   124.3480    10.2130     2.5120     0.0200   -35.4900     5.9440     6.6730     8.5620
 2473.0000   124.7690    10.1790     2.5120     0.0210   -35.4900     6.0190     6.6370     8.7390
 2473.5000   125.1880    10.1430     2.5110     0.0220   -35.4900     6.0940     6.6860     8.9800
 2474.0000   125.6040    10.1100     2.5090     0.0220   -35.4900     6.1690     6.7440     9.2210
 2474.5000   126.0250    10.0740     2.5160     0.0230   -35.4900     6.2440     6.8020     9.4620
 2475.0000   126.4440    10.0390     2.5190     0.0220   -35.4900     6.3200     6.8610     9.7030
 2475.5000   126.8530    10.0130     2.5070     0.0150   -35.4900     6.3950     6.9190     9.9460
 2476.0000   127.2970    10.0240     2.4970     0.0080   -35.4900     6.4700     6.9770     9.5270
 2476.5000   127.3770    10.0330     2.4860     0.0070   -35.4900     6.5450     7.0140     9.1060
 2477.0000   127.1860    10.0440     2.4850     0.0070   -35.4900     6.6370     7.0140     8.5960
 2477.5000   127.0300    10.0530     2.4900     0.0080   -35.4900     6.6050     7.0140     8.6160
 2478.0000   126.8650    10.0630     2.4940     0.0080   -35.4900     6.5150     7.0140     8.6550
 2478.5000   126.7000    10.0730     2.4980     0.0090   -35.4900     6.4250     7.0140     8.6950
 2479.0000   126.3720    10.0830     2.5010     0.0090   -35.4900     6.3350     7.0130     8.7340
 2479.5000   125.9680    10.0910     2.5020     0.0100   -35.4900     6.2460     7.0130     8.6840
 2480.0000   125.5980    10.0890     2.4910     0.0100   -35.4900     6.1670     7.0130     8.6010
 2480.5000   125.2060    10.0860     2.4750     0.0110   -35.4900     6.2310     6.9420     8.5180
 2481.0000   125.7430    10.0830     2.4660     0.0110   -35.4900     6.2880     6.8790     8.4340
 2481.5000   126.6410    10.0800     2.4750     0.0110   -35.4900     6.3450     6.8160     8.3510
 2482.0000   127.5250    10.0770     2.4840     0.0120   -35.4900     6.3980     6.7590     8.2760
 2482.5000   128.3940    10.0740     2.4870     0.0130   -35.4900     6.2040     6.6140     8.1670
 2483.0000   129.2760    10.0710     2.4840     0.0150   -35.4900     6.0270     6.4810     8.0660
 2483.5000   130.1640    10.0680     2.4810     0.0130   -35.4900     5.8490     6.3470     7.9660
 2484.0000   131.0130    10.0660     2.4780     0.0080   -35.4900     5.6710     6.2130     7.8660
 2484.5000   131.9090    10.0630     2.4760     0.0040   -35.4900     5.4940     6.1220     7.7660
 2485.0000   131.4850    10.0600     2.4700     0.0000   -35.4900     5.3230     6.0530     7.6660
 2485.5000   130.4650    10.0570     2.4570    -0.0050   -35.4900     5.3430     5.9440     7.5490
 2486.0000   129.5100    10.0540     2.4390    -0.0090   -35.4900     5.3740     5.9550     7.6880
 2486.5000   128.5010    10.0490     2.4430    -0.0120   -35.4900     5.4060     5.9820     7.8560
 2487.0000   127.5530    10.0210     2.4570    -0.0060   -35.4900     5.4370     6.0080     8.0240
 2487.5000   126.8130     9.9950     2.4700    -0.0010   -35.4900     5.4680     6.0340     8.1920
 2488.0000   128.1090     9.9680     2.4800     0.0050   -35.4900     5.4990     6.0600     8.3600
 2488.5000   129.3950     9.9410     2.4820     0.0110   -35.4900     5.5300     6.0870     8.4290
 2489.0000   129.8360     9.9320     2.4810     0.0150   -35.4900     5.5610     6.1130     8.3200
 2489.5000   129.6810     9.9330     2.4720     0.0110   -35.4900     5.5930     6.1390     8.2280
 2490.0000   128.1250     9.9330     2.4630     0.0070   -35.4900     5.6250     6.1670     8.1370
 2490.5000   126.6810     9.9330     2.4530     0.0020   -35.4900     5.6140     6.1480     8.0450
 2491.0000   125.0420     9.9320     2.4540    -0.0030   -35.4900     5.6010     6.1280     7.9530
 2491.5000   124.1640     9.9380     2.4670    -0.0050   -35.4900     5.5890     6.1080     7.8610
 2492.0000   124.0490     9.9500     2.4800    -0.0020   -35.4900     5.5770     6.0880     7.7700
 2492.5000   123.8280     9.9610     2.4940     0.0010   -35.4900     5.5650     6.0540     7.6890
 2493.0000   123.6270     9.9720     2.5000     0.0040   -35.4900     5.5530     6.0840     7.4660
 2493.5000   123.5560     9.9840     2.5070     0.0070   -35.4900     5.5410     6.1800     7.2660
 2494.0000   124.0130     9.9950     2.5120     0.0100   -35.4900     5.5230     6.2750     7.0670
 2494.5000   124.4370    10.0060     2.5140     0.0130   -35.4900     5.5950     6.3710     6.8860
 2495.0000   124.9310    10.0180     2.5140     0.0160   -35.4900     5.7430     6.4660     7.3750
 2495.5000   125.3190    10.0290     2.5120     0.0190   -35.4900     5.8910     6.6120     7.8240
 2496.0000   125.7930    10.0400     2.5070     0.0170   -35.4900     6.0390     6.8130     8.2730
 2496.5000   124.0870    10.0520     2.5030     0.0130   -35.4900     6.1870     7.0150     8.7230
 2497.0000   121.9230    10.0670     2.4980     0.0090   -35.4900     6.3350     7.2160     9.2410
 2497.5000   119.7330    10.0810     2.4930     0.0060   -35.4900     6.4830     7.4170     9.5080
 2498.0000   117.7530    10.0960     2.4890     0.0030   -35.4900     6.6310     7.6180     9.8230
 2498.5000   117.7270    10.1110     2.4840     0.0040   -35.4900     6.7790     7.8190    10.1300
 2499.0000   119.1140    10.1260     2.4850     0.0040   -35.4900     6.9270     7.9690    10.0970
 2499.5000   120.4040    10.1410     2.4900     0.0050   -35.4900     7.0280     7.9330    10.0640
 2500.0000   121.6920    10.1550     2.4900     0.0050   -35.4900     7.0630     7.8970    10.0320
 2500.5000   122.9870    10.1700     2.4850     0.0060   -35.4900     7.0970     7.8610     9.9990
 2501.0000   124.3920    10.1650     2.4810     0.0060   -35.4900     7.1320     7.8260     9.9670
 2501.5000   125.0380    10.1570     2.4760     0.0070   -35.4900     7.1670     7.7900     9.9340
 2502.0000   124.5920    10.1490     2.4760     0.0060   -35.4900     7.2020     7.7540     9.9020
 2502.5000   124.2790    10.1410     2.4760     0.0050   -35.4900     7.2360     7.7180     9.8690
 2503.0000   123.9320    10.1320     2.4760     0.0040   -35.4900     7.2760     7.6820     9.8370
 2503.5000   123.5800    10.1300     2.4760     0.0030   -35.4900     7.2320     7.6460     9.8040
 2504.0000   123.2530    10.1340     2.4770     0.0050   -35.4900     7.1810     7.6110     9.7720
 2504.5000   122.8670    10.1410     2.4830     0.0080   -35.4900     7.1290     7.5750     9.7390
 2505.0000   122.9320    10.1470     2.4890     0.0120   -35.4900     7.0770     7.5390     9.7070
 2505.5000   123.3630    10.1540     2.4940     0.0150   -35.4900     7.0250     7.5050     9.6740
 2506.0000   123.7480    10.1600     2.5000     0.0180   -35.4900     6.9740     7.4710     9.6410
 2506.5000   124.1300    10.1670     2.5050     0.0210   -35.4900     6.9220     7.4370     9.6070
 2507.0000   124.5320    10.1740     2.4990     0.0260   -35.4900     6.8700     7.4030     9.5890
 2507.5000   124.9180    10.1800     2.4890     0.0200   -35.4900     6.8180     7.3690     9.6040
 2508.0000   125.2900    10.1870     2.4800     0.0180   -35.4900     6.7670     7.3350     9.6170
