~VERSION INFORMATION
 VERS.                2.0:   CWLS LOG ASCII STANDARD - VERSION 2.0
 WRAP.                 NO:   ONE LINE PER DEPTH STEP
~WELL INFORMATION
#MNEM.UNIT      DATA TYPE    INFORMATION
#----------   ------------   ------------------------------
 STRT.F           36.0000:   START DEPTH
 STOP.F         4960.0000:   STOP DEPTH
 STEP.F            0.5000:   STEP LENGTH
 NULL.          -999.2500:   NO VALUE
 COMP.   TESORO PETROLEUM:   COMPANY
 WELL. TESORO NPR 3 "DX" #55-23:   WELL
 FLD .        TEAPOT DOME:   FIELD
 LOC .      S23 T38N R78W:   LOCATION
 CNTY.            NATRONA:   COUNTY
 STAT.            WYOMING:   STATE
 CTRY. UNITED STATES OF AMERICA:   COUNTRY
 SRVC.           BIRDWELL:   SERVICE COMPANY
 DATE.        17-AUG-1975:   LOGDATE
 API .     49025102510000:   API NUMBER
~CURVE INFORMATION
#MNEM.UNIT       API CODE    CURVE DESCRIPTION
#----------   ------------   ------------------------------
 DEPT.F                  :   
 TEND.LBS    45 635 01 00:   TENSION FROM DENSITY LOG
 CALD.IN     45 280 60 00:   CALIPER FROM DENSITY LOG
 CORR.G/C3   45 356 01 00:   DENSITY CORRECTION
 GRD .GAPI   45 310 01 00:   GAMMA RAY FROM DENSITY LOG
 RHOB.G/C3   45 350 01 00:   BULK DENSITY
 SPR .MV     07 010 01 00:   SPONTANEOUS POTENTIAL
 ILM .OHMM   07 120 44 00:   INDUCTION LOG MEDIUM RESISTIVITY
 ILD .OHMM   07 120 46 00:   DEEP INDUCTION RESISTIVITY
 SFL .OHMM   07 220 01 00:   SHALLOW FOCUSED LOG RESISTIVITY
~PARAMETER INFORMATION
#MNEM.UNIT          VALUE    DESCRIPTION
#----------   ------------   ------------------------------
 EKB .F         5371.0000:   Kelly bushing
 EGL .F         5360.0000:   Ground level
 EDF .F            0.0000:   Drilling floor
 TD  .F         4955.0000:   Total depth
 DATE.        17-AUG-1975:   Date logged
 CLNT.            A2DTECH:   Client Code
 SL  . 1980' FSL & 2030' FEL:   Surface Location
 PD  .                 GL:   Permanent Datum
 DD  .F              4955:   Depth driller
 DL  .F              4945:   Depth logger
 BLI .F              4943:   Bottom log interval
 CS1 .IN            8.625:   Casing size
 CBD1.     8.625" @ 1450':   Casing driller 1
 CBL1.F              1457:   Casing logger 1
 BS1 .IN            7.875:   Bit size
 DFT .            KCL/GEL:   Type fluid in hole
 DFD .                9.5:   Density
 DFV .                 53:   Viscosity
 DFPH.                8.5:   pH
 DFL .                7.4:   Fluid loss
 MSS .           FLOWLINE:   Source of sample
 RMS .OHMM            1.2:   Rm
 MST .F                72:   Rm Meas. temp.
 RMF .OHMM            .94:   Rmf
 MFST.F                74:   Rmf Meas. temp.
 MFSS.               MEAS:   Source Rmf.
 RMB .OHMM            .71:   Rm. at BHT
 BHT .F               121:   BHT.
 TCS .HRS               4:   Time Circ. stopped
 MRT .F               121:   Maximum recorded temp.
 LUN .               6078:   Logging unit number
 LUL .              GLTTE:   Logging unit location
 ENGI.      NORDEN/SUTTON:   Recorded By
 WITN.          UNDERWOOD:   Witnessed by
 ORIG.           5" PRINT:   Origin of data
 UWI .     49025102510000:   Unique Well ID
 DICO. A2D TECHNOLOGIES, INC.:   Digitizing Company
 DAPD.F                11:   Feet Above Permanent Datum
 BSD1.F              5360:   Depth drilled with bit1
 EPD .F              5360:   Elevation Permanent Datum
 LMF .                 KB:   Log Measured From
 DMF .                 KB:   Drilling Measured From
 TLI .F              1457:   Top log interval
~OTHER INFORMATION
~A   DEPT     TEND       CALD       CORR        GRD       RHOB        SPR        ILM        ILD          SFL 
# ...
 3467.0000  3079.8821     8.6060     0.0480    48.0750     2.3690   -37.8010     6.6120     6.7820     7.0710
 3467.5000  3110.0000     8.6070     0.0380    47.3040     2.3810   -37.7540     6.5030     6.6300     7.3400
 3468.0000  3144.3999     8.6090     0.0290    46.2160     2.4070   -37.7070     6.3900     6.7110     7.4670
 3468.5000  3130.8000     8.6100     0.0190    45.4840     2.5800   -37.6600     6.4940     6.8190     7.4040
 3469.0000  3117.2000     8.6110     0.0100    47.2930     2.5780   -37.6140     6.6280     6.9270     7.2690
 3469.5000  3123.0911     8.6130     0.0070    49.3670     2.5810   -37.5650     6.7620     7.0350     7.2020
 3470.0000  3150.9089     8.6140     0.0130    51.4670     2.5850   -37.6300     6.8960     7.1360    12.9780
 3470.5000  3166.0000     8.6150     0.0180    52.1500     2.5890   -37.7510     7.0300     7.2410    11.8380
 3471.0000  3153.2500     8.6080     0.0190    51.2300     2.5860   -37.8730     7.1640     7.3400     9.4250
 3471.5000  3140.5000     8.6010     0.0170    50.4790     2.5780   -37.9960     7.2620     7.4380     7.8240
 3472.0000  3132.0000     8.5930     0.0140    49.6090     2.5730   -38.1220     7.3460     7.5410     8.0590
 3472.5000  3143.3330     8.5860     0.0120    49.5850     2.5680   -38.1020     7.4300     7.7870     8.3760
 3473.0000  3154.6670     8.5780     0.0100    50.2320     2.5640   -38.0450     7.5130     8.1930     8.6940
 3473.5000  3166.0000     8.5700     0.0080    50.4900     2.5690   -37.9870     7.5970     8.1530     9.0650
 3474.0000  3145.2500     8.5630     0.0060    50.1040     2.5770   -37.9280     7.6340     8.0580     8.9820
 3474.5000  3110.0000     8.5550     0.0040    49.6570     2.5850   -37.8700     7.6810     7.9690     8.5930
 3475.0000  3133.5710     8.5480     0.0030    49.8650     2.5830   -37.8100     7.6010     7.8770     8.2230
 3475.5000  3155.4290     8.5400     0.0010    50.1620     2.5810   -37.7540     7.4820     7.7720     7.9690
 3476.0000  3166.0000     8.5360     0.0000    50.4710     2.5800   -37.9280     7.4040     7.6930     8.2870
 3476.5000  3154.0000     8.5410     0.0000    49.8730     2.5790   -38.1230     7.6280     8.2680     8.8180
 3477.0000  3142.0000     8.5450    -0.0010    48.5520     2.5780   -38.3180     7.8240     8.2680     8.7380
 3477.5000  3130.0000     8.5500    -0.0010    47.2220     2.5820   -38.5140     7.7720     8.2290     8.8180
 3478.0000  3155.5000     8.5540    -0.0010    47.4180     2.5840   -38.5280     7.7040     8.1320     8.6030
 3478.5000  3163.9309     8.5580    -0.0010    47.9170     2.5830   -38.5070     7.6260     8.0120     8.4510
 3479.0000  3149.8621     8.5630     0.0000    48.2440     2.5810   -38.4860     7.5490     7.8500     8.2980
 3479.5000  3135.7930     8.5670     0.0000    48.3440     2.5790   -38.4650     7.4710     7.6110     8.1930
 3480.0000  3121.7241     8.5710     0.0000    48.4460     2.5770   -38.4430     7.4130     7.7740     8.2430
 3480.5000  3107.6550     8.5750     0.0010    48.5480     2.5790   -38.4220     7.6650     8.0830     8.3260
 3481.0000  3093.5859     8.5750     0.0010    48.5950     2.5810   -38.4010     7.8940     8.3920     8.6840
 3481.5000  3105.2000     8.5750     0.0010    48.6190     2.5820   -38.3790     8.1230     8.8140     9.0430
 3482.0000  3125.6001     8.5750     0.0020    49.4370     2.5800   -38.3580     8.3450     8.7970     9.3190
 3482.5000  3123.3330     8.5750     0.0020    50.3050     2.5790   -38.2700     8.3610     8.7620     9.2490
 3483.0000  3114.8330     8.5750     0.0020    51.0260     2.5780   -38.1000     8.3810     8.7380     9.1930
 3483.5000  3118.8000     8.5750     0.0040    51.0150     2.5780   -37.9670     8.4010     8.6970     9.1360
 3484.0000  3139.2000     8.5750     0.0060    50.7610     2.5820   -38.1160     8.4220     8.6600     9.0800
 3484.5000  3146.0000     8.5750     0.0080    50.4700     2.5870   -38.2710     8.2850     8.6230     8.9500
 3485.0000  3137.5000     8.5750     0.0100    50.7070     2.5930   -38.4220     8.1390     8.5860     8.7940
 3485.5000  3135.1431     8.5750     0.0120    51.1400     2.5980   -38.5280     7.9930     8.4600     8.6380
 3486.0000  3178.8569     8.5750     0.0140    51.5750     2.6000   -38.4050     7.8460     8.3090     8.5560
 3486.5000  3176.1819     8.5750     0.0160    52.0230     2.6010   -38.2870     7.7000     8.1580     8.5190
 3487.0000  3157.6360     8.5750     0.0170    51.6270     2.6020   -38.1690     7.5540     8.0070     8.3990
 3487.5000  3167.1431     8.5780     0.0180    50.6100     2.6020   -38.0520     7.4080     7.8560     8.1810
 3488.0000  3190.0000     8.5840     0.0180    50.0690     2.6010   -37.9720     7.3190     7.6760     8.0880
 3488.5000  3138.0000     8.5900     0.0160    49.5430     2.6010   -38.1550     7.2860     7.6310     8.0430
 3489.0000  3147.2000     8.5960     0.0130    49.0150     2.5980   -38.3410     7.2520     7.5870     8.1160
 3489.5000  3167.6001     8.6020     0.0110    48.4860     2.5870   -38.5270     7.2190     7.5420     8.1930
 3490.0000  3190.0000     8.6090     0.0080    47.9560     2.5770   -38.7160     7.1850     7.4970     8.1160
 3490.5000  3159.3330     8.6150     0.0070    47.4620     2.5690   -38.5300     7.1520     7.4530     8.0390
 3491.0000  3131.2729     8.5960     0.0080    47.0050     2.5690   -38.1920     7.1180     7.4080     7.9620
 3491.5000  3140.5449     8.5760     0.0100    46.5560     2.5700   -37.8420     7.0850     7.3640     7.8850
 3492.0000  3150.0000     8.5560     0.0110    46.1080     2.5710   -37.8340     7.0510     7.3190     7.8080
 3492.5000  3138.2351     8.5650     0.0130    45.6600     2.5720   -37.9910     7.0180     7.2740     7.6930
 3493.0000  3126.2351     8.5750     0.0140    45.6210     2.5710   -38.1520     6.9840     7.2300     7.7340
 3493.5000  3114.2351     8.5860     0.0160    46.2190     2.5700   -38.3150     6.9510     7.1850     7.8810
 3494.0000  3143.0000     8.5960     0.0170    46.3850     2.5660   -38.3460     6.9170     7.1400     7.9690
 3494.5000  3170.0000     8.6060     0.0190    46.3890     2.5620   -38.3470     6.8840     7.0960     7.2690
 3495.0000  3170.0000     8.6160     0.0200    46.3840     2.5580   -38.3470     6.7200     7.0370     7.3000
 3495.5000  3170.0000     8.6260     0.0220    46.2650     2.5540   -38.3470     6.5320     6.9050     7.4040
 3496.0000  3188.4441     8.6360     0.0230    45.6040     2.5460   -38.3470     6.3440     6.7720     7.3130
 3496.5000  3177.1111     8.6330     0.0240    44.2460     2.5380   -38.3470     6.2130     6.6400     7.1310
 3497.0000  3178.4441     8.6300     0.0250    42.9270     2.5340   -38.3470     6.2030     6.5070     6.9490
 3497.5000  3201.1111     8.6280     0.0260    41.6140     2.5310   -38.3460     6.1930     6.3900     6.6910
 3498.0000  3194.5000     8.6250     0.0260    40.1930     2.5170   -38.3340     6.1830     6.4070     6.8550
 3498.5000  3169.0000     8.6230     0.0250    38.2120     2.4880   -38.7420     6.1730     6.4240     7.0710
 3499.0000  3155.2000     8.6200     0.0240    35.9420     2.4750   -39.2230     6.1590     6.4400     6.9260
 3499.5000  3174.0181     8.6180     0.0220    33.6500     2.4650   -39.7100     6.3960     6.6230     6.8780
 3500.0000  3188.6550     8.6150     0.0210    30.8520     2.4550   -40.2000     6.9050     6.9950     7.2210
 3500.5000  3203.2920     8.5980     0.0200    29.2470     2.4510   -40.8020     7.4150     7.3680     7.5280
 3501.0000  3217.9299     8.5800     0.0190    28.8450     2.4500   -41.4580     7.9240     7.9630     8.4100
 3501.5000  3232.5669     8.5610     0.0170    29.0050     2.4530   -42.1140     8.4330     8.7500     9.5030
 3502.0000  3247.2041     8.5420     0.0190    29.3170     2.4570   -42.7700     8.9420     9.5370    10.6000
 3502.5000  3262.7690     8.5240     0.0250    28.9270     2.4600   -43.4230     9.4510    10.0040    10.7520
 3503.0000  3278.5540     8.5050     0.0270    28.4020     2.4630   -44.0230     9.9390    10.2620    10.9420
