~VERSION INFORMATION
 VERS.                2.0:   CWLS LOG ASCII STANDARD - VERSION 2.0
 WRAP.                 NO:   ONE LINE PER DEPTH STEP
~WELL INFORMATION
#MNEM.UNIT      DATA TYPE    INFORMATION
#----------   ------------   ------------------------------
 STRT.F            0.5000:   START DEPTH
 STOP.F         4128.0000:   STOP DEPTH
 STEP.F            0.5000:   STEP LENGTH
 NULL.          -999.2500:   NO VALUE
 COMP. LAWRENCE ALLISON ASSOC WEST:   COMPANY
 WELL. LAWRENCE NPR "AX" #12-33:   WELL
 FLD .      NPR - WILDCAT:   FIELD
 LOC .      S33 T39N R78W:   LOCATION
 CNTY.            NATRONA:   COUNTY
 STAT.            WYOMING:   STATE
 CTRY. UNITED STATES OF AMERICA:   COUNTRY
 SRVC.      DRESSER ATLAS:   SERVICE COMPANY
 DATE.        04-AUG-1984:   LOGDATE
 API .     49025109720000:   API NUMBER
~CURVE INFORMATION
#MNEM.UNIT       API CODE    CURVE DESCRIPTION
#----------   ------------   ------------------------------
 DEPT.F                  :   
 CORR.G/C3   45 356 01 00:   DENSITY CORRECTION
 TEND.LBS    45 635 01 00:   TENSION FROM DENSITY LOG
 RHOB.G/C3   45 350 01 00:   BULK DENSITY
 GRR .GAPI   07 310 01 00:   GAMMA RAY FROM RESISTIVITY
 SPR .MV     07 010 01 00:   SPONTANEOUS POTENTIAL
 RFOC.OHMM   07 220 04 00:   RESISTIVITY FOCUSED LOG RES.
 RILM.OHMM   07 120 44 00:   RESISTIVITY INDUCTION LOG MEDIUM
 RILD.OHMM   07 120 46 00:   RESISTIVITY INDUCTION LOG MEDIUM
 TENR.LBS    07 635 01 00:   TENSION FROM RESISTIVITY
 CALR.IN     07 280 01 00:   CALIPER FROM RESISTIVITY
 DT  .US/F   60 520 00 00:   DELTA TIME
 TENS.LBS    60 635 01 00:   TENSION FROM SONIC
 SPHI.DEC    60 890 00 00:   SONIC POROSITY
~PARAMETER INFORMATION
#MNEM.UNIT          VALUE    DESCRIPTION
#----------   ------------   ------------------------------
 EKB .F         5170.0000:   Kelly bushing
 EGL .F         5157.0000:   Ground level
 EDF .F            0.0000:   Drilling floor
 TD  .F         4121.0000:   Total depth
 DATE.        04-AUG-1984:   Date logged
 CLNT.            A2DTECH:   Client Code
 SL  . 857' FNL & 751' FWL:   Surface Location
 PD  .                 GL:   Permanent Datum
 EPD .F              5157:   Elevation Permanent Datum
 LMF .                 KB:   Log Measured From
 DMF .                 KB:   Drilling Measured From
 DAPD.F                13:   Feet Above Permanent Datum
 DD  .F              4120:   Depth driller
 DL  .F              4121:   Depth logger
 BLI .F              4119:   Bottom log interval
 CS1 .IN            8.625:   Casing size
 CBD1.      8.625" @ 625':   Casing driller 1
 CBL1.F               624:   Casing logger 1
 BS1 .IN            7.875:   Bit size
 BSD1.F              4120:   Depth drilled with bit1
 DFT .            GEL/KCL:   Type fluid in hole
 DFD .                9.1:   Density
 DFV .                 40:   Viscosity
 DFPH.                8.5:   pH
 DFL .                 11:   Fluid loss
 MSS .               TANK:   Source of sample
 RMS .OHMM           .302:   Rm
 MST .F                84:   Rm Meas. temp.
 RMF .OHMM            .22:   Rmf
 MFST.F                84:   Rmf Meas. temp.
 RMC .OHMM            .38:   Rmc
 MCST.F                84:   Rmc Meas. temp.
 MFSS.               CALC:   Source Rmf.
 MCSS.               CALC:   Source Rmc.
 RMB .OHMM            .19:   Rm. at BHT
 BHT .F               132:   BHT.
 TCS .HRS               4:   Time Circ. stopped
 MRT .F               132:   Maximum recorded temp.
 LUN .               6307:   Logging unit number
 LUL .               GLTE:   Logging unit location
 ENGI.           FAHLSING:   Recorded By
 WITN.       ROBERT SCOTT:   Witnessed by
 ORIG.           5" PRINT:   Origin of data
 UWI .     49025109720000:   Unique Well ID
 DICO. A2D TECHNOLOGIES, INC.:   Digitizing Company
~OTHER INFORMATION
~A    DEPT    CORR       TEND       RHOB         GRR       SPR       RFOC       RILM       RILD       TENR       CALR         DT       TENS       SPHI   
# ...
 2028.5000  -999.2500  -999.2500  -999.2500   135.9910   -44.2600     9.3490     8.5010     7.6510   -25.2250     7.9180  -999.2500  -999.2500  -999.2500
 2029.0000  -999.2500  -999.2500  -999.2500   136.0510   -44.7860     9.3980     8.4950     7.6480   -25.2250     7.9190  -999.2500  -999.2500  -999.2500
 2029.5000  -999.2500  -999.2500  -999.2500   136.0510   -45.3190     9.4480     8.5070     7.6440   -25.2250     7.9140  -999.2500  -999.2500  -999.2500
 2030.0000  -999.2500  -999.2500  -999.2500   136.0370   -45.5140     9.4980     8.4260     7.6400   -25.2250     7.9090  -999.2500  -999.2500  -999.2500
 2030.5000  -999.2500  -999.2500  -999.2500   135.6560   -45.5170     9.5470     8.4220     7.6370   -25.2250     7.9040  -999.2500  -999.2500  -999.2500
 2031.0000  -999.2500  -999.2500  -999.2500   133.7310   -45.5160     9.5800     8.3990     7.6330   -25.2250     7.8870  -999.2500  -999.2500  -999.2500
 2031.5000  -999.2500  -999.2500  -999.2500   131.8310   -45.5010     9.5500     8.3780     7.6290   -25.2250     7.8690  -999.2500  -999.2500  -999.2500
 2032.0000  -999.2500  -999.2500  -999.2500   129.9380   -46.0900     9.5280     8.3580     7.6260   -25.2250     7.8550  -999.2500  -999.2500  -999.2500
 2032.5000  -999.2500  -999.2500  -999.2500   128.0420   -46.7660     9.5060     8.3410     7.6220   -25.2250     7.8420  -999.2500  -999.2500  -999.2500
 2033.0000  -999.2500  -999.2500  -999.2500   129.8900   -47.4480     9.4840     8.3310     7.6190   -25.2250     7.8220  -999.2500  -999.2500  -999.2500
 2033.5000  -999.2500  -999.2500  -999.2500   135.0280   -48.0870     9.4620     8.3210     7.6150   -25.2250     7.8040  -999.2500  -999.2500  -999.2500
 2034.0000  -999.2500  -999.2500  -999.2500   138.4480   -48.0660     9.4410     8.3100     7.6110   -25.2250     7.8080  -999.2500  -999.2500  -999.2500
 2034.5000  -999.2500  -999.2500  -999.2500   140.4850   -48.0220     9.4190     8.3000     7.5850   -25.2250     7.8130  -999.2500  -999.2500  -999.2500
 2035.0000  -999.2500  -999.2500  -999.2500   141.0960   -47.9810     9.4050     8.2900     7.5580   -25.2250     7.8180  -999.2500  -999.2500  -999.2500
 2035.5000  -999.2500  -999.2500  -999.2500   142.6270   -47.9410     9.3250     8.2800     7.5310   -25.2250     7.8220  -999.2500  -999.2500  -999.2500
 2036.0000  -999.2500  -999.2500  -999.2500   141.6430   -47.8790     9.1140     8.2690     7.5050   -25.2250     7.8180  -999.2500  -999.2500  -999.2500
 2036.5000  -999.2500  -999.2500  -999.2500   140.2900   -47.2390     8.9040     8.2590     7.4780   -25.2250     7.8130  -999.2500  -999.2500  -999.2500
 2037.0000  -999.2500  -999.2500  -999.2500   138.9140   -46.5930     8.8180     8.2490     7.4510   -25.2250     7.8080  -999.2500  -999.2500  -999.2500
 2037.5000  -999.2500  -999.2500  -999.2500   137.5420   -45.9490     8.9590     8.2390     7.4240   -25.2250     7.8040  -999.2500  -999.2500  -999.2500
 2038.0000  -999.2500  -999.2500  -999.2500   136.1740   -45.3050     9.2560     8.2280     7.3970   -25.2250     7.7980  -999.2500  -999.2500  -999.2500
 2038.5000  -999.2500  -999.2500  -999.2500   134.7560   -44.6610     9.5520     8.2180     7.3700   -25.2250     7.7920  -999.2500  -999.2500  -999.2500
 2039.0000  -999.2500  -999.2500  -999.2500   131.6200   -44.0200     9.7580     8.2080     7.3430   -25.2250     7.7860  -999.2500  -999.2500  -999.2500
 2039.5000  -999.2500  -999.2500  -999.2500   128.5560   -43.9270     9.8480     8.1980     7.3170   -25.2250     7.7910  -999.2500  -999.2500  -999.2500
 2040.0000  -999.2500  -999.2500  -999.2500   129.4230   -43.9480     9.6640     8.1870     7.2900   -25.2250     7.8070  -999.2500  -999.2500  -999.2500
 2040.5000  -999.2500  -999.2500  -999.2500   131.4600   -44.4280     9.4400     8.1770     7.2690   -25.2250     7.8240  -999.2500  -999.2500  -999.2500
 2041.0000  -999.2500  -999.2500  -999.2500   135.5070   -44.9070     9.2150     8.1670     7.2690   -25.2250     7.8400  -999.2500  -999.2500  -999.2500
 2041.5000  -999.2500  -999.2500  -999.2500   139.6370   -45.3850     8.9900     8.1570     7.2690   -25.2250     7.8620  -999.2500  -999.2500  -999.2500
 2042.0000  -999.2500  -999.2500  -999.2500   141.4850   -45.8620     8.8180     8.1470     7.2690   -25.2250     7.8840  -999.2500  -999.2500  -999.2500
 2042.5000  -999.2500  -999.2500  -999.2500   139.3600   -46.3390     8.8890     8.1360     7.2690   -25.2250     7.9060  -999.2500  -999.2500  -999.2500
 2043.0000  -999.2500  -999.2500  -999.2500   134.8790   -46.8160     9.0490     8.1260     7.2690   -25.2250     7.9150  -999.2500  -999.2500  -999.2500
 2043.5000  -999.2500  -999.2500  -999.2500   132.3280   -47.2930     9.2330     8.1160     7.2690   -25.2250     7.8840  -999.2500  -999.2500  -999.2500
 2044.0000  -999.2500  -999.2500  -999.2500   131.6570   -47.7710     9.2260     8.1060     7.2690   -25.2250     7.8540  -999.2500  -999.2500  -999.2500
 2044.5000  -999.2500  -999.2500  -999.2500   131.1480   -48.2410     9.2090     8.0950     7.2690   -25.2250     7.8250  -999.2500  -999.2500  -999.2500
 2045.0000  -999.2500  -999.2500  -999.2500   130.9040   -48.3010     9.1920     8.0850     7.2690   -25.2250     7.8040  -999.2500  -999.2500  -999.2500
 2045.5000  -999.2500  -999.2500  -999.2500   134.5310   -48.0490     9.1750     8.0750     7.2690   -25.2250     7.8100  -999.2500  -999.2500  -999.2500
 2046.0000  -999.2500  -999.2500  -999.2500   139.2700   -47.5180     9.1580     8.0650     7.2690   -25.2250     7.8150  -999.2500  -999.2500  -999.2500
 2046.5000  -999.2500  -999.2500  -999.2500   142.9170   -46.9890     9.1490     8.0540     7.2660   -25.2250     7.8200  -999.2500  -999.2500  -999.2500
 2047.0000  -999.2500  -999.2500  -999.2500   141.0030   -46.7190     9.3370     8.0440     7.2750   -25.2250     7.8430  -999.2500  -999.2500  -999.2500
 2047.5000  -999.2500  -999.2500  -999.2500   137.2840   -46.7820     9.5800     8.0340     7.1950   -25.2250     7.8850  -999.2500  -999.2500  -999.2500
 2048.0000  -999.2500  -999.2500  -999.2500   135.9690   -46.8430     9.3620     8.0240     7.1820   -25.2250     7.9210  -999.2500  -999.2500  -999.2500
 2048.5000  -999.2500  -999.2500  -999.2500   134.9790   -46.9500     9.1610     8.0140     7.1690   -25.2250     7.9090  -999.2500  -999.2500  -999.2500
 2049.0000  -999.2500  -999.2500  -999.2500   133.9890   -47.0990     8.9600     8.0030     7.1560   -25.2250     7.9020  -999.2500  -999.2500  -999.2500
 2049.5000  -999.2500  -999.2500  -999.2500   133.5890   -47.1070     8.7380     7.9930     7.1430   -25.2250     7.9020  -999.2500  -999.2500  -999.2500
 2050.0000  -999.2500  -999.2500  -999.2500   135.2900   -46.8740     8.8530     7.9830     7.1310   -25.2250     7.9020  -999.2500  -999.2500  -999.2500
 2050.5000  -999.2500  -999.2500  -999.2500   143.7230   -46.4030     8.9810     7.9700     7.1180   -25.2250     7.9030  -999.2500  -999.2500  -999.2500
 2051.0000  -999.2500  -999.2500  -999.2500   151.8910   -45.9320     9.1100     7.9930     7.1050   -25.2250     7.9190  -999.2500  -999.2500  -999.2500
 2051.5000  -999.2500  -999.2500  -999.2500   158.8170   -45.4460     9.1490     8.0270     7.0930   -25.2250     7.9370  -999.2500  -999.2500  -999.2500
 2052.0000  -999.2500  -999.2500  -999.2500   162.0530   -45.3730     9.1490     8.0600     7.0800   -25.2250     7.9520  -999.2500  -999.2500  -999.2500
 2052.5000  -999.2500  -999.2500  -999.2500   163.7680   -45.4350     9.1490     8.0940     7.0710   -25.2250     7.9600  -999.2500  -999.2500  -999.2500
 2053.0000  -999.2500  -999.2500  -999.2500   163.0050   -45.5020     9.1490     8.1280     7.1960   -25.2250     7.9510  -999.2500  -999.2500  -999.2500
 2053.5000  -999.2500  -999.2500  -999.2500   162.2920   -45.7060     9.1490     8.1620     7.3110   -25.2250     7.9430  -999.2500  -999.2500  -999.2500
 2054.0000  -999.2500  -999.2500  -999.2500   160.8270   -46.0800     9.1490     8.1930     7.4260   -25.2250     7.9500  -999.2500  -999.2500  -999.2500
