~VERSION INFORMATION
 VERS.                2.0:   CWLS LOG ASCII STANDARD - VERSION 2.0
 WRAP.                 NO:   ONE LINE PER DEPTH STEP
~WELL INFORMATION
#MNEM.UNIT      DATA TYPE    INFORMATION
#----------   ------------   ------------------------------
 STRT.F          200.0000:   START DEPTH
 STOP.F         3014.0000:   STOP DEPTH
 STEP.F            0.5000:   STEP LENGTH
 NULL.          -999.2500:   NO VALUE
 COMP.    FENIX & SCISSON:   COMPANY
 WELL. FENIX NPR 3 "AX" #45-28:   WELL
 FLD .                NPR:   FIELD
 LOC .      S28 T39N R78W:   LOCATION
 CNTY.            NATRONA:   COUNTY
 STAT.            WYOMING:   STATE
 CTRY. UNITED STATES OF AMERICA:   COUNTRY
 SRVC.              WELEX:   SERVICE COMPANY
 DATE.        30-SEP-1977:   LOGDATE
 API .     49025104230000:   API NUMBER
~CURVE INFORMATION
#MNEM.UNIT       API CODE    CURVE DESCRIPTION
#----------   ------------   ------------------------------
 DEPT.F                  :   
 SPR .MV     07 010 01 00:   SPONTANEOUS POTENTIAL
 TENR.LBS    07 635 01 00:   TENSION
 SFL .OHMM   07 220 01 00:   SHALLOW FOCUSED LOG RESISTIVITY
 ILD .OHMM   07 120 46 00:   INDUCTION LOG DEEP RESISTIVITY
 ILM .OHMM   07 120 44 00:   INDUCTION LOG MEDIUM RESISTIVITY
 TEND.LBS    45 635 01 00:   TENSION FROM DENSITY LOG
 CALD.IN     45 280 60 00:   CALIPER FROM DENSITY LOG
 RHOB.G/C3   45 350 01 00:   BULK DENSITY
 CORR.G/C3   45 356 01 00:   DENSITY CORRECTION
 GRD .GAPI   45 310 01 00:   GAMMA RAY FROM DENSITY LOG
~PARAMETER INFORMATION
#MNEM.UNIT          VALUE    DESCRIPTION
#----------   ------------   ------------------------------
 EKB .F         5075.0000:   Kelly bushing
 EGL .F         5065.0000:   Ground level
 EDF .F            0.0000:   Drilling floor
 E TD.F         3008.0000:   Total depth
 DATE.        30-SEP-1977:   Date logged
 CLNT.            A2DTECH:   Client Code
 SL  . 2210' FSL & 2310' FWL:   Surface Location
 PD  .                 GL:   Permanent Datum
 EPD .F              5065:   Elevation Permanent Datum
 LMF .                 KB:   Log Measured From
 DMF .                 KB:   Drilling Measured From
 DAPD.F                10:   Feet Above Permanent Datum
 DD  .F              3005:   Depth driller
 DL  .F              3008:   Depth logger
 BLI .F              3006:   Bottom log interval
 TLI .F               200:   Top log interval
 CS1 .IN            8.625:   Casing size
 CBD1.      8.625" @ 205':   Casing driller 1
 CBL1.F               220:   Casing logger 1
 BS1 .IN            7.875:   Bit size
 BSD1.F              3005:   Depth drilled with bit1
 DFT .            KCL/MUD:   Type fluid in hole
 DFD .                9.1:   Density
 DFV .                 38:   Viscosity
 DFPH.                 11:   pH
 DFL .                6.8:   Fluid loss
 MSS .           FLOWLINE:   Source of sample
 RMS .OHMM            .31:   Rm
 MST .F                78:   Rm Meas. temp.
 RMF .OHMM            .15:   Rmf
 MFST.F                78:   Rmf Meas. temp.
 RMC .OHMM           1.02:   Rmc
 MCST.F                78:   Rmc Meas. temp.
 MFSS.               FANN:   Source Rmf.
 MCSS.                KIT:   Source Rmc.
 RMB .OHMM            .20:   Rm. at BHT
 BHT .F               117:   BHT.
 TCS .HRS               3:   Time Circ. stopped
 MRT .F               117:   Maximum recorded temp.
 LUN .               8611:   Logging unit number
 LUL .             CASPER:   Logging unit location
 ENGI.         G. BENTSEN:   Recorded By
 WITN.         HARRINGTON:   Witnessed by
 ORIG.           5" PRINT:   Origin of data
 UWI .     49025104230000:   Unique Well ID
 DICO. A2D TECHNOLOGIES, INC.:   Digitizing Company
~OTHER INFORMATION
~A   DEPT      SPR        TENR       SFL        ILD        ILM       TEND       CALD       RHOB       CORR        GRD   
  200.0000  -999.2500   376.5060  -999.2500  -999.2500  -999.2500  -999.2500  -999.2500  -999.2500  -999.2500  -999.2500
  200.5000  -999.2500   376.5060  -999.2500  -999.2500  -999.2500  -999.2500  -999.2500  -999.2500  -999.2500  -999.2500
  201.0000  -999.2500   376.5060  -999.2500  -999.2500  -999.2500  -999.2500  -999.2500  -999.2500  -999.2500  -999.2500
  201.5000  -999.2500   376.5060  -999.2500  -999.2500  -999.2500  -999.2500  -999.2500  -999.2500  -999.2500  -999.2500
  202.0000  -999.2500   376.5060  -999.2500  -999.2500  -999.2500  -999.2500  -999.2500  -999.2500  -999.2500  -999.2500
  202.5000  -999.2500   376.5060  -999.2500  -999.2500  -999.2500  -999.2500  -999.2500  -999.2500  -999.2500  -999.2500
  203.0000  -999.2500   376.5060  -999.2500  -999.2500  -999.2500  -999.2500  -999.2500  -999.2500  -999.2500  -999.2500
  203.5000  -999.2500   367.0380  -999.2500  -999.2500  -999.2500  -999.2500  -999.2500  -999.2500  -999.2500  -999.2500
  204.0000  -999.2500   367.3650  -999.2500  -999.2500  -999.2500  -999.2500  -999.2500  -999.2500  -999.2500  -999.2500
  204.5000  -999.2500   368.3810  -999.2500  -999.2500  -999.2500  -999.2500  -999.2500  -999.2500  -999.2500  -999.2500
  205.0000  -999.2500   369.3970  -999.2500  -999.2500  -999.2500  -999.2500  -999.2500  -999.2500  -999.2500  -999.2500
  205.5000  -999.2500   370.4120  -999.2500  -999.2500  -999.2500  -999.2500  -999.2500  -999.2500  -999.2500  -999.2500
  206.0000  -999.2500   371.4280  -999.2500  -999.2500  -999.2500  -999.2500  -999.2500  -999.2500  -999.2500  -999.2500
  206.5000  -999.2500   372.4430  -999.2500  -999.2500  -999.2500  -999.2500  -999.2500  -999.2500  -999.2500  -999.2500
  207.0000  -999.2500   373.4590  -999.2500  -999.2500  -999.2500  -999.2500  -999.2500  -999.2500  -999.2500  -999.2500
  207.5000  -999.2500   374.4740  -999.2500  -999.2500  -999.2500  -999.2500  -999.2500  -999.2500  -999.2500  -999.2500
  208.0000  -999.2500   375.4900  -999.2500  -999.2500  -999.2500  -999.2500  -999.2500  -999.2500  -999.2500  -999.2500
  208.5000  -999.2500   376.5050  -999.2500  -999.2500  -999.2500  -999.2500  -999.2500  -999.2500  -999.2500  -999.2500
  209.0000  -999.2500   377.5210  -999.2500  -999.2500  -999.2500  -999.2500  -999.2500  -999.2500  -999.2500  -999.2500
  209.5000  -999.2500   378.5360  -999.2500  -999.2500  -999.2500  -999.2500  -999.2500  -999.2500  -999.2500  -999.2500
  210.0000  -999.2500   379.5520  -999.2500  -999.2500  -999.2500   563.3100     8.5350  -999.2500    -0.2370    39.8610
  210.5000  -999.2500   380.5680  -999.2500  -999.2500  -999.2500   563.3100     8.5350  -999.2500    -0.2580    44.2350
  211.0000  -999.2500   381.5830  -999.2500  -999.2500  -999.2500   563.3100     8.5350  -999.2500    -0.2500    39.8610
  211.5000  -999.2500   382.5990  -999.2500  -999.2500  -999.2500   563.3100     8.5350  -999.2500    -0.2430    42.1210
  212.0000  -999.2500   383.6140  -999.2500  -999.2500  -999.2500   560.9420     8.5350  -999.2500    -0.2370    43.2220
  212.5000  -999.2500   384.6300  -999.2500  -999.2500  -999.2500   553.3400     8.5350  -999.2500    -0.2230    44.3040
  213.0000  -999.2500   385.6450  -999.2500  -999.2500  -999.2500   553.3400     8.5350  -999.2500    -0.2090    44.4230
  213.5000  -999.2500   386.6610  -999.2500  -999.2500  -999.2500   553.3400     8.5350  -999.2500    -0.1960    44.5680
  214.0000  -999.2500   387.6760  -999.2500  -999.2500  -999.2500   553.3400     8.5350  -999.2500    -0.1840    45.4780
  214.5000  -999.2500   388.6920  -999.2500  -999.2500  -999.2500   553.3400     8.5350  -999.2500    -0.1710    47.1490
  215.0000  -999.2500   389.7070  -999.2500  -999.2500  -999.2500   553.3400     8.5350  -999.2500    -0.1610    48.7930
  215.5000  -999.2500   390.7230  -999.2500  -999.2500  -999.2500   553.3400     8.5350  -999.2500    -0.1550    51.3980
  216.0000  -999.2500   391.7390  -999.2500  -999.2500  -999.2500   553.3400     8.5360  -999.2500    -0.1490    49.3370
  216.5000  -999.2500   392.7540  -999.2500  -999.2500  -999.2500   553.3400     8.5640  -999.2500    -0.1340    44.9710
  217.0000  -999.2500   393.7700  -999.2500  -999.2500  -999.2500   553.3400     8.5920  -999.2500    -0.1040    42.0130
  217.5000  -999.2500   394.7850  -999.2500  -999.2500  -999.2500   553.3400     8.6190  -999.2500    -0.0750    44.9260
  218.0000  -999.2500   395.8010     0.8350  -999.2500  -999.2500   553.3400     8.6440  -999.2500    -0.0440    47.2830
  218.5000  -999.2500   396.5860     2.1540     2.2340  -999.2500   553.3400     8.7640  -999.2500     0.0080    49.4270
  219.0000  -999.2500   396.5860     3.8460     0.9130  -999.2500   553.3400     8.9260     2.1060     0.0420    50.3990
  219.5000  -999.2500   396.5860     5.5920     0.5120    57.9980   553.3400     9.2120     2.0890     0.0350    51.3670
  220.0000  -999.2500   396.5860     6.3980     0.4000     4.8370   553.3400     9.8850     2.1440     0.0270    53.2390
  220.5000  -999.2500   396.5860     6.1100     0.2510     4.7850   553.3400    10.5380     2.2310     0.0270    55.2700
  221.0000    -2.7460   396.5860     6.5680     0.2600     4.7210   553.3400    11.0250     2.2730     0.0280    57.3120
  221.5000    -6.7140   396.5860     7.4020     0.3320     4.7530   553.3400    11.0700     2.2850     0.0290    57.9500
  222.0000   -10.2140   396.5860     8.0580     0.5900     4.7950   553.3400    11.1240     2.2900     0.0290    57.1800
  222.5000   -12.3970   396.5860     7.9110     0.9470     4.9900   553.4440    11.1790     2.2930     0.0300    56.4020
  223.0000   -14.0340   396.5860     9.4810     1.9950     5.1850   553.5680    11.2360     2.2950     0.0300    55.6260
  223.5000   -16.2150   396.5860    11.3380     4.3120     5.3810   553.6920    11.2550     2.2970     0.0300    57.7720
  224.0000   -18.3990   396.5860    10.6200     5.0170     6.7560   553.8160    11.2730     2.3020     0.0300    60.2340
  224.5000   -20.5840   396.5860     9.7290     5.1900     7.1700   553.9400    11.2910     2.3220     0.0300    62.7000
  225.0000   -22.7460   396.5860     8.8370     5.3270     7.2800   554.0640    11.3090     2.3080     0.0280    65.1140
  225.5000   -24.3290   396.5860     8.8000     5.4640     7.8120   554.1880    11.3440     2.2900     0.0250    65.4820
  226.0000   -25.8890   396.5860     8.7560     5.7470     9.6220   554.3120    11.3960     2.2780     0.0230    63.6220
  226.5000   -27.4510   396.5860     8.9210     6.1270    13.3750   554.4350    11.4480     2.2950     0.0210    59.9010
  227.0000   -29.0130   396.5860     9.1970     6.5070    15.1470   554.5590    11.5000     2.3020     0.0190    56.6070
  227.5000   -30.5760   396.5860    12.0970     6.8870    16.0540   554.6830    11.5400     2.2820     0.0170    56.5720
  228.0000   -32.1380   396.5860    15.6880     7.2670    16.7180   554.8070    11.6000     2.3040     0.0180    58.5270
  228.5000   -33.7020   396.5860    19.2790     7.5780    17.3820   554.9310    11.6580     2.3510     0.0200    62.3690
  229.0000   -35.2800   396.5860    22.8700     7.8710    17.9060   555.0550    11.7170     2.4000     0.0220    64.7980
  229.5000   -36.8870   396.5860    26.4610     8.1630    18.3320   555.1790    11.7750     2.4300     0.0240    63.3220
  230.0000   -38.5090   396.5860    34.0010     8.4560    18.7580   555.3020    11.8330     2.4510     0.0260    61.9490
  230.5000   -40.1340   396.5860    25.3000     8.7480    19.3640   555.4260    11.8910     2.4520     0.0280    60.5850
  231.0000   -41.7650   396.5860    17.9860     9.0400    18.7130   555.5500    11.9520     2.4610     0.0300    59.2140
  231.5000   -43.0780   396.5860    20.2790     9.3400    17.5830   555.6740    12.0240     2.4720     0.0320    57.8320
  232.0000   -44.1650   396.5860    18.5210     9.8160    16.4540   555.7980    12.1000     2.4830     0.0340    57.2820
  232.5000   -45.2520   396.5860    17.4790    10.3040    15.4470   555.9220    12.1770     2.4880     0.0310    59.8480
  233.0000   -46.3450   396.5860    16.8610    10.7920    15.0340   556.0460    12.2540     2.4560     0.0270    62.3290
