~VERSION INFORMATION
 VERS.                2.0:   CWLS LOG ASCII STANDARD - VERSION 2.0
 WRAP.                 NO:   ONE LINE PER DEPTH STEP
~WELL INFORMATION
#MNEM.UNIT      DATA TYPE    INFORMATION
#----------   ------------   ------------------------------
 STRT.F            0.0000:   START DEPTH
 STOP.F         5670.0000:   STOP DEPTH
 STEP.F            0.5000:   STEP LENGTH
 NULL.          -999.2500:   NO VALUE
 COMP.          INTEX OIL:   COMPANY
 WELL.    INTEX TP #71-15:   WELL
 FLD .             TEAPOT:   FIELD
 LOC .      S15 T38N R78W:   LOCATION
 CNTY.            NATRONA:   COUNTY
 STAT.            WYOMING:   STATE
 CTRY. UNITED STATES OF AMERICA:   COUNTRY
 SRVC.       SCHLUMBERGER:   SERVICE COMPANY
 DATE.        05-AUG-1966:   LOGDATE
 API .     49025097110000:   API NUMBER
~CURVE INFORMATION
#MNEM.UNIT       API CODE    CURVE DESCRIPTION
#----------   ------------   ------------------------------
 DEPT.F                  :   
 GRD .GAPI   45 310 01 00:   GAMMA RAY FROM DENSITY LOG
 CALD.IN     45 280 60 00:   CALIPER FROM DENSITY LOG
 CORR.G/C3   45 356 01 00:   DENSITY CORRECTION
 RHOB.G/C3   45 350 01 00:   BULK DENSITY
 SPR .MV     05 010 01 00:   SPONTANEOUS POTENTIAL FROM RES.
 ASN .OHMM   05 041 16 00:   AMPLIFIED SHORT NORMAL 16"
 ILD .OHMM   05 120 46 00:   INDUCTION LOG DEEP RESISTIVITY
~PARAMETER INFORMATION
#MNEM.UNIT          VALUE    DESCRIPTION
#----------   ------------   ------------------------------
 EKB .F         5247.5500:   Kelly bushing
 EGL .F         5236.1000:   Ground level
 EDF .F            0.0000:   Drilling floor
 EPD .F         5236.1000:   Permanent datum
 TD  .F         5670.0000:   Total depth
 CLNT.            A2DTECH:   Client Code
 SL  . 610' FNL & 710' FEL:   Surface Location
 PD  .                 GL:   Permanent Datum
 LMF .                 KB:   Log Measured From
 DMF .                 KB:   Drilling Measured From
 DAPD.F             11.45:   Feet Above Permanent Datum
 DATE.        05-AUG-1966:   Date Logged [DD-MMM-YYYY]
 DD  .F              5665:   Depth driller
 DL  .F              5670:   Depth logger
 BLI .F              5669:   Bottom log interval
 TLI .F              5551:   Top log interval
 CS1 .IN            10.75:   Casing size
 CBD1.    10.75" @ 567.9':   Casing driller 1
 CBL1.F               569:   Casing logger 1
 BS1 .IN           8.9375:   Bit size
 BSD1.F              5665:   Depth drilled with bit1
 DFT .            DEXTRID:   Type fluid in hole
 DFD .                9.4:   Density
 DFV .                 59:   Viscosity
 DFPH.                7.5:   pH
 DFL .                8.2:   Fluid loss
 MSS .           FLOWLINE:   Source of sample
 RMS .OHMM           1.80:   Rm
 MST .F                72:   Rm Meas. temp.
 RMF .OHMM           1.00:   Rmf
 MFST.F                82:   Rmf Meas. temp.
 MFSS.               MEAS:   Source Rmf.
 BHT .F               163:   BHT.
 TCS .HRS               3:   Time Circ. stopped
 MRT .F               163:   Maximum recorded temp.
 LUN .               4507:   Logging unit number
 LUL .               CSPR:   Logging unit location
 ENGI.            MANGOLD:   Recorded By
 ORIG.      2.5" 5" PRINT:   Origin of data
 UWI .     49025097110000:   Unique Well ID
 DICO. A2D TECHNOLOGIES, INC.:   Digitizing Company
~OTHER INFORMATION
~A    DEPT      GRD      CALD       CORR       RHOB        SPR        ASN        ILD   
# ...
 5050.5000    94.8257    11.2691     0.0165     2.7127   -38.1846    20.7056    17.9095
 5051.0000    93.9176    11.2696     0.0224     2.7167   -38.1766    20.7089    17.9930
 5051.5000    94.1070    11.2700     0.0269     2.7205   -38.3211    20.8613    18.0713
 5052.0000    94.7785    11.2704     0.0329     2.7266   -38.4624    21.1632    18.2989
 5052.5000    94.7866    11.2709     0.0389     2.7313   -38.4558    21.4651    19.2730
 5053.0000    93.8790    11.2713     0.0405     2.7357   -38.4492    21.8418    20.2469
 5053.5000    92.5220    11.2718     0.0376     2.7357   -38.5938    22.5174    21.4446
 5054.0000    90.5491    11.2722     0.0287     2.7343   -39.0356    23.1929    23.2393
 5054.5000    88.7593    11.2727     0.0257     2.7299   -39.3264    23.9433    24.2131
 5055.0000    86.5205    11.2731     0.0289     2.7254   -39.6188    24.9178    25.4108
 5055.5000    81.5870    11.2790     0.0212     2.7180   -39.7617    25.8248    26.5339
 5056.0000    76.2043    11.3039     0.0156     2.7177   -39.7549    26.8806    27.9555
 5056.5000    72.1690    11.3043     0.0182     2.7255   -39.7469    27.7784    29.8248
 5057.0000    69.0319    11.3048     0.0298     2.7450   -39.7403    28.5178    31.3957
 5057.5000    67.2421    11.3052     0.0351     2.7660   -39.7347    28.8944    32.0710
 5058.0000    65.4524    11.3057     0.0278     2.7302   -39.7272    29.0468    32.3732
 5058.5000    63.6626    11.3061     0.0093     2.7318   -39.5712    29.1992    32.4515
 5059.0000    64.5674    11.3066     0.0035     2.7425   -39.5646    29.2022    32.2936
 5059.5000    64.5607    11.3070     0.0079     2.7546   -39.4086    29.1297    31.6808
 5060.0000    63.6824    11.3075     0.0186     2.7619   -39.4020    29.0586    30.5977
 5060.5000    64.2313    11.2781     0.0305     2.7582   -39.2459    29.0615    29.3328
 5061.0000    69.5282    11.2785     0.0223     2.7323   -39.3888    28.8403    28.5156
 5061.5000    75.1688    11.2790     0.0164     2.6934   -39.3806    28.4747    27.4745
 5062.0000    76.2837    11.2794     0.0061     2.6782   -39.3741    27.9807    26.0602
 5062.5000    74.0448    11.2799    -0.0028     2.7002   -39.5170    27.4867    24.8699
 5063.0000    75.3363    11.2804    -0.0086     2.6948   -39.5104    26.6099    23.1571
 5063.5000    79.4359    11.2807    -0.0101     2.6693   -39.5038    25.9565    21.5190
 5064.0000    80.9643    11.2812    -0.0055     2.6626   -39.4973    25.3975    20.1794
 5064.5000    81.8854    11.2817     0.0034     2.6717   -39.6418    24.8384    19.5861
 5065.0000    83.8998    11.2821     0.0202     2.6854   -39.6336    24.2794    19.7390
 5065.5000    87.9546    11.2826     0.0303     2.7048   -39.6270    23.7850    19.8173
 5066.0000    90.2667    11.2830     0.0222     2.7473   -39.6203    23.7125    20.1941
 5066.5000    90.7163    11.2835     0.0185     2.7563   -39.6136    23.9404    20.7202
 5067.0000    89.4929    11.2839     0.0272     2.7474   -39.6057    24.1675    22.2400
 5067.5000    83.9945    11.2843     0.0305     2.7295   -39.4497    24.6189    24.4362
 5068.0000    80.2981    11.2549     0.0216     2.7146   -39.4431    26.3408    26.7726
 5068.5000    75.0257    11.2554     0.0110     2.7117   -39.4365    28.4409    30.2880
 5069.0000    70.9904    11.2558     0.0106     2.7207   -39.4300    29.7261    33.7992
 5069.5000    67.4042    11.2553     0.0152     2.7327   -39.4234    30.3419    36.5640
 5070.0000    63.8180    11.2268     0.0150     2.7283   -39.4168    30.9871    39.2543
 5070.5000    62.0282    11.2273     0.0057     2.7178   -39.4103    31.3638    40.4520
 5071.0000    60.6875    11.2278     0.0132     2.7134   -39.4036    31.4415    40.8279
 5071.5000    59.7960    11.2282     0.0192     2.7211   -39.3969    31.4444    39.6384
 5072.0000    59.3533    11.2287     0.0207     2.7269   -39.3889    31.4473    37.6272
 5072.5000    60.2583    11.2291     0.0134     2.7215   -39.3823    31.3008    34.2727
 5073.0000    63.4266    11.2209     0.0090     2.7073   -39.3758    30.9301    30.2533
 5073.5000    65.2619    11.2001     0.0195     2.7086   -39.3692    30.1856    26.4442
 5074.0000    68.1230    11.2006     0.0269     2.7155   -39.3626    28.2998    24.4329
 5074.5000    73.2671    11.2010     0.0240     2.7182   -39.3561    26.6950    21.9739
 5075.0000    79.0060    11.2015     0.0197     2.7157   -39.2000    25.0901    19.2164
 5075.5000    87.6098    11.2019     0.0216     2.7106   -39.1936    23.1725    18.3113
 5076.0000    93.2849    11.2024     0.0260     2.7036   -39.0374    22.2038    17.7971
 5076.5000    98.2849    11.2028     0.0273     2.6983   -39.1803    21.7583    17.7349
 5077.0000    98.9406    11.2033     0.0157     2.6960   -39.1721    21.7613    17.9634
 5077.5000    94.1207    11.2037     0.0096     2.6960   -39.1655    21.9137    18.4148
 5078.0000    90.1770    11.2043     0.0183     2.6984   -39.1590    22.2903    19.5379
 5078.5000    86.9756    11.2047     0.0231     2.7021   -39.1524    22.9659    21.7058
 5079.0000    83.9771    11.2051     0.0224     2.7037   -39.1458    23.7162    23.2766
 5079.5000    81.4630    11.2056     0.0217     2.7082   -39.1393    24.3171    24.1012
 5080.0000    78.9516    11.2060     0.0233     2.7127   -39.1327    24.7685    24.7765
 5080.5000    78.0738    11.2065     0.0278     2.7143   -39.1261    24.9956    25.0031
 5081.0000    77.4386    11.2069     0.0145     2.7143   -38.9701    24.9986    24.8585
 5081.5000    78.3447    11.2074     0.0064     2.7128   -38.8139    25.0015    24.7129
 5082.0000    80.1478    11.2078     0.0176     2.7084   -38.8058    24.9297    24.7166
 5082.5000    83.2981    11.2381     0.0118     2.7040   -38.7993    24.7832    24.4964
 5083.0000    83.7538    11.2385     0.0029     2.7025   -38.7927    24.7114    24.3508
 5083.5000    83.3113    11.2390     0.0030     2.7101   -38.9356    24.4908    24.1291
 5084.0000    81.0724    11.2394     0.0091     2.7268   -39.0802    24.4183    23.6747
 5084.5000    79.7317    11.2399     0.0213     2.7325   -39.2231    24.2725    23.1368
 5085.0000    78.3911    11.2403     0.0203     2.7245   -39.2149    24.0512    22.2769
 5085.5000    77.9484    11.2407     0.0065     2.7137   -39.2083    23.8292    21.5226
 5086.0000    78.4043    11.2412    -0.0011     2.7073   -39.2017    23.5340    20.5842
 5086.5000    82.0251    11.2416     0.0109     2.7096   -39.1867    23.2379    19.2282
 5087.0000    86.5443    11.2421     0.0123     2.7153   -39.0161    22.9419    18.5602
 5087.5000    86.4707    11.2126     0.0080     2.7199   -38.7320    22.5712    17.9669
 5088.0000    85.6164    11.2131     0.0252     2.7224   -38.7004    22.0510    17.6711
 5088.5000    91.2949    11.2136     0.0333     2.7091   -38.5693    21.7549    17.8996
 5089.0000    94.9616    11.2140     0.0280     2.6944   -38.5628    21.5337    18.2018
 5089.5000   100.1118    11.2443     0.0082     2.6919   -38.5562    21.5369    18.5040
 5090.0000    99.6561    11.2148     0.0217     2.7063   -38.5496    21.7688    19.0300
 5090.5000    96.9181    11.2154     0.0292     2.7186   -38.6925    22.1691    20.0039
 5091.0000    93.2830    11.1860     0.0218     2.7301   -38.9849    23.2245    22.9926
 5091.5000    90.7145    11.1864     0.0115     2.7347   -39.1278    24.4492    25.0858
 5092.0000    86.7242    11.1869     0.0190     2.7272   -39.2707    25.6739    28.3939
 5092.5000    83.0739    11.1873     0.0235     2.7198   -39.2625    26.8986    30.4288
 5093.0000    78.3176    11.1878     0.0161     2.7273   -39.4071    28.3591    32.6782
 5093.5000    72.7991    11.1882    -0.0075     2.7304   -39.3989    29.6326    36.0716
 5094.0000    68.1282    11.1887    -0.0164     2.7214   -39.5418    30.3082    37.7917
 5094.5000    66.8434    11.1892    -0.0114     2.7050   -39.3857    30.7596    38.4670
 5095.0000    65.5027    11.1896     0.0016     2.6901   -39.3792    31.0615    38.6946
 5095.5000    62.3656    11.1901     0.0174     2.6977   -39.3726    31.3634    37.9520
