~VERSION INFORMATION
 VERS.                2.0:   CWLS LOG ASCII STANDARD - VERSION 2.0
 WRAP.                 NO:   ONE LINE PER DEPTH STEP
~WELL INFORMATION
#MNEM.UNIT      DATA TYPE    INFORMATION
#----------   ------------   ------------------------------
 STRT.F           11.5000:   START DEPTH
 STOP.F         1726.0000:   STOP DEPTH
 STEP.F            0.5000:   STEP LENGTH
 NULL.          -999.2500:   NO VALUE
 COMP. LAWRENCE ALLISON & ASSOC WEST:   COMPANY
 WELL. LAWRENCE NPR 3 "X" #51-26:   WELL
 FLD .                NPR:   FIELD
 LOC .      S26 T38N R78W:   LOCATION
 CNTY.            NATRONA:   COUNTY
 STAT.            WYOMING:   STATE
 CTRY. UNITED STATES OF AMERICA:   COUNTRY
 SRVC.      DRESSER ATLAS:   SERVICE COMPANY
 DATE.        13-AUG-1983:   LOGDATE
 API .     49025109270000:   API NUMBER
~CURVE INFORMATION
#MNEM.UNIT       API CODE    CURVE DESCRIPTION
#----------   ------------   ------------------------------
 DEPT.F                  :   
 CALD.IN     45 280 60 00:   CALIPER FROM DENSITY LOG
 RHOB.G/C3   45 350 01 00:   BULK DENSITY
 CORR.G/C3   45 356 01 00:   DENSITY CORRECTION
 TEND.LBS    45 635 01 00:   TENSION FROM DENSITY LOG
 GRR .GAPI   07 310 01 00:   GAMMA RAY FROM RESISTIVITY
 RILD.OHMM   07 120 46 00:   INDUCTION LOG DEEP RESISTIVITY
 RILM.OHMM   07 120 44 00:   INDUCTION LOG MEDIUM RESISTIVITY
 TENR.LBS    07 635 01 00:   TENSION
~PARAMETER INFORMATION
#MNEM.UNIT          VALUE    DESCRIPTION
#----------   ------------   ------------------------------
 EKB .F         5455.0000:   Kelly bushing
 EGL .F         5444.0000:   Ground level
 EDF .F            0.0000:   Drilling floor
 EPD .F         5444.0000:   Permanent datum
 TD  .F         1726.0000:   Total depth
 DATE.        13-AUG-1983:   Date logged
 CLNT.            A2DTECH:   Client Code
 PD  .                 GL:   Permanent Datum
 LMF .                 KB:   Log Measured From
 DMF .                 KB:   Drilling Measured From
 DAPD.F                11:   Feet Above Permanent Datum
 DD  .F              1726:   Depth driller
 DL  .F              1724:   Depth logger
 BLI .F              1718:   Bottom log interval
 CBD1.F                47:   Casing driller 1
 CBL1.F                48:   Casing logger 1
 BS1 .IN            12.25:   Bit size
 BSD1.F              1726:   Depth drilled with bit1
 DFT .           AIR/FOAM:   Type fluid in hole
 TCS .HRS               1:   Time Circ. stopped
 MRT .F                85:   Maximum recorded temp.
 LUN .               6270:   Logging unit number
 LUL .              WLSTN:   Logging unit location
 ENGI.            QUICKEL:   Recorded By
 WITN.           JENNINGS:   Witnessed by
 ORIG.           5" PRINT:   Origin of data
 UWI .     49025109270000:   Unique Well ID
 DICO. A2D TECHNOLOGIES, INC.:   Digitizing Company
~OTHER INFORMATION
~A   DEPT     CALD       RHOB       CORR       TEND         GRR      RILD       RILM       TENR   
# ...
  700.0000    13.2190     2.4460     0.0870   -49.4960   119.8650     6.4310     6.5680   -77.2960
  700.5000    13.2190     2.4280     0.0660   -49.9960   121.1840     6.2660     6.4640   -77.2700
  701.0000    13.2190     2.4190     0.0380   -50.4960   123.9180     6.1810     6.3590   -77.2450
  701.5000    13.2190     2.4230     0.0280   -50.9950   126.2750     6.1700     6.2540   -77.2200
  702.0000    13.2190     2.4260     0.0240   -51.4950   125.3700     6.1590     6.1870   -77.1950
  702.5000    13.2200     2.4250     0.0200   -51.9950   122.4070     6.1480     6.1870   -77.1700
  703.0000    13.2200     2.4240     0.0150   -52.4950   119.3670     6.1370     6.1870   -77.1440
  703.5000    13.2200     2.4220     0.0100   -52.9940   118.6320     6.1040     6.1730   -77.1190
  704.0000    13.2200     2.4200     0.0040   -53.4940   121.5870     6.0410     6.1380   -77.0940
  704.5000    13.2200     2.4180    -0.0010   -53.9940   123.7360     5.9780     6.1040   -77.0690
  705.0000    13.2200     2.4160    -0.0070   -54.4940   122.8920     5.9150     6.0690   -77.0430
  705.5000    13.2210     2.4220    -0.0120   -54.9930   122.1180     5.8520     6.0340   -77.0180
  706.0000    13.2210     2.4280     0.0000   -55.4930   123.8160     5.7890     6.0000   -76.9930
  706.5000    13.2210     2.4320     0.0300   -55.9930   125.5440     5.7470     5.9630   -76.9720
  707.0000    13.2210     2.4280     0.0420   -56.4930   127.2930     5.8910     6.0150   -76.9560
  707.5000    13.2210     2.4250     0.0360   -56.5430   127.7780     5.9990     6.1120   -76.9400
  708.0000    13.2210     2.4250     0.0300   -55.9950   126.9520     6.1080     6.3400   -76.9240
  708.5000    13.2220     2.4340     0.0230   -55.4470   123.1310     6.3380     6.5690   -76.9080
  709.0000    13.2220     2.4420     0.0170   -54.8980   119.0140     6.5990     6.7970   -76.8910
  709.5000    13.2220     2.4490     0.0120   -54.3500   114.9570     6.8610     7.0250   -76.8750
  710.0000    13.2220     2.4570     0.0410   -53.8010   114.2070     7.1070     7.2530   -76.8590
  710.5000    13.2220     2.4640     0.0720   -53.2530   114.6960     7.1510     7.3740   -76.8430
  711.0000    13.2230     2.4610     0.0870   -52.7040   113.3600     7.1730     7.3740   -76.8260
  711.5000    13.2230     2.4550     0.0640   -52.1560   112.2140     7.1490     7.3150   -76.8100
  712.0000    13.2230     2.4460     0.0560   -51.6080   114.2510     7.0730     7.2310   -76.7940
  712.5000    13.2230     2.4380     0.0510   -51.0590   118.2550     6.9960     7.1460   -76.7780
  713.0000    13.2230     2.4330     0.0470   -50.5110   121.2110     6.9190     7.0610   -76.7620
  713.5000    13.2230     2.4290     0.0320   -49.9620   122.9110     6.8430     6.9770   -76.7450
  714.0000    13.2240     2.4240     0.0130   -49.4140   124.6020     6.7660     6.8920   -76.7290
  714.5000    13.2240     2.4280     0.0030   -48.8650   125.7540     6.6900     6.8080   -76.7130
  715.0000    13.2240     2.4320     0.0250   -48.3170   125.4860     6.6130     6.7230   -76.6970
  715.5000    13.2240     2.4350     0.0470   -47.7680   124.5250     6.5360     6.6390   -76.6800
  716.0000    13.2240     2.4390     0.0630   -47.2200   122.2530     6.4600     6.5540   -76.6640
  716.5000    13.2240     2.4430     0.0480   -46.6870   119.8950     6.3830     6.4700   -76.6480
  717.0000    13.2250     2.4440     0.0330   -51.9280   119.9180     6.3060     6.3850   -76.6320
  717.5000    13.2250     2.4440     0.0190   -57.0280   120.3360     6.2300     6.3000   -76.6160
  718.0000    13.2250     2.4400     0.0160   -62.1290   121.1530     6.1530     6.2450   -76.5990
  718.5000    13.2250     2.4430     0.0490   -66.7670   123.7380     6.0740     6.2800   -76.5830
  719.0000    13.2250     2.4470     0.0480   -66.7670   126.3060     6.1090     6.3120   -76.5670
  719.5000    13.2250     2.4520     0.0380   -66.7670   127.9120     6.1450     6.3430   -76.5510
  720.0000    13.2260     2.4540     0.0280   -66.7670   127.1580     6.1810     6.3720   -76.5340
  720.5000    13.2260     2.4510     0.0230   -66.7670   126.7190     6.2180     6.3980   -76.5180
  721.0000    13.2260     2.4430     0.0280   -62.4600   127.2870     6.2660     6.4240   -76.5020
  721.5000    13.2260     2.4340     0.0320   -54.8090   125.0820     6.3520     6.4500   -76.4860
  722.0000    13.2260     2.4390     0.0360   -53.7980   122.5140     6.4370     6.4760   -76.4700
  722.5000    13.2260     2.4490     0.0400   -57.3150   121.6370     6.4800     6.5020   -76.4530
  723.0000    13.2270     2.4510     0.0490   -60.8330   125.3470     6.4800     6.5270   -76.4370
  723.5000    13.2270     2.4520     0.0620   -64.3510   126.6920     6.4800     6.5530   -76.4210
  724.0000    13.2270     2.4530     0.0720   -67.8680   124.9800     6.5400     6.5790   -76.4050
  724.5000    13.2280     2.4490     0.0790   -71.3860   123.8710     6.5150     6.6010   -76.3880
  725.0000    13.2280     2.4460     0.0820   -67.5510   125.8260     6.3750     6.4530   -76.3720
  725.5000    13.2290     2.4490     0.0850   -62.7700   128.5740     6.2360     6.3020   -76.3560
  726.0000    13.2290     2.4570     0.0860   -57.9880   129.7930     6.0960     6.1510   -76.3400
  726.5000    13.2290     2.4650     0.0860   -56.8660   126.2010     5.9570     6.0010   -76.3240
  727.0000    13.2300     2.4610     0.0870   -57.0550   122.3420     5.8540     5.8500   -76.3070
  727.5000    13.2300     2.4570     0.0880   -57.2440   121.8620     5.6900     5.7000   -76.2910
  728.0000    13.2300     2.4590     0.0730   -57.4330   122.1750     5.4490     5.5490   -76.2750
  728.5000    13.2310     2.4600     0.0550   -57.6220   123.1650     5.2080     5.3980   -76.2590
  729.0000    13.2310     2.4610     0.0410   -57.8110   121.2530     5.0960     5.2390   -76.2420
  729.5000    13.2320     2.4590     0.0490   -57.9990   119.1800     5.0960     5.2910   -76.2260
  730.0000    13.2320     2.4460     0.0570   -58.1880   116.0710     5.1090     5.3600   -76.2100
  730.5000    13.2320     2.4340     0.0650   -58.3770   111.0790     5.1810     5.4290   -76.1940
  731.0000    13.2330     2.4310     0.0770   -58.5660   107.4510     5.2530     5.4980   -76.1780
  731.5000    13.2330     2.4290     0.0930   -58.7550   108.7860     5.3260     5.5420   -76.1610
  732.0000    13.2330     2.4290     0.1040   -58.9440   114.9900     5.3980     5.5580   -76.1450
  732.5000    13.2340     2.4310     0.0730   -59.1330   118.1620     5.4540     5.5750   -76.1290
  733.0000    13.2340     2.4380     0.0420   -59.3220   116.1860     5.4870     5.5890   -76.1130
  733.5000    13.2350     2.4450     0.0400   -59.5110   114.8400     5.4370     5.5310   -76.0960
  734.0000    13.2350     2.4510     0.0450   -59.7000   116.7360     5.4010     5.4780   -76.0800
  734.5000    13.2350     2.4470     0.0540   -59.8880   119.0920     5.3510     5.4250   -76.0640
  735.0000    13.2360     2.4390     0.0560   -60.0770   121.4890     5.3010     5.3710   -76.0480
  735.5000    13.2360     2.4400     0.0530   -60.2660   123.8730     5.2500     5.3180   -76.0320
  736.0000    13.2370     2.4400     0.0530   -60.4550   126.0380     5.2000     5.2640   -76.0150
  736.5000    13.2370     2.4400     0.0600   -60.6440   126.6310     5.1500     5.2110   -75.9990
  737.0000    13.2370     2.4370     0.0680   -60.8330   121.1210     5.1000     5.1580   -75.9830
  737.5000    13.2380     2.4310     0.0750   -61.0220   116.9860     5.0500     5.1040   -75.9670
  738.0000    13.2380     2.4260     0.0660   -61.2110   114.3670     4.9990     5.0510   -75.9500
  738.5000    13.2380     2.4200     0.0440   -61.4000   117.9370     4.9490     4.9980   -75.9340
  739.0000    13.2390     2.4140     0.0470   -61.5890   121.0280     4.8990     4.9440   -75.9180
  739.5000    13.2390     2.4080     0.0530   -61.7470   122.6220     4.8490     4.8910   -75.9020
  740.0000    13.2400     2.4040     0.0330   -61.7470   121.4250     4.7990     4.8370   -75.8860
