~VERSION INFORMATION
 VERS.                2.0:   CWLS LOG ASCII STANDARD - VERSION 2.0
 WRAP.                 NO:   ONE LINE PER DEPTH STEP
~WELL INFORMATION
#MNEM.UNIT      DATA TYPE    INFORMATION
#----------   ------------   ------------------------------
 STRT.F          466.5000:   START DEPTH
 STOP.F         3184.0000:   STOP DEPTH
 STEP.F            0.5000:   STEP LENGTH
 NULL.          -999.2500:   NO VALUE
 COMP. LAWRENCE ALLISON AND ASSOCIATES:   COMPANY
 WELL. LAWRENCE 66 "X" #3-28:   WELL
 FLD .              N P R:   FIELD
 LOC .      S28 T39N R78W:   LOCATION
 CNTY.            NATRONA:   COUNTY
 STAT.            WYOMING:   STATE
 CTRY. UNITED STATES OF AMERICA:   COUNTRY
 SRVC.      DRESSER ATLAS:   SERVICE COMPANY
 DATE.        16-APR-1986:   LOGDATE
 API .     49025111340000:   API NUMBER
~CURVE INFORMATION
#MNEM.UNIT       API CODE    CURVE DESCRIPTION
#----------   ------------   ------------------------------
 DEPT.F                  :   
 RHOB.G/C3   45 350 01 00:   BULK DENSITY
 CORR.G/C3   45 356 01 00:   DENSITY CORRECTION
 TEND.LBS    45 635 01 00:   TENSION FROM DENSITY LOG
 NPHI.DEC    42 890 03 00:   NEUTRON POROSITY SANDSTONE
 DT  .US/F   60 520 00 00:   DELTA TIME
 TENS.LBS    51 635 01 00:   TENSION
 CALR.IN     07 280 01 00:   CALIPER FROM RESISTIVITY
 SPR .MV     07 010 01 00:   SPONTANEOUS POTENTIAL
 TENR.LBS    07 635 01 00:   TENSION FROM RESISTIVITY
 RFOC.OHMM   07 220 04 00:   RESISTIVITY FOCUSED LOG RES.
 GRR .GAPI   07 310 01 00:   GAMMA RAY FROM RESISTIVITY
 RILD.OHMM   07 120 46 00:   DEEP INDUCTION RESISTIVITY
 RILM.OHMM   07 120 44 00:   INDUCTION LOG MEDIUM RESISTIVITY
~PARAMETER INFORMATION
#MNEM.UNIT          VALUE    DESCRIPTION
#----------   ------------   ------------------------------
 EKB .F         5071.0000:   Kelly bushing
 EGL .F         5059.0000:   Ground level
 TD  .F         3176.0000:   Total depth
 DATE.        16-APR-1986:   Date logged
 CLNT.            A2DTECH:   Client Code
 SL  . 1685' FEL & 1915'FSL:   Surface Location
 PD  .                 GL:   Permanent Datum
 EPD .F              5059:   Elevation Permanent Datum
 LMF .                 KB:   Log Measured From
 DD  .F              3176:   Depth driller
 DL  .F              3176:   Depth logger
 BLI .F              3174:   Bottom log interval
 TLI .F               480:   Top log interval
 CS1 .IN            8.625:   Casing size
 BS1 .IN            7.875:   Bit size
 DFT .        POLYMER KCL:   Type fluid in hole
 DFD .                  9:   Density
 DFV .                 40:   Viscosity
 DFPH.                8.5:   pH
 DFL .               10.2:   Fluid loss
 MSS .           FLOWLINE:   Source of sample
 RMS .OHMM           .226:   Rm
 MST .F                65:   Rm Meas. temp.
 RMF .OHMM           .169:   Rmf
 MFST.F                65:   Rmf Meas. temp.
 RMC .OHMM           .283:   Rmc
 MCST.F                65:   Rmc Meas. temp.
 MFSS.               CALC:   Source Rmf.
 MCSS.               CALC:   Source Rmc.
 RMB .OHMM           .118:   Rm. at BHT
 BHT .F               125:   BHT.
 TCS .HRS               5:   Time Circ. stopped
 MRT .F               125:   Maximum recorded temp.
 LUN .               6264:   Logging unit number
 LUL .           GILLETTE:   Logging unit location
 ENGI.             MILLER:   Recorded By
 WITN.             STRONG:   Witnessed by
 ORIG.           5" PRINT:   Origin of data
 UWI .     49025111340000:   Unique Well ID
 DICO. A2D TECHNOLOGIES, INC.:   Digitizing Company
 DMF .                 KB:   Drilling Measured From
 DAPD.F                12:   Feet Above Permanent Datum
 CBD1.      8.625" @ 475':   Casing driller 1
 CBL1.F               480:   Casing logger 1
 BSD1.F              3176:   Depth drilled with bit1
~OTHER INFORMATION
~A   DEPT     RHOB       CORR       TEND       NPHI         DT       TENS       CALR        SPR       TENR       RFOC         GRR      RILD       RILM   
# ...
  856.5000  -999.2500  -999.2500  -999.2500  -999.2500  -999.2500  -999.2500    11.0920   -61.9120   -65.0000     8.4040    87.3770    10.2630    10.0760
  857.0000  -999.2500  -999.2500  -999.2500  -999.2500  -999.2500  -999.2500    11.1210   -61.5620   -42.8860     8.5370    85.1740    10.3500    10.1610
  857.5000  -999.2500  -999.2500  -999.2500  -999.2500  -999.2500  -999.2500    11.1490   -61.2490   -35.0000     8.6640    82.4700    10.4480    10.2570
  858.0000  -999.2500  -999.2500  -999.2500  -999.2500  -999.2500  -999.2500    11.1780   -61.0030   -35.0000     8.7710    80.6030    10.4150    10.2250
  858.5000  -999.2500  -999.2500  -999.2500  -999.2500  -999.2500  -999.2500    11.1850   -60.8190   -35.0000     8.6440    84.3210    10.3770    10.1870
  859.0000  -999.2500  -999.2500  -999.2500  -999.2500  -999.2500  -999.2500    11.1780   -61.0900   -35.0000     8.5040    87.2080    10.3380    10.1500
  859.5000  -999.2500  -999.2500  -999.2500  -999.2500  -999.2500  -999.2500    11.1700   -62.0840   -61.6500     8.3650    89.0710    10.3000    10.1120
  860.0000  -999.2500  -999.2500  -999.2500  -999.2500  -999.2500  -999.2500    11.1620   -63.0680  -135.0000     8.2260    89.3500    10.2570    10.0700
  860.5000  -999.2500  -999.2500  -999.2500  -999.2500  -999.2500  -999.2500    11.1540   -64.0790  -155.0000     8.0870    86.3890    10.3190    10.1300
  861.0000  -999.2500  -999.2500  -999.2500  -999.2500  -999.2500  -999.2500    11.1470   -64.6320  -124.0180     8.2040    83.1170    10.3900    10.2000
  861.5000  -999.2500  -999.2500  -999.2500  -999.2500  -999.2500  -999.2500    11.1390   -64.9480   -95.0000     8.3500    83.0810    10.4610    10.2700
  862.0000  -999.2500  -999.2500  -999.2500  -999.2500  -999.2500  -999.2500    11.1310   -65.1790   -97.6630     8.4950    83.5910    10.5320    10.3400
  862.5000  -999.2500  -999.2500  -999.2500  -999.2500  -999.2500  -999.2500    11.1350   -65.4120  -100.3950     8.6410    83.4020    10.5770    10.3840
  863.0000  -999.2500  -999.2500  -999.2500  -999.2500  -999.2500  -999.2500    11.1420   -65.6490  -103.1260     8.7250    81.6850    10.6160    10.4220
  863.5000  -999.2500  -999.2500  -999.2500  -999.2500  -999.2500  -999.2500    11.1490   -65.7440  -110.7530     8.7770    80.5940    10.6550    10.4600
  864.0000  -999.2500  -999.2500  -999.2500  -999.2500  -999.2500  -999.2500    11.1570   -65.8030  -129.0710     8.8520    81.0870    10.6940    10.4990
  864.5000  -999.2500  -999.2500  -999.2500  -999.2500  -999.2500  -999.2500    11.1640   -65.8590  -147.3880     8.7760    82.3110    10.7410    10.5450
  865.0000  -999.2500  -999.2500  -999.2500  -999.2500  -999.2500  -999.2500    11.1710   -65.8370  -165.0000     8.6460    83.3870    10.6590    10.4640
  865.5000  -999.2500  -999.2500  -999.2500  -999.2500  -999.2500  -999.2500    11.1780   -65.5640  -151.1000     8.5160    82.8980    10.5570    10.3650
  866.0000  -999.2500  -999.2500  -999.2500  -999.2500  -999.2500  -999.2500    11.1860   -65.3070  -110.4860     8.3760    81.2360    10.4480    10.2570
  866.5000  -999.2500  -999.2500  -999.2500  -999.2500  -999.2500  -999.2500    11.1880   -65.2480   -95.0000     8.3260    81.0540    10.3910    10.2010
  867.0000  -999.2500  -999.2500  -999.2500  -999.2500  -999.2500  -999.2500    11.1840   -65.1980  -102.0860     8.2580    81.9490    10.3290    10.1410
  867.5000  -999.2500  -999.2500  -999.2500  -999.2500  -999.2500  -999.2500    11.1800   -65.1470   -87.5000     8.1890    85.7390    10.2670    10.0800
  868.0000  -999.2500  -999.2500  -999.2500  -999.2500  -999.2500  -999.2500    11.1760   -64.9980   -58.6670     8.1210    89.3970    10.2410    10.0540
  868.5000  -999.2500  -999.2500  -999.2500  -999.2500  -999.2500  -999.2500    11.1720   -64.2150   -39.9000     8.0730    91.6060    10.2210    10.0350
  869.0000  -999.2500  -999.2500  -999.2500  -999.2500  -999.2500  -999.2500    11.1680   -63.4300   -72.2000     8.1650    93.4800    10.2020    10.0160
  869.5000  -999.2500  -999.2500  -999.2500  -999.2500  -999.2500  -999.2500    11.1630   -62.9250  -115.0000     8.2230    92.5460    10.1820     9.9960
  870.0000  -999.2500  -999.2500  -999.2500  -999.2500  -999.2500  -999.2500    11.1590   -62.3230  -115.0000     8.1710    90.8430    10.1630     9.9780
  870.5000  -999.2500  -999.2500  -999.2500  -999.2500  -999.2500  -999.2500    11.1550   -61.6690  -122.0460     8.1180    86.8380    10.1550     9.9700
  871.0000  -999.2500  -999.2500  -999.2500  -999.2500  -999.2500  -999.2500    11.1510   -61.1380  -138.0150     8.0650    83.2880    10.1480     9.9630
  871.5000  -999.2500  -999.2500  -999.2500  -999.2500  -999.2500  -999.2500    11.1340   -61.5040  -155.0000     7.9990    85.0310    10.1400     9.9550
  872.0000  -999.2500  -999.2500  -999.2500  -999.2500  -999.2500  -999.2500    11.1130   -61.9000  -130.7000     8.0780    86.5890    10.1330     9.9480
  872.5000  -999.2500  -999.2500  -999.2500  -999.2500  -999.2500  -999.2500    11.0920   -62.9880  -121.3180     8.2230    86.9730    10.1250     9.9400
  873.0000  -999.2500  -999.2500  -999.2500  -999.2500  -999.2500  -999.2500    11.0710   -64.8320  -116.6000     8.2040    87.3110    10.1180     9.9330
  873.5000  -999.2500  -999.2500  -999.2500  -999.2500  -999.2500  -999.2500    11.0500   -65.2390  -111.8820     8.1720    88.4450    10.1100     9.9260
  874.0000  -999.2500  -999.2500  -999.2500  -999.2500  -999.2500  -999.2500    11.0310   -65.5780  -107.1640     8.1410    88.9390    10.1030     9.9180
  874.5000  -999.2500  -999.2500  -999.2500  -999.2500  -999.2500  -999.2500    11.0320   -65.8920   -92.5110     8.1100    86.3860    10.0950     9.9110
  875.0000  -999.2500  -999.2500  -999.2500  -999.2500  -999.2500  -999.2500    11.0350   -65.8110   -69.4440     8.0730    84.8200    10.0870     9.9030
  875.5000  -999.2500  -999.2500  -999.2500  -999.2500  -999.2500  -999.2500    11.0370   -65.7180   -60.8100     8.2320    85.7210    10.0800     9.8960
  876.0000  -999.2500  -999.2500  -999.2500  -999.2500  -999.2500  -999.2500    11.0400   -65.7620   -55.6200     8.4530    86.3700    10.0720     9.8880
  876.5000  -999.2500  -999.2500  -999.2500  -999.2500  -999.2500  -999.2500    11.0420   -65.8430   -75.0000     8.3660    87.0230    10.0700     9.8860
  877.0000  -999.2500  -999.2500  -999.2500  -999.2500  -999.2500  -999.2500    11.0440   -65.9260  -114.6670     8.2680    88.0550    10.0700     9.8860
  877.5000  -999.2500  -999.2500  -999.2500  -999.2500  -999.2500  -999.2500    11.0470   -66.0080   -98.6670     8.1690    88.2250    10.0700     9.8860
  878.0000  -999.2500  -999.2500  -999.2500  -999.2500  -999.2500  -999.2500    11.0490   -66.0900   -65.0000     8.0730    85.8960    10.0700     9.8860
  878.5000  -999.2500  -999.2500  -999.2500  -999.2500  -999.2500  -999.2500    11.0530   -66.1730   -84.0360     8.0730    83.1400    10.0700     9.8860
  879.0000  -999.2500  -999.2500  -999.2500  -999.2500  -999.2500  -999.2500    11.0580   -66.2510  -102.5710     8.2210    83.8620    10.0700     9.8860
  879.5000  -999.2500  -999.2500  -999.2500  -999.2500  -999.2500  -999.2500    11.0630   -66.0980  -112.1500     8.3910    86.8530    10.0700     9.8860
  880.0000  -999.2500  -999.2500  -999.2500  -999.2500  -999.2500  -999.2500    11.0680   -65.6220   -99.6000     8.5320    90.1380    10.0700     9.8860
  880.5000  -999.2500  -999.2500  -999.2500  -999.2500  -999.2500  -999.2500    11.0730   -65.0550   -68.4600     8.3810    90.5730    10.0700     9.8860
  881.0000  -999.2500  -999.2500  -999.2500  -999.2500  -999.2500  -999.2500    11.0780   -64.4260   -46.8290     8.2280    86.5750    10.0700     9.8860
  881.5000  -999.2500  -999.2500  -999.2500  -999.2500  -999.2500  -999.2500    11.0830   -63.9480   -54.2430     8.1290    83.3330    10.0700     9.8860
  882.0000  -999.2500  -999.2500  -999.2500  -999.2500  -999.2500  -999.2500    11.0880   -63.5000   -78.3000     8.0730    84.0820    10.0700     9.8860
