~VERSION INFORMATION
 VERS.                2.0:   CWLS LOG ASCII STANDARD - VERSION 2.0
 WRAP.                 NO:   ONE LINE PER DEPTH STEP
~WELL INFORMATION
#MNEM.UNIT      DATA TYPE    INFORMATION
#----------   ------------   ------------------------------
 STRT.F          494.0000:   START DEPTH
 STOP.F         4999.5000:   STOP DEPTH
 STEP.F            0.5000:   STEP LENGTH
 NULL.          -999.2500:   NO VALUE
 COMP.    FENIX & SCISSON:   COMPANY
 WELL.  FENIX "LX" #26-23:   WELL
 FLD . MPR #3 (TEAPOT DOME):   FIELD
 LOC .      S23 T38N R78W:   LOCATION
 CNTY.            NATRONA:   COUNTY
 STAT.            WYOMING:   STATE
 CTRY. UNITED STATES OF AMERICA:   COUNTRY
 SRVC.       SCHLUMBERGER:   SERVICE COMPANY
 DATE.        11-AUG-1978:   LOGDATE
 API .     49025107340000:   API NUMBER
~CURVE INFORMATION
#MNEM.UNIT       API CODE    CURVE DESCRIPTION
#----------   ------------   ------------------------------
 DEPT.F                  :   
 NPHI.DEC    42 890 03 00:   NEUTRON POROSITY SANDSTONE
 TEND.LBS    45 635 01 00:   TENSION FORM DENSITY LOG
 GRD .GAPI   45 310 01 00:   GAMMA RAY FROM DENSITY LOG
 CALD.IN     45 280 60 00:   CALIPER FROM DENSITY LOG
 DRHO.G/C3   45 356 01 00:   DENSITY CORRECTION
 RHOB.G/C3   45 350 01 00:   BULK DENSITY
 SPR .MV     07 010 01 00:   SPONTANEOUS POTENTIAL
 TENR.LBS    07 635 01 00:   TENSION FROM RESISTIVITY LOG
 ILD .OHMM   07 120 46 00:   INDUCTION LOG DEEP RESISTIVITY
 ILM .OHMM   07 120 44 00:   INDUCTION LOG MEDIUM RESISTIVITY
 SFL .OHMM   07 220 01 00:   SPHERICALLY FOCUSED LOG RESISITIVITY
~PARAMETER INFORMATION
#MNEM.UNIT          VALUE    DESCRIPTION
#----------   ------------   ------------------------------
 EKB .F         5335.0000:   Kelly bushing
 EGL .F         5325.0000:   Ground level
 EDF .F            0.0000:   Drilling floor
 EPD .F         5325.0000:   Permanent datum
 TD  .F         5000.0000:   Total depth
 CLNT.            A2DTECH:   Client Code
 SL  . 1600' FSL & 903' FWL:   Surface Location
 PD  .                 GL:   Permanent Datum
 LMF .                 KB:   Log Measured From
 DMF .                 KB:   Drilling Measured From
 DAPD.F                10:   Feet Above Permanent Datum
 DATE.        11-AUG-1978:   Date Logged [DD-MMM-YYYY]
 DD  .F              5000:   Depth driller
 DL  .F              4998:   Depth logger
 BLI .F              4992:   Bottom log interval
 TLI .F               525:   Top log interval
 CS1 .IN            9.625:   Casing size
 CBD1.      9.625" @ 521':   Casing driller 1
 CBL1.F               521:   Casing logger 1
 BS1 .IN             8.75:   Bit size
 BSD1.F              5000:   Depth drilled with bit1
 DFD .                9.1:   Density
 MSS .            MUD PIT:   Source of sample
 RMS .OHMM          0.897:   Rm
 MST .F                64:   Rm Meas. temp.
 RMF .OHMM          0.821:   Rmf
 MFST.F                64:   Rmf Meas. temp.
 MFSS.               MEAS:   Source Rmf.
 BHT .F               135:   BHT.
 TCS .HRS              03:   00:   Time Circ. stopped
 TLAB.HRS              09:   00:   Time logger at bottom
 MRT .F               135:   Maximum recorded temp.
 LUL .               CSPR:   Logging unit location
 ENGI.              CRAIG:   Recorded By
 ORIG.           5" PRINT:   Origin of data
 UWI .     49025107340000:   Unique Well ID
 DICO. A2D TECHNOLOGIES, INC.:   Digitizing Company
 DFV .                 40:   Viscosity
 DFPH.                 12:   pH
 DFL .                  4:   Fluid loss
~OTHER INFORMATION
~A  DEPTH     NPHI       TEND        GRD       CALD       DRHO       RHOB        SPR       TENR        ILD        ILM        SFL
# ...
 1104.0000     0.3663  1042.5188    96.1404    12.2191     0.1011     2.4583   -28.3978   705.0906     3.6934     3.0624     2.4811
 1104.5000     0.4219  1043.0076    92.1221    12.2795     0.1049     2.4086   -27.5314   703.2081     3.7720     3.3982     2.6709
 1105.0000     0.4303  1043.6664    91.7999    12.3550     0.0684     2.3696   -27.2259   701.3256     3.8754     3.7709     3.1402
 1105.5000     0.4027  1044.2402    92.4093    12.4003     0.0376     2.3739   -26.9204   699.4431     4.0390     4.1267     3.7013
 1106.0000     0.3542  1044.8140    95.5534    12.2860     0.0062     2.4048   -27.2147   697.5605     4.3280     4.5474     4.1493
 1106.5000     0.3216  1045.5311    99.8364    12.1649     0.0054     2.4544   -27.3590   695.6780     4.6099     4.8066     4.3342
 1107.0000     0.3204  1046.1050   102.3092    12.0893     0.0084     2.4681   -27.5033   693.8452     4.8670     5.0107     4.6496
 1107.5000     0.3330  1046.6787   104.7820    12.0591     0.0122     2.4717   -27.4963   695.9288     5.0727     5.2249     4.9931
 1108.0000     0.3375  1047.2524   106.9770    12.0442     0.0182     2.4754   -27.4892   697.9589     5.2505     5.2954     5.1735
 1108.5000     0.3255  1047.8262   107.8643    12.0295     0.0212     2.4882   -27.3337   699.9891     5.3970     5.2946     5.0614
 1109.0000     0.3159  1048.4210   106.6074    12.0298     0.0212     2.5018   -26.8783   702.0192     5.4713     5.1488     4.9877
 1109.5000     0.3090  1049.1173   105.6640    12.0301     0.0189     2.5009   -26.5727   704.0494     5.5463     5.0771     4.9151
 1110.0000     0.3059  1049.6909   104.6999    12.0304     0.0166     2.4979   -26.5658   706.0795     5.6032     5.0763     4.9843
 1110.5000     0.3047  1050.2648   103.7744    12.0306     0.0219     2.5061   -26.5602   708.1096     5.6338     5.1466     5.0541
 1111.0000     0.3074  1050.8385   102.8311    12.0310     0.0287     2.5129   -26.4046   710.1398     5.6989     5.2909     5.1622
 1111.5000     0.3101  1051.4286   102.1983    12.0160     0.0332     2.5098   -26.2489   711.5061     5.7374     5.5536     5.3486
 1112.0000     0.3107  1052.1295   101.5652    12.0012     0.0294     2.5015   -26.2420   709.8396     5.7759     5.6699     5.5816
 1112.5000     0.3080  1052.7032   100.9297    11.9864     0.0256     2.4985   -26.6876   708.3612     5.7745     5.7486     5.7004
 1113.0000     0.3026  1053.2771   100.6075    11.9867     0.0233     2.5030   -27.2803   706.8828     5.8542     5.7079     5.6578
 1113.5000     0.3032  1053.8508   100.5958    11.9717     0.0210     2.5067   -27.7230   705.4043     5.8935     5.5893     5.5982
 1114.0000     0.3073  1054.4362   101.2340    11.9568     0.0179     2.5082   -28.0172   703.9259     5.9039     5.5885     5.5735
 1114.5000     0.3119  1055.1418   102.4329    11.9269     0.0156     2.5021   -28.6113   702.4474     5.9322     5.5878     5.4920
 1115.0000     0.3131  1055.7156   103.6634    11.9120     0.0141     2.4853   -28.7556   700.9690     5.9307     5.5871     5.5301
 1115.5000     0.3134  1056.2894   105.2045    11.9123     0.0133     2.4712   -28.5987   699.4906     5.9708     5.6253     5.5676
 1116.0000     0.3179  1056.8632   107.7434    11.8974     0.0126     2.4772   -28.5930   697.0582     6.0111     5.7031     5.6460
 1116.5000     0.3210  1057.4436   108.9079    11.8825     0.0194     2.4915   -28.5874   694.2096     6.0518     5.7821     5.7255
 1117.0000     0.3227  1058.1542   106.4088    11.8677     0.0231     2.4967   -28.5817   691.3611     6.0658     5.9031     5.8056
 1117.5000     0.3131  1058.6466   104.2232    11.8073     0.0208     2.4967   -28.8760   688.5125     6.0912     5.9432     5.8874
 1118.0000     0.2996  1059.2480   105.8382    11.7621     0.0140     2.4974   -29.0203   685.6640     6.0897     5.9425     6.0560
 1118.5000     0.2921  1059.8496   106.9949    11.7169     0.0102     2.5019   -29.0133   682.8155     6.0887     5.9831     6.0975
 1119.0000     0.3005  1060.4512   103.8747    11.7134     0.0117     2.5095   -28.9875   679.9669     6.0873     5.9407     6.0519
 1119.5000     0.3062  1061.1665   100.1363    11.7023     0.0154     2.5184   -28.7008   677.1184     6.0441     5.9400     6.0499
 1120.0000     0.3104  1061.7402    96.3143    11.7027     0.0200     2.5229   -28.3953   674.2698     6.0426     5.8981     6.0042
 1120.5000     0.3143  1062.3141    93.8988    11.7030     0.0192     2.5153   -27.7900   671.9123     6.0353     5.7757     6.0022
 1121.0000     0.3146  1062.8877    92.6449    11.7032     0.0108     2.5024   -27.0334   672.2639     5.9986     5.7348     6.0002
 1121.5000     0.3110  1063.4614    92.0121    11.7035     0.0093     2.4919   -26.4280   672.5638     5.9505     5.6549     5.9553
 1122.0000     0.3089  1064.1788    93.3332    11.7038     0.0176     2.4964   -25.9726   672.8636     5.9134     5.5762     5.9104
 1122.5000     0.3074  1064.7526   100.0604    11.7193     0.0236     2.5009   -25.9670   673.1635     5.8714     5.5753     5.8662
 1123.0000     0.3062  1065.2632    99.4276    11.7348     0.0229     2.4895   -25.9600   673.4633     5.8297     5.5746     5.8643
 1123.5000     0.3056  1065.9000    98.7948    11.7503     0.0145     2.4782   -26.1043   673.7632     5.8283     5.5739     5.7784
 1124.0000     0.3071  1066.4738   100.3330    11.7809     0.0046     2.4790   -26.0987   674.0630     5.7470     5.5731     5.7353
 1124.5000     0.3128  1067.0676   103.4269    11.7964     0.0068     2.4880   -26.2529   674.3629     5.7314     5.5722     5.6518
 1125.0000     0.3119  1067.7648   106.8313    11.8271     0.0159     2.4955   -26.5372   674.6627     5.6656     5.5329     5.5298
 1125.5000     0.3035  1068.2706   106.8196    11.8425     0.0250     2.5007   -26.6801   674.9626     5.5865     5.4181     5.3714
 1126.0000     0.2977  1068.9124   103.6994    11.8580     0.0288     2.5030   -27.1244   675.2830     5.5083     5.3784     5.2932
 1126.5000     0.3022  1069.4738   100.5822    11.8886     0.0280     2.4976   -27.5882   690.0611     5.3939     5.2316     5.2162
 1127.0000     0.3152  1070.0752    98.3966    11.9042     0.0257     2.4908   -27.8626   688.2031     5.2044     5.1231     5.0647
 1127.5000     0.3203  1070.6768    97.1427    11.9195     0.0173     2.4833   -27.7057   686.3450     4.9958     4.8793     4.8174
 1128.0000     0.3142  1071.2782    98.0597    11.9503     0.0097     2.4840   -27.5501   684.4869     4.8583     4.5792     4.5151
 1128.5000     0.3109  1071.8796   100.2220    11.9505     0.0120     2.4870   -27.0933   682.6289     4.7246     4.2158     4.2319
 1129.0000     0.3118  1072.4984   101.1449    11.9661     0.0173     2.4900   -27.0877   680.7709     4.4606     3.8782     3.8710
 1129.5000     0.3178  1073.0826    98.9564    11.9815     0.0233     2.4922   -27.2334   678.9128     4.0267     3.4698     3.4851
 1130.0000     0.3289  1073.7894    96.1467    11.9818     0.0279     2.4929   -27.5262   677.6612     3.6790     3.0193     3.1068
 1130.5000     0.3482  1074.3632    95.8245    11.9822     0.0293     2.4823   -27.6705   677.9610     3.2695     2.7202     2.7894
 1131.0000     0.3707  1074.9370    95.8128    11.9825     0.0293     2.4620   -27.6635   678.2609     2.5294     2.3671     2.4863
 1131.5000     0.3806  1075.5107    96.1118    11.9827     0.0293     2.4424   -27.6579   678.5607     2.1414     2.0445     1.9906
 1132.0000     0.3881  1076.0902    96.0971    11.9830     0.0303     2.4295   -27.6522   678.8606     1.9163     1.6837     1.6519
 1132.5000     0.3944  1076.8018    95.1537    11.9986     0.0475     2.4145   -27.6452   679.1604     1.6450     1.4651     1.4620
 1133.0000     0.4211  1077.2932    92.9681    12.0140     0.0839     2.4009   -27.6396   679.4603     1.6332     1.4248     1.2939
 1133.5000     0.4508  1077.9493    87.6769    12.0750     0.1453     2.3519   -27.4841   679.7601     1.6216     1.4148     1.2750
 1134.0000     0.5859  1078.5229    77.7244    12.3636     0.1995     2.2276   -27.1784   680.0599     1.6326     1.4850     1.3498
