~VERSION INFORMATION
 VERS.                2.0:   CWLS LOG ASCII STANDARD - VERSION 2.0
 WRAP.                 NO:   ONE LINE PER DEPTH STEP
~WELL INFORMATION
#MNEM.UNIT      DATA TYPE    INFORMATION
#----------   ------------   ------------------------------
 STRT.F            0.5000:   START DEPTH
 STOP.F         5663.0000:   STOP DEPTH
 STEP.F            0.5000:   STEP LENGTH
 NULL.          -999.2500:   NO VALUE
 COMP.         U. S. NAVY:   COMPANY
 WELL.         US TP #1-3:   WELL
 FLD . TEAPOT NAVAL RESERVE:   FIELD
 LOC .       S3 T38N R78W:   LOCATION
 CNTY.            NATRONA:   COUNTY
 STAT.            WYOMING:   STATE
 CTRY. UNITED STATES OF AMERICA:   COUNTRY
 SRVC.       SCHLUMBERGER:   SERVICE COMPANY
 DATE.        27-FEB-1953:   LOGDATE
 API .     49025064250000:   API NUMBER
~CURVE INFORMATION
#MNEM.UNIT       API CODE    CURVE DESCRIPTION
#----------   ------------   ------------------------------
 DEPT.F                  :   
 SPR .MV     01 010 01 00:   SPONTANEOUS POTENTIAL FROM RES.
 ASN .OHMM   01 041 16 00:   AMPLIFIED SHORT NORMAL 16"
 LAT .OHMM   01 070 00 00:   LATERAL
 LN  .OHMM   01 060 64 00:   LONG NORMAL 64"
 GRN .CPS    35 310 01 00:   GAMMA RAY
 NEUT.NAPI   35 330 01 00:   NEUTRON
~PARAMETER INFORMATION
#MNEM.UNIT          VALUE    DESCRIPTION
#----------   ------------   ------------------------------
 EKB .F            0.0000:   Kelly bushing
 EGL .F            0.0000:   Ground level
 EDF .F            0.0000:   Drilling floor
 EPD .F            0.0000:   Permanent datum
 TD  .F         5653.0000:   Total depth
 DATE.        27-FEB-1953:   Date logged
 CLNT.            A2DTECH:   Client Code
 DD  .F              5653:   Depth driller
 DL  .F              5653:   Depth logger
 BLI .F              5652:   Bottom log interval
 TLI .F               446:   Top log interval
 CBD1.F               445:   Casing driller 1
 CBL1.F               446:   Casing logger 1
 BS1 .IN                9:   Bit size
 BSD1.F              5653:   Depth drilled with bit1
 DFT .          LIMA/BASE:   Type fluid in hole
 DFD .                9.9:   Density
 DFV .                 43:   Viscosity
 RMS .OHMM            1.1:   Rm
 MST .F                55:   Rm Meas. temp.
 RMB .OHMM            .34:   Rm. at BHT
 BHT .F               166:   BHT.
 TCS .HRS               1:   Time Circ. stopped
 MRT .F               166:   Maximum recorded temp.
 LUN .                728:   Logging unit number
 LUL .               CSPR:   Logging unit location
 ENGI.            EVENSON:   Recorded By
 WITN.              MILLS:   Witnessed by
 ORIG.      1" 2.5" PRINT:   Origin of data
 UWI .     49025064250000:   Unique Well ID
 DICO. A2D TECHNOLOGIES, INC.:   Digitizing Company
~OTHER INFORMATION
~A  DEPTH      SPR        ASN        LAT         LN        GRN       NEUT
# ...
 3900.5000   -40.1006    12.3651     4.4490    11.0909    80.9154   247.4307
 3901.0000   -40.2147    12.7984     5.6632    11.6132    79.9755   237.1942
 3901.5000   -40.2133    13.0460     6.7144    12.1475    78.0079   219.5774
 3902.0000   -40.2119    12.8321     8.2265    12.9471    76.9875   204.3882
 3902.5000   -40.2106    12.5041     9.9800    13.8800    76.2624   211.2584
 3903.0000   -40.2092    12.0973    10.5202    14.5470    76.0149   219.4705
 3903.5000   -40.2079    11.6935    10.9260    14.9488    81.0178   208.9748
 3904.0000   -40.2065    11.3978    11.0081    15.3501    81.7699   196.6614
 3904.5000   -40.2052    11.0732    11.0634    15.6196    79.2727   214.3004
 3905.0000   -40.2038    10.8777    10.7952    15.8888    80.0252   234.4647
 3905.5000   -40.1177    10.8787    10.5270    16.1585    82.7777   242.0090
 3906.0000   -39.9293    10.8795    10.3868    16.2950    83.5302   224.2881
 3906.5000   -39.9278    11.1520    10.1253    16.5641    82.0327   226.7756
 3907.0000   -39.9266    11.5046    10.1268    16.7006    75.2852   245.3005
 3907.5000   -39.9252    12.2405    10.1449    16.7045    69.0376   267.1042
 3908.0000   -40.1459    12.9208    10.2644    16.8416    63.0401   287.2685
 3908.5000   -40.1943    13.1933    10.4440    16.9781    58.7926   315.0085
 3909.0000   -40.1927    13.7376    10.6293    17.1146    56.0455   330.1222
 3909.5000   -40.1916    14.1459    11.0770    17.1185    55.3158   325.0340
 3910.0000   -40.1902    14.5724    11.4657    17.2550    54.7996   282.0669
 3910.5000   -40.1631    14.8269    12.1880    17.2588    56.8029   314.8575
 3911.0000   -39.9158    15.2400    12.6981    17.3960    60.5554   327.4523
 3911.5000   -39.9144    15.6552    13.3758    17.5325    66.8079   307.2062
 3912.0000   -39.9130    15.8457    14.1835    17.4037    71.8104   297.0674
 3912.5000   -39.9117    15.9171    14.7372    17.4076    72.8129   304.6117
 3913.0000   -39.8621    15.9181    15.5338    17.3327    73.0653   309.6245
 3913.5000   -39.6371    15.5113    16.0174    17.1500    73.5944   295.5925
 3914.0000   -39.6359    15.2403    16.8841    16.4914    73.8203   266.6134
 3914.5000   -39.6345    14.8335    17.6253    15.5669    73.8225   195.8686
 3915.0000   -39.6332    14.4267    18.3918    14.5098    73.8250   190.7803
 3915.5000   -39.6318    14.1557    19.1018    13.4526    72.4126   209.9889
 3916.0000   -39.6304    13.8848    19.8545    12.5281    69.3302   223.5394
 3916.5000   -39.6083    13.6137    20.6645    11.7369    68.0827   223.4953
 3917.0000   -39.3557    12.9354    21.3399    11.2096    68.0852   193.1545
 3917.5000   -39.3544    12.1210    21.8886    10.5510    71.3377   172.9148
 3918.0000   -39.3533    10.3555    22.4206    10.1563    76.3402   162.7760
 3918.5000   -39.2741     9.9925    22.4218     9.4977    77.3426   162.7383
 3919.0000   -39.0788     9.8952    22.4233     8.9710    75.3451   162.7005
 3919.5000   -39.0774     9.2710    22.2900     8.3124    72.3476   147.5112
 3920.0000   -39.0758     8.7719    22.1114     7.9184    70.1005   147.4672
 3920.5000   -38.9060     8.0770    21.8646     7.5244    69.8521   132.2779
 3921.0000   -38.2580     7.0996    20.9462     7.1304    72.3555   112.0381
 3921.5000   -38.0999     6.3667    19.7346     6.7357    73.1079   117.0509
 3922.0000   -37.7807     5.6882    17.8491     6.3417    70.1104   147.3162
 3922.5000   -37.1670     5.2156    15.8291     6.0810    67.1129   172.5310
 3923.0000   -36.7951     4.7971    13.9436     5.6876    63.3654   172.4932
 3923.5000   -36.3490     4.5221    12.8667     5.4256    61.1179   177.5185
 3924.0000   -36.2011     4.1969    12.1403     5.0322    60.1199   192.6260
 3924.5000   -35.8028     3.7357    11.6563     4.7702    60.6228   185.0062
 3925.0000   -35.3941     3.4104    11.3377     4.5088    62.6253   167.2917
 3925.5000   -34.7132     3.2091    11.1199     4.2474    68.1278   152.0048
 3926.0000   -34.7117     3.0418    10.9867     3.9867    72.1303   121.7616
 3926.5000   -34.7106     2.8693    10.7764     3.7259    75.3828    93.9461
 3927.0000   -34.7092     2.7885    10.4503     3.5965    77.1352    81.2821
 3927.5000   -34.7079     2.7080    10.0051     3.4682    73.8877    76.1938
 3928.0000   -34.7065     2.6543     9.5093     3.4721    69.6402    80.1007
 3928.5000   -34.7052     2.6009     8.9719     3.4768    64.1427    86.2256
 3929.0000   -34.7038     2.5473     8.7037     3.4807    61.8952    81.4629
 3929.5000   -34.9744     2.4936     8.5178     3.4841    62.1476    70.7709
 3930.0000   -35.2990     2.4672     8.3020     3.4884    62.6501    63.3788
 3930.5000   -35.5893     2.4682     7.8990     3.4920    61.7483    70.9168
 3931.0000   -35.7853     2.4691     6.8224     3.3628    59.1085    93.6063
 3931.5000   -35.8503     2.4971     5.4760     3.3680    56.9080   131.4474
 3932.0000   -36.1141     2.6236     5.2075     3.3581    56.4096   184.4462
 3932.5000   -36.3247     2.7711     5.4054     3.2427    58.1629   171.7759
 3933.0000   -36.4692     2.9157     5.9211     3.1137    61.1654   154.0614
 3933.5000   -36.5938     3.0982     6.2898     3.1182    65.1679   143.9226
 3934.0000   -36.5924     3.2584     6.5609     3.1227    68.6704   148.9354
 3934.5000   -36.5910     3.7521     6.8317     3.1266    69.6720   171.6249
 3935.0000   -36.5897     4.1061     6.8330     3.1305    67.1754   179.1692
 3935.5000   -36.5883     4.1883     6.7884     3.1343    63.4278   163.9736
 3936.0000   -36.5868     4.2436     5.8923     3.2708    58.1803   158.8917
 3936.5000   -36.8573     4.1899     5.2199     3.2753    56.1824   171.4802
 3937.0000   -36.8560     3.9462     4.9515     3.4118    58.6853   167.7035
 3937.5000   -36.8546     3.8113     4.6833     3.4157    61.1878   143.6206
 3938.0000   -36.8530     3.7848     4.4150     3.5522    61.3216   113.2798
 3938.5000   -36.8517     3.8129     4.2818     3.5560    60.9039   120.8178
 3939.0000   -36.8505     3.7835     4.1743     3.6925    60.1948   139.1678
 3939.5000   -36.8492     3.6786     4.1496     3.8297    59.1973   156.0958
 3940.0000   -36.9022     3.5977     4.0499     3.9662    58.9498   171.2096
 3940.5000   -37.3899     3.8160     3.8567     4.1027    61.2026   183.8044
 3941.0000   -37.6603     4.0887     3.6590     4.1065    64.7051   178.7099
 3941.5000   -37.9307     4.2509     3.6159     4.2430    70.2076   166.9038
 3942.0000   -37.9294     4.4435     3.6173     4.1143    77.2101   149.1429
 3942.5000   -38.2654     4.6074     3.6186     4.1188    81.2130   140.7178
 3943.0000   -38.5581     4.7169     3.6199     4.1226    83.2155   145.7306
 3943.5000   -39.0122     4.8091     3.6213     4.2591    81.9679   150.7496
 3944.0000   -39.0978     4.8544     3.6228     4.2630    80.2200   133.0288
 3944.5000   -39.4098     4.7194     3.7589     4.2669    73.4729   100.1628
 3945.0000   -39.8232     4.4484     3.8949     4.2707    66.7254    87.5050
 3945.5000   -39.8540     4.2045     4.1660     4.4079    65.2275   120.2830
 3946.0000   -40.0924     3.9882     4.1694     4.4117    64.2295   135.4030
 3946.5000   -40.0908     3.9890     4.3217     4.4156    64.9828   130.4919
 3947.0000   -40.0897     4.0441     4.5943     4.4195    68.9853   120.1697
 3947.5000   -40.0883     4.1264     4.8079     4.4231    76.2378   125.1825
 3948.0000   -40.0868     4.5348     5.2509     4.4278    79.7403   241.3063
 3948.5000   -40.0855     5.0249     5.3585     4.2978    80.2428   301.8746
 3949.0000   -40.0842     5.6778     5.7925     4.1690    79.1425   271.5339
 3949.5000   -40.0829     6.0047     5.8384     3.9089    77.2477   210.8963
 3950.0000   -40.0815     6.1414     5.9299     3.7795    74.2498   175.4987
 3950.5000   -40.0802     6.2509     5.8560     3.6508    75.3207   160.3095
 3951.0000   -39.8823     6.3061     5.1242     3.6559    75.7548   150.1707
 3951.5000   -39.5340     6.2765     4.5844     3.6598    74.2572   129.9309
 3952.0000   -39.1956     5.8458     4.1699     3.6636    72.0101    81.9134
