~VERSION INFORMATION
 VERS.                2.0:   CWLS LOG ASCII STANDARD - VERSION 2.0
 WRAP.                 NO:   ONE LINE PER DEPTH STEP
~WELL INFORMATION
#MNEM.UNIT      DATA TYPE    INFORMATION
#----------   ------------   ------------------------------
 STRT.F          470.0000:   START DEPTH
 STOP.F         3791.5000:   STOP DEPTH
 STEP.F            0.5000:   STEP LENGTH
 NULL.          -999.2500:   NO VALUE
 COMP.    FENIX & SCISSON:   COMPANY
 WELL.   FENIX MDX #44-10:   WELL
 FLD .                NPR:   FIELD
 LOC .      S10 T38N R78W:   LOCATION
 CNTY.            NATRONA:   COUNTY
 STAT.            WYOMING:   STATE
 CTRY. UNITED STATES OF AMERICA:   COUNTRY
 SRVC.       SCHLUMBERGER:   SERVICE COMPANY
 DATE.        25-OCT-1977:   LOGDATE
 API .     49025104310000:   API NUMBER
~CURVE INFORMATION
#MNEM.UNIT       API CODE    CURVE DESCRIPTION
#----------   ------------   ------------------------------
 DEPT.F                  :   
 DT  .US/F   60 520 00 00:   DELTA TIME
 SPR .MV     11 010 01 00:   SPONTANEOUS POTENTIAL FROM RES.
 LLS .OHMM   11 220 09 00:   LATEROLOG LOG SHALLOW
 LLD .OHMM   11 220 10 00:   LATEROLOG LOG DEEP
 MSFL.OHMM   11 270 04 00:   MICRO SPHERICALLY FOCUSED
 NPOR.DEC    42 890 03 00:   ALPHA PROCESSED NEUTRON POROSITY
 RHOB.G/C3   45 350 01 00:   BULK DENSITY
 CORR.G/C3   45 356 01 00:   DENSITY CORRECTION
 GRD .GAPI   45 310 01 00:   GAMMA RAY FROM DENSITY LOG
 CALD.IN     45 280 60 00:   CALIPER FROM DENSITY LOG
~PARAMETER INFORMATION
#MNEM.UNIT          VALUE    DESCRIPTION
#----------   ------------   ------------------------------
 EKB .F         5239.0000:   Kelly bushing
 EGL .F         5229.0000:   Ground level
 EDF .F            0.0000:   Drilling floor
 EPD .F           10.0000:   Permanent datum
 TD  .F         3802.0000:   Total depth
 DATE.        25-OCT-1977:   Date logged
 CLNT.            A2DTECH:   Client Code
 SL  . 2640' FNL & 2640' FEL:   Surface Location
 PD  .                 GL:   Permanent Datum
 DD  .F              3802:   Depth driller
 DL  .F              3791:   Depth logger
 BLI .F              3789:   Bottom log interval
 TLI .F               505:   Top log interval
 CS1 .IN            8.625:   Casing size
 CBD1.       8.625 @ 505':   Casing driller 1
 CBL1.F               505:   Casing logger 1
 BS1 .IN            7.875:   Bit size
 DFT .            KCL MUD:   Type fluid in hole
 DFD .                9.1:   Density
 DFV .                 45:   Viscosity
 DFPH.               10.5:   pH
 DFL .                  8:   Fluid loss
 MSS .             MUDPIT:   Source of sample
 RMS .OHMM           .209:   Rm
 MST .F                72:   Rm Meas. temp.
 RMF .OHMM           .179:   Rmf
 MFST.F                72:   Rmf Meas. temp.
 RMC .OHMM           .314:   Rmc
 MCST.F                72:   Rmc Meas. temp.
 MFSS.               MEAS:   Source Rmf.
 RMB .OHMM           .122:   Rm. at BHT
 BHT .F               123:   BHT.
 TCS .HRS            1400:   Time Circ. stopped
 MRT .F               123:   Maximum recorded temp.
 LUN .               5642:   Logging unit number
 LUL .               CSPR:   Logging unit location
 ENGI.             SAYLER:   Recorded By
 WITN.         PETTINGILL:   Witnessed by
 ORIG.           5" PRINT:   Origin of data
 UWI .     49025104310000:   Unique Well ID
 DICO. A2D TECHNOLOGIES, INC.:   Digitizing Company
 DAPD.                 10:   Feet Above Permanent Datum
 BSD1.               3802:   Depth drilled with bit1
 MCSS.               CALC:   Source Rmc.
~OTHER INFORMATION
~A   DEPT        DT       SPR        LLS        LLD       MSFL       NPOR       RHOB       CORR        GRD       CALD   
# ...
 3552.0000    97.2500   -53.2700     6.7480     5.9040     8.8720     0.3170     2.4780     0.0190   178.5770     8.0850
 3552.5000    99.5410   -53.1620     6.1810     5.4250     7.6190     0.3110     2.4670     0.0090   184.7300     8.0930
 3553.0000    99.8500   -53.1150     6.1810     4.9090     6.3670     0.3180     2.4590    -0.0080   185.8560     8.0950
 3553.5000    99.7500   -53.0470     6.2360     4.8640     5.1140     0.3220     2.4490     0.0030   181.6310     8.0960
 3554.0000    99.4870   -52.9720     6.4060     5.0280     4.2760     0.3170     2.4690     0.0190   173.8210     8.0980
 3554.5000    98.8400   -52.8420     6.5770     5.2510     5.8650     0.3270     2.4580     0.0530   165.9200     8.1000
 3555.0000    97.7500   -52.4200     6.7470     5.4750     7.5700     0.3400     2.4400     0.0120   161.7760     8.1010
 3555.5000    98.2500   -52.0020     6.9170     5.6990     8.8600     0.3530     2.4550     0.0300   158.6510     8.1030
 3556.0000    98.5950   -51.5850     7.0960     5.9220     9.2690     0.3640     2.4750     0.0220   155.5570     8.1050
 3556.5000    99.1420   -51.1670     7.0960     6.0680     9.4410     0.3460     2.4620     0.0110   152.4280     8.1060
 3557.0000    99.1030   -50.7490     6.9540     6.0240     9.3550     0.3430     2.4580     0.0190   152.4250     8.1080
 3557.5000    98.2750   -50.3320     6.8050     5.8990     8.1530     0.3400     2.4650     0.0000   154.8230     8.1100
 3558.0000    97.4500   -49.9080     6.6560     5.7570     7.7810     0.3420     2.4710     0.0280   160.6010     8.1110
 3558.5000    96.8520   -49.3390     6.5070     5.5240     8.0780     0.3350     2.4750     0.0120   168.7000     8.1130
 3559.0000    96.2210   -48.7080     6.3540     5.2850     8.3760     0.3320     2.4640     0.0280   172.5780     8.1170
 3559.5000    95.6690   -48.0770     6.2040     5.1200     8.3760     0.3310     2.4710     0.0160   175.1500     8.1210
 3560.0000    95.3010   -47.4450     5.8030     4.9060     7.5570     0.3320     2.4760     0.0310   175.2180     8.1260
 3560.5000    94.8500   -46.8130     5.4030     4.6250     6.4850     0.3260     2.4540     0.0130   173.1410     8.1300
 3561.0000    94.1740   -46.1830     5.0020     4.0430     4.8910     0.3260     2.4710     0.0260   169.8790     8.1350
 3561.5000    97.4500   -45.6240     4.6020     3.4620     3.4320     0.3320     2.4380     0.0110   168.4430     8.1390
 3562.0000    95.5290   -45.3690     4.4770     2.8780     2.0660     0.3390     2.4260     0.0370   165.9270     8.1440
 3562.5000    94.0500   -45.0820     4.4770     2.8780     1.2450     0.3410     2.4130     0.0420   159.9760     8.1490
 3563.0000    95.1360   -44.7930     4.6950     3.1840     2.2470     0.3330     2.3850     0.0400   153.4800     8.1520
 3563.5000    96.3500   -44.5040     4.9150     2.6730     3.0420     0.3270     2.3500     0.0900   146.2660     8.1360
 3564.0000    96.7490   -44.2150     5.1410     3.1200     3.8880     0.3300     2.3580     0.1150   138.8180     8.1210
 3564.5000    99.9090   -43.9260     5.1410     3.8540     4.7330     0.3130     2.3260     0.0180   136.7410     8.1050
 3565.0000   101.6500   -43.6370     5.0760     4.5870     5.5790     0.2990     2.4120     0.0380   138.3210     8.0900
 3565.5000    98.2070   -43.3480     5.0120     4.8640     6.0680     0.2820     2.4520     0.0360   140.7120     8.0740
 3566.0000    96.0210   -43.0600     4.9550     4.0360     3.8100     0.2830     2.4560     0.0170   143.1910     8.0580
 3566.5000    90.0440   -42.7710     5.1570     3.8640     3.0130     0.2940     2.4780     0.0100   144.3070     8.0540
 3567.0000    87.0500   -42.4820     5.5190     4.4780     4.3050     0.3020     2.4860     0.0280   146.4510     8.0540
 3567.5000    89.5570   -42.1930     5.9020     5.2160     5.8570     0.3100     2.4810     0.0320   147.4980     8.0540
 3568.0000    91.1890   -41.9040     6.8910     5.9530     8.7880     0.3150     2.4730     0.0270   141.4560     8.0540
 3568.5000    92.9150   -41.6150     7.2950     6.1240    11.3510     0.3080     2.4670     0.0050   135.3650     8.0540
 3569.0000    94.0900   -41.3260     6.8710     5.9040     9.9280     0.2880     2.4820     0.0220   129.2810     8.0530
 3569.5000    95.1500   -41.0800     6.2240     5.5650     8.2510     0.2720     2.5010     0.0030   126.4440     8.0460
 3570.0000    94.8500   -41.1180     5.5770     5.2270     6.5740     0.2600     2.5120    -0.0030   129.2670     8.0180
 3570.5000    91.5500   -40.6430     4.9300     4.9090     4.8980     0.2530     2.5070    -0.0040   134.4970     7.9920
 3571.0000    83.7050   -41.2500     4.2830     4.8790     3.3340     0.2650     2.4960     0.0110   138.7390     7.9970
 3571.5000    81.3460   -41.5700     4.1210     4.5560     2.1840     0.2930     2.4480    -0.0030   141.7070     8.0740
 3572.0000    80.2500   -41.9200     4.0990     3.5810     1.5950     0.3130     2.4100     0.0070   144.9610     8.1470
 3572.5000    94.8500   -42.2920     4.0740     2.8510     1.2420     0.3350     2.3700    -0.0030   148.1950     8.2200
 3573.0000    93.3660   -43.2060     4.0490     2.8510     0.9890     0.3550     2.3310     0.0380   151.3210     8.2330
 3573.5000    90.4500   -44.1490     4.0460     3.0550     1.7720     0.3630     2.2730     0.0570   157.9680     8.1270
 3574.0000    93.0500   -45.0910     4.0900     3.3330     3.3070     0.3660     2.2150     0.0270   160.2300     8.0210
 3574.5000    92.3540   -46.0330     4.1310     3.6740     4.0830     0.3820     2.2320     0.1360   152.9700     8.0060
 3575.0000    90.6500   -46.9740     4.3180     4.0150     2.4900     0.3950     2.2460     0.1050   145.3500     8.1480
 3575.5000    95.1230   -47.9150     4.8470     4.3560     2.0660     0.3830     2.3120     0.0590   137.7670     8.2930
 3576.0000   101.1500   -48.8560     5.3770     4.6970     5.9680     0.3520     2.4190     0.1100   133.1460     8.0210
 3576.5000   102.6230   -49.7970     5.6370     4.9090     6.8400     0.3800     2.5830     0.1250   135.3820     8.3410
 3577.0000   105.8210   -50.7390     5.0920     4.2370     4.8680     0.4380     2.5160     0.0850   138.8950     8.7860
 3577.5000   101.9450   -51.6800     4.4000     3.7240     3.3230     0.5170     2.4840     0.0000   142.4810     8.1700
 3578.0000    89.0500   -52.6210     3.6560     3.2100     1.7770     0.4410     2.5280     0.0510   146.3950     7.8290
 3578.5000    83.1340   -53.5620     3.4800     3.0210     1.0070     0.3080     2.3830     0.0490   142.9920     7.8040
 3579.0000    81.9450   -54.5030     3.3750     2.9290     0.9200     0.3270     2.3150     0.0510   138.7250     8.0370
 3579.5000    80.9530   -55.4450     3.3030     2.7850     0.6840     0.3490     2.2400     0.1980   134.3790     8.2710
 3580.0000    83.9500   -56.3890     3.2300     2.6230     0.7190     0.3820     2.1540     0.2290   130.5030     8.7410
 3580.5000    93.3500   -57.3820     3.1580     2.4830     0.7830     0.4180     2.1390     0.1880   132.8290     9.1170
 3581.0000    97.1020   -58.4560     3.0860     2.4920     0.8000     0.4540     2.1270     0.1740   133.6500     9.3460
 3581.5000   100.4500   -59.5270     3.0130     2.5530     0.7140     0.4740     2.0770     0.0960   125.8480     9.8320
 3582.0000    99.5500   -60.6000     2.9410     2.5070     0.6500     0.4830     2.0080     0.0540   120.4010    12.3850
 3582.5000   101.8420   -61.6730     2.8690     2.2030     0.5960     0.4920     1.8950     0.0240   130.0170    11.9150
 3583.0000   104.0230   -62.7470     2.8510     2.2030     0.5960     0.5010     1.8330     0.0350   123.2100    11.0550
 3583.5000   106.6500   -63.8230     2.8230     2.2590     1.1040     0.5080     1.8490     0.1680   129.4930    11.0480
 3584.0000   104.8500   -64.8290     2.6980     2.4130     2.5530     0.5300     1.9180     0.1550   136.4330    11.5480
 3584.5000   108.3500   -64.8570     2.4930     2.5670     3.4920     0.5170     1.8540     0.1240   145.6470    14.4800
 3585.0000   102.7500   -64.8540     2.2890     2.7210     2.6360     0.5060     1.9270     0.1050   159.9070    13.5350
