~VERSION INFORMATION
 VERS.                2.0:   CWLS LOG ASCII STANDARD - VERSION 2.0
 WRAP.                 NO:   ONE LINE PER DEPTH STEP
~WELL INFORMATION
#MNEM.UNIT      DATA TYPE    INFORMATION
#----------   ------------   ------------------------------
 STRT.F          176.5000:   START DEPTH
 STOP.F         3010.0000:   STOP DEPTH
 STEP.F            0.5000:   STEP LENGTH
 NULL.          -999.2500:   NO VALUE
 COMP.    FENIX & SCISSON:   COMPANY
 WELL.   FENIX "A" #36-28:   WELL
 FLD .              NPR 3:   FIELD
 LOC .      S28 T39N R78W:   LOCATION
 CNTY.            NATRONA:   COUNTY
 STAT.            WYOMING:   STATE
 CTRY. UNITED STATES OF AMERICA:   COUNTRY
 SRVC.       SCHLUMBERGER:   SERVICE COMPANY
 DATE.        19-AUG-1977:   LOGDATE
 API .     49025104150000:   API NUMBER
~CURVE INFORMATION
#MNEM.UNIT       API CODE    CURVE DESCRIPTION
#----------   ------------   ------------------------------
 DEPT.F                  :   
 SPR .MV     07 010 01 00:   SPONTANEOUS POTENTIAL
 ILM .OHMM   07 120 44 00:   INDUCTION LOG MEDIUM RESISTIVITY
 ILD .OHMM   07 120 46 00:   INDUCTION LOG DEEP RESISTIVITY
 LL8 .OHMM   07 220 08 00:   LATEROLOG-8 RESISTIVITY
 GRD .GAPI   45 310 01 00:   GAMMA RAY FROM DENSITY LOG
 CALD.IN     45 280 60 00:   CALIPER FROM DENSITY LOG
 RHOB.G/C3   45 350 01 00:   BULK DENSITY
 DCOR.G/C3   45 356 01 00:   DENSITY CORRECTION
~PARAMETER INFORMATION
#MNEM.UNIT          VALUE    DESCRIPTION
#----------   ------------   ------------------------------
 EKB .F         5107.0000:   Kelly bushing
 EGL .F         5097.0000:   Ground level
 EDF .F            0.0000:   Drilling floor
 TD  .F         3012.0000:   Total depth
 DATE.        19-AUG-1977:   Date logged
 CLNT.            A2DTECH:   Client Code
 SL  . 1650' FSL & 1650' FWL:   Surface Location
 PD  .                 GL:   Permanent Datum
 EPD .F              5097:   Elevation Permanent Datum
 LMF .                 KB:   Log Measured From
 DMF .                 KB:   Drilling Measured From
 DAPD.F                10:   Feet Above Permanent Datum
 DD  .F              3010:   Depth driller
 DL  .F              3011:   Depth logger
 BLI .F              3005:   Bottom log interval
 TLI .F               215:   Top log interval
 CS1 .IN            8.625:   Casing size
 CBD1.      8.625" @ 205':   Casing driller 1
 CBL1.F               215:   Casing logger 1
 BS1 .IN            7.875:   Bit size
 BSD1.F              3010:   Depth drilled with bit1
 DFT .                FGM:   Type fluid in hole
 DFD .                8.8:   Density
 DFV .                 33:   Viscosity
 DFPH.               10.5:   pH
 DFL .               10.6:   Fluid loss
 MSS .            MUD PIT:   Source of sample
 RMS .OHMM            .19:   Rm
 MST .F                76:   Rm Meas. temp.
 RMF .OHMM            .17:   Rmf
 MFST.F                78:   Rmf Meas. temp.
 MFSS.               MEAS:   Source Rmf.
 RMB .OHMM            .13:   Rm. at BHT
 BHT .F               112:   BHT.
 TCS .HRS            0700:   Time Circ. stopped
 TLAB.HRS            1400:   Time logger at bottom
 MRT .F               112:   Maximum recorded temp.
 LUN .               5642:   Logging unit number
 ENGI.          CHALUPSKY:   Recorded By
 WITN.     WES PETTINGILL:   Witnessed by
 ORIG.           5" PRINT:   Origin of data
 UWI .     49025104150000:   Unique Well ID
 DICO. A2D TECHNOLOGIES, INC.:   Digitizing Company
 LUL .               CSPR:   Logging unit location
~OTHER INFORMATION
~A   DEPT      SPR        ILM        ILD        LL8        GRD       CALD       RHOB       DCOR   
# ...
  419.5000   -56.3500     8.0770     9.2750     8.4030   119.2750     8.8130     2.4100     0.0570
  420.0000   -56.1050     7.9550     9.1580     8.2760   120.0660     8.8040     2.4050     0.0480
  420.5000   -55.8680     7.8320     9.0410     8.1480   121.5630     8.8460     2.3980     0.0570
  421.0000   -55.6380     7.7090     8.9240     8.0580   123.0870     8.8850     2.3970     0.0510
  421.5000   -55.9750     7.5860     8.9050     7.9760   122.2720     8.9060     2.4070     0.0660
  422.0000   -56.3520     7.4630     8.9050     7.8940   121.8130     8.8810     2.4120     0.0580
  422.5000   -56.5510     7.3470     8.6310     7.8120   121.2330     8.8580     2.3930     0.0460
  423.0000   -56.3450     7.2880     8.2110     7.7300   121.3680     8.8530     2.4140     0.0610
  423.5000   -56.2610     7.2330     7.7800     7.6220   123.2280     8.8520     2.4020     0.0700
  424.0000   -56.5300     7.1770     7.3190     7.6770   121.0890     8.8920     2.4130     0.0630
  424.5000   -56.5410     7.0910     6.7340     7.7600   118.4400     8.9430     2.4210     0.1300
  425.0000   -56.4670     6.9730     6.0190     7.8340   119.4400     8.9060     2.3730     0.1240
  425.5000   -56.4500     6.8910     5.3050     6.2950   120.2770     8.8490     2.3250     0.0500
  426.0000   -56.9010     7.2140     4.7340     4.7770   117.2220     8.7960     2.3640     0.0390
  426.5000   -57.3680     7.1620     5.2990     5.9930   114.0530     8.8210     2.3500     0.0530
  427.0000   -57.2430     7.0610     6.3860     7.3190   111.5170     8.8500     2.3220     0.0420
  427.5000   -57.0740     6.9550     7.5520     8.9870   110.5170     8.8170     2.2940     0.0650
  428.0000   -56.9050     7.4560     8.0420     8.5850   112.5710     8.7750     2.2660     0.0810
  428.5000   -56.7130     7.9060     8.3480     8.8870   113.4370     8.7370     2.2310     0.0110
  429.0000   -56.4350     7.3470     8.4770     9.2890   112.7470     8.7540     2.4100     0.0600
  429.5000   -56.2280     7.9350     8.9010     9.6920   115.4340     8.7720     2.3990     0.0420
  430.0000   -56.4250     8.4410     9.3660    10.0940   118.3440     8.7900     2.4090     0.0490
  430.5000   -56.5490     9.1540     9.6070    10.5010   118.3820     8.8080     2.4190     0.0570
  431.0000   -56.2180     9.1090     9.8490    10.4630   116.5900     8.8250     2.4170     0.0490
  431.5000   -55.8880     8.9870     9.8490    10.4240   114.7200     8.8430     2.4290     0.0640
  432.0000   -55.6270     9.1630     9.8490    10.3850   113.4450     8.8620     2.4450     0.0790
  432.5000   -55.8340     9.6710     9.8490    10.3470   112.5930     8.9050     2.4580     0.0910
  433.0000   -56.0090     9.5240     9.8490    10.3080   113.8680     8.9230     2.4250     0.0720
  433.5000   -56.0020     9.3460     9.8300    10.2690   112.7330     8.9130     2.4040     0.0600
  434.0000   -55.9470     9.0700     9.7470    10.2300   113.4270     8.9020     2.4350     0.0730
  434.5000   -55.6140     9.5820     9.6640    10.1910   113.7490     8.8910     2.4240     0.0610
  435.0000   -55.2730     8.8240     9.5810    10.1520   112.9790     8.8800     2.4130     0.0590
  435.5000   -55.3370     8.8530     9.4980    10.1020   115.6210     8.8700     2.4280     0.0550
  436.0000   -55.4940     8.9140     9.4150    10.0220   117.3890     8.8600     2.4390     0.0720
  436.5000   -55.6550     8.9760     9.3320     9.9420   119.1920     8.8740     2.4070     0.0470
  437.0000   -55.8160     9.0370     9.4700     9.8620   119.5550     8.9230     2.3950     0.0530
  437.5000   -55.9760     9.0990     9.6360     9.7820   117.8780     8.9410     2.3850     0.0370
  438.0000   -56.1390     8.9870     9.8020     9.7020   116.2150     8.9200     2.3970     0.0480
  438.5000   -56.0940     9.0740     9.9680     9.6220   114.6120     8.8980     2.4090     0.0560
  439.0000   -55.9220     9.1960    10.1340     9.5420   112.8340     8.8770     2.4130     0.0480
  439.5000   -55.7490     9.3180    10.3110     9.4620   111.0980     8.8560     2.4060     0.0590
  440.0000   -55.5750     9.4950    10.1600     9.3060   111.6970     8.8790     2.3990     0.0490
  440.5000   -55.4140     9.3110     9.9990     9.0030   112.6470     8.9090     2.3900     0.0380
  441.0000   -55.4990     8.9730     9.8380     8.7000   112.1320     8.9390     2.4100     0.0570
  441.5000   -55.5900     8.6350     9.6710     8.3580   111.1520     8.9680     2.4010     0.0450
  442.0000   -55.6810     8.2970     9.2940     7.9460   112.3810     8.9090     2.3900     0.0310
  442.5000   -55.7710     7.9590     8.9030     7.5340   113.7920     8.8430     2.4040     0.0610
  443.0000   -55.8630     7.6210     8.4340     7.1570   115.2440     8.7780     2.4160     0.0700
  443.5000   -55.9540     7.1470     7.6210     6.8380   117.0590     8.8130     2.4020     0.0540
  444.0000   -56.2110     6.5780     6.8080     6.5060   115.6970     8.8530     2.4200     0.0680
  444.5000   -56.6770     6.0100     5.9950     6.1280   116.2010     8.8950     2.4590     0.0880
  445.0000   -57.1420     5.4410     5.0220     5.7490   116.0180     8.8860     2.4470     0.0800
  445.5000   -57.8090     4.8130     4.0920     5.2660   113.8800     8.8460     2.4250     0.0760
  446.0000   -58.7060     3.9800     3.4300     4.5320   111.6050     8.8380     2.4490     0.0820
  446.5000   -59.2050     3.1460     2.7690     3.7360   112.1770     9.0480     2.4220     0.0650
  447.0000   -58.3850     2.3130     2.3120     3.1820   113.6680     9.3720     2.3990     0.0890
  447.5000   -58.7670     1.7690     2.0380     2.6280   115.1880     9.6950     2.3960     0.1400
  448.0000   -58.4830     1.6210     2.1580     2.0740   116.6340    10.0330     2.2820     0.1910
  448.5000   -57.9570     1.9580     2.3380     1.7130   115.6110    10.0490     2.2070     0.2500
  449.0000   -57.9020     2.5010     2.5180     2.0730   113.2910    10.0740     2.1340     0.1080
  449.5000   -57.8300     3.0430     2.8160     4.2750   108.0070    10.2410     2.0560     0.1440
  450.0000   -57.6180     3.5860     3.2380     7.4150   103.2740    10.4700     1.8460     0.0210
  450.5000   -56.9680     4.1290     3.9780     7.0730   100.9900    10.0440     1.7440     0.0790
  451.0000   -56.3600     4.6710     5.6120     6.5860   104.2460     9.1490     1.8130     0.1100
  451.5000   -55.8190     5.2140     7.4120     6.0620   108.5220     8.6050     2.0030     0.0350
  452.0000   -55.2970     5.8040     9.2130     6.4630   113.0720     8.6230     2.3260     0.0700
  452.5000   -54.7470     6.5600    11.3000     6.8960   114.6890     8.6440     2.4050     0.0610
  453.0000   -54.4450     7.0210    10.8480     7.3300   113.7260     8.6660     2.3760     0.0360
  453.5000   -54.2130     7.4830    10.0160     7.7630   113.4180     8.6670     2.3910     0.0520
  454.0000   -54.0010     7.9440     9.1840     8.1470   115.5630     8.6490     2.3750     0.0360
  454.5000   -53.9370     8.0520     8.7970     8.2760   117.7610     8.6310     2.3910     0.0420
  455.0000   -53.8670     8.0520     8.7500     8.2760   118.9800     8.6130     2.4080     0.0540
  455.5000   -53.9110     8.0520     8.7020     8.2760   116.6820     8.5990     2.4240     0.0650
  456.0000   -54.1520     8.0520     8.6640     8.2760   113.6520     8.6120     2.3910     0.0790
  456.5000   -54.3900     8.0520     8.5780     8.2760   114.6340     8.6240     2.3710     0.0580
  457.0000   -54.6250     8.0300     8.4920     8.2760   115.8860     8.6360     2.3680     0.0590
  457.5000   -54.7950     7.9230     8.4050     8.2760   117.6400     8.6470     2.3910     0.0470
  458.0000   -54.6700     7.8160     8.3190     8.3010   120.2400     8.6590     2.3800     0.0630
  458.5000   -54.5510     7.6920     8.2030     8.3580   122.7770     8.6690     2.3930     0.0700
  459.0000   -54.4230     7.7320     8.2120     8.4160   123.6710     8.6800     2.3610     0.0440
  459.5000   -54.7260     7.7790     8.2310     8.4740   119.3490     8.6900     2.3960     0.0620
