~VERSION INFORMATION
 VERS.                2.0:   CWLS LOG ASCII STANDARD - VERSION 2.0
 WRAP.                 NO:   ONE LINE PER DEPTH STEP
~WELL INFORMATION
#MNEM.UNIT      DATA TYPE    INFORMATION
#----------   ------------   ------------------------------
 STRT.F          482.0000:   START DEPTH
 STOP.F         4000.0000:   STOP DEPTH
 STEP.F            0.5000:   STEP LENGTH
 NULL.          -999.2500:   NO VALUE
 COMP.    FENIX & SCISSON:   COMPANY
 WELL. FENIX  NPR 3 "LX" #56-10:   WELL
 FLD .              N P R:   FIELD
 LOC .      S10 T38N R78W:   LOCATION
 CNTY.            NATRONA:   COUNTY
 STAT.            WYOMING:   STATE
 CTRY. UNITED STATES OF AMERICA:   COUNTRY
 SRVC.       SCHLUMBERGER:   SERVICE COMPANY
 DATE.        11-JUL-1978:   LOGDATE
 API .     49025107100000:   API NUMBER
~CURVE INFORMATION
#MNEM.UNIT       API CODE    CURVE DESCRIPTION
#----------   ------------   ------------------------------
 DEPT.F                  :   
 GRD .GAPI   45 310 01 00:   GAMMA RAY FROM DENSITY LOG
 CALD.IN     45 280 60 00:   CALIPER FROM DENSITY LOG
 RHOB.G/C3   45 350 01 00:   BULK DENSITY
 NPHI.DEC    42 890 03 00:   NEUTRON POROSITY SANDSTONE
 DRHO.G/C3   45 356 01 00:   DENSITY CORRECTION
 TEND.LBS    45 635 01 00:   TENSION FROM DENSITY LOG
 SPR .MV     07 010 01 00:   SPONTANEOUS POTENTIAL
 TENR.LBS    07 635 01 00:   TENSION FROM RESISTIVITY
 ILD .OHMM   07 120 46 00:   DEEP INDUCTION RESISTIVITY
 ILM .OHMM   07 120 44 00:   INDUCTION LOG MEDIUM RESISTIVITY
 SFLU.OHMM   07 220 01 00:   SPHERICALLY FOCUSED LOG UNAVERAGED RESISTIVITY
~PARAMETER INFORMATION
#MNEM.UNIT          VALUE    DESCRIPTION
#----------   ------------   ------------------------------
 EKB .F         5212.0000:   Kelly bushing
 EGL .F         5202.0000:   Ground level
 EDF .F            0.0000:   Drilling floor
 TD  .F         4000.0000:   Total depth
 DATE.        11-JUL-1978:   Date logged
 CLNT.            A2DTECH:   Client Code
 SL  . 1144' FSL & 2183' FEL:   Surface Location
 PD  .                 GL:   Permanent Datum
 EPD .F              5202:   Elevation Permanent Datum
 LMF .                 KB:   Log Measured From
 DMF .                 KB:   Drilling Measured From
 DD  .F              4000:   Depth driller
 DL  .F              3990:   Depth logger
 BLI .F              3985:   Bottom log interval
 TLI .F               501:   Top log interval
 CS1 .IN            9.625:   Casing size
 CBD1.      9.625" @ 500':   Casing driller 1
 CBL1.F               501:   Casing logger 1
 BS1 .IN            7.875:   Bit size
 DFT .                FGM:   Type fluid in hole
 DFD .                9.1:   Density
 DFV .                 50:   Viscosity
 DFPH.                 12:   pH
 DFL .                4.4:   Fluid loss
 MSS .           MUD/TANK:   Source of sample
 RMS .OHMM           .714:   Rm
 MST .F                83:   Rm Meas. temp.
 RMF .OHMM           .585:   Rmf
 MFST.F                83:   Rmf Meas. temp.
 MFSS.               MEAS:   Source Rmf.
 RMB .OHMM            .42:   Rm. at BHT
 BHT .F               140:   BHT.
 TCS .HRS            1000:   Time Circ. stopped
 MRT .F               140:   Maximum recorded temp.
 LUN .               8035:   Logging unit number
 LUL .       ROCK SPRINGS:   Logging unit location
 ENGI.             MARTIN:   Recorded By
 WITN.           MCCINLEY:   Witnessed by
 ORIG.           5" PRINT:   Origin of data
 UWI .     49025107100000:   Unique Well ID
 DICO. A2D TECHNOLOGIES, INC.:   Digitizing Company
 DAPD.F                10:   Feet Above Permanent Datum
 BSD1.F              4000:   Depth drilled with bit1
 TLAB.HRS            1300:   Time logger at bottom
~OTHER INFORMATION
~A   DEPT       GRD      CALD       RHOB         NPHI     DRHO       TEND        SPR       TENR        ILD        ILM       SFLU   
# ...
 3501.5000   155.7320     9.5740     2.3230     0.2710     0.0720  1357.4010   -11.9920  1255.8600     4.3910     4.6800     3.5520
 3502.0000   164.4180     9.4930     2.2530     0.2850     0.0340  1357.7610   -12.0260  1256.3600     4.3490     4.7330     4.9920
 3502.5000   175.2370     9.4210     2.3170     0.3290     0.0010  1358.1219   -12.0610  1256.8600     4.5530     4.7670     6.4680
 3503.0000   165.9420     9.3470     2.3950     0.3670     0.0100  1358.4821   -12.0960  1257.3600     4.8190     4.8560     8.9070
 3503.5000   151.6430     9.2740     2.4720     0.3420     0.0240  1358.8420   -12.1270  1257.4850     5.0850     5.2800     8.8860
 3504.0000   137.9260     9.2220     2.4790     0.2940     0.0320  1359.2030   -12.1660  1257.4850     5.3510     5.7090     8.8240
 3504.5000   141.5500     9.2220     2.4740     0.2890     0.0290  1359.5630   -12.2100  1257.4850     5.6180     6.1390     8.7630
 3505.0000   146.0940     9.2210     2.4730     0.2870     0.0260  1359.9240   -12.4630  1257.4850     5.8840     6.5160     8.7020
 3505.5000   151.4010     9.2210     2.4760     0.2860     0.0260  1360.2841   -12.7310  1257.4850     6.1500     6.6370     8.6400
 3506.0000   156.1810     9.2210     2.4700     0.2840     0.0230  1360.6440   -13.0060  1257.4850     6.3230     6.6370     8.5850
 3506.5000   161.0850     9.2210     2.4600     0.2860     0.0140  1361.0050   -13.2760  1257.4850     6.4070     6.7600     8.9240
 3507.0000   166.0260     9.2210     2.4550     0.2880     0.0040  1361.3650   -13.5490  1257.4850     6.4900     6.7600     9.4060
 3507.5000   170.5540     9.2210     2.4550     0.2890     0.0040  1361.7250   -13.8190  1257.4850     6.5160     6.7600     9.9460
 3508.0000   171.3170     9.2210     2.4570     0.2820     0.0090  1362.0861   -14.0940  1257.4850     6.4770     6.6370     9.6420
 3508.5000   168.5850     9.2220     2.4660     0.2750     0.0180  1362.4460   -14.3650  1257.4850     6.3960     6.5430     9.2970
 3509.0000   166.9610     9.2180     2.4780     0.2690     0.0270  1362.8060   -14.5920  1257.4850     6.3140     6.4540     8.9520
 3509.5000   168.4440     9.2090     2.4880     0.2730     0.0350  1363.1670   -14.6010  1257.4850     6.2320     6.3660     8.6070
 3510.0000   171.0120     9.2000     2.4860     0.2760     0.0450  1363.5270   -14.6010  1257.4850     6.1500     6.2810     8.2760
 3510.5000   173.3600     9.1910     2.4800     0.2810     0.0410  1363.8879   -14.5900  1257.4850     6.0540     6.1670     7.9770
 3511.0000   175.7210     9.1820     2.4720     0.2790     0.0360  1364.2480   -14.3400  1257.4850     6.0540     6.0540     8.5040
 3511.5000   175.4690     9.1820     2.4680     0.2750     0.0350  1364.6080   -14.0580  1257.4850     5.6810     5.8520     8.9070
 3512.0000   175.0080     9.1810     2.4490     0.2720     0.0350  1364.9690   -13.7690  1257.4850     5.2570     5.5270     8.3370
 3512.5000   171.8120     9.1810     2.4240     0.2690     0.0350  1365.3290   -13.4870  1257.4850     4.8340     5.2010     7.3440
 3513.0000   171.1620     9.1830     2.4000     0.2710     0.0380  1365.6890   -13.1990  1257.4850     4.4100     4.8760     6.8860
 3513.5000   172.8970     9.1790     2.3770     0.2760     0.0410  1366.0500   -12.9160  1257.4850     3.9870     4.5510     6.5160
 3514.0000   175.4390     9.2090     2.3970     0.2800     0.0600  1366.4100   -12.6350  1257.4850     3.6180     4.2250     5.2680
 3514.5000   179.9480     9.2880     2.4300     0.2810     0.1750  1366.7700   -12.3290  1257.4850     3.4880     3.9000     3.4840
 3515.0000   197.3220     9.3400     2.4070     0.3010     0.2370  1367.1310   -12.2430  1257.4850     3.4880     3.8240     2.9560
 3515.5000   213.5400     9.5150     2.3170     0.3220     0.1760  1367.4910   -12.3910  1257.4850     3.4880     3.8940     3.0670
 3516.0000   221.1400     9.7720     2.2260     0.3470     0.1250  1367.8521   -12.5140  1257.4850     3.9770     4.3080     6.5980
 3516.5000   200.6620     9.8420     2.1660     0.3730     0.0060  1368.2120   -12.6390  1257.4850     4.4010     4.6650     9.2410
 3517.0000   186.5190     9.4870     2.2110     0.3380     0.0120  1368.5720   -12.7690  1257.4850     4.8260     5.0210     9.9460
 3517.5000   176.0250     9.3430     2.3700     0.2910     0.0090  1368.9330   -12.8940  1257.4850     5.2500     5.3780     9.8300
 3518.0000   166.1580     9.3440     2.4380     0.2840     0.0090  1369.2930   -13.0210  1257.4850     5.6740     5.7350     9.6100
 3518.5000   168.7350     9.3520     2.4690     0.2890     0.0080  1369.6530   -13.1480  1257.4850     6.0540     6.0540     9.4120
 3519.0000   176.6650     9.3610     2.4530     0.2940     0.0030  1370.0140   -13.2750  1257.4850     5.7860     5.9440     8.5970
 3519.5000   184.7980     9.3690     2.4440     0.2920    -0.0020  1370.3740   -13.4020  1257.4850     5.5620     5.7880     7.6790
 3520.0000   192.5530     9.3770     2.4350     0.2920    -0.0030  1370.7340   -13.5290  1257.4850     5.3370     5.6310     6.7620
 3520.5000   200.6100     9.3810     2.4390     0.2950     0.0060  1371.0950   -13.6550  1257.4850     5.1120     5.4740     5.9440
 3521.0000   205.3250     9.3830     2.4450     0.2960     0.0140  1371.4550   -13.7820  1257.4850     5.0380     5.3230     6.1670
 3521.5000   205.0480     9.3860     2.4510     0.3260     0.0230  1371.8160   -13.9090  1257.4850     5.0380     5.2260     6.9190
 3522.0000   199.5730     9.3880     2.4560     0.3220     0.0280  1372.1760   -14.0360  1257.4850     5.0380     5.2720     8.2760
 3522.5000   189.7110     9.3910     2.4530     0.3170     0.0230  1372.5360   -14.1630  1257.4850     5.0380     5.3430     8.1720
 3523.0000   180.5180     9.3930     2.4470     0.3110     0.0190  1372.8970   -14.2900  1257.4850     5.1540     5.4140     7.9380
 3523.5000   179.7460     9.3950     2.4410     0.3060     0.0150  1373.2570   -14.4160  1257.4850     5.3360     5.4840     7.7040
 3524.0000   181.4410     9.3980     2.4360     0.3080     0.0110  1373.6169   -14.5460  1257.4850     5.5180     5.5550     7.4700
 3524.5000   193.1320     9.4000     2.4310     0.3090     0.0070  1373.9780   -14.6690  1257.4850     5.6250     5.6250     7.1440
 3525.0000   198.8560     9.4020     2.4290     0.3110     0.0030  1374.3380   -14.7950  1257.4850     5.5170     5.6620     7.3220
 3525.5000   204.5210     9.4050     2.4300     0.3120     0.0000  1374.6980   -14.9430  1257.4850     5.4100     5.6990     7.6170
 3526.0000   208.0470     9.4070     2.4390     0.3140     0.0060  1375.0590   -14.8750  1257.4850     5.3230     5.7290     7.9130
 3526.5000   207.9570     9.4100     2.4510     0.3140     0.0180  1375.4189   -14.5000  1257.4850     5.3000     5.7290     7.9770
 3527.0000   203.0040     9.4120     2.4620     0.3110     0.0290  1375.7800   -14.1500  1257.4850     5.2790     5.6780     7.5960
 3527.5000   200.7750     9.4140     2.4650     0.3090     0.0420  1376.1400   -13.7920  1257.4850     5.2590     5.5890     6.9320
 3528.0000   208.6250     9.4170     2.4600     0.3140     0.0430  1376.5000   -13.4400  1257.4850     5.2390     5.5000     6.6370
 3528.5000   222.1100     9.4190     2.4580     0.3260     0.0420  1376.8610   -13.0850  1257.4850     5.2260     5.4110     7.1270
 3529.0000   218.6880     9.4280     2.4570     0.3350     0.0380  1377.2209   -12.9950  1257.4850     5.2260     5.3220     7.7810
 3529.5000   215.0610     9.4360     2.4570     0.3270     0.0330  1377.5811   -12.9980  1257.4850     4.9890     5.2260     8.7450
 3530.0000   206.3440     9.4450     2.4570     0.3210     0.0290  1377.9420   -13.0000  1257.4850     4.6660     5.0910     7.8350
 3530.5000   203.5520     9.4520     2.4590     0.2890     0.0230  1378.3020   -12.9990  1257.4850     4.3430     4.9370     5.9440
 3531.0000   205.0410     9.4690     2.4650     0.2800     0.0310  1378.6630   -13.0000  1257.4850     4.0190     4.6170     5.8090
 3531.5000   205.3780     9.5140     2.4480     0.2820     0.0520  1379.0229   -13.0000  1257.4850     3.6960     4.2960     5.6250
