~VERSION INFORMATION
 VERS.                2.0:   CWLS LOG ASCII STANDARD - VERSION 2.0
 WRAP.                 NO:   ONE LINE PER DEPTH STEP
~WELL INFORMATION
#MNEM.UNIT      DATA TYPE    INFORMATION
#----------   ------------   ------------------------------
 STRT.F          200.5000:   START DEPTH
 STOP.F         3118.5000:   STOP DEPTH
 STEP.F            0.5000:   STEP LENGTH
 NULL.          -999.2500:   NO VALUE
 COMP.    FENIX & SCISSON:   COMPANY
 WELL. FENIX SCISSON "A" #16-27:   WELL
 FLD .                NPR:   FIELD
 LOC .      S27 T39N R78W:   LOCATION
 CNTY.            NATRONA:   COUNTY
 STAT.            WYOMING:   STATE
 CTRY. UNITED STATES OF AMERICA:   COUNTRY
 SRVC.       SCHLUMBERGER:   SERVICE COMPANY
 DATE.        31-AUG-1977:   LOGDATE
 API .     49025104180000:   API NUMBER
~CURVE INFORMATION
#MNEM.UNIT       API CODE    CURVE DESCRIPTION
#----------   ------------   ------------------------------
 DEPT.F                  :   
 CALD.IN     45 280 60 00:   CALIPER FROM DENSITY LOG
 GRD .GAPI   45 310 01 00:   GAMMA RAY FROM DENSITY LOG
 DPHI.DEC    42 890 03 00:   DENSITY POROSITY SANDSTONE
 RHOB.G/C3   45 350 01 00:   BULK DENSITY
 CORR.G/C3   45 356 01 00:   DENSITY CORRECTION
 SPR .MV     07 010 01 00:   SPONTANEOUS POTENTIAL
 GURD.OHMM   07 220 05 00:   GUARD LOG RESISTIVITY
 ILD .OHMM   07 120 46 00:   DEEP INDUCTION RESISTIVITY
 ILM .OHMM   07 120 44 00:   INDUCTION LOG MEDIUM RESISTIVITY
~PARAMETER INFORMATION
#MNEM.UNIT          VALUE    DESCRIPTION
#----------   ------------   ------------------------------
 EKB .F         5095.0000:   Kelly bushing
 EGL .F         5085.0000:   Ground level
 EDF .F            0.0000:   Drilling floor
 TD  .F         3121.0000:   Total depth
 DATE.        31-AUG-1977:   Date logged
 CLNT.            A2DTECH:   Client Code
 SL  . 1430' FSL & 330' FNL:   Surface Location
 PD  .                 GL:   Permanent Datum
 EPD .F              5085:   Elevation Permanent Datum
 LMF .                 KB:   Log Measured From
 DMF .                 KB:   Drilling Measured From
 DAPD.F                10:   Feet Above Permanent Datum
 DD  .F              3120:   Depth driller
 DL  .F              3121:   Depth logger
 BLI .F              3119:   Bottom log interval
 TLI .F               200:   Top log interval
 CS1 .IN            8.625:   Casing size
 CBD1.      8.625" @ 206':   Casing driller 1
 CBL1.F               215:   Casing logger 1
 BS1 .IN            7.875:   Bit size
 BSD1.F              3120:   Depth drilled with bit1
 DFT .            KCL/MUD:   Type fluid in hole
 DFD .                  9:   Density
 DFV .                 36:   Viscosity
 DFPH.                 11:   pH
 DFL .                8.4:   Fluid loss
 MSS .           FLOWLINE:   Source of sample
 RMS .OHMM            2.5:   Rm
 MST .F                89:   Rm Meas. temp.
 RMF .OHMM           2.45:   Rmf
 MFST.F                89:   Rmf Meas. temp.
 RMC .OHMM           3.30:   Rmc
 MCST.F                89:   Rmc Meas. temp.
 MFSS.               FANN:   Source Rmf.
 MCSS.                KIT:   Source Rmc.
 RMB .OHMM           1.91:   Rm. at BHT
 BHT .F               116:   BHT.
 TCS .HRS              12:   Time Circ. stopped
 MRT .F               116:   Maximum recorded temp.
 LUN .               9585:   Logging unit number
 LUL .             CASPEN:   Logging unit location
 ENGI.         G. BENTSEN:   Recorded By
 WITN.      W. PETTINGILL:   Witnessed by
 ORIG.           5" PRINT:   Origin of data
 UWI .     49025104180000:   Unique Well ID
 DICO. A2D TECHNOLOGIES, INC.:   Digitizing Company
~OTHER INFORMATION
~A   DEPT     CALD         GRD      DPHI       RHOB        CORR       SPR       GURD        ILD        ILM   
# ...
 1733.5000     8.5003    90.5563     0.0793     2.5159     0.0236   -67.4187    10.4406     6.1408     7.1124
 1734.0000     8.5000    91.3378     0.0805     2.5139     0.0235   -66.8224    10.6351     6.3711     6.5521
 1734.5000     8.4801    92.5141     0.0809     2.5129     0.0255   -66.8212    11.1353     6.4903     6.6739
 1735.0000     8.4994    93.6880     0.0801     2.5139     0.0254   -66.4231    11.7664     6.4907     6.6744
 1735.5000     8.5385    94.4695     0.0797     2.5138     0.0254   -66.0249    13.2574     6.6120     6.7983
 1736.0000     8.4988    95.6446     0.0801     2.5138     0.0273   -65.6267    11.7697     6.6128     6.7991
 1736.5000     8.4985    96.4284     0.0797     2.5158     0.0273   -65.6254    11.2434     6.6134     6.7998
 1737.0000     8.4982    97.2086     0.0790     2.5198     0.0253   -66.5900    10.9398     6.5539     6.7389
 1737.5000     8.4979    97.5952     0.0762     2.5217     0.0272   -67.5545    10.9411     6.3765     6.7380
 1738.0000     8.4976    97.9853     0.0734     2.5237     0.0272   -68.0006    11.0641     6.1473     6.4361
 1738.5000     8.4973    97.5834     0.0730     2.5257     0.0291   -67.8007    10.2635     6.0916     6.3197
 1739.0000     8.4970    97.5775     0.0726     2.5276     0.0311   -67.9977    10.2648     6.0368     6.3205
 1739.5000     8.4968    97.9652     0.0726     2.5286     0.0290   -67.9962    10.2661     6.0375     6.6182
 1740.0000     8.5161    98.3530     0.0758     2.5276     0.0290   -67.9947    10.2673     6.0379     6.8665
 1740.5000     8.4961    98.3471     0.0798     2.5236     0.0289   -67.9933    10.0820     6.0386     6.8673
 1741.0000     8.4958    97.9475     0.0802     2.5176     0.0269   -67.5949    10.1761     6.0396     6.3818
 1741.5000     8.4955    97.5479     0.0814     2.5126     0.0269   -67.5934    10.3658     6.0403     6.9328
 1742.0000     8.4952    97.1483     0.0822     2.5106     0.0268   -67.7904    10.6757     6.0407     6.9331
 1742.5000     8.4753    96.7488     0.0834     2.5105     0.0268   -67.7890    10.2737     6.0416     6.9338
 1743.0000     8.4750    96.7428     0.0811     2.5105     0.0307   -67.9860    10.3696     6.0422     6.7463
 1743.5000     8.4944    97.1306     0.0811     2.5105     0.0327   -67.9845    10.4664     6.0429     6.2691
 1744.0000     8.4744    97.1247     0.0815     2.5105     0.0266   -68.1816    10.8585     6.0995     6.3276
 1744.5000     8.4741    97.1188     0.0815     2.5105     0.0266   -68.3789    11.1631     6.1000     6.5053
 1745.0000     8.4738    97.5065     0.0811     2.5124     0.0266   -68.3775    10.3745     6.2139     6.5059
 1745.5000     8.4735    97.1070     0.0799     2.5144     0.0285   -68.5746    10.3758     6.2719     6.5665
 1746.0000     8.4929    97.1010     0.0795     2.5154     0.0285   -68.5732    10.6863     6.2728     6.6894
 1746.5000     8.4729    96.7015     0.0803     2.5153     0.0264   -69.1673    10.4928     6.2735     6.7517
 1747.0000     8.4923    96.3019     0.0803     2.5153     0.0284   -69.1662    10.3982     6.2168     6.8148
 1747.5000     8.4920    96.6896     0.0803     2.5153     0.0283   -69.3634    10.3995     6.2176     6.8155
 1748.0000     8.4720    96.2901     0.0811     2.5153     0.0283   -69.3615    10.5743     6.1614     6.8166
 1748.5000     8.4914    95.8905     0.0827     2.5143     0.0283   -68.3675    10.8707     6.1622     6.8173
 1749.0000     8.4911    95.8846     0.0844     2.5083     0.0242   -67.1741    11.0733     6.1628     6.8182
 1749.5000     8.4908    95.8786     0.0856     2.5013     0.0222   -67.3713    11.1767     6.1635     6.8189
 1750.0000     8.4905    95.8727     0.0868     2.5003     0.0222   -67.3698    10.7756     6.1642     6.8198
 1750.5000     8.5099    95.8668     0.0900     2.4973     0.0082   -67.3682    10.9957     6.2928     6.8207
 1751.0000     8.5096    95.8609     0.0916     2.4942     0.0081   -67.3628    11.0972     6.3952     6.8199
 1751.5000     8.5093    95.8550     0.0951     2.4922     0.0061   -67.3593    11.1996     6.5137     6.6979
 1752.0000     8.5287    95.8491     0.0964     2.4892     0.0041   -67.9517    11.8342     6.5738     6.7593
 1752.5000     8.5284    95.0495     0.0956     2.4892     0.0060   -67.9489    11.8342     6.5738     6.7575
 1753.0000     8.5479    95.0436     0.0968     2.4892     0.0060   -67.5481    11.6188     6.5738     6.7575
 1753.5000     8.5475    95.4314     0.0984     2.4862     0.0059   -67.5445    11.5959     6.5738     6.8199
 1754.0000     8.5472    95.4254     0.1004     2.4832     0.0039   -67.5410    11.0762     6.3367     6.8199
 1754.5000     8.5273    95.8132     0.1012     2.4811     0.0059   -67.5375    10.8749     6.2787     6.8828
 1755.0000     8.5466    96.2010     0.1012     2.4811     0.0058   -67.3353    10.6772     6.1644     6.8828
 1755.5000     8.5266    96.9824     0.0988     2.4821     0.0018   -67.1331    10.6772     6.1644     6.8828
 1756.0000     8.5065    97.3702     0.0960     2.4861     0.0196   -66.7323    10.6772     6.1644     6.6957
 1756.5000     8.5261    97.7579     0.0936     2.4930     0.0097   -66.5302    10.5797     6.1644     6.5738
 1757.0000     8.5454    97.7520     0.0960     2.4920     0.0156   -66.3281    10.1987     6.1644     6.3952
 1757.5000     8.5450    97.7461     0.0988     2.4900     0.0176   -66.7218    10.1987     5.9969     6.2787
 1758.0000     8.5448    97.7402     0.0933     2.4899     0.0215   -67.7114    10.1987     5.9969     6.2787
 1758.5000     8.5445    98.1280     0.0897     2.4929     0.0234   -67.9064    10.1056     5.9969     6.3952
 1759.0000     8.5443    97.7347     0.0873     2.4979     0.0234   -67.7043    10.1056     5.9969     6.5137
 1759.5000     8.5440    97.7288     0.0877     2.5008     0.0234   -67.9001    10.1056     5.9969     6.5738
 1760.0000     8.6027    98.5102     0.0901     2.4988     0.0233   -67.8965    10.1987     5.9969     6.7575
 1760.5000     8.5434    98.1118     0.0921     2.4948     0.0233   -67.4958    10.1056     5.9969     6.8828
 1761.0000     8.5431    98.8933     0.0937     2.4928     0.0212   -67.4923    10.0133     5.9969     6.7575
 1761.5000     8.5428    99.2810     0.0949     2.4908     0.0172   -67.6873    10.0133     5.9969     6.6345
 1762.0000     8.5425    99.6688     0.0965     2.4878     0.0132   -67.8824    10.0133     5.9969     6.4542
 1762.5000     8.5422    99.6629     0.0985     2.4868     0.0012   -67.8789    10.1056     5.9969     6.3952
 1763.0000     8.5419    99.2633     0.1013     2.4837    -0.0008   -68.0739    10.1987     5.9969     6.3952
 1763.5000     8.5416    98.4700     0.1025     2.4787    -0.0009   -68.4675    10.1987     5.9969     6.3952
 1764.0000     8.3838    97.2819     0.1021     2.4787     0.0031   -68.4639    10.0133     5.9969     6.3367
 1764.5000     8.5411    96.8823     0.0986     2.4837     0.0130   -68.4604    10.0133     5.9969     6.2787
 1765.0000     8.5407    96.4828     0.0942     2.4906     0.0249   -68.4568    10.0133     5.9420     6.1644
 1765.5000     8.5404    95.2895     0.0942     2.4966     0.0288   -69.4460    10.1056     5.7277     6.0522
 1766.0000     8.5598    94.4962     0.0966     2.4916     0.0308   -69.2439    10.1987     5.6234     5.9420
 1766.5000     8.5398    93.3093     0.0990     2.4876     0.0307   -69.6374    10.0133     5.4706     5.9420
 1767.0000     8.5395    92.9097     0.1002     2.4826     0.0327   -69.8324     7.2640     5.3710     5.8877
 1767.5000     8.5589    92.5101     0.1006     2.4825     0.0326   -69.6310     6.4476     5.2732     5.8339
 1768.0000     8.5389    92.5042     0.0994     2.4835     0.0326   -68.6348     7.6749     5.1772     5.8339
 1768.5000     8.5386    91.7173     0.0974     2.4845     0.0286   -67.8371     8.8068     5.2732     5.8877
 1769.0000     8.5383    91.3177     0.0970     2.4865     0.0265   -67.8336     9.7416     5.3710     5.9969
 1769.5000     8.5577    92.0991     0.0947     2.4904     0.0285   -67.6315    10.2926     5.6753     6.1644
