~VERSION INFORMATION
 VERS.                2.0:   CWLS LOG ASCII STANDARD - VERSION 2.0
 WRAP.                 NO:   ONE LINE PER DEPTH STEP
~WELL INFORMATION
#MNEM.UNIT      DATA TYPE    INFORMATION
#----------   ------------   ------------------------------
 STRT.F            0.0000:   START DEPTH
 STOP.F         3440.0000:   STOP DEPTH
 STEP.F            0.5000:   STEP LENGTH
 NULL.          -999.2500:   NO VALUE
 COMP. FLOOR DANIEL (NPSOR):   COMPANY
 WELL. FLOOR DANIEL "SHX" #48-34:   WELL
 FLD .                NPR:   FIELD
 LOC .      S34 T39N R78W:   LOCATION
 CNTY.            NATRONA:   COUNTY
 STAT.            WYOMING:   STATE
 CTRY. UNITED STATES OF AMERICA:   COUNTRY
 SRVC.      WESTERN ATLAS:   SERVICE COMPANY
 DATE.        06-APR-1995:   LOGDATE
 API .     49025109220000:   API NUMBER
~CURVE INFORMATION
#MNEM.UNIT       API CODE    CURVE DESCRIPTION
#----------   ------------   ------------------------------
 DEPT.F                  :   
 TEND.LBS    45 635 01 00:   TENSION FROM DENSITY LOG
 ZCOR.G/C3   45 356 01 00:   DENSITY CORRECTION
 ZDEN.G/C3   45 350 01 00:   BULK DENSITY
 CALD.IN     45 280 60 00:   CALIPER FROM DENSITY LOG
 CNC .DEC    42 890 03 00:   NEUTRON POROSITY SANDSTONE
 GRR .GAPI   07 310 01 00:   GAMMA RAY FROM RESISTIVITY
 TENR.LBS    07 635 01 00:   TENSION FROM RESISTIVITY
 RFOC.OHMM   07 220 04 00:   RESISTIVITY FOCUSED LOG RES.
 RILD.OHMM   07 120 46 00:   DEEP INDUCTION RESISTIVITY
 RILM.OHMM   07 120 44 00:   INDUCTION LOG MEDIUM RESISTIVITY
~PARAMETER INFORMATION
#MNEM.UNIT          VALUE    DESCRIPTION
#----------   ------------   ------------------------------
 EKB .F         5182.0000:   Kelly bushing
 EGL .F         5172.0000:   Ground level
 EDF .F            0.0000:   Drilling floor
 EPD .F            0.0000:   Permanent datum
 TD  .F         3442.0000:   Total depth
 DATE.        06-APR-1995:   Date logged
 CLNT.            A2DTECH:   Client Code
 SL  . 97' FSL & 2256 FWL:   Surface Location
 PD  .                 GL:   Permanent Datum
 DD  .F              3442:   Depth driller
 DL  .F              3422:   Depth logger
 BLI .F              3420:   Bottom log interval
 CS1 .IN            8.625:   Casing size
 CBD1.      8.625" @ 667':   Casing driller 1
 BS1 .IN            7.875:   Bit size
 BSD1.F               AIR:   Depth drilled with bit1
 ENGI.      PAT RASMUSSEN:   Recorded By
 WITN.        GARY STRONG:   Witnessed by
 ORIG.           5" PRINT:   Origin of data
 UWI .     49025109220000:   Unique Well ID
 DICO. A2D TECHNOLOGIES, INC.:   Digitizing Company
 MRT .F               142:   Maximum recorded temp.
~OTHER INFORMATION
~A    DEPT    TEND       ZCOR       ZDEN       CALD        CNC         GRR      TENR       RFOC       RILD       RILM   
# ...
 3048.5000   -91.4880     0.0390     2.3610     8.3620     0.1920    51.3800   -34.1220    15.6140    19.3900    14.0030
 3049.0000   -87.1220     0.0400     2.3600     8.3610     0.1920    53.1040   -37.2530    15.5280    19.5300    13.8360
 3049.5000   -82.7570     0.0440     2.3600     8.3600     0.1920    53.9590   -40.3850    15.5090    19.6700    13.6570
 3050.0000   -78.3910     0.0470     2.3690     8.3590     0.1850    50.1460   -42.8990    15.5090    19.8100    14.1620
 3050.5000   -74.0250     0.0560     2.3780     8.3580     0.1650    46.6310   -42.8990    15.5090    19.9490    14.6860
 3051.0000   -69.6590     0.0660     2.3980     8.3570     0.1400    42.2940   -42.8990    15.5090    20.6240    16.0360
 3051.5000   -65.2940     0.0750     2.4510     8.3560     0.1200    41.1810   -42.8990    19.9280    21.6010    17.3490
 3052.0000   -54.5450     0.0690     2.5230     8.3550     0.1060    40.0110   -42.8990    31.1920    22.8720    18.6630
 3052.5000   -42.4900     0.0480     2.5700     8.3540     0.0920    39.1080   -42.8990    45.1740    24.2740    21.3250
 3053.0000   -42.4900     0.0280     2.5830     8.3530     0.0830    35.7930   -42.8990    55.3150    25.6760    25.3280
 3053.5000   -42.4900     0.0210     2.5880     8.3520     0.0800    33.0930   -42.8990    54.8210    28.2140    28.6870
 3054.0000   -47.5790     0.0450     2.5870     8.3510     0.0870    32.2190   -42.8990    52.3020    31.4970    32.0740
 3054.5000   -53.9280     0.0650     2.5730     8.3500     0.1040    33.1450   -42.8990    46.0880    29.6050    28.9250
 3055.0000   -60.2770     0.0740     2.5560     8.3490     0.1210    35.7730   -42.8990    39.1130    27.7570    23.9600
 3055.5000   -66.6250     0.0510     2.5140     8.3490     0.1380    39.2830   -42.8990    32.1380    25.9090    18.9950
 3056.0000   -72.9740     0.0300     2.4620     8.3480     0.1590    43.1040   -42.8990    25.1630    24.0600    14.6860
 3056.5000   -79.3230     0.0290     2.4070     8.3470     0.1840    49.5820   -42.8990    18.1880    22.2120    12.4710
 3057.0000   -82.0160     0.0380     2.3640     8.3460     0.1990    54.2230   -42.8990    14.7030    20.3640    12.2500
 3057.5000   -82.0160     0.0460     2.3500     8.3450     0.2010    55.0250   -42.8990    13.8990    18.5150    12.0260
 3058.0000   -82.0160     0.0540     2.3470     8.3440     0.1990    53.7640   -42.8990    13.4550    16.6670    11.2340
 3058.5000   -82.0160     0.0530     2.3470     8.3430     0.1990    52.6130   -42.8990    13.6370    14.9550    10.4570
 3059.0000   -82.0160     0.0500     2.3430     8.3420     0.2020    50.8590   -42.8990    13.9070    14.2390     9.9890
 3059.5000   -82.0160     0.0470     2.3410     8.3410     0.2050    49.1760   -42.8990    13.2100    13.6570     9.6640
 3060.0000   -82.0160     0.0440     2.3390     8.3410     0.2070    47.0070   -42.8990    11.8100    13.6570     9.3250
 3060.5000   -82.0160     0.0410     2.3370     8.3440     0.2030    48.5580   -42.8990    11.2940    13.6570     9.1580
 3061.0000   -78.9150     0.0380     2.3350     8.3460     0.1990    51.1700   -42.8990    11.8780    13.6570     9.2440
 3061.5000   -75.0080     0.0360     2.3420     8.3490     0.1950    52.6370   -42.8990    13.0890    13.6570     9.4560
 3062.0000   -71.1010     0.0380     2.3510     8.3520     0.1890    52.9290   -42.8990    14.3000    13.6570     9.6690
 3062.5000   -67.1940     0.0390     2.3680     8.3550     0.1830    53.4100   -42.8990    15.1890    13.6570     9.8820
 3063.0000   -63.2870     0.0410     2.3820     8.3570     0.1770    55.6200   -42.8990    15.9270    13.6570    10.0950
 3063.5000   -49.8020     0.0430     2.3990     8.3600     0.1770    57.9820   -42.8990    16.9830    13.4860    10.3070
 3064.0000   -32.8720     0.0440     2.4020     8.3630     0.1820    56.2910   -42.8990    16.5410    12.9940    10.3990
 3064.5000   -15.9420     0.0460     2.3850     8.3660     0.1940    53.4980   -42.8990    13.9500    12.0420    10.2120
 3065.0000    -6.9170     0.0470     2.3570     8.3680     0.2070    51.7720   -42.8990    10.3990    10.9820    10.0280
 3065.5000   -23.8470     0.0430     2.3370     8.3710     0.2150    53.2250   -42.8990    10.0830    10.5080     9.6700
 3066.0000   -40.7770     0.0390     2.3320     8.3740     0.2210    53.1060   -42.8990     9.6700     9.9460     9.2460
 3066.5000   -57.7080     0.0360     2.3250     8.3770     0.2200    51.9850   -42.8990     9.5570     9.5540     8.8210
 3067.0000   -61.3240     0.0320     2.3230     8.3800     0.2190    50.1670   -42.8990     9.4300     9.3240     8.3970
 3067.5000   -60.0540     0.0290     2.3250     8.3820     0.2210    50.2320   -42.8990     9.3250     9.0950     8.1810
 3068.0000   -58.7850     0.0250     2.3260     8.3850     0.2240    52.4860   -42.8990     9.1060     8.8650     8.1270
 3068.5000   -57.5150     0.0250     2.3140     8.3880     0.2250    55.3690   -42.8990     8.9190     8.6360     8.0640
 3069.0000   -56.2450     0.0290     2.2950     8.3910     0.2260    57.6480   -42.8990     8.7330     8.4070     7.9700
 3069.5000   -54.9750     0.0330     2.2850     8.3930     0.2270    58.6160   -42.8990     8.5900     8.1770     7.8590
 3070.0000   -53.7060     0.0370     2.2810     8.3960     0.2280    57.4010   -42.8990     8.4690     8.0290     7.7470
 3070.5000   -52.4360     0.0400     2.2810     8.3990     0.2280    53.7900   -42.8990     8.3490     7.9600     7.6350
 3071.0000   -51.1660     0.0390     2.2820     8.4020     0.2270    52.1140   -42.8990     8.2280     7.8910     7.5240
 3071.5000   -49.8960     0.0390     2.2830     8.4040     0.2250    54.5640   -42.8990     8.1070     7.8220     7.4120
 3072.0000   -48.6260     0.0380     2.2860     8.4070     0.2220    60.8370   -42.8990     7.9860     7.7520     7.3000
 3072.5000   -47.3570     0.0380     2.2880     8.4100     0.2180    66.1160   -42.8990     7.9190     7.6830     7.1890
 3073.0000   -46.0870     0.0380     2.2900     8.4130     0.2130    63.6020   -45.0450     7.9190     7.6140     7.0770
 3073.5000   -44.8170     0.0370     2.2780     8.4150     0.2090    55.7480   -47.0730     7.9190     7.5450     6.9650
 3074.0000   -43.5470     0.0370     2.2620     8.4180     0.2050    50.6920   -49.1010     7.9190     7.4790     6.8480
 3074.5000   -42.4900     0.0370     2.2530     8.4220     0.2120    46.1480   -51.1280     7.9190     7.4220     6.9190
 3075.0000   -44.4660     0.0360     2.2620     8.4270     0.2200    48.1680   -53.1560     7.9190     7.3640     6.9950
 3075.5000   -46.1590     0.0360     2.2810     8.4330     0.2320    54.2340   -55.1830     7.9190     7.4480     7.0710
 3076.0000   -47.8520     0.0360     2.2950     8.4380     0.2290    59.4550   -57.2110     7.9200     7.5320     7.1470
 3076.5000   -49.5450     0.0350     2.3040     8.4430     0.2240    65.1560   -59.2390     7.9210     7.6160     7.2310
 3077.0000   -51.2380     0.0330     2.3130     8.4490     0.2210    65.9440   -61.2660     7.9180     7.6990     7.2160
 3077.5000   -52.9310     0.0320     2.3150     8.4540     0.2210    62.1290   -61.6920     8.0050     7.7830     7.1980
 3078.0000   -54.6250     0.0320     2.3150     8.4590     0.2200    60.0460   -58.8760     8.0790     7.8670     7.1800
 3078.5000   -56.3180     0.0340     2.3070     8.4540     0.2190    56.9700   -56.0600     8.1540     7.9850     7.1630
 3079.0000   -58.0110     0.0360     2.3080     8.4480     0.2170    56.5800   -53.2430     8.2710     8.1570     7.1450
 3079.5000   -59.7040     0.0380     2.3120     8.4420     0.2140    57.2100   -50.4270     8.5410     8.3290     7.1280
 3080.0000   -61.3970     0.0400     2.3240     8.4360     0.2090    59.4110   -47.6110     8.8110     8.5020     7.1010
 3080.5000   -61.1120     0.0380     2.3430     8.4300     0.2050    62.1260   -44.7950     9.0810     8.6740     7.1520
 3081.0000   -58.8030     0.0330     2.3590     8.4240     0.2080    66.1320   -42.8990     9.1580     8.8460     7.2550
 3081.5000   -56.4950     0.0290     2.3580     8.4180     0.2110    72.4550   -42.8990     9.1970     9.0180     7.3580
