~VERSION INFORMATION
 VERS.                2.0:   CWLS LOG ASCII STANDARD - VERSION 2.0
 WRAP.                 NO:   ONE LINE PER DEPTH STEP
~WELL INFORMATION
#MNEM.UNIT      DATA TYPE    INFORMATION
#----------   ------------   ------------------------------
 STRT.F          197.0000:   START DEPTH
 STOP.F         3074.5000:   STOP DEPTH
 STEP.F            0.5000:   STEP LENGTH
 NULL.          -999.2500:   NO VALUE
 COMP.    FENIX & SCISSON:   COMPANY
 WELL.   FENIX "A" #36-21:   WELL
 FLD .             NPR #3:   FIELD
 LOC .      S21 T39N R78W:   LOCATION
 CNTY.            NATRONA:   COUNTY
 STAT.            WYOMING:   STATE
 CTRY. UNITED STATES OF AMERICA:   COUNTRY
 SRVC.              WELEX:   SERVICE COMPANY
 DATE.        06-JUL-1977:   LOGDATE
 API .     49025103920000:   API NUMBER
~CURVE INFORMATION
#MNEM.UNIT       API CODE    CURVE DESCRIPTION
#----------   ------------   ------------------------------
 DEPT.F                  :   
 CALD.IN     45 280 60 00:   CALIPER FROM DENSITY LOG
 GRD .GAPI   45 310 01 00:   GAMMA RAY FROM DENSITY LOG
 CORR.G/C3   45 356 01 00:   DENSITY CORRECTION
 RHOB.G/C3   45 350 01 00:   BULK DENSITY
 SPR .MV     11 010 01 00:   SPONTANEOUS POTENTIAL FROM RES.
 FORX.OHMM   11 000 00 00:   FORMATION FACTOR
 GURD.OHMM   11 220 05 00:   GUARD LOG RESISTIVITY
 NPHI.DEC    42 890 03 00:   NEUTRON POROSITY SANDSTONE
~PARAMETER INFORMATION
#MNEM.UNIT          VALUE    DESCRIPTION
#----------   ------------   ------------------------------
 EKB .F         4960.0000:   Kelly bushing
 EGL .F         4950.0000:   Ground level
 EDF .F            0.0000:   Drilling floor
 EPD .F         4950.0000:   Permanent datum
 TD  .F         3078.0000:   Total depth
 CLNT.            A2DTECH:   Client Code
 SL  . 1650' FSL & 1650' FWL:   Surface Location
 PD  .                 GL:   Permanent Datum
 DAPD.F                10:   Feet Above Permanent Datum
 DATE.        06-JUL-1977:   Date Logged [DD-MMM-YYYY]
 DD  .F              3066:   Depth driller
 DL  .F              3078:   Depth logger
 BLI .F              3076:   Bottom log interval
 TLI .F               200:   Top log interval
 CS1 .IN            8.625:   Casing size
 BS1 .IN            7.875:   Bit size
 BSD1.F              3066:   Depth drilled with bit1
 DFT .            KCL MUD:   Type fluid in hole
 DFD .                9.2:   Density
 DFV .                 35:   Viscosity
 DFPH.                7.5:   pH
 DFL .                 18:   Fluid loss
 MSS .           FLOWLINE:   Source of sample
 RMS .OHMM            0.9:   Rm
 MST .F                80:   Rm Meas. temp.
 RMF .OHMM           0.81:   Rmf
 MFST.F                80:   Rmf Meas. temp.
 MFSS.               FANN:   Source Rmf.
 RMC .OHMM           1.06:   Rmc
 MCST.F                80:   Rmc Meas. temp.
 MCSS.                KIT:   Source Rmc.
 RMB .OHMM           0.60:   Rm. at BHT
 BHT .F               119:   BHT.
 TCS .HRS               3:   Time Circ. stopped
 MRT .F               119:   Maximum recorded temp.
 LUN .               8611:   Logging unit number
 LUL .             CASPER:   Logging unit location
 ENGI.             C DOAK:   Recorded By
 WITN.         HARRINGTON:   Witnessed by
 ORIG.           5" PRINT:   Origin of data
 UWI .     49025103920000:   Unique Well ID
 DICO. A2D TECHNOLOGIES,INC.:   Digitizing Company
~OTHER INFORMATION
~A   DEPT     CALD         GRD      CORR       RHOB        SPR       FORX       GURD       NPHI   
# ...
 3032.0000     7.9413   130.6188     0.0496     2.5110   -67.9447     6.7759     4.0129     0.2740
 3032.5000     7.9430   123.8341     0.0482     2.5096   -67.9330     6.1951     4.1250     0.2748
 3033.0000     7.9597   120.0080     0.0468     2.5090   -67.7716     5.6619     4.8681     0.2710
 3033.5000     7.9613   120.3239     0.0440     2.5098   -67.7599     5.5865     5.5119     0.2637
 3034.0000     7.9480   124.1902     0.0427     2.5099   -67.7482    20.5592     5.8353     0.2580
 3034.5000     7.9496   128.3522     0.0413     2.5100   -67.7365    19.4560     9.5746     0.2555
 3035.0000     7.9512   128.0471     0.0399     2.5094   -67.7246     7.7777     5.5107     0.2528
 3035.5000     7.9528   126.6222     0.0416     2.5095   -67.7126     6.2380     6.0278     0.2480
 3036.0000     7.9544   126.3414     0.0432     2.5133   -67.6985     8.2187     6.2392     0.2399
 3036.5000     7.9560   127.5499     0.0463     2.5201   -67.6868     7.6712     5.5862     0.2371
 3037.0000     7.9579   129.0492     0.0494     2.5224   -67.6751     7.0136     5.9030     0.2374
 3037.5000     7.9595   130.2527     0.0496     2.5128   -67.6635     7.7777     6.7766     0.2386
 3038.0000     7.9611   130.3074     0.0527     2.5070   -67.6518     7.6185     5.8616     0.2409
 3038.5000     7.9478   128.8047     0.0543     2.5063   -67.3407     7.1110     7.2101     0.2373
 3039.0000     7.9346   125.4129     0.0544     2.5131   -67.3290     7.5760     6.8694     0.2304
 3039.5000     7.9065   121.4622     0.0546     2.5230   -67.0179     7.9402     6.1033     0.2277
 3040.0000     7.8637   122.9616     0.0547     2.5319   -66.8563     7.4625     5.8197     0.2267
 3040.5000     7.8504   125.0527     0.0548     2.5298   -66.6946     8.3328     5.6608     0.2291
 3041.0000     7.8372   127.7354     0.0535     2.5247   -66.3811     7.4625     6.2780     0.2327
 3041.5000     7.8240   131.8975     0.0506     2.5188   -65.9203     8.1622     5.3558     0.2359
 3042.0000     7.8107   138.7223     0.0478     2.5115   -65.4595     7.8315     5.3554     0.2377
 3042.5000     7.7975   147.4418     0.0435     2.5049   -64.8490     7.4113     6.7253     0.2398
 3043.0000     7.7995   159.1816     0.0391     2.4960   -63.9391     7.2097     6.8185     0.2412
 3043.5000     7.7862   173.1070     0.0377     2.4871   -62.7298     7.0136     6.3193     0.2394
 3044.0000     7.7879   197.6816     0.0364     2.4806   -58.8259     7.0136     5.5039     0.2358
 3044.5000     7.7898   208.6501     0.0350     2.4770   -52.2274     7.3144     6.0620     0.2283
 3045.0000     7.7914   227.0134     0.0337     2.4741   -44.1644     8.0326     8.1162     0.2237
 3045.5000     7.7929   258.6902     0.0323     2.4705   -31.5599    12.0081     8.5013     0.2216
 3046.0000     7.7797   323.2073     0.0310     2.4661    -7.4299    11.3637     6.8155     0.2201
 3046.5000     7.7813   330.0851     0.0311     2.4603    -1.8792     7.7243     5.9361     0.2186
 3047.0000     7.7829   306.6844     0.0298     2.4544    -1.8675     7.5661     5.4637     0.2146
 3047.5000     7.7844   259.3672     0.0299     2.4478    -1.8558     7.4625     4.7917     0.2110
 3048.0000     7.7861   186.3086     0.0300     2.4371    -1.8442     9.1141    11.1243     0.2065
 3048.5000     7.7880   152.3050     0.0302     2.4280    -1.8323    16.9502     7.5047     0.2047
 3049.0000     7.7896   142.1804     0.0303     2.4258    -1.8204    11.0546     5.1687     0.2059
 3049.5000     7.7911   136.9655     0.0289     2.4259    -1.8061     7.2097     4.2894     0.2139
 3050.0000     7.7927   134.0270     0.0276     2.4208    -1.7945     6.7759     4.1722     0.2189
 3050.5000     7.7943   131.9761     0.0262     2.4113    -1.7828     6.6294     5.4236     0.2234
 3051.0000     7.8003   130.5168     0.0234     2.3987    -1.7711     6.2158     3.8933     0.2279
 3051.5000     7.8097   128.7617     0.0205     2.3831    -1.9120     5.7824     3.9472     0.2314
 3052.0000     7.7954   127.8935     0.0191     2.3672    -1.8974     5.7824     4.1711     0.2512
 3052.5000     7.7813   127.9143     0.0178     2.3596    -1.8857     5.7824     4.0292     0.2850
 3053.0000     7.7673   128.8559     0.0164     2.3612    -1.7243     5.4721     3.9464  -999.2500
 3053.5000     7.7532   130.6221     0.0151     2.3687    -1.7126     5.2867     3.9461  -999.2500
 3054.0000     7.7541   131.2339     0.0152     2.3777    -1.7006     5.0376     3.6321  -999.2500
 3054.5000     7.7400   128.2954     0.0154     2.3849    -1.6863     4.7021     3.2296  -999.2500
 3055.0000     7.7408   125.3569     0.0140     2.3906    -1.8243     4.6377     3.2518  -999.2500
 3055.5000     7.7415   124.7802     0.0156     2.3944    -1.9652     4.6377     4.0178  -999.2500
 3056.0000     7.7422   128.3556     0.0158     2.3715    -2.1032     5.3972     3.9898  -999.2500
 3056.5000     7.7578   128.3756     0.0174     2.3566    -2.0886     5.1740     3.8371  -999.2500
 3057.0000     7.7734   111.3560     0.0205     2.3843    -2.0769     4.9006     4.1111  -999.2500
 3057.5000     7.7741    53.9180     0.0237     2.4200    -1.9155     4.2694     2.9511  -999.2500
 3058.0000     7.7896    36.9238     0.0297     2.4566    -2.0539     4.1533     3.2729  -999.2500
 3058.5000     7.7904    15.0451     0.0328     2.4708    -2.0418     4.5115     4.2840  -999.2500
 3059.0000     7.7615    11.2137     0.0315     2.4597    -2.0299     4.9687     4.9521  -999.2500
 3059.5000     7.7474    10.3402     0.0298     2.4449    -2.0180     6.1103     6.0495  -999.2500
 3060.0000     7.7481     9.4681     0.0298     2.4297    -2.0038     7.1110     7.6496  -999.2500
 3060.5000     7.7341     9.1864     0.0298     2.4125    -1.7478     6.2811     8.5425  -999.2500
 3061.0000     7.7200     8.9053     0.0283     2.3977    -1.7478     5.4345     8.7207  -999.2500
 3061.5000     7.7059     8.3289     0.0254     2.3829    -1.7478     4.9687     6.4544  -999.2500
 3062.0000     7.7067     8.0473     0.0239     2.3644    -1.7478     4.0768     6.0057  -999.2500
 3062.5000     7.7074     7.7663     0.0209     2.3534    -1.7478     3.3968     5.4520  -999.2500
 3063.0000     7.6933     7.7815     0.0180     2.3572    -1.7478     3.2405     4.9153  -999.2500
 3063.5000     7.7089     7.7963     0.0152     2.3744    -1.7478     3.0878     4.7811  -999.2500
 3064.0000     7.7096     7.8110     0.0137     2.3897    -1.7478     3.0246     4.7479  -999.2500
 3064.5000     7.7252     8.1216     0.0152     2.4065    -1.7478     2.9424     4.4615  -999.2500
 3065.0000     7.7704     8.4323     0.0170     2.4260    -1.7478     2.8623     4.2507  -999.2500
 3065.5000     7.8183     8.7429     0.0213     2.4573    -1.7478     2.9021     4.0780  -999.2500
 3066.0000     7.8461     8.7576     0.0273     2.4841    -1.7478     3.0666     4.4915  -999.2500
 3066.5000     7.8172     8.7724     0.0303     2.4946    -1.9077     3.3311     5.0884  -999.2500
 3067.0000     7.7735     9.0830     0.0348     2.4910    -2.4580     3.8236     5.7185  -999.2500
 3067.5000     7.7298     9.3936     0.0363     2.4748    -2.5769     4.5887     5.1556  -999.2500
 3068.0000     7.6861     9.4084     0.0364     2.4642    -3.1611     6.6026     8.0194  -999.2500
 3068.5000     7.6718     9.7190     0.0364     2.4527    -4.1973     0.2784     6.2542  -999.2500
 3069.0000     7.6577     9.7338     0.0349     2.4453    -5.5356     0.2690     6.4734  -999.2500
 3069.5000     7.6436     9.7486     0.0335     2.4380   -10.1521     0.2563     7.9627  -999.2500
 3070.0000     7.6446     9.4675     0.0291     2.4299   -36.5269     0.2599     8.1851  -999.2500
 3070.5000     7.6453     9.1864     0.0217     2.4174   -49.4012     0.2511     9.4056  -999.2500
 3071.0000     7.6460     8.9053     0.0127     2.3996   -69.3204     0.2477    10.4933  -999.2500
 3071.5000     7.6319     8.9201     0.0038     2.3603   -69.6108     0.2494    10.2773  -999.2500
 3072.0000     7.6177     9.2406     0.0024     2.3124   -69.3114     0.2426     8.1828  -999.2500
