~VERSION INFORMATION
 VERS.                2.0:   CWLS LOG ASCII STANDARD - VERSION 2.0
 WRAP.                 NO:   ONE LINE PER DEPTH STEP
~WELL INFORMATION
#MNEM.UNIT      DATA TYPE    INFORMATION
#----------   ------------   ------------------------------
 STRT.F          211.5000:   START DEPTH
 STOP.F         3103.0000:   STOP DEPTH
 STEP.F            0.5000:   STEP LENGTH
 NULL.          -999.2500:   NO VALUE
 COMP.    FENIX & SCISSON:   COMPANY
 WELL. FENIX NPR 3 "AX" #38-10:   WELL
 FLD .  TEAPOT DOME - NPR:   FIELD
 LOC .      S10 T38N R78W:   LOCATION
 CNTY.            NATRONA:   COUNTY
 STAT.            WYOMING:   STATE
 CTRY. UNITED STATES OF AMERICA:   COUNTRY
 SRVC.           BIRDWELL:   SERVICE COMPANY
 DATE.        01-JUL-1978:   LOGDATE
 API .     49025106550000:   API NUMBER
~CURVE INFORMATION
#MNEM.UNIT       API CODE    CURVE DESCRIPTION
#----------   ------------   ------------------------------
 DEPT.F                  :   
 CALD.IN     45 280 60 00:   CALIPER FROM DENSITY LOG
 GRD .GAPI   45 310 01 00:   GAMMA RAY FROM DENSITY LOG
 RHOB.G/C3   45 350 01 00:   BULK DENSITY
 CORR.G/C3   45 356 01 00:   DENSITY CORRECTION
 NPOR.DEC    42 890 03 00:   ALPHA PROCESSED NEUTRON POROSITY
 SPR .MV     05 010 01 00:   SPONTANEOUS POTENTIAL
 SN  .OHMM   05 040 00 00:   SHORT NORMAL
 ILD .OHMM   05 120 46 00:   DEEP INDUCTION RESISTIVITY
~PARAMETER INFORMATION
#MNEM.UNIT          VALUE    DESCRIPTION
#----------   ------------   ------------------------------
 EKB .F         5240.0000:   Kelly bushing
 EGL .F         5230.0000:   Ground level
 TD  .F         3103.0000:   Total depth
 DATE.        01-JUL-1978:   Date logged
 CLNT.            A2DTECH:   Client Code
 SL  . 200' FSL & 2100' FWL:   Surface Location
 PD  .                 GL:   Permanent Datum
 EPD .F              5230:   Elevation Permanent Datum
 LMF .                 KB:   Log Measured From
 DMF .                 KB:   Drilling Measured From
 DAPD.F                10:   Feet Above Permanent Datum
 DD  .F              3100:   Depth driller
 DL  .F              3103:   Depth logger
 BLI .F              3096:   Bottom log interval
 TLI .F               228:   Top log interval
 CS1 .IN            8.625:   Casing size
 CBD1.      8.625" @ 224':   Casing driller 1
 CBL1.F               228:   Casing logger 1
 BS1 .IN            7.875:   Bit size
 BSD1.F              3100:   Depth drilled with bit1
 DFT .            MUD/GEL:   Type fluid in hole
 DFD .                8.7:   Density
 DFV .                 31:   Viscosity
 DFPH.               10.5:   pH
 DFL .                  7:   Fluid loss
 MSS .           FLOWLINE:   Source of sample
 BHT .F               109:   BHT.
 TCS .HRS             4.5:   Time Circ. stopped
 MRT .F               109:   Maximum recorded temp.
 LUN .               2958:   Logging unit number
 LUL .               CASP:   Logging unit location
 ENGI.             MILLER:   Recorded By
 ORIG.      2.5" 5" PRINT:   Origin of data
 UWI .     49025106550000:   Unique Well ID
 DICO. A2D TECHNOLOGIES, INC.:   Digitizing Company
~OTHER INFORMATION
~A   DEPT     CALD         GRD      RHOB       CORR       NPOR        SPR         SN        ILD   
# ...
  454.5000    10.9249    72.4187     2.3013     0.2446  -999.2500   -13.3060     8.8031    10.3942
  455.0000    10.9443    70.2366     2.3331     0.2524  -999.2500   -12.9143     8.9645    10.5854
  455.5000    10.9438    64.6881     2.3499     0.2444  -999.2500   -13.1160     9.5565    10.9798
  456.0000    10.9433    57.3759     2.3537     0.2324  -999.2500   -13.1199    10.1876    11.8149
  456.5000    10.9429    51.2166     2.3320     0.1966  -999.2500   -12.9260    10.9603    13.4336
  457.0000    10.9424    45.8665     2.3072     0.1668  -999.2500   -12.5343    11.5779    14.8597
  457.5000    10.9420    40.7152     2.2883     0.1508  -999.2500   -12.3404    12.7307    16.0521
  458.0000    10.9415    36.9491     2.2515     0.1388  -999.2500   -12.3443    13.0377    17.6844
  458.5000    10.9411    36.9453     2.2384     0.1408  -999.2500   -12.7437    13.3985    18.0106
  459.0000    10.9406    36.7435     2.2634     0.1448  -999.2500   -12.9454    13.3967    18.0082
  459.5000    10.9402    38.3233     2.3040     0.1506  -999.2500   -13.1479    13.3949    18.0057
  460.0000    10.9398    41.4869     2.2683     0.1546  -999.2500   -12.9540    13.3931    17.8383
  460.5000    10.9393    47.0266     2.2593     0.1604  -999.2500   -12.7601    13.2693    17.8359
  461.0000    10.9388    48.0125     2.2503     0.1702  -999.2500   -12.5662    13.3895    17.1905
  461.5000    10.9383    46.8379     2.2432     0.1722  -999.2500   -12.5700    13.3877    17.1882
  462.0000    10.9379    43.2528     2.2580     0.1722  -999.2500   -12.3761    13.2639    16.7191
  462.5000    10.9375    40.2797     2.2530     0.1700  -999.2500   -12.3800    13.3118    16.5641
  463.0000    10.9370    40.2758     2.2510     0.1720  -999.2500   -12.1861    13.3100    16.7146
  463.5000    10.9366    40.8649     2.2818     0.1700  -999.2500   -12.1900    13.0655    16.7123
  464.0000    10.9361    42.8413     2.2730     0.1638  -999.2500   -12.1939    13.0637    16.7100
  464.5000    10.9357    43.6291     2.2680     0.1658  -999.2500   -12.1978    12.9423    16.7078
  465.0000    10.9353    44.4170     2.2541     0.1658  -999.2500   -12.3994    12.9405    16.5524
  465.5000    10.9348    44.8261     2.2419     0.1676  -999.2500   -12.4041    12.8202    16.3990
  466.0000    10.9344    39.6735     2.2400     0.1716  -999.2500   -13.5947    12.8185    16.2469
  466.5000    10.9338    41.0395     2.2389     0.1716  -999.2500   -14.1920    12.6993    16.0963
  467.0000    10.9334    42.4212     2.2590     0.1754  -999.2500   -14.5914    12.6976    16.0941
  467.5000    10.9330    44.3965     2.2798     0.1814  -999.2500   -14.5953    12.6955    16.0919
  468.0000    10.9325    44.9864     2.3016     0.1792  -999.2500   -14.5992    12.6938    16.0898
  468.5000    10.9321    44.9825     2.3105     0.1792  -999.2500   -14.6031    12.6921    16.0876
  469.0000    10.9316    45.3744     2.3214     0.1752  -999.2500   -14.6069    12.6904    16.0854
  469.5000    10.9312    45.5683     2.3253     0.1672  -999.2500   -14.4138    12.6887    16.2316
  470.0000    10.9308    46.1566     2.3261     0.1512  -999.2500   -14.2199    12.8042    16.6825
  470.5000    10.9303    44.7688     2.3181     0.1452  -999.2500   -14.0260    12.6852    16.6798
  471.0000    10.9299    44.1703     2.2994     0.1272  -999.2500   -13.6343    12.6835    16.9865
  471.5000    10.9293    44.3643     2.2885     0.1132  -999.2500   -12.6493    12.6818    17.2989
  472.0000    10.9289    45.1520     2.2873     0.1032  -999.2500   -12.0598    12.7973    17.4561
  472.5000    10.9285    45.7418     2.2507     0.1012  -999.2500   -12.0637    12.6783    17.4537
  473.0000    10.9280    42.5714     2.2338     0.1052  -999.2500   -12.0676    12.6763    17.4514
  473.5000    10.9276    40.1926     2.2276     0.1250  -999.2500   -11.8737    12.6746    17.4490
  474.0000    10.9271    40.5845     2.2457     0.1288  -999.2500   -11.0864    12.6728    17.4467
  474.5000    10.9267    42.5596     2.2683     0.1348  -999.2500   -10.8925    12.5550    16.9705
  475.0000    10.9263    44.9305     2.2673     0.1386  -999.2500   -10.6986    12.2830    16.5073
  475.5000    10.9258    46.3118     2.2623     0.1406  -999.2500   -10.7025    12.0589    16.2044
  476.0000    10.9254    46.5058     2.2602     0.1504  -999.2500   -10.5086    11.9471    16.2022
  476.5000    10.9446    46.6997     2.2803     0.1544  -999.2500   -10.3147    11.8366    16.2000
  477.0000    10.9244    47.8831     2.2902     0.1542  -999.2500   -10.3186    11.7271    15.6138
  477.5000    10.9240    48.2749     2.2901     0.1542  -999.2500   -10.3232    11.5125    15.4691
  478.0000    10.9433    48.0722     2.2861     0.1542  -999.2500   -10.3271    11.3021    14.9094
  478.5000    10.9231    47.8704     2.2780     0.1560  -999.2500   -10.5288    11.2298    15.1836
  479.0000    10.9424    47.8664     2.2871     0.1580  -999.2500   -10.5327    11.2283    15.1815
  479.5000    10.9420    47.6646     2.2871     0.1598  -999.2500   -10.5366    11.2267    15.1794
  480.0000    10.9415    48.6500     2.2850     0.1658  -999.2500   -10.5405    11.2252    15.0387
  480.5000    10.9411    49.6354     2.2838     0.1656  -999.2500   -10.5443    11.2237    15.0363
  481.0000    10.9407    50.4229     2.2929     0.1656  -999.2500   -10.5482    11.2222    14.8969
  481.5000    10.9401    50.8146     2.2998     0.1656  -999.2500   -10.5521    11.0866    14.7588
  482.0000    10.9397    51.4229     2.3135     0.1616  -999.2500   -10.1604    11.0851    14.7568
  482.5000    10.9393    49.6194     2.3125     0.1536  -999.2500   -10.3621    11.0833    14.6199
  483.0000    10.9388    49.2197     2.3017     0.1494  -999.2500    -9.9712    11.0818    14.7528
  483.5000    10.9384    48.6214     2.2958     0.1514  -999.2500    -9.7773    11.0803    14.6160
  484.0000    10.8984    47.8430     2.2886     0.1612  -999.2500   -10.1767    11.2835    14.6140
  484.5000    10.9375    49.4049     2.3076     0.1652  -999.2500    -9.7851    11.0773    14.6120
  485.0000    10.9173    51.1816     2.3225     0.1630  -999.2500    -9.7889    11.0758    14.6101
  485.5000    10.9366    52.7604     2.3274     0.1610  -999.2500    -9.7928    11.0743    14.6077
  486.0000    10.9362    52.9542     2.3264     0.1530  -999.2500    -9.5989    11.1747    14.7404
  486.5000    10.9357    52.5545     2.3254     0.1510  -999.2500    -9.6028    11.0713    14.8743
  487.0000    10.9352    50.9677     2.3152     0.1530  -999.2500    -9.6067    11.1716    15.1479
  487.5000    10.9348    50.9637     2.3253     0.1608  -999.2500    -9.8084    11.1701    15.8572
  488.0000    10.9343    51.7511     2.3422     0.1686  -999.2500    -9.4167    11.1680    16.0012
  488.5000    10.9339    51.9449     2.3540     0.1666  -999.2500    -9.8169    11.2695    16.2955
  489.0000    10.9334    52.1550     2.3619     0.1606  -999.2500   -10.0186    11.2680    16.1444
  489.5000    10.9330    51.7545     2.3917     0.1546  -999.2500   -10.2203    11.1638    16.1422
  490.0000    10.9325    48.3711     2.4053     0.1366  -999.2500   -10.2241    10.9598    16.1400
  490.5000    10.9321    46.9799     2.3837     0.1286  -999.2500   -10.4258    10.8584    16.1379
  491.0000    10.9317    47.5718     2.3608     0.1306  -999.2500   -10.4297    10.8570    16.1357
  491.5000    10.9312    49.7610     2.3459     0.1404  -999.2500   -10.4336    10.8555    15.6953
  492.0000    10.9307    54.2891     2.3340     0.1562  -999.2500   -10.6352    10.3684    15.6927
  492.5000    10.9303    57.2532     2.3250     0.1582  -999.2500   -10.6391    10.1789    14.7141
  493.0000    10.9298    57.4469     2.3119     0.1600  -999.2500   -10.8408    10.2709    14.0521
  493.5000    10.9294    57.6407     2.3220     0.1660  -999.2500   -10.8455    10.1759    13.7946
  494.0000    10.9487    58.2301     2.3299     0.1718  -999.2500   -10.6516    10.1745    13.6667
  494.5000    10.9285    58.2260     2.3319     0.1718  -999.2500   -10.4577    10.0804    13.5400
