~VERSION INFORMATION
 VERS.                2.0:   CWLS LOG ASCII STANDARD - VERSION 2.0
 WRAP.                 NO:   ONE LINE PER DEPTH STEP
~WELL INFORMATION
#MNEM.UNIT      DATA TYPE    INFORMATION
#----------   ------------   ------------------------------
 STRT.F           46.0000:   START DEPTH
 STOP.F         2952.5000:   STOP DEPTH
 STEP.F            0.5000:   STEP LENGTH
 NULL.          -999.2500:   NO VALUE
 COMP.    FENIX & SCISSON:   COMPANY
 WELL. FENIX NPR 3 "SHX" #11-15:   WELL
 FLD .        TEAPOT DOME:   FIELD
 LOC .      S15 T38N R78W:   LOCATION
 CNTY.            NATRONA:   COUNTY
 STAT.            WYOMING:   STATE
 CTRY. UNITED STATES OF AMERICA:   COUNTRY
 SRVC.           BIRDWELL:   SERVICE COMPANY
 DATE.        19-JAN-1979:   LOGDATE
 API .     49025107640000:   API NUMBER
~CURVE INFORMATION
#MNEM.UNIT       API CODE    CURVE DESCRIPTION
#----------   ------------   ------------------------------
 DEPT.F                  :   
 GRD .GAPI   45 310 01 00:   GAMMA RAY FROM DENSITY LOG
 CALD.IN     45 280 60 00:   CALIPER FROM DENSITY LOG
 RHOB.G/C3   45 350 01 00:   BULK DENSITY
 CORR.G/C3   45 356 01 00:   DENSITY CORRECTION
 SPR .MV     07 010 01 00:   SPONTANEOUS POTENTIAL
 SN  .OHMM   01 040 00 00:   SHORT NORMAL
 ILD .OHMM   07 120 46 00:   INDUCTION LOG DEEP RESISTIVITY
~PARAMETER INFORMATION
#MNEM.UNIT          VALUE    DESCRIPTION
#----------   ------------   ------------------------------
 EKB .F         5258.0000:   Kelly bushing
 EGL .F         5248.0000:   Ground level
 EDF .F            0.0000:   Drilling floor
 TD  .F         1300.0000:   Total depth
 DATE.        19-JAN-1979:   Date logged
 CLNT.            A2DTECH:   Client Code
 SL  . 177' FNL & 155' FWL:   Surface Location
 PD  .                 GL:   Permanent Datum
 EPD .F              5248:   Elevation Permanent Datum
 LMF .                 KB:   Log Measured From
 DMF .                 KB:   Drilling Measured From
 DAPD.F                10:   Feet Above Permanent Datum
 DD  .F              1300:   Depth driller
 DL  .F              1283:   Depth logger
 BLI .F              1277:   Bottom log interval
 TLI .F               100:   Top log interval
 CBD1.F                40:   Casing driller 1
 CBL1.F                40:   Casing logger 1
 BS1 .IN            7.875:   Bit size
 BSD1.F              1300:   Depth drilled with bit1
 DFT .           CHEM/GEL:   Type fluid in hole
 DFD .                8.8:   Density
 DFV .                 37:   Viscosity
 DFL .               15.4:   Fluid loss
 MSS .           FLOWLINE:   Source of sample
 RMS .OHMM            .75:   Rm
 MST .F                68:   Rm Meas. temp.
 RMF .OHMM            .75:   Rmf
 MFST.F                64:   Rmf Meas. temp.
 RMC .OHMM            1.3:   Rmc
 MCST.F                68:   Rmc Meas. temp.
 MFSS.               MEAS:   Source Rmf.
 MCSS.               MEAS:   Source Rmc.
 RMB .OHMM            .73:   Rm. at BHT
 BHT .F                70:   BHT.
 TCS .HRS               2:   Time Circ. stopped
 MRT .F                70:   Maximum recorded temp.
 LUN .               3029:   Logging unit number
 LUL .               CSPR:   Logging unit location
 ENGI.            ROLLINS:   Recorded By
 WITN.           DINSMORE:   Witnessed by
 ORIG.           5" PRINT:   Origin of data
 UWI .     49025107640000:   Unique Well ID
 DICO. A2D TECHNOLOGIES, INC.:   Digitizing Company
~OTHER INFORMATION
~A   DEPT      GRD       CALD       RHOB       CORR        SPR           SN        ILD 
# ...
 1092.5000    65.9280    10.1700     2.1980  -999.2500   -47.9370    11.2690    11.6390
 1093.0000    68.8020    10.1690     2.1960  -999.2500   -47.6040    11.2920    11.7430
 1093.5000    69.2730    10.1680     2.1940  -999.2500   -48.1720    11.3140    11.8470
 1094.0000    67.7780    10.1670     2.1940  -999.2500   -48.6860    11.3360    11.8860
 1094.5000    66.1360    10.1660     2.1950  -999.2500   -46.7930    11.3590    11.6880
 1095.0000    64.4830    10.1650     2.2080  -999.2500   -45.8130    11.3810    11.6020
 1095.5000    62.8950    10.1640     2.2200  -999.2500   -46.8620    11.4050    11.5160
 1096.0000    61.1920    10.1630     2.2350  -999.2500   -47.0130    11.4260    11.4300
 1096.5000    59.6820    10.1630     2.2540  -999.2500   -46.3430    11.4560    11.3440
 1097.0000    57.8670    10.1540     2.2760  -999.2500   -47.3860    11.2170    11.2580
 1097.5000    58.6270    10.1380     2.2990  -999.2500   -46.5330    11.1530    11.2010
 1098.0000    59.8090    10.1250     2.3000  -999.2500   -44.6520    11.0890    11.1030
 1098.5000    61.1380    10.1110     2.2960  -999.2500   -44.8790    11.0250    11.0050
 1099.0000    62.2910    10.0970     2.3060  -999.2500   -45.4240    10.9620    10.9080
 1099.5000    63.8250    10.0830     2.3170  -999.2500   -46.0740    10.8980    10.8100
 1100.0000    63.9100    10.0830     2.3110  -999.2500   -46.5900    10.8400    10.7120
 1100.5000    63.4160    10.0840     2.3060  -999.2500   -46.6990    10.7280    10.6140
 1101.0000    62.8360    10.0850     2.3030  -999.2500   -46.2300    10.6040    10.5160
 1101.5000    63.0450    10.0860     2.3010  -999.2500   -45.8240    10.4800    10.4030
 1102.0000    63.6570    10.0870     2.2990  -999.2500   -45.2230    10.3560    10.2540
 1102.5000    64.4830    10.0880     2.2900  -999.2500   -46.3600    10.2310    10.1050
 1103.0000    62.2420    10.0880     2.2830  -999.2500   -47.7010    10.1070     9.9560
 1103.5000    57.9100    10.0890     2.2760  -999.2500   -47.7660     9.9430     9.8070
 1104.0000    58.0550    10.0900     2.2560  -999.2500   -47.3880     9.7610     9.6580
 1104.5000    58.9810    10.0910     2.2240  -999.2500   -46.5220     9.5780     9.5080
 1105.0000    59.9230    10.0920     2.2210  -999.2500   -45.6260     9.3960     9.3590
 1105.5000    58.8780    10.0930     2.2200  -999.2500   -45.9550     9.2690     9.2100
 1106.0000    58.1500    10.0940     2.2220  -999.2500   -46.8560     9.0700     9.0610
 1106.5000    59.4680    10.0940     2.2240  -999.2500   -45.6770     8.8890     8.8340
 1107.0000    61.6380    10.0950     2.2260  -999.2500   -46.0010     8.6900     8.5000
 1107.5000    63.9820    10.0960     2.2280  -999.2500   -45.5240     8.2580     8.1660
 1108.0000    65.9020    10.0970     2.2200  -999.2500   -44.2270     7.6410     7.6740
 1108.5000    64.5310    10.0980     2.2110  -999.2500   -45.7370     7.0240     7.0250
 1109.0000    60.0540    10.0990     2.2040  -999.2500   -46.1600     6.5920     6.3750
 1109.5000    58.7960    10.1000     2.2020  -999.2500   -45.2340     6.2550     6.1810
 1110.0000    58.8250    10.1000     2.2010  -999.2500   -43.8490     6.0680     6.0920
 1110.5000    59.4450    10.1010     2.2060  -999.2500   -43.9310     6.1190     6.0680
 1111.0000    61.2180    10.1020     2.2130  -999.2500   -44.5930     6.2380     6.1400
 1111.5000    63.1380    10.1030     2.2270  -999.2500   -45.0360     7.1310     6.2050
 1112.0000    64.6720    10.1040     2.2490  -999.2500   -45.0030     8.2230     6.2380
 1112.5000    66.4200    10.1050     2.2570  -999.2500   -45.9100     8.7870     7.2080
 1113.0000    68.1060    10.1060     2.2530  -999.2500   -46.4030     9.1000     8.2870
 1113.5000    71.5110    10.1060     2.2450  -999.2500   -45.7260     9.1000     8.7510
 1114.0000    74.6620    10.1070     2.2330  -999.2500   -45.7250     9.3120     8.8890
 1114.5000    76.0290    10.1080     2.2540  -999.2500   -46.9560     9.3930     8.9640
 1115.0000    72.7930    10.1090     2.2830  -999.2500   -46.2110     9.5190     9.1000
 1115.5000    66.8970    10.1100     2.3070  -999.2500   -46.0070     9.6460     9.1570
 1116.0000    61.3820    10.1110     2.2930  -999.2500   -47.1550     9.7720     9.3470
 1116.5000    55.3390    10.1120     2.1810  -999.2500   -47.7940     9.8860     9.5370
 1117.0000    52.2400    10.1120     2.0890  -999.2500   -48.3080    10.2020     9.7260
 1117.5000    53.7100    10.1130     2.2460  -999.2500   -48.3580    10.4900     9.9160
 1118.0000    57.5130    10.1140     2.3030  -999.2500   -46.7110    10.7780    10.1060
 1118.5000    61.4560    10.1150     2.2720  -999.2500   -45.3530    11.0650    10.6530
 1119.0000    65.2970    10.1160     2.2650  -999.2500   -45.7960    11.3530    11.1680
 1119.5000    69.4950    10.1170     2.2570  -999.2500   -45.0080    11.6690    11.2470
 1120.0000    69.7940    10.1180     2.2570  -999.2500   -45.9120    11.8440    11.3270
 1120.5000    68.7560    10.1180     2.2570  -999.2500   -46.8260    12.0380    11.6510
 1121.0000    67.4520    10.1190     2.2580  -999.2500   -45.4850    12.2320    11.9470
 1121.5000    67.7590    10.1200     2.2610  -999.2500   -43.8730    12.4460    12.2430
 1122.0000    69.7610    10.1210     2.2670  -999.2500   -43.6490    12.6770    12.3320
 1122.5000    68.5650    10.1210     2.2780  -999.2500   -44.7210    12.6770    12.2700
 1123.0000    65.1200    10.0960     2.2900  -999.2500   -46.2390    12.6770    12.2140
 1123.5000    62.5270    10.0630     2.3020  -999.2500   -46.8290    12.6770    12.1570
 1124.0000    63.1780    10.0290     2.3130  -999.2500   -47.2250    12.6770    12.1070
 1124.5000    64.2530    10.0040     2.3150  -999.2500   -46.6130    12.6770    12.1430
 1125.0000    64.1740     9.9990     2.3110  -999.2500   -45.6220    12.6770    12.1770
 1125.5000    64.0380     9.9940     2.2970  -999.2500   -45.4770    12.6770    12.2100
 1126.0000    64.4580     9.9900     2.2830  -999.2500   -46.7550    12.6780    12.2430
 1126.5000    64.6660     9.9850     2.2780  -999.2500   -48.0150    12.6780    12.2760
 1127.0000    63.8070     9.9810     2.2790  -999.2500   -47.9740    12.6760    12.3100
 1127.5000    63.2810     9.9760     2.2800  -999.2500   -47.4850    12.7950    12.3430
 1128.0000    63.7460     9.9720     2.2810  -999.2500   -46.3130    13.0330    12.3760
 1128.5000    64.3100     9.9670     2.2860  -999.2500   -45.2740    12.7590    12.4090
 1129.0000    64.1410     9.9650     2.2910  -999.2500   -45.4210    12.7090    12.4460
 1129.5000    64.1150     9.9660     2.2900  -999.2500   -44.9380    12.6590    12.4000
 1130.0000    63.6900     9.9660     2.2860  -999.2500   -45.1000    12.6090    12.3500
 1130.5000    66.2200     9.9670     2.2950  -999.2500   -46.2390    12.5580    12.2990
 1131.0000    68.8870     9.9680     2.2920  -999.2500   -45.4390    12.5080    12.2480
 1131.5000    69.0790     9.9690     2.2960  -999.2500   -45.9760    12.4580    12.1980
 1132.0000    68.9340     9.9690     2.3090  -999.2500   -46.5800    12.4070    12.1470
 1132.5000    66.1560     9.9700     2.3200  -999.2500   -45.9620    12.3570    12.0960
 1133.0000    63.0090     9.9710     2.3260  -999.2500   -45.6240    12.2620    12.0460
 1133.5000    63.2440     9.9720     2.3320  -999.2500   -45.6210    12.1210    11.9950
 1134.0000    64.7680     9.9730     2.3390  -999.2500   -46.0070    11.9800    11.9440
 1134.5000    65.8820     9.9730     2.3240  -999.2500   -45.3440    11.8390    11.8930
 1135.0000    66.6320     9.9740     2.3050  -999.2500   -45.6390    11.6990    11.8430
 1135.5000    64.0410     9.9750     2.2960  -999.2500   -45.4880    11.5580    11.7920
 1136.0000    62.1400     9.9760     2.2860  -999.2500   -45.5740    11.4170    11.5960
 1136.5000    63.4780     9.9760     2.2780  -999.2500   -44.6320    11.2760    11.4510
 1137.0000    64.8810     9.9770     2.2770  -999.2500   -45.3650    11.1360    11.3060
 1137.5000    62.7620     9.9780     2.2730  -999.2500   -46.2240    10.9950    11.1600
