~VERSION INFORMATION
 VERS.                2.0:   CWLS LOG ASCII STANDARD - VERSION 2.0
 WRAP.                 NO:   ONE LINE PER DEPTH STEP
~WELL INFORMATION
#MNEM.UNIT      DATA TYPE    INFORMATION
#----------   ------------   ------------------------------
 STRT.F           11.5000:   START DEPTH
 STOP.F         1726.0000:   STOP DEPTH
 STEP.F            0.5000:   STEP LENGTH
 NULL.          -999.2500:   NO VALUE
 COMP. LAWRENCE ALLISON & ASSOC WEST:   COMPANY
 WELL. LAWRENCE NPR 3 "X" #51-26:   WELL
 FLD .                NPR:   FIELD
 LOC .      S26 T38N R78W:   LOCATION
 CNTY.            NATRONA:   COUNTY
 STAT.            WYOMING:   STATE
 CTRY. UNITED STATES OF AMERICA:   COUNTRY
 SRVC.      DRESSER ATLAS:   SERVICE COMPANY
 DATE.        13-AUG-1983:   LOGDATE
 API .     49025109270000:   API NUMBER
~CURVE INFORMATION
#MNEM.UNIT       API CODE    CURVE DESCRIPTION
#----------   ------------   ------------------------------
 DEPT.F                  :   
 CALD.IN     45 280 60 00:   CALIPER FROM DENSITY LOG
 RHOB.G/C3   45 350 01 00:   BULK DENSITY
 CORR.G/C3   45 356 01 00:   DENSITY CORRECTION
 TEND.LBS    45 635 01 00:   TENSION FROM DENSITY LOG
 GRR .GAPI   07 310 01 00:   GAMMA RAY FROM RESISTIVITY
 RILD.OHMM   07 120 46 00:   INDUCTION LOG DEEP RESISTIVITY
 RILM.OHMM   07 120 44 00:   INDUCTION LOG MEDIUM RESISTIVITY
 TENR.LBS    07 635 01 00:   TENSION
~PARAMETER INFORMATION
#MNEM.UNIT          VALUE    DESCRIPTION
#----------   ------------   ------------------------------
 EKB .F         5455.0000:   Kelly bushing
 EGL .F         5444.0000:   Ground level
 EDF .F            0.0000:   Drilling floor
 EPD .F         5444.0000:   Permanent datum
 TD  .F         1726.0000:   Total depth
 DATE.        13-AUG-1983:   Date logged
 CLNT.            A2DTECH:   Client Code
 PD  .                 GL:   Permanent Datum
 LMF .                 KB:   Log Measured From
 DMF .                 KB:   Drilling Measured From
 DAPD.F                11:   Feet Above Permanent Datum
 DD  .F              1726:   Depth driller
 DL  .F              1724:   Depth logger
 BLI .F              1718:   Bottom log interval
 CBD1.F                47:   Casing driller 1
 CBL1.F                48:   Casing logger 1
 BS1 .IN            12.25:   Bit size
 BSD1.F              1726:   Depth drilled with bit1
 DFT .           AIR/FOAM:   Type fluid in hole
 TCS .HRS               1:   Time Circ. stopped
 MRT .F                85:   Maximum recorded temp.
 LUN .               6270:   Logging unit number
 LUL .              WLSTN:   Logging unit location
 ENGI.            QUICKEL:   Recorded By
 WITN.           JENNINGS:   Witnessed by
 ORIG.           5" PRINT:   Origin of data
 UWI .     49025109270000:   Unique Well ID
 DICO. A2D TECHNOLOGIES, INC.:   Digitizing Company
~OTHER INFORMATION
~A   DEPT     CALD       RHOB       CORR       TEND         GRR      RILD       RILM       TENR   
# ...
 1550.5000    12.6940     2.4000     0.0230   -36.2480   104.1040     9.2050     9.6360   -16.7780
 1551.0000    12.6930     2.4000     0.0090   -35.9030   105.7550     9.2050     9.6180   -16.5300
 1551.5000    12.6930     2.4000    -0.0040   -35.5580   106.0280     9.2050     9.5990   -16.2820
 1552.0000    12.6930     2.4000    -0.0170   -35.2120   106.7500     9.2020     9.5810   -16.0350
 1552.5000    12.6920     2.4000    -0.0300   -34.8670   106.8140     9.1870     9.5530   -15.7870
 1553.0000    12.6920     2.4000    -0.0300   -34.5220   105.1380     9.1720     9.6000   -15.5400
 1553.5000    12.6920     2.3990    -0.0080   -34.1760   100.0320     9.1570     9.7260   -15.2920
 1554.0000    12.6920     2.4000     0.0150   -33.8310    95.2790     9.1410     9.8520   -15.0440
 1554.5000    12.6910     2.4090     0.0360   -33.4860    93.7410     9.1260     9.9770   -14.7970
 1555.0000    12.6910     2.4180     0.0460   -33.1410    97.8390     9.1110    10.0960   -14.5490
 1555.5000    12.6910     2.4260     0.0570   -32.7950   100.9740     9.0950     9.9340   -14.3010
 1556.0000    12.6910     2.4300     0.0520   -32.4500   102.6680     9.0800     9.7810   -14.0540
 1556.5000    12.6900     2.4280     0.0330   -32.1050   102.2460     9.0650     9.6280   -13.8060
 1557.0000    12.6900     2.4200     0.0040   -31.7590   100.1930     9.0500     9.4640   -13.5590
 1557.5000    12.6900     2.4120    -0.0270   -32.2720    98.0420     9.0360     9.6450   -13.3110
 1558.0000    12.6900     2.4120    -0.0180   -33.8210    96.4850     9.0360     9.8940   -13.0630
 1558.5000    12.6890     2.4120    -0.0030   -35.3700    96.0550     9.0360    10.0030   -12.8160
 1559.0000    12.6890     2.4110     0.0100   -36.9190    97.6980     9.0360     9.8490   -12.5680
 1559.5000    12.6890     2.4060     0.0020   -38.4680   100.8490     9.0360     9.7170   -12.3210
 1560.0000    12.6890     2.3990    -0.0140   -40.0170   100.9570     9.0360     9.6400   -12.0730
 1560.5000    12.6880     2.3960    -0.0300   -41.5660   100.1350     9.0360     9.6470   -11.8250
 1561.0000    12.6880     2.4030    -0.0300   -43.1150   100.4860     9.0360     9.6530   -11.5370
 1561.5000    12.6880     2.4100    -0.0200   -44.6640   101.8710     9.0360     9.6590   -11.2410
 1562.0000    12.6880     2.4170     0.0010   -46.2130   102.4550     9.0360     9.6650   -10.9440
 1562.5000    12.6870     2.4180     0.0130   -45.6830   101.7390     9.0360     9.6710   -10.6480
 1563.0000    12.6870     2.4150     0.0050   -44.2370    99.8280     9.0360     9.6770   -10.3520
 1563.5000    12.6870     2.4160     0.0120   -42.7910    99.2870     9.0360     9.6830   -10.0550
 1564.0000    12.6860     2.4270     0.0250   -41.3450   100.8370     9.0360     9.6890    -9.7590
 1564.5000    12.6860     2.4370     0.0370   -39.9000   102.6280     9.0360     9.6950    -9.4630
 1565.0000    12.6860     2.4310     0.0330   -38.4540   104.4300     9.0360     9.7010    -9.1660
 1565.5000    12.6860     2.4220     0.0150   -37.0080   106.0680     9.0360     9.7070    -8.8700
 1566.0000    12.6850     2.4220    -0.0040   -35.5620   105.8330     9.0360     9.7130    -8.5740
 1566.5000    12.6850     2.4220    -0.0200   -34.1160   104.7480     9.0360     9.7190    -8.2770
 1567.0000    12.6850     2.4220    -0.0060   -32.6710   103.8530     9.0360     9.7260    -7.9810
 1567.5000    12.6850     2.4230     0.0130   -31.2250   104.2830     9.0360     9.7290    -7.6850
 1568.0000    12.6840     2.4230     0.0310   -29.7790   104.6200     9.0360     9.5740    -7.3880
 1568.5000    12.6840     2.4190     0.0410   -28.3330   104.0640     9.0370     9.4500    -7.0920
 1569.0000    12.6840     2.4150     0.0280   -26.8880   103.4640     9.0250     9.3260    -6.7960
 1569.5000    12.6840     2.4140     0.0120   -26.4470   102.8500     9.0090     9.2900    -6.4990
 1570.0000    12.6830     2.4160    -0.0050   -26.1850   100.6020     8.9930     9.2900    -6.2030
 1570.5000    12.6830     2.4230    -0.0220   -25.9230    99.9270     8.9770     9.2900    -5.9070
 1571.0000    12.6830     2.4290    -0.0280   -25.6610   100.1440     8.9600     9.2900    -5.6100
 1571.5000    12.6830     2.4300    -0.0320   -25.3980   102.4310     8.9440     9.2900    -5.3140
 1572.0000    12.6820     2.4270    -0.0410   -25.1360   104.5800     8.9280     9.2900    -5.0180
 1572.5000    12.6820     2.4260    -0.0280   -24.8740   103.9640     8.9120     9.2900    -4.7210
 1573.0000    12.6820     2.4260    -0.0150   -24.6120   103.3190     8.8960     9.2890    -4.4250
 1573.5000    12.6810     2.4250    -0.0160   -24.3500   103.5070     8.8800     9.2870    -4.1290
 1574.0000    12.6810     2.4140    -0.0240   -24.0880   101.8290     8.8710     9.2900    -3.8320
 1574.5000    12.6810     2.4050    -0.0310   -23.8250    99.8500     9.1640     9.8250    -3.5360
 1575.0000    12.6810     2.3970    -0.0190   -23.5630    99.5350     9.3950    10.3260    -3.2400
 1575.5000    12.6800     2.3890    -0.0090   -23.3010    99.8380     9.8110    10.8390    -2.9430
 1576.0000    12.6800     2.3740    -0.0170   -23.0390    98.7740    10.3030    11.4410    -2.6470
 1576.5000    12.6800     2.3570    -0.0110   -22.7770    95.9060    10.7950    12.0440    -2.3510
 1577.0000    12.6800     2.3410    -0.0030   -22.5140    91.9370    11.2870    12.6460    -2.0540
 1577.5000    12.6790     2.3240     0.0050   -22.2520    87.9560    11.7800    13.2490    -1.7580
 1578.0000    12.6790     2.3080     0.0070   -21.9900    83.9910    12.2720    14.2100    -1.4620
 1578.5000    12.6790     2.2980    -0.0080   -21.7280    80.6710    12.4810    14.1780    -1.1650
 1579.0000    12.6790     2.3040    -0.0090   -21.4660    80.4790    12.6190    14.1000    -0.8690
 1579.5000    12.6780     2.3120    -0.0040   -21.2030    82.3230    12.7570    14.0230    -0.5730
 1580.0000    12.6780     2.3220     0.0010   -20.9410    87.6180    12.8940    13.9500    -0.2760
 1580.5000    12.6780     2.3320     0.0060   -20.6790    91.3890    13.0320    13.9500     0.0200
 1581.0000    12.6780     2.3430     0.0110   -20.4170    90.8060    13.0760    14.0910     0.3160
 1581.5000    12.6770     2.3580     0.0160   -20.1550    88.3520    13.0760    14.2020     0.6130
 1582.0000    12.6770     2.3720     0.0210   -19.8930    86.0190    12.9840    14.3130     0.9090
 1582.5000    12.6770     2.4150     0.0060   -19.6300    84.8090    12.8060    14.4240     1.2050
 1583.0000    12.6770     2.4570    -0.0090   -19.3680    84.3350    12.6280    14.4750     1.5020
 1583.5000    12.6760     2.4820    -0.0220   -19.1060    83.8370    12.4490    13.9260     1.7980
 1584.0000    12.6760     2.4640    -0.0230   -18.8440    84.8970    12.2710    13.4500     2.0940
 1584.5000    12.6760     2.4360    -0.0240   -18.5820    86.7260    12.0930    12.9740     2.3910
 1585.0000    12.6750     2.4070    -0.0150   -18.3190    88.5530    11.9140    12.4990     2.6870
 1585.5000    12.6750     2.3990     0.0190   -18.0570    89.8300    11.7120    12.0230     2.9830
 1586.0000    12.6750     2.4000     0.0530   -17.7950    89.2360    11.4760    11.5470     3.2800
 1586.5000    12.6750     2.3900     0.0860   -17.5330    87.9660    11.2410    11.3400     3.5760
 1587.0000    12.6740     2.3750     0.1040   -17.2710    88.9810    11.0060    11.2440     3.8720
 1587.5000    12.6740     2.3590     0.0820   -17.0080    91.0290    10.7700    11.1480     4.1690
 1588.0000    12.6740     2.3440     0.0500   -16.7460    92.9000    10.5350    11.0520     4.4650
 1588.5000    12.6740     2.3380     0.0110   -16.4630    91.8610    10.2840    10.9570     4.7610
 1589.0000    12.6730     2.3390    -0.0220   -16.1320    90.8800    10.2470    10.8610     5.0580
 1589.5000    12.6730     2.3460    -0.0100   -15.8010    91.9660    10.2070    10.7650     5.3540
 1590.0000    12.6730     2.3480     0.0190   -15.4710    91.9990    10.1670    10.6690     5.6500
 1590.5000    12.6730     2.3490     0.0140   -15.1400    91.9790    10.1270    10.5730     5.9470
