~VERSION INFORMATION
 VERS.                2.0:   CWLS LOG ASCII STANDARD - VERSION 2.0
 WRAP.                 NO:   ONE LINE PER DEPTH STEP
~WELL INFORMATION
#MNEM.UNIT      DATA TYPE    INFORMATION
#----------   ------------   ------------------------------
 STRT.F            0.5000:   START DEPTH
 STOP.F         4128.0000:   STOP DEPTH
 STEP.F            0.5000:   STEP LENGTH
 NULL.          -999.2500:   NO VALUE
 COMP. LAWRENCE ALLISON ASSOC WEST:   COMPANY
 WELL. LAWRENCE NPR "AX" #12-33:   WELL
 FLD .      NPR - WILDCAT:   FIELD
 LOC .      S33 T39N R78W:   LOCATION
 CNTY.            NATRONA:   COUNTY
 STAT.            WYOMING:   STATE
 CTRY. UNITED STATES OF AMERICA:   COUNTRY
 SRVC.      DRESSER ATLAS:   SERVICE COMPANY
 DATE.        04-AUG-1984:   LOGDATE
 API .     49025109720000:   API NUMBER
~CURVE INFORMATION
#MNEM.UNIT       API CODE    CURVE DESCRIPTION
#----------   ------------   ------------------------------
 DEPT.F                  :   
 CORR.G/C3   45 356 01 00:   DENSITY CORRECTION
 TEND.LBS    45 635 01 00:   TENSION FROM DENSITY LOG
 RHOB.G/C3   45 350 01 00:   BULK DENSITY
 GRR .GAPI   07 310 01 00:   GAMMA RAY FROM RESISTIVITY
 SPR .MV     07 010 01 00:   SPONTANEOUS POTENTIAL
 RFOC.OHMM   07 220 04 00:   RESISTIVITY FOCUSED LOG RES.
 RILM.OHMM   07 120 44 00:   RESISTIVITY INDUCTION LOG MEDIUM
 RILD.OHMM   07 120 46 00:   RESISTIVITY INDUCTION LOG MEDIUM
 TENR.LBS    07 635 01 00:   TENSION FROM RESISTIVITY
 CALR.IN     07 280 01 00:   CALIPER FROM RESISTIVITY
 DT  .US/F   60 520 00 00:   DELTA TIME
 TENS.LBS    60 635 01 00:   TENSION FROM SONIC
 SPHI.DEC    60 890 00 00:   SONIC POROSITY
~PARAMETER INFORMATION
#MNEM.UNIT          VALUE    DESCRIPTION
#----------   ------------   ------------------------------
 EKB .F         5170.0000:   Kelly bushing
 EGL .F         5157.0000:   Ground level
 EDF .F            0.0000:   Drilling floor
 TD  .F         4121.0000:   Total depth
 DATE.        04-AUG-1984:   Date logged
 CLNT.            A2DTECH:   Client Code
 SL  . 857' FNL & 751' FWL:   Surface Location
 PD  .                 GL:   Permanent Datum
 EPD .F              5157:   Elevation Permanent Datum
 LMF .                 KB:   Log Measured From
 DMF .                 KB:   Drilling Measured From
 DAPD.F                13:   Feet Above Permanent Datum
 DD  .F              4120:   Depth driller
 DL  .F              4121:   Depth logger
 BLI .F              4119:   Bottom log interval
 CS1 .IN            8.625:   Casing size
 CBD1.      8.625" @ 625':   Casing driller 1
 CBL1.F               624:   Casing logger 1
 BS1 .IN            7.875:   Bit size
 BSD1.F              4120:   Depth drilled with bit1
 DFT .            GEL/KCL:   Type fluid in hole
 DFD .                9.1:   Density
 DFV .                 40:   Viscosity
 DFPH.                8.5:   pH
 DFL .                 11:   Fluid loss
 MSS .               TANK:   Source of sample
 RMS .OHMM           .302:   Rm
 MST .F                84:   Rm Meas. temp.
 RMF .OHMM            .22:   Rmf
 MFST.F                84:   Rmf Meas. temp.
 RMC .OHMM            .38:   Rmc
 MCST.F                84:   Rmc Meas. temp.
 MFSS.               CALC:   Source Rmf.
 MCSS.               CALC:   Source Rmc.
 RMB .OHMM            .19:   Rm. at BHT
 BHT .F               132:   BHT.
 TCS .HRS               4:   Time Circ. stopped
 MRT .F               132:   Maximum recorded temp.
 LUN .               6307:   Logging unit number
 LUL .               GLTE:   Logging unit location
 ENGI.           FAHLSING:   Recorded By
 WITN.       ROBERT SCOTT:   Witnessed by
 ORIG.           5" PRINT:   Origin of data
 UWI .     49025109720000:   Unique Well ID
 DICO. A2D TECHNOLOGIES, INC.:   Digitizing Company
~OTHER INFORMATION
~A    DEPT    CORR       TEND       RHOB         GRR       SPR       RFOC       RILM       RILD       TENR       CALR         DT       TENS       SPHI   
# ...
 3172.5000     0.0940   -37.0340     2.5000   117.0360   -58.8010     4.2260     3.9840     3.4450   -36.6210     8.6890    83.6940   -63.6300     0.2370
 3173.0000     0.0730   -36.9490     2.5000   115.9620   -58.6370     4.1850     3.9930     3.4500   -36.6120     8.6790    83.8940   -63.7520     0.2400
 3173.5000     0.0520   -36.8650     2.5000   115.1310   -58.4740     4.5880     4.0020     3.4120   -36.6020     8.6740    83.8330   -63.8730     0.2390
 3174.0000     0.0490   -36.7810     2.4990   115.5340   -58.3100     4.5190     4.0110     3.3770   -36.5920     8.6680    83.4970   -63.9940     0.2390
 3174.5000     0.0590   -36.6970     2.4910   115.9300   -58.1470     4.3770     4.0200     3.3430   -36.5820     8.6630    83.5440   -64.1150     0.2390
 3175.0000     0.0640   -36.6120     2.4860   115.3190   -57.9860     4.2360     4.0290     3.2950   -36.5730     8.6620    84.1850   -64.2360     0.2370
 3175.5000     0.0590   -36.5280     2.4860   113.7110   -57.8680     4.1090     4.0380     3.2950   -36.5630     8.6700    84.8950   -64.3580     0.2460
 3176.0000     0.0580   -36.4440     2.4850   112.9870   -57.9850     4.1090     4.0470     3.3230   -36.5530     8.6790    85.4010   -64.4790     0.2480
 3176.5000     0.0640   -36.3590     2.4840   114.7370   -58.2120     4.1090     4.0570     3.3490   -36.5440     8.6790    85.1010   -64.6000     0.2480
 3177.0000     0.0700   -36.2750     2.4810   116.4610   -58.4380     4.2070     4.0650     3.3740   -36.5340     8.6790    84.2480   -64.7210     0.2420
 3177.5000     0.0680   -36.1910     2.4770   116.8870   -58.6640     4.3430     4.0910     3.5340   -36.5240     8.6790    83.3930   -64.7730     0.2370
 3178.0000     0.0460   -36.1060     2.4740   115.4140   -58.8630     4.4640     4.3280     3.8180   -36.5150     8.6810    83.0060   -64.5890     0.2330
 3178.5000     0.0350   -36.0220     2.4830   112.3200   -58.8650     4.5050     4.6740     4.1030   -36.5050     8.6960    82.8040   -64.4060     0.2310
 3179.0000     0.0460   -35.9380     2.4960   108.7440   -58.8640     4.5880     5.0200     4.3870   -36.4950     8.6790    82.4120   -64.2220     0.2270
 3179.5000     0.0610   -35.8540     2.5090   105.1600   -58.8640     4.9510     5.3660     4.6710   -36.4860     8.6520    81.1090   -64.0390     0.2220
 3180.0000     0.0770   -35.7690     2.5230   101.5780   -58.8650     5.3880     5.7130     4.9560   -36.4760     8.6370    79.4440   -63.8550     0.2100
 3180.5000     0.0770   -35.6850     2.5270    97.9940   -58.8650     5.8250     6.0590     5.2400   -36.4660     8.6320    77.8880   -63.6710     0.1940
 3181.0000     0.0720   -35.6010     2.5220    94.4100   -58.8640     6.0470     6.4050     5.5240   -36.4560     8.6270    76.8820   -63.4880     0.1880
 3181.5000     0.0670   -35.5160     2.5170    90.8400   -58.8640     6.3700     6.6300     5.8090   -36.4470     8.6220    76.1210   -63.3040     0.1820
 3182.0000     0.0400   -35.4320     2.5150    92.9510   -58.8620     6.9420     6.7530     6.0930   -36.4370     8.6200    75.5610   -63.1210     0.1780
 3182.5000     0.0530   -35.3480     2.5220    97.0480   -58.8600     6.7590     6.6150     6.3320   -36.4270     8.6200    75.4490   -62.9370     0.1780
 3183.0000     0.0740   -35.2630     2.5250   101.1260   -58.6740     6.4300     6.3670     6.0840   -36.4180     8.6200    75.8930   -62.7540     0.1800
 3183.5000     0.0910   -35.1790     2.5220   102.8860   -58.1330     6.1010     6.1180     5.8710   -36.4080     8.6200    76.5980   -62.5700     0.1860
 3184.0000     0.0890   -35.0950     2.5140   100.2290   -57.6000     5.8290     5.8700     5.6580   -36.3980     8.6110    77.1870   -62.3860     0.1920
 3184.5000     0.0840   -35.0110     2.5050    97.6340   -57.2760     5.8820     5.6220     5.4440   -36.3890     8.6010    77.7890   -62.2030     0.1940
 3185.0000     0.0780   -34.9260     2.4970    95.2070   -57.0550     6.0470     5.3740     5.2310   -36.3790     8.5900    78.1120   -62.0190     0.1950
 3185.5000     0.0710   -34.8420     2.4840    97.9480   -57.0570     5.9430     5.1240     5.0180   -36.3690     8.5800    78.4360   -61.8360     0.1990
 3186.0000     0.0420   -34.7580     2.4710   100.9620   -56.9120     5.6700     5.1240     4.8040   -36.3600     8.5690    78.9080   -61.6520     0.2040
 3186.5000     0.0120   -34.6730     2.4760   104.0060   -56.7230     5.3980     5.1240     4.7170   -36.3500     8.5580    79.5120   -61.4690     0.2100
 3187.0000     0.0230   -34.5890     2.4850   104.8680   -56.3350     5.1240     5.1240     4.6370   -36.3400     8.5470    80.1170   -61.2850     0.2130
 3187.5000     0.0350   -34.5050     2.4870   104.6120   -55.9540     5.0770     5.1240     4.5880   -36.3300     8.5430    80.5910   -61.1010     0.2140
 3188.0000     0.0480   -34.4200     2.4870   104.0270   -55.7290     5.0770     5.1240     4.5460   -36.3210     8.5520    80.7110   -60.9180     0.2160
 3188.5000     0.0600   -34.3360     2.4890   103.4330   -55.5420     5.0770     5.1240     4.5050   -36.3110     8.5600    80.7470   -60.7340     0.2160
 3189.0000     0.0530   -34.2520     2.4910   102.8020   -55.3480     5.0770     5.1120     4.4230   -36.3010     8.5680    80.7820   -60.5510     0.2150
 3189.5000     0.0430   -34.1680     2.4930   104.6370   -55.6280     5.1230     5.0550     4.3520   -36.2920     8.5770    80.3260   -60.3670     0.2120
 3190.0000     0.0330   -34.0830     2.4950   107.9050   -56.1840     5.3350     4.9980     4.2660   -36.2820     8.5850    79.7220   -60.1840     0.2070
 3190.5000     0.0460   -33.9990     2.4970   111.1240   -56.7400     5.5480     4.9410     4.1490   -36.2720     8.5930    79.1180   -60.0000     0.2040
 3191.0000     0.0670   -33.9150     2.5000   113.7640   -57.2980     5.6700     4.8840     4.1580   -36.2630     8.6040    79.3890   -59.8160     0.2060
 3191.5000     0.0880   -33.8300     2.5030   116.1920   -57.8560     5.3280     4.8270     4.1760   -36.2530     8.6250    80.2460   -59.6330     0.2120
 3192.0000     0.0980   -33.7460     2.5070   118.2060   -58.4150     4.8940     4.7610     4.1930   -36.2430     8.6460    81.5410   -59.4490     0.2220
 3192.5000     0.0960   -33.6620     2.5120   112.3490   -58.9720     4.9350     4.8220     4.2110   -36.2340     8.6670    82.8980   -59.2660     0.2310
 3193.0000     0.0940   -33.5770     2.5170   106.3820   -59.0570     5.0290     4.8960     4.2280   -36.2240     8.6890    83.0160   -59.0820     0.2320
 3193.5000     0.0920   -33.4930     2.5180   101.4730   -58.8700     5.1230     4.9700     4.2460   -36.2140     8.7130    82.4320   -58.8980     0.2270
 3194.0000     0.0810   -33.4090     2.5150   101.4420   -58.4380     5.2160     5.0430     4.2630   -36.2040     8.7350    81.7450   -58.7150     0.2230
 3194.5000     0.0650   -33.3250     2.5110   102.3530   -58.0080     5.2680     5.1170     4.3350   -36.1950     8.7510    81.3230   -58.5310     0.2200
 3195.0000     0.0480   -33.2400     2.5160   105.5930   -57.5780     5.2680     5.1720     4.4190   -36.1850     8.7670    81.0570   -58.3480     0.2180
 3195.5000     0.0510   -33.1560     2.5220   109.1520   -57.1470     5.3160     5.1720     4.5040   -36.1750     8.7850    80.7900   -58.1640     0.2160
 3196.0000     0.0590   -33.0720     2.5270   109.4140   -56.7160     5.4870     5.1720     4.5880   -36.1660     8.7960    80.5610   -57.9810     0.2130
 3196.5000     0.0670   -32.9870     2.5250   105.7190   -56.2850     5.6700     5.1720     4.6730   -36.1560     8.7820    80.4440   -57.7970     0.2120
 3197.0000     0.0760   -32.9030     2.5220   104.8460   -55.8540     5.6700     5.1720     4.7570   -36.1460     8.8070    80.3260   -57.6130     0.2110
 3197.5000     0.0680   -32.8190     2.5160   105.1160   -55.4230     5.6700     5.1720     4.8420   -36.1370     8.8480    80.2090   -57.4300     0.2120
 3198.0000     0.0580   -32.7340     2.5090   105.2360   -54.9920     5.6700     5.1720     4.9260   -36.1270     8.8750    80.0910   -57.2460     0.2120
