~VERSION INFORMATION
 VERS.                2.0:   CWLS LOG ASCII STANDARD - VERSION 2.0
 WRAP.                 NO:   ONE LINE PER DEPTH STEP
~WELL INFORMATION
#MNEM.UNIT      DATA TYPE    INFORMATION
#----------   ------------   ------------------------------
 STRT.F          200.5000:   START DEPTH
 STOP.F         3012.5000:   STOP DEPTH
 STEP.F            0.5000:   STEP LENGTH
 NULL.          -999.2500:   NO VALUE
 COMP.    FENIX & SCISSON:   COMPANY
 WELL.  FENIX "AX" #75-29:   WELL
 FLD .              NPR-3:   FIELD
 LOC .      S29 T39N R78W:   LOCATION
 CNTY.            NATRONA:   COUNTY
 STAT.            WYOMING:   STATE
 CTRY. UNITED STATES OF AMERICA:   COUNTRY
 SRVC.           BIRDWELL:   SERVICE COMPANY
 DATE.        15-FEB-1978:   LOGDATE
 API .     49025105830000:   API NUMBER
~CURVE INFORMATION
#MNEM.UNIT       API CODE    CURVE DESCRIPTION
#----------   ------------   ------------------------------
 DEPT.F                  :   
 GRD .GAPI   45 310 01 00:   GAMMA RAY FROM DENSITY LOG
 CALD.IN     45 280 60 00:   CALIPER FROM DENSITY LOG
 DEN .G/C3   45 350 01 00:   BULK DENSITY
 DCOR.G/C3   45 356 01 00:   DENSITY CORRECTION
 SPR .MV     05 010 01 00:   SPONTANEOUS POTENTIAL
 SN  .OHMM   05 040 16 00:   SHORT NORMAL 16"
 RILD.OHMM   05 120 46 00:   DEEP INDUCTION RESISTIVITY
~PARAMETER INFORMATION
#MNEM.UNIT          VALUE    DESCRIPTION
#----------   ------------   ------------------------------
 EKB .F         5042.0000:   Kelly bushing
 EGL .F         5032.0000:   Ground level
 EDF .F            0.0000:   Drilling floor
 TD  .F         3010.0000:   Total depth
 DATE.        15-FEB-1978:   Date logged
 CLNT.            A2DTECH:   Client Code
 SL  . 2550' FSL & 950' FEL:   Surface Location
 PD  .                 GL:   Permanent Datum
 EPD .F              5032:   Elevation Permanent Datum
 LMF .                 KB:   Log Measured From
 DMF .                 KB:   Drilling Measured From
 DAPD.F                10:   Feet Above Permanent Datum
 DD  .F              3010:   Depth driller
 DL  .F              3010:   Depth logger
 BLI .F              3002:   Bottom log interval
 TLI .F               200:   Top log interval
 CS1 .IN            8.625:   Casing size
 CBD1.      8.625" @ 222':   Casing driller 1
 CBL1.F               222:   Casing logger 1
 BS1 .IN            7.875:   Bit size
 BSD1.F              3010:   Depth drilled with bit1
 DFT .         LIGNO/SULF:   Type fluid in hole
 DFD .                9.1:   Density
 DFV .                 33:   Viscosity
 DFPH.                 10:   pH
 DFL .                4.9:   Fluid loss
 MSS .           FLOWLINE:   Source of sample
 RMS .OHMM              2:   Rm
 MST .F                66:   Rm Meas. temp.
 RMF .OHMM            2.2:   Rmf
 MFST.F                58:   Rmf Meas. temp.
 RMC .OHMM            1.8:   Rmc
 MCST.F                60:   Rmc Meas. temp.
 MFSS.               MEAS:   Source Rmf.
 RMB .OHMM            1.7:   Rm. at BHT
 BHT .F               118:   BHT.
 TCS .HRS               5:   Time Circ. stopped
 MRT .F               118:   Maximum recorded temp.
 LUN .               2958:   Logging unit number
 LUL .               CASP:   Logging unit location
 ENGI.            POINTER:   Recorded By
 WITN.           MCGINLEY:   Witnessed by
 ORIG.           5" PRINT:   Origin of data
 UWI .     49025105830000:   Unique Well ID
 DICO. A2D TECHNOLOGIES, INC.:   Digitizing Company
~OTHER INFORMATION
~A   DEPT       GRD      CALD        DEN       DCOR        SPR         SN       RILD   
# ...
  928.5000    70.9890    10.4790     2.5370     0.0940   -61.8440     8.4270     8.2240
  929.0000    68.7680    10.5110     2.5370     0.0920   -61.8300     8.4140     8.2160
  929.5000    65.8510    10.5440     2.5360     0.0890   -61.8160     8.4070     8.2080
  930.0000    65.8700    10.5740     2.5350     0.0870   -61.8010     8.4210     8.2010
  930.5000    66.9620    10.5700     2.5300     0.0850   -61.7870     8.4320     8.1930
  931.0000    68.5500    10.5650     2.5240     0.0820   -61.7720     8.4430     8.1850
  931.5000    70.0490    10.5590     2.5180     0.0860   -61.7580     8.4530     8.1770
  932.0000    69.7460    10.5560     2.5120     0.0930   -61.7430     8.4640     8.1690
  932.5000    68.3860    10.5950     2.5190     0.0990   -61.7290     8.4750     8.1610
  933.0000    68.1490    10.6360     2.5280     0.1000   -61.7140     8.4860     8.1530
  933.5000    69.0230    10.6710     2.5360     0.1010   -61.7000     8.4970     8.1450
  934.0000    69.0470    10.7010     2.5350     0.1080   -61.6850     8.5080     8.1370
  934.5000    68.4250    10.7300     2.5310     0.1210   -61.6710     8.5190     8.1290
  935.0000    67.7850    10.7690     2.5330     0.1190   -61.6570     8.5300     8.1210
  935.5000    67.6270    10.8180     2.5300     0.1420   -61.7260     8.5410     8.1130
  936.0000    67.6420    10.8850     2.5330     0.1620   -61.9160     8.5520     8.1050
  936.5000    68.0310    11.0100     2.5240     0.1770   -62.1040     8.5630     8.0160
  937.0000    68.3880    11.1320     2.5120     0.1830   -62.2900     8.4900     7.8960
  937.5000    68.0100    11.2460     2.4970     0.1810   -62.4740     8.4090     7.7760
  938.0000    65.3840    11.2610     2.4690     0.1790   -62.5920     8.3280     7.6670
  938.5000    62.8280    11.4430     2.4270     0.1460   -62.7170     8.2540     7.6670
  939.0000    60.6990    11.6710     2.3830     0.1000   -62.8390     8.2540     7.6670
  939.5000    60.9890    11.6960     2.3410     0.1290   -62.5910     8.2540     7.6670
  940.0000    66.1660    11.7370     2.3150     0.1590   -62.3090     8.2540     7.6670
  940.5000    67.0040    11.8210     2.4050     0.1180   -62.0270     8.2540     7.6670
  941.0000    66.8100    11.9260     2.4540     0.1470   -61.7350     8.3030     7.7260
  941.5000    66.5640    12.0330     2.4890     0.2050   -61.6560     8.3790     7.8160
  942.0000    67.6850    12.1300     2.5480     0.2120   -61.6530     8.4900     7.9070
  942.5000    69.9760    12.2520     2.5550     0.2100   -61.6530     8.6200     7.9970
  943.0000    71.5370    12.2490     2.5580     0.2040   -61.6530     8.7520     8.0880
  943.5000    69.8120    12.2380     2.5490     0.1910   -61.6530     8.8870     8.1780
  944.0000    68.6590    12.2580     2.5360     0.1860   -61.6530     8.9720     8.2620
  944.5000    70.4400    12.8860     2.5110     0.2030   -61.6530     8.9840     8.4190
  945.0000    71.8320    12.6600     2.5000     0.2140   -61.6530     8.9960     8.8040
  945.5000    72.2190    12.3500     2.5040     0.2090   -61.6530     9.0080     8.7860
  946.0000    72.0610    12.3120     2.5060     0.1910   -61.6530     9.0190     8.7710
  946.5000    71.7770    12.2710     2.4950     0.1780   -61.6530     9.0310     8.7570
  947.0000    72.2620    12.2320     2.5050     0.1950   -61.6530     9.0430     8.7420
  947.5000    72.0400    12.1940     2.5240     0.2180   -61.6530     9.0500     8.7270
  948.0000    70.5650    12.0960     2.5420     0.2330   -61.6530     9.0010     8.6690
  948.5000    69.6760    11.9550     2.5540     0.2010   -61.6530     8.9480     8.5060
  949.0000    70.0340    11.8050     2.4910     0.1580   -61.6550     8.8940     8.3300
  949.5000    68.0730    11.4910     2.4430     0.1080   -61.6940     8.8410     8.2900
  950.0000    65.3880    11.2930     2.3910     0.1370   -61.8460     8.7440     8.2460
  950.5000    66.3650    11.2690     2.4350     0.2160   -61.9170     8.4850     8.2020
  951.0000    67.6450    11.2720     2.4860     0.2640   -61.9860     8.5380     8.1590
  951.5000    68.7500    11.2830     2.5030     0.2770   -62.0560     8.6430     8.1150
  952.0000    67.3150    11.3340     2.4750     0.2970   -62.1260     8.5640     8.0710
  952.5000    65.7840    11.4010     2.4490     0.3240   -62.1950     8.4440     8.0280
  953.0000    64.1280    11.4650     2.4230     0.1740   -62.2270     8.3230     8.0540
  953.5000    63.4330    11.5650     2.3500     0.0550   -62.1020     8.1780     8.0780
  954.0000    63.9130    12.1730     2.2700     0.1560   -61.9800     8.2180     8.1030
  954.5000    66.8730    11.8670     2.3930     0.2380   -61.8440     8.2690     8.1260
  955.0000    69.4120    11.7830     2.5150     0.2580   -61.3390     8.3190     8.1490
  955.5000    72.7090    11.7440     2.5550     0.2380   -60.8130     8.3700     8.1730
  956.0000    73.1070    11.3500     2.5240     0.1940   -60.4520     8.4200     8.1960
  956.5000    72.8190    10.8730     2.4840     0.1560   -60.4590     8.4710     8.2190
  957.0000    72.4990    10.5210     2.4530     0.1460   -60.4590     8.5280     8.2430
  957.5000    72.1830    10.4350     2.4720     0.1160   -60.4580     8.5880     8.2660
  958.0000    74.0620    10.3550     2.4770     0.1060   -60.4580     8.6430     8.2890
  958.5000    76.3350    10.3370     2.5070     0.1060   -60.4580     8.6730     8.3130
  959.0000    77.6780    10.2990     2.5260     0.1070   -60.4580     8.7020     8.3300
  959.5000    77.5850    10.2300     2.5210     0.1080   -60.4580     8.7230     8.2660
  960.0000    76.6370    10.1580     2.5170     0.1130   -60.4580     8.5950     8.2150
  960.5000    75.4040    10.1550     2.5200     0.1260   -60.4580     8.4910     8.1650
  961.0000    74.7310    10.1660     2.5260     0.1410   -60.4580     8.4070     8.1140
  961.5000    74.7900    10.1150     2.5330     0.1470   -60.4580     8.4070     8.0850
  962.0000    77.5510    10.0660     2.5470     0.1300   -60.4580     8.4070     8.0550
  962.5000    83.6440    10.0180     2.5400     0.1130   -60.4580     8.3630     8.0250
  963.0000    86.0200     9.9790     2.5300     0.1050   -60.4580     8.2840     7.9950
  963.5000    85.8040     9.9800     2.5200     0.1000   -60.4580     8.2050     7.9650
  964.0000    82.2720     9.9800     2.5120     0.1020   -60.4580     8.1260     7.9350
  964.5000    81.6220     9.9800     2.5150     0.1050   -60.4580     8.1030     7.9040
  965.0000    82.2070     9.9790     2.5270     0.1030   -60.4580     8.1030     7.8740
  965.5000    80.0060     9.9360     2.5400     0.1010   -60.4580     8.1030     7.8440
  966.0000    78.2970     9.8900     2.5350     0.1000   -60.4580     8.1030     7.8140
  966.5000    81.3900     9.8640     2.5270     0.1000   -60.4590     8.1030     7.8090
  967.0000    84.5620     9.8360     2.5180     0.1010   -60.4120     8.1030     7.8100
  967.5000    87.6850     9.8070     2.5210     0.1000   -60.3390     8.1030     7.8100
  968.0000    89.9800     9.7820     2.5310     0.0990   -60.2670     8.1030     7.8100
  968.5000    82.2280     9.7820     2.5360     0.0970   -60.1940     8.1030     7.8080
  969.0000    78.5450     9.7820     2.5350     0.0970   -60.1220     8.1030     7.8070
  969.5000    77.0580     9.7820     2.5360     0.0960   -60.0500     8.1030     7.7350
  970.0000    75.7410     9.7820     2.5440     0.0950   -60.0000     8.1050     7.7360
  970.5000    75.3670     9.7820     2.5390     0.0970   -59.9480     8.1110     7.7370
  971.0000    75.0270     9.7820     2.5330     0.0990   -59.8970     8.1180     7.7380
  971.5000    74.6900     9.7820     2.5430     0.1010   -59.8600     8.1240     7.7380
  972.0000    74.3520     9.7820     2.5440     0.1000   -59.8610     8.1310     7.7380
  972.5000    74.6620     9.7830     2.5450     0.0990   -59.8610     8.1370     7.7380
  973.0000    75.7780     9.7600     2.5410     0.0980   -59.8610     8.1430     7.7380
  973.5000    75.2520     9.7350     2.5360     0.0970   -59.8610     8.1500     7.7380
