~VERSION INFORMATION
 VERS.                2.0:   CWLS LOG ASCII STANDARD - VERSION 2.0
 WRAP.                 NO:   ONE LINE PER DEPTH STEP
~WELL INFORMATION
#MNEM.UNIT      DATA TYPE    INFORMATION
#----------   ------------   ------------------------------
 STRT.F           10.5000:   START DEPTH
 STOP.F         5650.0000:   STOP DEPTH
 STEP.F            0.5000:   STEP LENGTH
 NULL.          -999.2500:   NO VALUE
 COMP.    FENIX & SCISSON:   COMPANY
 WELL. FENIX NPR 3 "LX" #56-3:   WELL
 FLD .              N P R:   FIELD
 LOC .       S3 T38N R78W:   LOCATION
 CNTY.            NATRONA:   COUNTY
 STAT.            WYOMING:   STATE
 CTRY. UNITED STATES OF AMERICA:   COUNTRY
 SRVC.              WELEX:   SERVICE COMPANY
 DATE.        13-JUN-1978:   LOGDATE
 API .     49025109250000:   API NUMBER
~CURVE INFORMATION
#MNEM.UNIT       API CODE    CURVE DESCRIPTION
#----------   ------------   ------------------------------
 DEPT.F                  :   
 NPHI.DEC    42 890 03 00:   NEUTRON POROSITY SANDSTONE
 SPR .MV     07 010 01 00:   SPONTANEOUS POTENTIAL
 ILD .OHMM   07 120 46 00:   DEEP INDUCTION RESISTIVITY
 ILM .OHMM   07 120 44 00:   INDUCTION LOG MEDIUM RESISTIVITY
 SFL .OHMM   07 220 01 00:   SHALLOW FOCUSED LOG RESISTIVITY
 GRD .GAPI   45 310 01 00:   GAMMA RAY FROM DENSITY LOG
 CALD.IN     45 280 60 00:   CALIPER FROM DENSITY LOG
 RHOB.G/C3   45 350 01 00:   BULK DENSITY
 CORR.G/C3   45 356 01 00:   DENSITY CORRECTION
~PARAMETER INFORMATION
#MNEM.UNIT          VALUE    DESCRIPTION
#----------   ------------   ------------------------------
 EKB .F         5181.0000:   Kelly bushing
 EGL .F         5171.0000:   Ground level
 EDF .F         5180.0000:   Drilling floor
 TD  .F         5644.0000:   Total depth
 DATE.        13-JUN-1978:   Date logged
 CLNT.            A2DTECH:   Client Code
 SL  . 1980' FSL & 2080' FEL:   Surface Location
 PD  .                 GL:   Permanent Datum
 EPD .F              5171:   Elevation Permanent Datum
 LMF .                 KB:   Log Measured From
 DMF .                 KB:   Drilling Measured From
 DD  .F              5640:   Depth driller
 DL  .F              5644:   Depth logger
 BLI .F              5638:   Bottom log interval
 TLI .F              3093:   Top log interval
 CS1 .IN            8.625:   Casing size
 CBD1.      8.625" @ 545':   Casing driller 1
 BS1 .IN            7.875:   Bit size
 DFT .                FGM:   Type fluid in hole
 DFD .                9.2:   Density
 DFV .                 52:   Viscosity
 DFPH.                 11:   pH
 DFL .                5.2:   Fluid loss
 MSS .           MUD/TANK:   Source of sample
 RMS .OHMM           0.59:   Rm
 MST .F                80:   Rm Meas. temp.
 RMF .OHMM           0.48:   Rmf
 MFST.F                80:   Rmf Meas. temp.
 MFSS.               MEAS:   Source Rmf.
 RMB .OHMM           0.29:   Rm. at BHT
 BHT .F               162:   BHT.
 TCS .HRS            1200:   Time Circ. stopped
 MRT .F               162:   Maximum recorded temp.
 LUN .               7675:   Logging unit number
 LUL .               CODY:   Logging unit location
 ENGI.               BOND:   Recorded By
 ORIG.           5" PRINT:   Origin of data
 UWI .     49025109250000:   Unique Well ID
 DICO. A2D TECHNOLOGIES, INC.:   Digitizing Company
 DAPD.F                10:   Feet Above Permanent Datum
 BSD1.F              5640:   Depth drilled with bit1
 TLAB.HRS            1630:   Time logger at bottom
~OTHER INFORMATION
~A  DEPTH     NPHI        SPR        ILD        ILM        SFL        GRD       CALD       RHOB       CORR
# ...
 4573.0000     0.1410   -59.8300    29.6730    24.8290    30.2830   101.0820     9.5820     2.6220     0.0320
 4573.5000     0.1330   -60.0350    32.7740    24.7410    33.7720   100.0250     9.5880     2.6100     0.0270
 4574.0000     0.1240   -60.2360    30.5290    24.6600    37.2610   100.6110     9.5940     2.5990     0.0220
 4574.5000     0.1150   -60.4360    26.4770    24.4650    39.7390   103.4070     9.6000     2.6020     0.0340
 4575.0000     0.1170   -60.6350    24.4350    22.4110    37.9570   109.4560     9.6060     2.6100     0.0270
 4575.5000     0.1220   -60.8340    23.9810    20.1460    34.0060   113.3540     9.6120     2.6110     0.0320
 4576.0000     0.1330   -61.0340    23.5690    17.8800    29.6200   114.0740     9.6180     2.6080     0.0420
 4576.5000     0.1410   -61.2330    23.1260    17.1620    25.2340   111.4750     9.6260     2.6310     0.0480
 4577.0000     0.1450   -61.4050    21.6210    16.9170    22.2920   110.5890     9.6510     2.6190     0.0410
 4577.5000     0.1560   -61.3830    19.9930    16.6720    24.0620   110.0580     9.6750     2.6090     0.0350
 4578.0000     0.1680   -61.3590    18.3650    16.4270    25.3930   111.9710     9.6990     2.6280     0.0530
 4578.5000     0.1680   -61.3360    16.7380    16.2540    26.7830   116.5580     9.7230     2.6430     0.0700
 4579.0000     0.1700   -61.3120    15.7570    16.1390    25.3590   121.1470     9.7390     2.6460     0.0620
 4579.5000     0.1810   -61.2890    15.2850    16.0210    22.0920   125.7610     9.7210     2.6330     0.0510
 4580.0000     0.1880   -61.2650    14.6160    16.3050    18.8260   127.5810     9.7030     2.6330     0.0620
 4580.5000     0.2040   -61.2420    15.2340    17.0570    16.1690   125.6710     9.6850     2.6170     0.0530
 4581.0000     0.2090   -61.2190    16.2930    17.8100    17.4490   118.6780     9.6380     2.6010     0.0310
 4581.5000     0.2000   -61.1950    17.1640    18.5620    20.1280   113.1810     9.5990     2.5880     0.0300
 4582.0000     0.1870   -61.1720    17.7550    19.5260    22.8080   112.0810     9.5870     2.6000     0.0290
 4582.5000     0.1740   -61.1480    18.2170    19.1850    25.4880   113.7480     9.5750     2.6160     0.0340
 4583.0000     0.1680   -61.1250    17.8770    18.5020    27.2990   116.0660     9.5640     2.6260     0.0390
 4583.5000     0.1700   -61.1010    17.3300    17.7610    27.7840   121.6220     9.5820     2.6310     0.0380
 4584.0000     0.1710   -61.0780    16.9310    15.8140    25.8410   127.2600     9.6030     2.6230     0.0400
 4584.5000     0.1970   -61.0540    16.4450    13.8680    23.9940   132.9290     9.6230     2.6030     0.0360
 4585.0000     0.2240   -61.0310    15.9590    12.9420    21.4890   133.0140     9.6430     2.5990     0.0340
 4585.5000     0.2510   -61.0310    15.4730    12.3910    16.7970   125.7630     9.6610     2.6100     0.0490
 4586.0000     0.2650   -61.1460    15.0240    12.6200    13.4580   117.7200     9.6340     2.6150     0.0550
 4586.5000     0.2680   -61.2610    15.6690    14.7980    15.3120   108.9410     9.6060     2.6000     0.0470
 4587.0000     0.2410   -61.3740    16.2690    17.2810    21.7700    97.7860     9.5790     2.5900     0.0380
 4587.5000     0.2030   -61.4880    16.9280    19.7640    29.9290    83.3940     9.5510     2.5500     0.0260
 4588.0000     0.1660   -61.6020    18.4330    21.7410    35.5960    84.9240     9.5240     2.5230     0.0160
 4588.5000     0.1490   -61.7150    20.1030    22.2920    31.3110    87.7220     9.4960     2.4990     0.0390
 4589.0000     0.1300   -61.8080    20.9050    22.2920    26.1890    94.7330     9.4990     2.5140     0.0580
 4589.5000     0.1380   -61.8060    20.1410    20.5110    23.7710   101.7790     9.5280     2.5530     0.0490
 4590.0000     0.1460   -61.8050    17.8210    18.9240    26.2960   108.8110     9.5570     2.5890     0.0410
 4590.5000     0.1540   -61.8060    15.5020    17.3060    24.1480   115.8510     9.5860     2.6010     0.0430
 4591.0000     0.1800   -61.8060    12.6200    15.6260    20.1980   122.2290     9.6150     2.6020     0.0550
 4591.5000     0.2050   -61.8060    13.0550    14.2190    16.2490   118.2170     9.6400     2.6130     0.0620
 4592.0000     0.2250   -61.8060    13.8330    15.4840    12.9730   108.1580     9.5910     2.6070     0.0660
 4592.5000     0.2040   -61.8050    14.6100    16.5720    18.6520    98.2050     9.5400     2.5940     0.0430
 4593.0000     0.1710   -61.7970    15.3880    17.4870    24.4940    92.4680     9.4890     2.5950     0.0270
 4593.5000     0.1390   -61.7600    16.1690    17.9510    28.0200    91.6120     9.4390     2.5950     0.0380
 4594.0000     0.1240   -61.7240    17.7570    18.4150    27.8400    90.7390     9.3990     2.5920     0.0390
 4594.5000     0.1170   -61.6880    19.3520    18.8790    27.5300    89.9030     9.3890     2.5900     0.0370
 4595.0000     0.1110   -61.6510    20.9470    19.3430    28.4440    89.0640     9.3770     2.5890     0.0340
 4595.5000     0.1100   -61.6150    22.4980    19.4260    29.1990    88.1790     9.3660     2.5790     0.0320
 4596.0000     0.1110   -61.5790    21.9460    19.4260    29.6270    89.1070     9.3550     2.5760     0.0320
 4596.5000     0.1130   -61.5420    21.3960    19.4260    28.7700    90.5040     9.3440     2.5740     0.0320
 4597.0000     0.1150   -61.5060    20.8470    18.9190    27.7460    91.9210     9.3430     2.5820     0.0470
 4597.5000     0.1200   -61.4700    20.2980    18.4340    26.7830    93.3180     9.3430     2.5780     0.0570
 4598.0000     0.1260   -61.4330    19.7850    17.9070    24.8030    94.2800     9.3430     2.5820     0.0430
 4598.5000     0.1310   -61.3970    19.7850    18.0390    22.7670    93.4680     9.3430     2.5870     0.0410
 4599.0000     0.1360   -61.3610    19.7850    18.2160    23.1330    91.9480     9.3430     2.5780     0.0460
 4599.5000     0.1340   -61.3240    19.7850    18.3930    23.6220    90.0300     9.3430     2.5770     0.0500
 4600.0000     0.1320   -61.2880    19.7860    18.5690    25.4580    88.0890     9.3430     2.5750     0.0470
 4600.5000     0.1210   -61.2520    19.7860    18.7260    28.5600    86.1260     9.3430     2.5730     0.0280
 4601.0000     0.1100   -61.2150    19.7860    18.7740    27.5750    87.2670     9.3430     2.5650     0.0330
 4601.5000     0.1130   -61.1790    19.9020    18.8420    26.2120    87.8580     9.3430     2.5560     0.0400
 4602.0000     0.1170   -61.1430    20.0250    18.8980    25.3660    88.2080     9.3430     2.5560     0.0360
 4602.5000     0.1190   -61.1060    20.1490    18.7790    25.5660    88.5420     9.3430     2.5590     0.0290
 4603.0000     0.1150   -61.0700    20.2730    18.6250    25.7250    88.9430     9.3430     2.5630     0.0340
 4603.5000     0.1130   -61.0340    20.3960    18.4700    26.3530    89.6180     9.3560     2.5720     0.0370
 4604.0000     0.1110   -60.9970    20.5200    18.3160    27.6340    90.8160     9.3780     2.5820     0.0440
 4604.5000     0.1130   -60.9610    20.6440    18.1620    28.9800    92.7500     9.4000     2.6020     0.0600
 4605.0000     0.1150   -60.9250    20.7670    18.0510    28.2650    92.3200     9.4220     2.6000     0.0460
 4605.5000     0.1170   -60.8890    20.8910    18.4530    27.3120    91.8040     9.4430     2.5940     0.0390
 4606.0000     0.1190   -60.8530    21.0150    18.7680    27.0300    90.7890     9.4480     2.5820     0.0360
 4606.5000     0.1180   -60.8100    21.1390    19.0830    27.6710    89.7160     9.4520     2.6010     0.0460
 4607.0000     0.1160   -60.5430    21.2930    19.3990    28.3690    91.7940     9.4560     2.6120     0.0620
 4607.5000     0.1140   -60.2650    20.9920    19.7850    29.0890    95.9050     9.4600     2.5990     0.0420
 4608.0000     0.1180   -60.1750    20.4560    19.3430    29.1950    98.3680     9.4720     2.6040     0.0480
 4608.5000     0.1220   -60.3160    19.9200    18.5760    29.3050    99.1430     9.5060     2.6120     0.0670
 4609.0000     0.1260   -60.4090    19.3840    17.8100    29.4140   100.0080     9.5400     2.6340     0.0760
