~VERSION INFORMATION
 VERS.                2.0:   CWLS LOG ASCII STANDARD - VERSION 2.0
 WRAP.                 NO:   ONE LINE PER DEPTH STEP
~WELL INFORMATION
#MNEM.UNIT      DATA TYPE    INFORMATION
#----------   ------------   ------------------------------
 STRT.F           58.0000:   START DEPTH
 STOP.F         5662.0000:   STOP DEPTH
 STEP.F            0.5000:   STEP LENGTH
 NULL.          -999.2500:   NO VALUE
 COMP. DEPARTMENT OF ENERGY:   COMPANY
 WELL. DEPARTMENT NPR 3 67 "X" #1-10:   WELL
 FLD .              NPR 3:   FIELD
 LOC .      S10 T38N R78W:   LOCATION
 CNTY.            NATRONA:   COUNTY
 STAT.            WYOMING:   STATE
 CTRY. UNITED STATES OF AMERICA:   COUNTRY
 SRVC.       SCHLUMBERGER:   SERVICE COMPANY
 DATE.        05-FEB-2002:   LOGDATE
 API .     49025230400000:   API NUMBER
~CURVE INFORMATION
#MNEM.UNIT       API CODE    CURVE DESCRIPTION
#----------   ------------   ------------------------------
 DEPT.F                  :   
 TEND.LBS    45 635 01 00:   TENSION FROM DENSITY LOG
 PEFZ.B/E    45 358 01 00:   HILT PHOTOELECTRIC FACTOR
 HDRA.G/C3   45 356 01 00:   DELTA RHO HIP TOOL
 NPHI.DEC    42 890 03 00:   NEUTRON POROSITY SANDSTONE
 TENS.LBS    60 635 01 00:   TENSION
 DT  .US/F   60 520 00 00:   DELTA TIME
 TENR.LBS    07 635 01 00:   TENSION FROM RESISTIVITY
 CALR.IN     07 280 01 00:   CALIPER FROM RESISTIVITY
 GRR .GAPI   07 310 01 00:   GAMMA RAY FROM RESISTIVITY
 RXOZ.OHMM   11 270 04 00:   STD. RES. INVADED ZONE RESISTIVITY
 HLLD.OHMM   11 220 10 00:   LATEROLOG DEEP RES.
 HLLS.OHMM   11 220 09 00:   LATEROLOG SHALLOW RES.
 HRLD.OHMM   11 120 46 00:   HIGH RESOULATION DEEP RESISTIVITY
 RHOZ.G/C3   45 350 01 00:   HILT BULK DENSITY
~PARAMETER INFORMATION
#MNEM.UNIT          VALUE    DESCRIPTION
#----------   ------------   ------------------------------
 EKB .F         5205.7000:   Kelly bushing
 EGL .F         5195.7000:   Ground level
 EDF .F            0.0000:   Drilling floor
 EPD .F         5195.7000:   Permanent datum
 TD  .F         5654.0000:   Total depth
 DATE.        05-FEB-2002:   Date logged
 CLNT.            A2DTECH:   Client Code
 SL  . 1503' FEL & 721' FSL:   Surface Location
 PD  .                 GL:   Permanent Datum
 DAPD.F                10:   Feet Above Permanent Datum
 DD  .F              5650:   Depth driller
 DL  .F              5654:   Depth logger
 BLI .F              5646:   Bottom log interval
 TLI .F               499:   Top log interval
 CS1 .IN            9.625:   Casing size
 CBD1.      9.625" @ 505':   Casing driller 1
 CBL1.F               499:   Casing logger 1
 BS1 .IN            8.875:   Bit size
 BSD1.F              5650:   Depth drilled with bit1
 DFT .           GEL/CHEM:   Type fluid in hole
 DFD .                9.2:   Density
 DFV .                 52:   Viscosity
 DFPH.                8.5:   pH
 DFL .                6.8:   Fluid loss
 MSS .           FLOWLINE:   Source of sample
 RMS .OHMM           .954:   Rm
 MST .F                57:   Rm Meas. temp.
 RMF .OHMM           .734:   Rmf
 MFST.F                57:   Rmf Meas. temp.
 MFSS.              PRESS:   Source Rmf.
 RMB .OHMM           .403:   Rm. at BHT
 BHT .F               143:   BHT.
 TLAB.HRS            1208:   Time logger at bottom
 MRT .F               143:   Maximum recorded temp.
 LUN .               2211:   Logging unit number
 LUL .             CASPER:   Logging unit location
 ENGI.           R. SROUR:   Recorded By
 WITN.        M. MILLIKEN:   Witnessed by
 ORIG.           5" PRINT:   Origin of data
 UWI .     49025230400000:   Unique Well ID
 DICO. A2D TECHNOLOGIES, INC.:   Digitizing Company
 RMC .               1.24:   Rmc
 MCST.                 57:   Rmc Meas. temp.
 MCSS.              PRESS:   Source Rmc.
 TCS .                200:   Time Circ. stopped
~OTHER INFORMATION
~A   DEPT     TEND       PEFZ       HDRA       NPHI       TENS         DT       TENR       CALR         GRR      RXOZ       HLLD       HLLS       HRLD       RHOZ   
# ...
 2214.0000  1604.2360     3.0370     0.0240     0.3080  1055.7330    96.3770  1638.5300    11.5310   101.3830     5.4080     5.6610     6.0100     5.3080     2.5150
 2214.5000  1604.6689     3.0940     0.0430     0.3240  1056.0000    94.2790  1638.5300    11.6100   104.7670     4.3420     5.0990     5.5220     4.8930     2.5400
 2215.0000  1605.1021     3.1480     0.0620     0.3310  1056.2660    93.3830  1638.5300    11.6890   107.0680     4.4220     4.6710     5.2610     4.5600     2.5470
 2215.5000  1605.5350     3.1320     0.0710     0.3130  1056.5330    95.0460  1638.5300    11.6990   107.6320     4.2980     4.9710     5.3630     4.4630     2.5400
 2216.0000  1605.9680     3.1240     0.0720     0.3010  1056.8000    97.7490  1638.5300    11.6920   104.9890     4.1090     5.4080     5.4080     4.5450     2.5120
 2216.5000  1606.4010     3.1180     0.0520     0.3120  1057.0660    99.5520  1638.5300    11.6840   100.5620     3.9260     4.6630     5.1940     4.4710     2.4880
 2217.0000  1606.8340     3.1380     0.0290     0.3040  1057.3330    98.8680  1638.5300    11.6550    98.0880     4.3760     4.5450     5.0260     4.3420     2.4750
 2217.5000  1607.2670     3.1840     0.0080     0.2990  1057.5990    97.6600  1638.5300    11.5710    99.1360     5.1660     5.1770     5.4320     4.7060     2.4720
 2218.0000  1607.7000     3.2300     0.0070     0.2850  1057.8660    96.4530  1638.5300    11.4830   102.5540     4.9800     5.6610     5.8180     5.1470     2.4780
 2218.5000  1608.1331     3.3240     0.0080     0.2970  1058.1331    95.6720  1638.5300    11.4430   104.8530     5.3340     5.5580     5.6610     5.4280     2.4860
 2219.0000  1608.5660     3.4700     0.0100     0.3140  1058.3990    95.8710  1638.5300    11.4160   104.5190     5.2140     5.7130     5.7650     5.4570     2.5010
 2219.5000  1608.9990     3.6150     0.0120     0.3350  1058.6660    95.4320  1638.5300    11.4230   104.8500     4.8520     5.3300     5.4360     5.1270     2.5100
 2220.0000  1609.4320     3.7490     0.0130     0.3470  1058.9320    94.9700  1638.5300    11.4620   105.5660     4.5300     4.9350     4.9780     4.8460     2.5080
 2220.5000  1609.8650     3.8110     0.0190     0.3610  1059.1990    94.4780  1638.5300    11.4590   105.2210     4.2630     4.9350     4.9660     4.8460     2.5030
 2221.0000  1610.2990     3.8560     0.0510     0.3640  1059.4659    95.0510  1638.5300    11.3280   104.9000     4.2630     4.9350     4.9530     4.8140     2.4900
 2221.5000  1610.7321     3.8970     0.0820     0.3650  1059.7321    95.6950  1638.5300    11.2640   104.5820     3.9890     4.7320     4.9410     4.6210     2.4930
 2222.0000  1611.1650     3.9060     0.1100     0.3640  1059.9990    95.7630  1639.4220    11.6180   104.2390     3.1540     4.5200     4.7500     4.4290     2.4920
 2222.5000  1611.5980     3.7850     0.1070     0.3550  1060.2650    94.5370  1641.0370    11.9440   103.6990     3.0520     4.3820     4.4800     4.2720     2.5060
 2223.0000  1612.0310     3.6670     0.1010     0.3440  1060.5320    93.7810  1642.6520    11.8730   103.1670     2.9840     4.5040     4.6050     4.3420     2.5150
 2223.5000  1612.4640     3.5530     0.0900     0.3400  1060.7990    95.7900  1644.2670    11.8230   103.5180     3.4890     4.3650     4.6990     4.1830     2.5160
 2224.0000  1612.8970     3.4980     0.0920     0.3370  1061.0649    97.9850  1645.8820    11.8120   105.5860     3.3590     4.1860     4.1860     3.9990     2.5160
 2224.5000  1613.3300     3.4450     0.0950     0.3330  1061.3320   100.0500  1647.4969    11.7960   106.8350     3.2470     4.2160     4.2300     4.0360     2.5010
 2225.0000  1613.7629     3.4150     0.0940     0.3240  1061.5980    99.7510  1649.1121    11.7560   108.4160     3.1810     4.2380     4.2590     4.0770     2.4790
 2225.5000  1614.1960     3.4230     0.0950     0.3150  1061.8650    95.6280  1650.7271    11.7490   110.4680     3.2560     4.2610     4.3020     4.1180     2.4540
 2226.0000  1614.6290     3.4310     0.0950     0.3020  1062.1320    93.4090  1652.3420    11.8860   110.2900     3.4540     4.2350     4.2520     4.1750     2.4570
 2226.5000  1615.0620     3.4550     0.0960     0.3130  1062.3979    93.1840  1653.9570    12.0540   107.0630     3.4390     4.0990     4.1480     4.0920     2.4490
 2227.0000  1615.4950     3.4920     0.1130     0.3380  1062.6650    94.6440  1655.5720    12.3240   103.5680     3.0680     3.9150     3.9850     3.7710     2.4280
 2227.5000  1615.9280     3.5280     0.1310     0.3710  1062.9310    95.2140  1657.1870    12.6210   102.8680     2.3160     3.3360     3.6610     3.2210     2.3380
 2228.0000  1616.3610     3.5270     0.1450     0.3890  1063.1980    95.7090  1658.3910    12.5360   105.0930     1.7560     2.6970     2.9480     2.6780     2.3550
 2228.5000  1616.7939     3.4560     0.1290     0.3620  1063.4650    96.2050  1675.6700    12.4060   109.2270     2.2210     2.3960     2.7480     2.0140     2.4170
 2229.0000  1617.2271     3.3850     0.0980     0.3350  1063.7310    97.0500  1664.2170    12.2120   110.7600     2.7480     2.9970     3.1730     2.7930     2.4780
 2229.5000  1617.6600     3.3140     0.0670     0.2980  1063.9980    99.7200  1642.3260    12.0190   108.0110     3.9620     4.4220     4.5040     3.5180     2.5080
 2230.0000  1618.0930     3.2550     0.0360     0.2950  1064.2640   103.5260  1618.6689    11.8660   104.2060     3.8710     4.3010     4.4100     4.1860     2.5060
 2230.5000  1618.5260     3.2610     0.0080     0.3040  1064.5310   104.3280  1622.6030    11.8740   100.9160     3.8310     3.9620     4.1480     3.8550     2.4830
 2231.0000  1618.9590     3.2680     0.0060     0.3120  1067.4880   103.0610  1627.4080    11.8920   102.6580     3.8030     4.0030     4.1620     3.9150     2.4390
 2231.5000  1619.3920     3.2740     0.0140     0.3210  1073.6820    98.6930  1632.2140    11.9550   103.6120     3.1860     4.1030     4.1860     3.9990     2.4200
 2232.0000  1619.8250     3.2810     0.0240     0.3240  1079.8760    92.9370  1637.0190    12.0270   102.5010     2.8510     3.9620     4.1860     3.2110     2.4160
 2232.5000  1620.2581     3.2880     0.0330     0.3090  1084.0090    87.5370  1641.8240    12.0480   100.7060     3.0950     3.9890     4.1860     3.7850     2.4530
 2233.0000  1620.6910     3.2930     0.0380     0.3030  1081.6490    87.9820  1646.6300    12.0250   103.7290     3.9260     5.0260     5.3580     3.5500     2.4710
 2233.5000  1621.1240     3.2930     0.0380     0.3220  1079.2889    89.7230  1651.4351    12.0950   108.1630     3.5490     4.6830     4.9350     4.4220     2.4780
 2234.0000  1621.5570     3.2930     0.0410     0.3320  1076.9301    91.9530  1656.2400    12.2130   111.2520     3.1240     3.9990     4.1860     3.5500     2.4700
 2234.5000  1621.9900     3.2960     0.0440     0.3250  1074.5699    94.1830  1656.0870    12.3120   110.3280     3.3000     4.1670     4.2530     3.6630     2.4580
 2235.0000  1622.4230     3.3560     0.0530     0.3210  1072.2100    96.4680  1649.5200    12.3210   105.1210     3.2110     4.2630     4.2960     3.9620     2.4340
 2235.5000  1622.8560     3.4150     0.0770     0.3310  1069.8510    95.3440  1642.9530    12.3760    99.7750     3.5180     4.0560     4.1420     3.8780     2.4090
 2236.0000  1623.2889     3.4750     0.1090     0.3360  1067.4910    92.7730  1649.2550    12.4590    96.1880     2.5400     3.8910     3.9620     3.7220     2.3840
 2236.5000  1623.7220     3.4670     0.1290     0.3330  1065.1310    93.6160  1658.3910    12.5350    97.0040     2.3530     3.9180     3.9860     3.5830     2.3670
 2237.0000  1624.1550     3.4140     0.1320     0.3250  1069.1210    94.2790  1658.3910    12.5260   100.2470     2.3530     3.9620     4.0350     3.7370     2.3930
 2237.5000  1624.5880     3.3720     0.1130     0.3340  1074.6270    94.8960  1658.3910    12.7690   102.5230     2.7890     3.9260     3.9260     3.8550     2.4130
 2238.0000  1625.0210     3.3660     0.1070     0.3450  1080.1331    96.4320  1658.3910    12.7300   104.1480     3.0080     3.8910     4.1180     3.4860     2.4450
