~VERSION INFORMATION
 VERS.                2.0:   CWLS LOG ASCII STANDARD - VERSION 2.0
 WRAP.                 NO:   ONE LINE PER DEPTH STEP
~WELL INFORMATION
#MNEM.UNIT      DATA TYPE    INFORMATION
#----------   ------------   ------------------------------
 STRT.F         2496.0000:   START DEPTH
 STOP.F         4120.0000:   STOP DEPTH
 STEP.F            0.5000:   STEP LENGTH
 NULL.          -999.2500:   NO VALUE
 COMP. LAWRENCE ALLISON AND ASSOCIATES:   COMPANY
 WELL. LAWRENCE "X" #85-10:   WELL
 FLD .              N P R:   FIELD
 LOC .      S10 T38N R78W:   LOCATION
 CNTY.            NATRONA:   COUNTY
 STAT.            WYOMING:   STATE
 CTRY. UNITED STATES OF AMERICA:   COUNTRY
 SRVC.      DRESSER ATLAS:   SERVICE COMPANY
 DATE.        20-JAN-1984:   LOGDATE
 API .     49025109580000:   API NUMBER
~CURVE INFORMATION
#MNEM.UNIT       API CODE    CURVE DESCRIPTION
#----------   ------------   ------------------------------
 DEPT.F                  :   
 SPR .MV     07 010 01 00:   SPONTANEOUS POTENTIAL
 TENR.LBS    07 635 01 00:   TENSION FROM RESISTIVITY
 ILD .OHMM   07 120 46 00:   DEEP INDUCTION RESISTIVITY
 ILM .OHMM   07 120 44 00:   INDUCTION LOG MEDIUM RESISTIVITY
 RFOC.OHMM   07 220 04 00:   RESISTIVITY FOCUSED LOG RES.
 GRD .GAPI   45 310 01 00:   GAMMA RAY FROM DENSITY LOG
 CALD.IN     45 280 60 00:   CALIPER FROM DENSITY LOG
 TEND.LBS    45 635 01 00:   TENSION FROM DENSITY LOG
 RHOB.G/C3   45 350 01 00:   BULK DENSITY
 CORR.G/C3   45 356 01 00:   DENSITY CORRECTION
 CN  .DEC    42 890 03 00:   NEUTRON POROSITY SANDSTONE
~PARAMETER INFORMATION
#MNEM.UNIT          VALUE    DESCRIPTION
#----------   ------------   ------------------------------
 EKB .F         5231.0000:   Kelly bushing
 EGL .F         5221.0000:   Ground level
 EDF .F            0.0000:   Drilling floor
 TD  .F         4115.0000:   Total depth
 DATE.        20-JAN-1984:   Date logged
 CLNT.            A2DTECH:   Client Code
 SL  . 2159' FSL & 292' FEL:   Surface Location
 PD  .                 GL:   Permanent Datum
 EPD .F              5221:   Elevation Permanent Datum
 LMF .                 KB:   Log Measured From
 DMF .                 KB:   Drilling Measured From
 DD  .F              4115:   Depth driller
 DL  .F              4111:   Depth logger
 BLI .F              4109:   Bottom log interval
 TLI .F              2496:   Top log interval
 CS1 .IN            8.625:   Casing size
 CBD1.       8.625 @ 537':   Casing driller 1
 BS1 .IN            7.875:   Bit size
 DFT .            GEL KCL:   Type fluid in hole
 DFD .                8.8:   Density
 DFV .                 40:   Viscosity
 DFPH.                  9:   pH
 DFL .                9.8:   Fluid loss
 MSS .           FLOWLINE:   Source of sample
 RMS .OHMM           0.61:   Rm
 MST .F                77:   Rm Meas. temp.
 RMF .OHMM           0.51:   Rmf
 MFST.F                69:   Rmf Meas. temp.
 RMC .OHMM           0.76:   Rmc
 MCST.F                77:   Rmc Meas. temp.
 MFSS.               MEAS:   Source Rmf.
 RMB .OHMM           0.38:   Rm. at BHT
 BHT .F               122:   BHT.
 TCS .HRS               4:   Time Circ. stopped
 MRT .F               122:   Maximum recorded temp.
 LUN .               6307:   Logging unit number
 LUL .               GLTE:   Logging unit location
 ENGI.            DEYOUNG:   Recorded By
 WITN.           R. SCOTT:   Witnessed by
 ORIG.           5" PRINT:   Origin of data
 UWI .     49025109580000:   Unique Well ID
 DICO. A2D TECHNOLOGIES, INC.:   Digitizing Company
 DAPD.                 10:   Feet Above Permanent Datum
 MCSS.               CALC:   Source Rmc.
~OTHER INFORMATION
~A  DEPT       SPR       TENR        ILD        ILM       RFOC        GRD       CALD       TEND       RHOB       CORR         CN   
# ...
 3228.0000   -58.6650   -27.7220     4.4580     4.6900     4.9560   120.6220     8.2530   -29.7190     2.5280     0.0870     0.2110
 3228.5000   -59.0770   -27.8450     4.4460     4.7190     5.5460   118.1000     8.2540   -29.7190     2.5400     0.1030     0.2060
 3229.0000   -59.4900   -27.9680     4.4370     4.7920     6.1360   115.5640     8.2540   -29.7190     2.5500     0.1040     0.2040
 3229.5000   -59.9020   -28.0920     4.5560     4.8640     6.4800   114.7310     8.2550   -29.7190     2.5560     0.0880     0.2110
 3230.0000   -60.3140   -28.2150     4.6530     4.9360     5.9610   117.9310     8.2560   -29.7190     2.5490     0.0680     0.2140
 3230.5000   -60.7240   -28.3380     4.7510     5.0080     5.2880   119.1790     8.2570   -29.7190     2.5420     0.0580     0.2150
 3231.0000   -61.1410   -28.4610     4.8490     5.0800     5.3930   119.0410     8.2570   -29.7190     2.5490     0.0570     0.2190
 3231.5000   -61.6000   -28.5840     4.9470     5.1520     5.6410   112.6070     8.2580   -29.8480     2.5560     0.0820     0.2180
 3232.0000   -60.2340   -28.7070     5.0150     5.2240     5.8900   112.7940     8.2590   -30.0200     2.5600     0.0880     0.2160
 3232.5000   -58.5880   -28.8310     5.0450     5.2960     6.1300   113.7140     8.2590   -30.1920     2.5560     0.0880     0.2110
 3233.0000   -57.2450   -28.9540     5.0740     5.3420     6.0630   115.2780     8.2590   -30.3650     2.5590     0.0770     0.2080
 3233.5000   -56.3610   -29.0770     5.1040     5.3520     5.9970   116.8500     8.2590   -30.5370     2.5630     0.0820     0.2070
 3234.0000   -56.2240   -29.2000     5.1400     5.3620     5.9150   118.4270     8.2590   -30.7090     2.5670     0.0870     0.2060
 3234.5000   -56.3680   -29.3230     5.1060     5.3730     5.9650   119.3860     8.2590   -30.8810     2.5660     0.0850     0.2040
 3235.0000   -56.5390   -29.4470     5.0480     5.3860     6.0530   119.2010     8.2590   -31.0540     2.5630     0.0820     0.2020
 3235.5000   -56.6810   -29.5700     4.9890     5.2840     6.1420   120.0730     8.2590   -31.2260     2.5590     0.0780     0.2030
 3236.0000   -56.8250   -29.6930     4.9090     5.1230     6.2450   121.6490     8.2590   -31.3980     2.5550     0.0680     0.2060
 3236.5000   -56.9700   -29.8160     4.8010     4.9620     5.9950   123.2370     8.2590   -31.5700     2.5470     0.0590     0.2120
 3237.0000   -57.1150   -29.7100     4.6930     4.8010     5.6080   124.8540     8.2590   -31.7430     2.5370     0.0510     0.2180
 3237.5000   -57.2600   -29.4800     4.5850     4.6650     5.2210   124.7800     8.2590   -31.9150     2.5270     0.0750     0.2230
 3238.0000   -57.4050   -29.2490     4.4770     4.5330     4.7770   124.3650     8.2590   -32.0870     2.5170     0.0880     0.2240
 3238.5000   -57.5510   -29.0180     4.3690     4.4010     4.9230   123.2720     8.2590   -32.2590     2.5080     0.0700     0.2260
 3239.0000   -57.6960   -28.7870     4.2620     4.2760     5.1480   122.0610     8.2590   -32.4320     2.5050     0.0370     0.2280
 3239.5000   -57.8410   -28.5560     4.1540     4.2020     5.3720   120.8010     8.2590   -32.6040     2.5120     0.0350     0.2290
 3240.0000   -57.9860   -28.3260     4.0460     4.1310     5.5380   121.6300     8.2590   -32.7760     2.5210     0.0470     0.2300
 3240.5000   -58.1310   -28.0950     3.9380     4.0610     5.0580   125.1560     8.2590   -32.9480     2.5170     0.0590     0.2310
 3241.0000   -58.2760   -27.8640     3.8300     3.9910     4.6530   128.6790     8.2590   -33.1210     2.5100     0.0640     0.2300
 3241.5000   -58.4220   -27.6330     3.7220     3.9210     4.3560   130.0860     8.2590   -33.2930     2.5020     0.0700     0.2290
 3242.0000   -58.5670   -27.4020     3.6140     3.8500     4.5160   127.6000     8.2590   -33.4650     2.4950     0.0760     0.2260
 3242.5000   -58.7110   -27.1720     3.5060     3.7800     4.6670   123.9550     8.2590   -33.6370     2.4970     0.0780     0.2320
 3243.0000   -58.8200   -26.9410     3.3630     3.7570     4.8170   122.0170     8.2590   -33.8100     2.5070     0.0800     0.2380
 3243.5000   -58.8270   -26.7100     3.3720     3.7570     4.9570   123.1150     8.2590   -33.9820     2.5180     0.0820     0.2390
 3244.0000   -58.8470   -26.4790     3.3850     3.7570     4.7420   124.6890     8.2590   -34.1540     2.5270     0.0800     0.2370
 3244.5000   -58.8670   -26.2480     3.3940     3.7570     4.5420   125.6330     8.2590   -34.3260     2.5220     0.0620     0.2370
 3245.0000   -58.8870   -26.0180     3.4520     3.7570     4.3420   126.0140     8.2590   -34.4990     2.5100     0.0450     0.2390
 3245.5000   -58.9070   -25.9210     3.5060     3.8620     4.1590   128.1600     8.2590   -34.6710     2.4980     0.0360     0.2400
 3246.0000   -58.9280   -26.1670     3.5600     4.0160     4.4760   129.6670     8.2590   -34.8430     2.4880     0.0260     0.2360
 3246.5000   -58.9480   -26.4130     3.6750     4.1710     4.7690   127.1920     8.2590   -35.0150     2.4870     0.0500     0.2270
 3247.0000   -58.9680   -26.6590     3.8560     4.3250     5.0620   123.5170     8.2590   -35.1880     2.4980     0.0710     0.2190
 3247.5000   -58.9850   -26.9050     4.0360     4.4800     5.3550   119.8430     8.2590   -35.3600     2.5110     0.0840     0.2100
 3248.0000   -59.0030   -27.1510     4.2170     4.6340     5.6480   116.6890     8.2590   -35.5320     2.5230     0.0970     0.2040
 3248.5000   -58.6240   -27.3960     4.3460     4.7880     5.9410   114.0900     8.2590   -35.7040     2.5330     0.1050     0.2080
 3249.0000   -57.9660   -27.6420     4.4690     4.8660     6.2340   111.3890     8.2590   -35.8770     2.5370     0.0860     0.2120
 3249.5000   -57.3140   -27.8880     4.6040     4.8550     6.5270   111.5870     8.2590   -36.0490     2.5370     0.0490     0.2160
 3250.0000   -56.6580   -28.1340     4.6900     4.8460     6.8490   112.7980     8.2590   -36.2210     2.5340     0.0450     0.2130
 3250.5000   -55.9830   -28.3800     4.6310     4.8360     5.5420   114.0230     8.2590   -36.3930     2.5320     0.0460     0.2080
 3251.0000   -55.8320   -28.6260     4.5610     4.8260     5.0030   114.5890     8.2590   -36.5660     2.5320     0.0470     0.2010
 3251.5000   -55.9460   -28.8720     4.3400     4.6990     5.3760   113.2930     8.2590   -36.7380     2.5330     0.0620     0.2070
 3252.0000   -56.0680   -29.1180     4.0980     4.4640     5.7100   112.2380     8.2590   -36.9100     2.5320     0.0850     0.2160
 3252.5000   -56.1890   -29.3640     3.8560     4.2290     6.1300   112.9780     8.2620   -37.0820     2.5280     0.0950     0.2250
 3253.0000   -56.3100   -29.6100     3.6140     3.9930     5.6520   116.7300     8.2670   -37.2550     2.5180     0.0860     0.2340
 3253.5000   -56.4320   -29.8560     3.4240     3.7580     5.0070   120.6110     8.2720   -37.4270     2.5090     0.0690     0.2420
 3254.0000   -56.5530   -30.1020     3.3300     3.5300     4.3620   124.4610     8.2770   -37.5990     2.5050     0.0620     0.2460
 3254.5000   -56.6740   -30.3480     3.2360     3.3010     4.0770   127.8280     8.2760   -37.6120     2.5020     0.0650     0.2470
 3255.0000   -56.7960   -30.5940     3.1420     3.3590     4.0430   127.5420     8.2690   -36.4280     2.5030     0.0690     0.2450
 3255.5000   -56.9140   -30.8390     3.0380     3.4180     4.0080   126.3120     8.2630   -35.2450     2.5050     0.0720     0.2440
 3256.0000   -56.9310   -31.0850     3.1380     3.4770     4.2200   126.0400     8.2570   -34.0610     2.5060     0.0990     0.2430
 3256.5000   -56.4580   -31.3310     3.3070     3.6120     4.4350   126.6540     8.2500   -32.8770     2.5140     0.0950     0.2400
 3257.0000   -55.9910   -31.5770     3.4760     3.7660     4.7090   128.7230     8.2440   -31.6940     2.5220     0.0810     0.2320
 3257.5000   -55.5240   -31.8230     3.6440     3.9200     4.6030   134.9070     8.2370   -30.5100     2.5280     0.0700     0.2280
 3258.0000   -55.0550   -32.0690     3.8130     4.1250     4.3560   143.2130     8.2310   -29.3270     2.5350     0.0960     0.2240
