~VERSION INFORMATION
 VERS.                2.0:   CWLS LOG ASCII STANDARD - VERSION 2.0
 WRAP.                 NO:   ONE LINE PER DEPTH STEP
~WELL INFORMATION
#MNEM.UNIT      DATA TYPE    INFORMATION
#----------   ------------   ------------------------------
 STRT.F          637.0000:   START DEPTH
 STOP.F         3158.0000:   STOP DEPTH
 STEP.F            0.5000:   STEP LENGTH
 NULL.          -999.2500:   NO VALUE
 COMP.    FENIX & SCISSON:   COMPANY
 WELL.  FENIX "AX" #34-33:   WELL
 FLD .             NPR #3:   FIELD
 LOC .      S33 T39N R78W:   LOCATION
 CNTY.            NATRONA:   COUNTY
 STAT.            WYOMING:   STATE
 CTRY. UNITED STATES OF AMERICA:   COUNTRY
 SRVC.       SCHLUMBERGER:   SERVICE COMPANY
 DATE.        15-APR-1977:   LOGDATE
 API .     49025103450000:   API NUMBER
~CURVE INFORMATION
#MNEM.UNIT       API CODE    CURVE DESCRIPTION
#----------   ------------   ------------------------------
 DEPT.F                  :   
 CALD.IN     45 280 60 00:   CALIPER FROM DENSITY LOG
 GRD .GAPI   45 310 01 00:   GAMMA RAY FROM DENSITY LOG
 RHOB.G/C3   45 350 01 00:   BULK DENSITY
 CORR.G/C3   45 356 01 00:   DENSITY CORRECTION
 SPR .MV     07 010 01 00:   SPONTANEOUS POTENTIAL
 SFLU.OHMM   07 220 01 00:   SPHERICALLY FOCUSED LOG UNAVERAGED RESISTIVITY
 ILD .OHMM   07 120 46 00:   INDUCTION LOG DEEP RESISTIVITY
 ILM .OHMM   07 120 44 00:   INDUCTION LOG MEDIUM RESISTIVITY
~PARAMETER INFORMATION
#MNEM.UNIT          VALUE    DESCRIPTION
#----------   ------------   ------------------------------
 EKB .F         5196.0000:   Kelly bushing
 EGL .F         5185.0000:   Ground level
 EDF .F            0.0000:   Drilling floor
 TD  .F         3159.0000:   Total depth
 DATE.        15-APR-1977:   Date logged
 CLNT.            A2DTECH:   Client Code
 SL  . 2132' FNL & 1750' FWL:   Surface Location
 PD  .                 GL:   Permanent Datum
 EPD .F              5185:   Elevation Permanent Datum
 LMF .                 KB:   Log Measured From
 DMF .                 KB:   Drilling Measured From
 DAPD.F                11:   Feet Above Permanent Datum
 DD  .F              3156:   Depth driller
 DL  .F              3159:   Depth logger
 BLI .F              3153:   Bottom log interval
 TLI .F               637:   Top log interval
 CS1 .IN            8.625:   Casing size
 CBD1.      8.625" @ 637':   Casing driller 1
 CBL1.F               637:   Casing logger 1
 BS1 .IN            7.875:   Bit size
 BSD1.F              3156:   Depth drilled with bit1
 DFT .                FGM:   Type fluid in hole
 DFD .                7.5:   Density
 DFV .                 35:   Viscosity
 DFPH.                8.5:   pH
 DFL .                  9:   Fluid loss
 MSS .                PIT:   Source of sample
 RMS .OHMM            .48:   Rm
 MST .F                60:   Rm Meas. temp.
 RMF .OHMM            .28:   Rmf
 MFST.F                60:   Rmf Meas. temp.
 MFSS.               MEAS:   Source Rmf.
 RMB .OHMM            .24:   Rm. at BHT
 BHT .F               120:   BHT.
 TCS .HRS            0200:   Time Circ. stopped
 MRT .F               120:   Maximum recorded temp.
 LUN .               7680:   Logging unit number
 LUL .               CSPR:   Logging unit location
 ENGI.             TAYLOR:   Recorded By
 WITN.         PETTINGILL:   Witnessed by
 ORIG.           5" PRINT:   Origin of data
 UWI .     49025103450000:   Unique Well ID
 DICO. A2D TECHNOLOGIES, INC.:   Digitizing Company
 TLAB.               0530:   Time logger at bottom
~OTHER INFORMATION
~A   DEPT       CALD      GRD       RHOB       CORR        SPR         SFLU        ILD        ILM 
# ...
 2621.5000     7.7558    97.3824     2.5235     0.0936   -35.1449    14.4584    11.3175     9.2694
 2622.0000     7.7591    97.5826     2.5425     0.1186   -34.5475    15.0046    12.1116     9.8877
 2622.5000     7.7623    97.3854     2.5545     0.1505   -34.3477    14.7294    12.4517    10.5473
 2623.0000     7.7656    96.7907     2.5654     0.1645   -34.1479    14.4593    12.4518    10.9438
 2623.5000     7.7688    94.8044     2.5664     0.1535   -34.1469    15.4286    12.3378    11.3552
 2624.0000     7.7721    96.5954     2.5595     0.1485   -33.9471    16.3110    11.9034    11.5668
 2624.5000     7.7753    99.1799     2.5495     0.1346   -33.9461    15.7178    11.4610    11.5671
 2625.0000     7.7786    97.9891     2.5565     0.1515   -33.7464    14.5951    11.3559    11.2517
 2625.5000     7.7818    95.4076     2.5575     0.1705   -33.7454    13.4276    11.1486    10.7449
 2626.0000     7.7851    94.4156     2.5455     0.1675   -33.7444    12.7018    11.0465    10.4519
 2626.5000     7.7883    94.6158     2.5595     0.1475   -33.7434    12.7021    11.0467    10.1669
 2627.0000     7.7916    94.2200     2.5605     0.1515   -33.9412    12.9399    11.2526     9.9813
 2627.5000     7.7948    90.6448     2.5565     0.1585   -33.9402    13.1823    11.4623     9.9814
 2628.0000     7.7981    88.8584     2.5375     0.1166   -33.7404    13.4291    11.6759    10.1674
 2628.5000     7.8013    89.8532     2.5096     0.1316   -33.7394    13.3055    11.7843    10.4529
 2629.0000     7.8045    89.4577     2.5346     0.1336   -33.7385    13.3058    12.0039    10.5500
 2629.5000     7.8078    87.6710     2.5266     0.1316   -33.7375    13.4090    12.2276    10.6479
 2630.0000     7.8110    89.6592     2.5236     0.1047   -33.9353    14.0420    12.4555    10.8464
 2630.5000     7.8143    89.0650     2.5256     0.0818   -33.7355    14.1723    12.6877    11.1509
 2631.0000     7.8175    87.6758     2.5386     0.0698   -33.7345    14.9790    12.6878    11.4639
 2631.5000     7.8207    87.8761     2.5515     0.0917   -33.9323    16.6215    12.6883    11.5703
 2632.0000     7.8208    90.2613     2.5515     0.0907   -33.9313    16.6219    12.6884    11.8952
 2632.5000     7.7615    88.4754     2.5565     0.1139   -34.1292    15.0115    12.4567    11.8954
 2633.0000     7.7616    85.4954     2.5665     0.1167   -34.1282    14.1741    12.2358    11.7864
 2633.5000     7.7616    90.0680     2.5725     0.1167   -34.3260    14.8736    12.0188    11.6785
 2634.0000     7.7619    93.2481     2.5745     0.1426   -34.5238    14.8740    11.8057    11.6787
 2634.5000     7.7621    95.6322     2.5456     0.1287   -34.7217    14.4665    11.5963    11.4655
 2635.0000     7.7622    93.8476     2.5366     0.1466   -34.9195    13.9403    11.3907    11.3605
 2635.5000     7.7624    95.0408     2.5575     0.1397   -35.3159    13.8120    11.2564    11.2564
 2636.0000     7.7626    96.0357     2.5635     0.1616   -35.7125    14.0707    11.1855    11.0509
 2636.5000     7.7628   101.0039     2.5645     0.1536   -35.7116    14.2020    11.1150    10.9496
 2637.0000     7.7630   102.7934     2.5675     0.1486   -35.7106    13.4342    11.0450    10.8494
 2637.5000     7.7632   103.9869     2.5685     0.1506   -35.9084    12.8262    10.9755    10.7500
 2638.0000     7.7633   102.5977     2.5675     0.1357   -36.3050    12.5751    10.9064    10.4568
 2638.5000     7.7635   100.4138     2.5615     0.1327   -36.5029    14.4689    10.8500    10.0783
 2639.0000     7.7637    98.0314     2.5685     0.1477   -36.8995    15.1555    10.5541     9.8033
 2639.5000     7.7639    98.0329     2.5605     0.1517   -37.0973    14.8775    10.4327     9.6756
 2640.0000     7.7641   100.6169     2.5486     0.1656   -37.0963    14.4698    10.3617     9.5496
 2640.5000     7.7643   102.2085     2.5456     0.1487   -37.0953    12.5922    10.2667     9.4253
 2641.0000     7.7645   104.1956     2.5476     0.1407   -37.2932    11.9114    10.2829     9.3025
 2641.5000     7.7646   107.5741     2.5506     0.1457   -37.4910    12.0225    10.2990     9.1814
 2642.0000     7.7648   109.5611     2.5406     0.1357   -37.6888    12.2477    10.3152     9.0236
 2642.5000     7.7650   104.1999     2.5266     0.1397   -37.6878    12.0230    10.3314     9.0237
 2643.0000     7.7652    98.8383     2.5646     0.1676   -37.6868    11.5857    10.3476     9.1075
 2643.5000     7.7654    95.2643     2.5725     0.1776   -37.2882    12.0235    10.3631     9.2773
 2644.0000     7.7656    94.6688     2.5875     0.1816   -36.8896    13.1913    10.3632     9.4502
 2644.5000     7.7657    99.4387     2.5825     0.2006   -36.8886    15.4427    10.3634     9.6263
 2645.0000     7.7659   102.4194     2.5705     0.1866   -36.6888    15.1594    10.1744     9.6265
 2645.5000     7.7661   103.8113     2.5666     0.1737   -36.4890    14.2074    10.0811     9.6267
 2646.0000     7.7663   104.6073     2.5745     0.1846   -36.6865    13.9468     9.9886     9.5385
 2646.5000     7.7665   104.8073     2.5785     0.1806   -36.2883    12.5954     9.8442     9.4511
 2647.0000     7.7667   104.0143     2.5696     0.1697   -36.2873    11.9143     9.7165     9.1090
 2647.5000     7.7668   101.2352     2.5566     0.1547   -36.4851    11.9146     9.6274     9.0255
 2648.0000     7.7670   100.2436     2.5766     0.1707   -36.2851    12.3648     9.6276     8.9428
 2648.5000     7.7672   100.0464     2.5995     0.1727   -36.4829    12.4802     9.6277     8.8608
 2649.0000     7.7674   100.6438     2.6005     0.2006   -36.4819    12.1382     9.7458     8.7796
 2649.5000     7.7676   101.0425     2.5985     0.1637   -36.4809    11.6967     9.8984     8.7798
 2650.0000     7.7678   102.0370     2.5985     0.1917   -36.4800    12.0012    10.0828     8.6993
 2650.5000     7.7679    99.0593     2.6105     0.1976   -37.0754    11.8908    10.3364     8.8615
 2651.0000     7.7681    93.8972     2.5706     0.1308   -37.2732    12.3399    10.5963     9.1947
 2651.5000     7.7683    91.3168     2.5656     0.1258   -37.2722    13.0455    10.8628     9.4529
 2652.0000     7.7685    91.3184     2.5666     0.1318   -37.0724    13.7914    11.1606     9.7183
 2652.5000     7.7687    92.9088     2.5706     0.1408   -37.0715    14.7157    11.3403     9.8995
 2653.0000     7.7687    92.3145     2.5646     0.1328   -37.0705    14.1807    11.5230    10.1775
 2653.5000     7.7690    89.7343     2.5536     0.1099   -37.2683    13.0466    11.6880    10.3672
 2654.0000     7.7692    88.7429     2.5706     0.1508   -37.2673    13.0468    11.6882    10.3674
 2654.5000     7.7693    86.9557     2.5905     0.1528   -37.0675    16.2957    11.5482    10.3675
 2655.0000     7.7696    89.7390     2.5836     0.1528   -36.8677    18.5527    11.4099    10.3678
 2655.5000     7.7697    93.1167     2.5806     0.1548   -36.6679    16.9116    11.2656    10.2728
 2656.0000     7.7699    94.5084     2.5746     0.1518   -36.6669    15.2735    11.0598    10.1787
 2656.5000     7.7900    99.0775     2.5716     0.1488   -36.6659    14.0520    11.0412    10.1789
 2657.0000     7.8298    99.6747     2.5716     0.1488   -36.6649    13.6671    11.0226    10.0856
 2657.5000     7.8101    99.8748     2.5766     0.1468   -36.6640    13.2928    11.0041    10.0858
 2658.0000     7.7706    99.6777     2.5656     0.1428   -36.2653    13.2931    10.9856    10.0860
 2658.5000     7.7708    96.8976     2.5497     0.1249   -36.0656    13.2933    10.9595    10.0862
 2659.0000     7.7710    95.9062     2.5417     0.1059   -36.0646    13.9239    10.9766    10.1799
 2659.5000     7.7712   100.0793     2.5347     0.1139   -36.0636    14.9954    10.9937    10.2744
 2660.0000     7.7714   101.6694     2.5666     0.1219   -35.8638    15.7067    11.0108    10.2747
 2660.5000     7.7716   100.4794     2.5696     0.1449   -35.8628    14.8577    11.0280    10.0870
 2661.0000     7.8313   101.2752     2.5706     0.1499   -35.8618    14.7210    11.0452    10.5634
 2661.5000     7.8314   102.8652     2.5547     0.1279   -35.8608    14.8584    11.0623    10.3704
