~VERSION INFORMATION
 VERS.                2.0:   CWLS LOG ASCII STANDARD - VERSION 2.0
 WRAP.                 NO:   ONE LINE PER DEPTH STEP
~WELL INFORMATION
#MNEM.UNIT      DATA TYPE    INFORMATION
#----------   ------------   ------------------------------
 STRT.F          508.0000:   START DEPTH
 STOP.F         3170.0000:   STOP DEPTH
 STEP.F            0.5000:   STEP LENGTH
 NULL.          -999.2500:   NO VALUE
 COMP. FENIX & SCISSON - U.S. NAVY:   COMPANY
 WELL. FENIX NPR-3 "A" #58-34:   WELL
 FLD .                NPR:   FIELD
 LOC .      S34 T39N R78W:   LOCATION
 CNTY.            NATRONA:   COUNTY
 STAT.            WYOMING:   STATE
 CTRY. UNITED STATES OF AMERICA:   COUNTRY
 SRVC.       SCHLUMBERGER:   SERVICE COMPANY
 DATE.        15-MAR-1977:   LOGDATE
 API .     49025103180000:   API NUMBER
~CURVE INFORMATION
#MNEM.UNIT       API CODE    CURVE DESCRIPTION
#----------   ------------   ------------------------------
 DEPT.F                  :   
 CALD.IN     45 280 60 00:   CALIPER FROM DENSITY LOG
 GRD .GAPI   45 310 01 00:   GAMMA RAY FROM DENSITY LOG
 RHOB.G/C3   45 350 01 00:   BULK DENSITY
 CORR.G/C3   45 356 01 00:   DENSITY CORRECTION
 SPR .MV     07 010 01 00:   SPONTANEOUS POTENTIAL
 LL8 .OHMM   07 220 08 00:   LATEROLOG-8 RES.
 ILD .OHMM   07 120 46 00:   DEEP INDUCTION RESISTIVITY
 ILM .OHMM   07 120 44 00:   INDUCTION LOG MEDIUM RESISTIVITY
~PARAMETER INFORMATION
#MNEM.UNIT          VALUE    DESCRIPTION
#----------   ------------   ------------------------------
 EKB .F         5129.0000:   Kelly bushing
 EGL .F         5117.0000:   Ground level
 EDF .F            0.0000:   Drilling floor
 EPD .F            0.0000:   Permanent datum
 TD  .F         3170.0000:   Total depth
 DATE.        15-MAR-1977:   Date logged
 CLNT.            A2DTECH:   Client Code
 SL  . 2310' FEL & 330' FSL:   Surface Location
 PD  .                 GL:   Permanent Datum
 DAPD.F                12:   Feet Above Permanent Datum
 DD  .F              3170:   Depth driller
 DL  .F              3170:   Depth logger
 BLI .F              3169:   Bottom log interval
 TLI .F               508:   Top log interval
 CS1 .IN            8.625:   Casing size
 CBD1.      8.625" @ 524':   Casing driller 1
 CBL1.F               522:   Casing logger 1
 BS1 .IN            7.875:   Bit size
 BSD1.F              3170:   Depth drilled with bit1
 DFT .                KCL:   Type fluid in hole
 DFD .                9.2:   Density
 DFV .                 36:   Viscosity
 DFPH.                  9:   pH
 DFL .                  9:   Fluid loss
 MSS .                PIT:   Source of sample
 RMS .OHMM             .3:   Rm
 MST .F                58:   Rm Meas. temp.
 RMF .OHMM            .29:   Rmf
 MFST.F                58:   Rmf Meas. temp.
 MFSS.               MEAS:   Source Rmf.
 RMB .OHMM            .15:   Rm. at BHT
 BHT .F               120:   BHT.
 TCS .HRS               6:   Time Circ. stopped
 MRT .F               120:   Maximum recorded temp.
 LUN .               7711:   Logging unit number
 LUL .               CSPR:   Logging unit location
 ENGI.             SAYLER:   Recorded By
 WITN.               JAPP:   Witnessed by
 ORIG.           5" PRINT:   Origin of data
 UWI .     49025103180000:   Unique Well ID
 DICO. A2D TECHNOLOGIES, INC.:   Digitizing Company
~OTHER INFORMATION
~A   DEPT       CALD       GRD      RHOB        CORR       SPR        LL8        ILD        ILM   
# ...
 1034.5000     9.7699   133.0274     2.5281     0.0127   -51.7520     9.0482     8.4079     8.2550
 1035.0000     9.7895   135.2101     2.5301     0.0207   -51.5228     9.0519     8.5671     8.3346
 1035.5000     9.7691   137.7913     2.5321     0.0237   -51.5129     9.0557     8.6497     8.4423
 1036.0000     9.7886   140.5688     2.5361     0.0217   -51.5030     9.0595     8.8135     8.5242
 1036.5000     9.7683   137.9813     2.5371     0.0167   -51.9317     9.2311     8.8984     8.6069
 1037.0000     9.7679   135.7907     2.5330     0.0137   -52.3604     9.4059     8.9021     8.5335
 1037.5000     9.7675   134.3952     2.5310     0.0096   -52.5699     9.4965     8.9058     8.5342
 1038.0000     9.7671   134.1928     2.5270     0.0066   -52.7793     9.5880     8.9916     8.6031
 1038.5000     9.7868   136.9715     2.5250     0.0056   -52.1114     9.5920     9.0783     8.6725
 1039.0000     9.7862   137.3659     2.5310     0.0076   -51.8822     9.6844     9.2502     8.7425
 1039.5000     9.7660   135.5720     2.5419     0.0276   -51.6530     9.7777     9.2541     8.8131
 1040.0000     9.7656   132.7842     2.5489     0.0326   -51.2044     9.8719     9.2571     8.8843
 1040.5000     9.7055   132.7810     2.5469     0.0276   -51.1945     9.9671     9.3471     8.9560
 1041.0000     9.7051   133.5722     2.5369     0.0166   -51.1846     9.9712     9.4372     9.0283
 1041.5000     9.6849   134.1623     2.5319     0.0155   -51.1747     9.9753     9.4411     9.1012
 1042.0000     9.6845   134.3419     2.5298     0.0145   -51.1648     9.8883     9.4450     9.1746
 1042.5000     9.6841   135.1507     2.5288     0.0105   -51.1549     9.8925     9.4489     9.2273
 1043.0000     9.6837   136.7370     2.5238     0.0065   -51.5836     9.8966     9.4529     9.1130
 1043.5000     9.6833   138.1246     2.5218     0.0025   -51.7930     9.9919     9.4568     9.1160
 1044.0000     9.6034   139.7109     2.5158     0.0004   -52.4410     9.9961     9.4607     9.1198
 1044.5000     9.6626   139.9066     2.5107    -0.0016   -52.6504    10.1854     9.5519     9.2077
 1045.0000     9.6624   140.1014     2.5037    -0.0086   -52.6405    10.2835     9.6439     9.2115
 1045.5000     9.6817   141.0914     2.5067    -0.0066   -52.4113    10.3826     9.7368     9.2146
 1046.0000     9.6614   142.8765     2.5187    -0.0026   -52.6207    10.4827     9.7417     9.2192
 1046.5000     9.6809   143.4689     2.5267     0.0054   -52.6108    10.4870     9.7449     9.3080
 1047.0000     9.6606   143.4637     2.5317     0.0114   -53.0202    10.4914     9.7489     9.3095
 1047.5000     9.6801   144.8513     2.5306     0.0114   -53.4489    10.3999     9.7530     9.3157
 1048.0000     9.6797   147.0352     2.5406     0.0123   -53.8777    10.3092     9.7570     9.3196
 1048.5000     9.6594   147.0313     2.5426     0.0143   -53.8678    10.3135     9.7611     9.4094
 1049.0000     9.6590   145.8346     2.5446     0.0153   -53.8578    10.2235     9.7651     9.4133
 1049.5000     9.6586   144.2403     2.5406     0.0133   -53.8479    10.3220     9.7692     9.5040
 1050.0000     9.6582   138.2719     2.5335     0.0073   -54.0573    10.3254     9.7733     9.5956
 1050.5000     9.6411   137.6734     2.5343     0.0050   -54.2667    10.4249     9.7765     9.6872
 1051.0000     9.6377   138.8572     2.5385     0.0072   -54.2568    10.5254     9.7806     9.8707
 1051.5000     9.6373   139.0504     2.5395     0.0072   -54.2469    10.6268     9.7846    10.0577
 1052.0000     9.6171   138.4486     2.5375     0.0072   -54.2563    10.8281     9.7887    10.1546
 1052.5000     9.5969   138.8406     2.5385     0.0072   -53.8078    10.9324    10.0660    10.2524
 1053.0000     9.5767   139.2325     2.5384     0.0071   -53.5786    11.2421    10.2567    10.4466
 1053.5000     9.5565   139.8243     2.5434     0.0121   -53.1320    11.5606    10.3555    10.5473
 1054.0000     9.5561   141.2098     2.5514     0.0131   -52.9028    11.8882    10.3598    10.6489
 1054.5000     9.4364   142.3964     2.5514     0.0111   -52.4542    11.8931    10.3641    10.7515
 1055.0000     9.4560   143.7817     2.5524     0.0050   -52.0057    11.8980    10.3684    10.8542
 1055.5000     9.4557   147.1538     2.5704     0.0070   -51.3379    11.9030    10.3727    10.8596
 1056.0000     9.4554   149.1359     2.5634     0.0140   -51.9859    11.9079    10.2822    10.8641
 1056.5000     9.4948   149.7260     2.5543     0.0250   -51.9760    11.6963    10.0995    10.8686
 1057.0000     9.5739   149.7201     2.5453     0.0300   -52.1854    11.7011    10.0114    10.8731
 1057.5000     9.5736   149.5154     2.5353     0.0310   -52.1755    11.4932    10.0156    10.8776
 1058.0000     9.4541   147.5229     2.5113     0.0350   -52.3849    11.3929     9.9282    10.8821
 1058.5000     9.4537   145.5294     2.4952     0.0620   -52.3750    11.2936     9.8416    10.8867
 1059.0000     9.4534   144.1331     2.4972     0.1094   -52.8037    11.2983     9.9365    10.8912
 1059.5000     9.6913   143.1342     2.5122     0.1772   -52.9938    11.3030    10.1247    10.8957
 1060.0000     9.9891   143.1285     2.5352     0.2384   -52.9839    11.4119    10.4115    11.1039
 1060.5000    10.2867   143.1228     2.5432     0.2303   -53.1933    11.6280    10.6096    11.2090
 1061.0000     9.6764   142.7199     2.5512     0.2029   -53.1834    11.8483    11.3170    11.4213
 1061.5000     9.6503   141.3240     2.5482     0.1771   -53.1735    12.1839    12.5239    11.6377
 1062.0000     9.5904   141.1198     2.5211     0.1090   -52.9636    12.5291    13.6075    11.6425
 1062.5000     9.5503   141.3128     2.5241     0.0648   -52.9537    12.5343    14.9212    11.5410
 1063.0000     9.5500   141.9029     2.4861     0.0568   -52.5051    12.5395    17.3116    11.1270
 1063.5000     9.5695   140.9044     2.4511     0.0538   -52.0566    12.5447    20.3982     8.1101
 1064.0000     9.6486   138.9120     2.4251     0.1239   -51.1694    12.0978    20.4067     5.5979
 1064.5000     9.8468   135.5311     2.3690     0.1960   -49.6243    11.4546    19.3218     4.8357
 1065.0000    10.0055   132.7460     2.1960     0.1319   -48.0792    10.9456    17.4743     4.2546
 1065.5000    10.1044   130.5568     2.1260     0.1358   -46.7534    10.2690    15.5162     3.6417
 1066.0000    10.6961   125.5872     1.9810     0.1589   -45.8662     8.3956    13.4035     3.5770
 1066.5000    11.0765   122.6044     1.8610     0.1819   -45.1983     7.7335    11.5794     3.6114
 1067.0000    11.8311   118.6291     1.8560     0.1087   -44.5305     7.4579     9.6588     3.6462
 1067.5000    12.5856   115.6458     1.8745     0.1117   -44.3013     7.1922     8.5353     3.6814
 1068.0000    15.0653   106.7076     1.9759     0.2249   -43.6334     6.9359     7.3132     3.6829
 1068.5000    14.7469   105.3139     1.9749     0.2229   -43.4042     6.9388     6.6758     3.6844
 1069.0000    15.6002   105.7067     1.9629     0.1276   -43.3962     6.9417     6.6786     3.6860
 1069.5000    15.8776   105.9010     1.9508     0.1276   -43.3863     6.9446     6.9307     3.7904
 1070.0000    15.6190   106.4922     1.9208     0.1606   -43.5957     7.0761     6.6841     3.9337
 1070.5000    14.8841   106.8857     1.9158     0.1646   -43.5858     7.2101     6.1577     4.0451
 1071.0000    16.0941   109.0645     1.9168     0.1696   -43.3566     7.2131     5.9932     4.1981
 1071.5000    15.9347   111.8367     1.9267     0.1746   -43.5660     7.0849     5.8868     4.6458
 1072.0000    13.1556   113.0256     1.9777     0.1836   -43.9947     6.8955     5.8893     4.6481
 1072.5000    13.8497   112.2264     1.9887     0.1855   -43.9848     6.5299     6.4564     5.9561
 1073.0000    14.4054   111.6267     1.9956     0.1765   -44.1942     6.4815     6.7602    10.2829
 1073.5000    12.9556   113.0112     2.2023     0.1625   -44.6210     6.3569     7.4203    17.7531
 1074.0000    14.3244   116.3806     2.3319     0.0342   -45.2710     6.3015     8.1449    40.2072
 1074.5000    15.9706   118.9551     2.4898     0.0522   -45.6997     6.1895     8.9403    42.8811
