~VERSION INFORMATION
 VERS.                2.0:   CWLS LOG ASCII STANDARD - VERSION 2.0
 WRAP.                 NO:   ONE LINE PER DEPTH STEP
~WELL INFORMATION
#MNEM.UNIT      DATA TYPE    INFORMATION
#----------   ------------   ------------------------------
 STRT.F           46.0000:   START DEPTH
 STOP.F         2952.5000:   STOP DEPTH
 STEP.F            0.5000:   STEP LENGTH
 NULL.          -999.2500:   NO VALUE
 COMP.    FENIX & SCISSON:   COMPANY
 WELL. FENIX NPR 3 "SHX" #11-15:   WELL
 FLD .        TEAPOT DOME:   FIELD
 LOC .      S15 T38N R78W:   LOCATION
 CNTY.            NATRONA:   COUNTY
 STAT.            WYOMING:   STATE
 CTRY. UNITED STATES OF AMERICA:   COUNTRY
 SRVC.           BIRDWELL:   SERVICE COMPANY
 DATE.        19-JAN-1979:   LOGDATE
 API .     49025107640000:   API NUMBER
~CURVE INFORMATION
#MNEM.UNIT       API CODE    CURVE DESCRIPTION
#----------   ------------   ------------------------------
 DEPT.F                  :   
 GRD .GAPI   45 310 01 00:   GAMMA RAY FROM DENSITY LOG
 CALD.IN     45 280 60 00:   CALIPER FROM DENSITY LOG
 RHOB.G/C3   45 350 01 00:   BULK DENSITY
 CORR.G/C3   45 356 01 00:   DENSITY CORRECTION
 SPR .MV     07 010 01 00:   SPONTANEOUS POTENTIAL
 SN  .OHMM   01 040 00 00:   SHORT NORMAL
 ILD .OHMM   07 120 46 00:   INDUCTION LOG DEEP RESISTIVITY
~PARAMETER INFORMATION
#MNEM.UNIT          VALUE    DESCRIPTION
#----------   ------------   ------------------------------
 EKB .F         5258.0000:   Kelly bushing
 EGL .F         5248.0000:   Ground level
 EDF .F            0.0000:   Drilling floor
 TD  .F         1300.0000:   Total depth
 DATE.        19-JAN-1979:   Date logged
 CLNT.            A2DTECH:   Client Code
 SL  . 177' FNL & 155' FWL:   Surface Location
 PD  .                 GL:   Permanent Datum
 EPD .F              5248:   Elevation Permanent Datum
 LMF .                 KB:   Log Measured From
 DMF .                 KB:   Drilling Measured From
 DAPD.F                10:   Feet Above Permanent Datum
 DD  .F              1300:   Depth driller
 DL  .F              1283:   Depth logger
 BLI .F              1277:   Bottom log interval
 TLI .F               100:   Top log interval
 CBD1.F                40:   Casing driller 1
 CBL1.F                40:   Casing logger 1
 BS1 .IN            7.875:   Bit size
 BSD1.F              1300:   Depth drilled with bit1
 DFT .           CHEM/GEL:   Type fluid in hole
 DFD .                8.8:   Density
 DFV .                 37:   Viscosity
 DFL .               15.4:   Fluid loss
 MSS .           FLOWLINE:   Source of sample
 RMS .OHMM            .75:   Rm
 MST .F                68:   Rm Meas. temp.
 RMF .OHMM            .75:   Rmf
 MFST.F                64:   Rmf Meas. temp.
 RMC .OHMM            1.3:   Rmc
 MCST.F                68:   Rmc Meas. temp.
 MFSS.               MEAS:   Source Rmf.
 MCSS.               MEAS:   Source Rmc.
 RMB .OHMM            .73:   Rm. at BHT
 BHT .F                70:   BHT.
 TCS .HRS               2:   Time Circ. stopped
 MRT .F                70:   Maximum recorded temp.
 LUN .               3029:   Logging unit number
 LUL .               CSPR:   Logging unit location
 ENGI.            ROLLINS:   Recorded By
 WITN.           DINSMORE:   Witnessed by
 ORIG.           5" PRINT:   Origin of data
 UWI .     49025107640000:   Unique Well ID
 DICO. A2D TECHNOLOGIES, INC.:   Digitizing Company
~OTHER INFORMATION
~A   DEPT      GRD       CALD       RHOB       CORR        SPR           SN        ILD 
# ...
 2912.5000   121.5200     9.0520     2.5040     0.0370  -999.2500  -999.2500  -999.2500
 2913.0000   121.4030     9.0610     2.5080     0.0390  -999.2500  -999.2500  -999.2500
 2913.5000   121.4720     9.0690     2.5100     0.0410  -999.2500  -999.2500  -999.2500
 2914.0000   121.4710     9.0780     2.5130     0.0440  -999.2500  -999.2500  -999.2500
 2914.5000   121.6260     9.0870     2.5090     0.0400  -999.2500  -999.2500  -999.2500
 2915.0000   123.3360     9.0960     2.5030     0.0350  -999.2500  -999.2500  -999.2500
 2915.5000   126.6170     9.0950     2.5050     0.0290  -999.2500  -999.2500  -999.2500
 2916.0000   129.1470     9.0880     2.5150     0.0330  -999.2500  -999.2500  -999.2500
 2916.5000   129.1840     9.0780     2.5250     0.0420  -999.2500  -999.2500  -999.2500
 2917.0000   125.7500     9.0670     2.5320     0.0500  -999.2500  -999.2500  -999.2500
 2917.5000   121.5600     9.0710     2.5360     0.0580  -999.2500  -999.2500  -999.2500
 2918.0000   117.7690     9.1090     2.5290     0.0680  -999.2500  -999.2500  -999.2500
 2918.5000   117.9710     9.2040     2.5230     0.0710  -999.2500  -999.2500  -999.2500
 2919.0000   121.8980     8.7850     2.5250     0.0640  -999.2500  -999.2500  -999.2500
 2919.5000   127.6340     8.8670     2.5260     0.0580  -999.2500  -999.2500  -999.2500
 2920.0000   130.7220     8.8980     2.5340     0.0530  -999.2500  -999.2500  -999.2500
 2920.5000   130.4270     8.8850     2.5420     0.0510  -999.2500  -999.2500  -999.2500
 2921.0000   127.4730     8.8260     2.5390     0.0610  -999.2500  -999.2500  -999.2500
 2921.5000   123.6610     8.7930     2.5360     0.0820  -999.2500  -999.2500  -999.2500
 2922.0000   118.9320     8.7600     2.5340     0.1000  -999.2500  -999.2500  -999.2500
 2922.5000   117.5340     8.7420     2.5290     0.0980  -999.2500  -999.2500  -999.2500
 2923.0000   114.2060     8.7440     2.5160     0.0900  -999.2500  -999.2500  -999.2500
 2923.5000   107.1920     8.7510     2.5070     0.0810  -999.2500  -999.2500  -999.2500
 2924.0000   107.2420     8.7960     2.5110     0.0770  -999.2500  -999.2500  -999.2500
 2924.5000   107.7340     8.8040     2.5250     0.0900  -999.2500  -999.2500  -999.2500
 2925.0000   108.8560     8.8210     2.5210     0.1020  -999.2500  -999.2500  -999.2500
 2925.5000   108.9970     8.8090     2.5050     0.0700  -999.2500  -999.2500  -999.2500
 2926.0000   105.6340     8.7880     2.4960     0.0510  -999.2500  -999.2500  -999.2500
 2926.5000   101.6340     8.7750     2.5140     0.0520  -999.2500  -999.2500  -999.2500
 2927.0000   103.3470     8.7420     2.5220     0.0510  -999.2500  -999.2500  -999.2500
 2927.5000    91.3020     8.7690     2.5340     0.0490  -999.2500  -999.2500  -999.2500
 2928.0000    95.0940     8.7840     2.5380     0.0480  -999.2500  -999.2500  -999.2500
 2928.5000    96.6950     8.8050     2.5320     0.0470  -999.2500  -999.2500  -999.2500
 2929.0000    98.2210     8.8250     2.5310     0.0450  -999.2500  -999.2500  -999.2500
 2929.5000    96.1700     8.8650     2.5310     0.0440  -999.2500  -999.2500  -999.2500
 2930.0000    91.7770     8.9030     2.5310     0.0430  -999.2500  -999.2500  -999.2500
 2930.5000    90.2990     8.9420     2.5370     0.0410  -999.2500  -999.2500  -999.2500
 2931.0000    85.7220     8.9800     2.5440     0.0400  -999.2500  -999.2500  -999.2500
 2931.5000    83.4690     9.0090     2.5510     0.0400  -999.2500  -999.2500  -999.2500
 2932.0000    85.2770     9.0390     2.5530     0.0400  -999.2500  -999.2500  -999.2500
 2932.5000    89.4550     9.0670     2.5540     0.0400  -999.2500  -999.2500  -999.2500
 2933.0000    93.6330     9.0960     2.5500     0.0400  -999.2500  -999.2500  -999.2500
 2933.5000    95.0690     9.0980     2.5440     0.0400  -999.2500  -999.2500  -999.2500
 2934.0000    96.3340     9.0970     2.5220     0.0400  -999.2500  -999.2500  -999.2500
 2934.5000    97.3000     9.0950     2.5170     0.0410  -999.2500  -999.2500  -999.2500
 2935.0000    96.7290     9.0940     2.5170     0.0420  -999.2500  -999.2500  -999.2500
 2935.5000    93.6090     9.0930     2.5200     0.0430  -999.2500  -999.2500  -999.2500
 2936.0000    86.5470     9.0920     2.5220     0.0450  -999.2500  -999.2500  -999.2500
 2936.5000    85.1510     9.0910     2.5230     0.0460  -999.2500  -999.2500  -999.2500
 2937.0000    86.4070     9.0900     2.5210     0.0470  -999.2500  -999.2500  -999.2500
 2937.5000    84.4590     9.0890     2.5200     0.0480  -999.2500  -999.2500  -999.2500
 2938.0000    83.2770     9.0870     2.5180     0.0490  -999.2500  -999.2500  -999.2500
 2938.5000    83.9310     9.0860     2.5170     0.0490  -999.2500  -999.2500  -999.2500
 2939.0000    84.8190     9.0850     2.5200     0.0490  -999.2500  -999.2500  -999.2500
 2939.5000    85.3110     9.0840     2.5230     0.0500  -999.2500  -999.2500  -999.2500
 2940.0000    84.8200     9.0830     2.5260     0.0500  -999.2500  -999.2500  -999.2500
 2940.5000    83.2580     9.0820     2.5270     0.0500  -999.2500  -999.2500  -999.2500
 2941.0000    85.1790     9.0810     2.5180     0.0510  -999.2500  -999.2500  -999.2500
 2941.5000    87.0940     9.0790     2.5060     0.0510  -999.2500  -999.2500  -999.2500
 2942.0000    87.3380     9.0780     2.4950     0.0510  -999.2500  -999.2500  -999.2500
 2942.5000    84.8570     9.0770     2.4900     0.0520  -999.2500  -999.2500  -999.2500
 2943.0000    84.7760     9.0760     2.4830     0.0520  -999.2500  -999.2500  -999.2500
 2943.5000    84.9910     9.0750     2.4830     0.0510  -999.2500  -999.2500  -999.2500
 2944.0000    85.2750     9.0740     2.4820     0.0380  -999.2500  -999.2500  -999.2500
 2944.5000  -999.2500     9.0720     2.4760     0.0270  -999.2500  -999.2500  -999.2500
 2945.0000  -999.2500     9.0710     2.4730     0.0290  -999.2500  -999.2500  -999.2500
 2945.5000  -999.2500     9.0700     2.4750     0.0500  -999.2500  -999.2500  -999.2500
 2946.0000  -999.2500     9.0690     2.4760     0.0610  -999.2500  -999.2500  -999.2500
 2946.5000  -999.2500     9.0680     2.4760     0.0600  -999.2500  -999.2500  -999.2500
 2947.0000  -999.2500     9.0670     2.4820     0.0600  -999.2500  -999.2500  -999.2500
 2947.5000  -999.2500     9.0660     2.4900     0.0600  -999.2500  -999.2500  -999.2500
 2948.0000  -999.2500     9.0640     2.4980     0.0600  -999.2500  -999.2500  -999.2500
 2948.5000  -999.2500     9.0630     2.4990     0.0600  -999.2500  -999.2500  -999.2500
 2949.0000  -999.2500     9.0620     2.4990     0.0600  -999.2500  -999.2500  -999.2500
 2949.5000  -999.2500     9.0610     2.4930     0.0600  -999.2500  -999.2500  -999.2500
 2950.0000  -999.2500     9.0600     2.4840     0.0600  -999.2500  -999.2500  -999.2500
 2950.5000  -999.2500  -999.2500     2.4830     0.0600  -999.2500  -999.2500  -999.2500
 2951.0000  -999.2500  -999.2500     2.4830     0.0600  -999.2500  -999.2500  -999.2500
 2951.5000  -999.2500  -999.2500     2.4830     0.0600  -999.2500  -999.2500  -999.2500
 2952.0000  -999.2500  -999.2500     2.4820     0.0600  -999.2500  -999.2500  -999.2500
 2952.5000  -999.2500  -999.2500     2.4810     0.0600  -999.2500  -999.2500  -999.2500
