~VERSION INFORMATION
 VERS.                2.0:   CWLS LOG ASCII STANDARD - VERSION 2.0
 WRAP.                 NO:   ONE LINE PER DEPTH STEP
~WELL INFORMATION
#MNEM.UNIT      DATA TYPE    INFORMATION
#----------   ------------   ------------------------------
 STRT.F           61.5000:   START DEPTH
 STOP.F         4220.0000:   STOP DEPTH
 STEP.F            0.5000:   STEP LENGTH
 NULL.          -999.2500:   NO VALUE
 COMP.   LAWRENCE ALLISON:   COMPANY
 WELL. ALLISON NPR 3 "LX" #28-34:   WELL
 FLD .                NPR:   FIELD
 LOC .      S34 T39N R78W:   LOCATION
 CNTY.            NATRONA:   COUNTY
 STAT.            WYOMING:   STATE
 CTRY. UNITED STATES OF AMERICA:   COUNTRY
 SRVC.       DRESER ATLAS:   SERVICE COMPANY
 DATE.        23-MAR-1983:   LOGDATE
 API .     49025109190000:   API NUMBER
~CURVE INFORMATION
#MNEM.UNIT       API CODE    CURVE DESCRIPTION
#----------   ------------   ------------------------------
 DEPT.F                  :   
 TEND.LBS    45 635 01 00:   TENSION FROM DENSITY LOG
 CORR.G/C3   45 356 01 00:   DENSITY CORRECTION
 RHOB.G/C3   45 350 01 00:   BULK DENSITY
 CN  .DEC    42 890 00 00:   Neutron Porosity
 SPR .MV     07 010 01 00:   SPONTANEOUS POTENTIAL
 GRR .GAPI   07 310 01 00:   GAMMA RAY FROM RESISTIVITY
 TENR.LBS    07 635 01 00:   TENSION FROM RESISTIVITY
 RILD.OHMM   07 120 46 00:   DEEP INDUCTION RESISTIVITY
 RILM.OHMM   07 120 44 00:   INDUCTION LOG MEDIUM RESISTIVITY
 RFOC.OHMM   07 220 01 00:   RESISTIVITY FOCUSED LOG RES.
 TENS.LBS    60 635 01 00:   TENSION FROM SONIC LOG
 DT  .US/F   60 520 00 00:   DELTA TIME
 CALS.IN     60 280 50 00:   CALIPER FROM SONIC LOG
~PARAMETER INFORMATION
#MNEM.UNIT          VALUE    DESCRIPTION
#----------   ------------   ------------------------------
 EKB .F         5184.0000:   Kelly bushing
 EGL .F         5174.0000:   Ground level
 EDF .F            0.0000:   Drilling floor
 TD  .F         4397.0000:   Total depth
 DATE.        23-MAR-1983:   Date logged
 CLNT.            A2DTECH:   Client Code
 SL  . 942' FWL & 645' FSL:   Surface Location
 PD  .                 GL:   Permanent Datum
 EPD .F              5174:   Elevation Permanent Datum
 LMF .                 KB:   Log Measured From
 DMF .                 KB:   Drilling Measured From
 DAPD.F                10:   Feet Above Permanent Datum
 DD  .F              4397:   Depth driller
 DL  .F              4203:   Depth logger
 BLI .F              4201:   Bottom log interval
 CS1 .IN            9.625:   Casing size
 CBD1.      9.625" @ 659':   Casing driller 1
 CBL1.F               658:   Casing logger 1
 BS1 .IN             8.75:   Bit size
 BSD1.F              4397:   Depth drilled with bit1
 DFT .   GEL/DRISPACK/KCL:   Type fluid in hole
 DFD .                8.6:   Density
 DFV .                 36:   Viscosity
 DFPH.                8.5:   pH
 DFL .                 18:   Fluid loss
 MSS .               TANK:   Source of sample
 RMS .OHMM           0.55:   Rm
 MST .F                74:   Rm Meas. temp.
 RMF .OHMM           0.43:   Rmf
 MFST.F                66:   Rmf Meas. temp.
 RMC .OHMM           0.69:   Rmc
 MCST.F                74:   Rmc Meas. temp.
 MFSS.               MEAS:   Source Rmf.
 MCSS.               CALC:   Source Rmc.
 RMB .OHMM           0.33:   Rm. at BHT
 BHT .F               122:   BHT.
 TCS .HRS             5.5:   Time Circ. stopped
 MRT .F               122:   Maximum recorded temp.
 LUN .               6270:   Logging unit number
 LUL .              WLSTN:   Logging unit location
 ENGI.             REEVES:   Recorded By
 WITN.             STRONG:   Witnessed by
 ORIG.           5" PRINT:   Origin of data
 UWI .     49025109190000:   Unique Well ID
 DICO. A2D TECHNOLOGIES, INC.:   Digitizing Company
~OTHER INFORMATION
~A   DEPT     TEND       CORR       RHOB         CN        SPR         GRR      TENR       RILD       RILM       RFOC       TENS         DT       CALS   
# ...
  893.5000  -999.2500  -999.2500  -999.2500  -999.2500   -28.4060   100.2200   -68.2940     7.6590     8.4370     8.7160   -69.9240    88.2930    15.3690
  894.0000  -999.2500  -999.2500  -999.2500  -999.2500   -28.4650    99.9850   -46.6500     7.6590     8.4620     8.7170   -47.4340    87.9690    15.3780
  894.5000  -999.2500  -999.2500  -999.2500  -999.2500   -28.5240    99.7880   -25.0070     7.6600     8.4850     8.7160   -24.9440    87.6080    15.3820
  895.0000  -999.2500  -999.2500  -999.2500  -999.2500   -28.5840    99.6720   -14.5290     7.6590     8.5100     8.7160   -14.0560    87.2890    15.3850
  895.5000  -999.2500  -999.2500  -999.2500  -999.2500   -28.6010   100.3330   -14.5290     7.6590     8.5350     8.7160   -18.3560    87.2890    15.3890
  896.0000  -999.2500  -999.2500  -999.2500  -999.2500   -28.6000   101.0310   -14.5290     7.6600     8.5560     8.7160   -24.3090    87.2890    15.3920
  896.5000  -999.2500  -999.2500  -999.2500  -999.2500   -28.6000   100.8620   -14.5290     7.6550     8.4110     8.7160   -30.2620    87.2890    15.3950
  897.0000  -999.2500  -999.2500  -999.2500  -999.2500   -28.6000   100.1740   -14.5290     7.7060     8.2830     8.3410   -36.2150    87.2890    15.3980
  897.5000  -999.2500  -999.2500  -999.2500  -999.2500   -28.6000   100.4810   -14.5290     7.7930     8.1560     7.9440   -42.1690    87.5010    15.4010
  898.0000  -999.2500  -999.2500  -999.2500  -999.2500   -28.6000   103.2670   -14.5290     7.8800     8.0280     7.5480   -48.1220    87.7820    15.4040
  898.5000  -999.2500  -999.2500  -999.2500  -999.2500   -28.5990   105.8250   -54.6090     7.9670     7.9470     6.9840   -54.2170    88.0630    15.4070
  899.0000  -999.2500  -999.2500  -999.2500  -999.2500   -28.6010   105.5570   -49.9870     8.0540     7.9460     7.0590   -54.2170    88.2930    15.4110
  899.5000  -999.2500  -999.2500  -999.2500  -999.2500   -28.6050   105.1830   -45.2530     8.1410     7.9460     7.1880   -54.2170    88.2010    15.4140
  900.0000  -999.2500  -999.2500  -999.2500  -999.2500   -28.6920   103.6910   -40.5190     8.2450     7.9470     7.3160   -54.2170    88.1230    15.4170
  900.5000  -999.2500  -999.2500  -999.2500  -999.2500   -28.7820   102.1650   -35.7840     8.2660     7.9470     7.4450   -54.2170    88.0450    15.4200
  901.0000  -999.2500  -999.2500  -999.2500  -999.2500   -28.8750   100.7080   -31.0500     8.2900     7.9470     7.5740   -51.0840    87.9670    15.4230
  901.5000  -999.2500  -999.2500  -999.2500  -999.2500   -28.9660    99.2220   -26.3150     8.3140     7.9470     7.7670   -46.0040    87.8920    15.4260
  902.0000  -999.2500  -999.2500  -999.2500  -999.2500   -29.0580    97.1860   -43.0190     8.3380     7.9470     7.7380   -44.1770    87.9730    15.4290
  902.5000  -999.2500  -999.2500  -999.2500  -999.2500   -29.1490    99.1670   -72.4780     8.3630     7.9470     7.4580   -68.8470    88.0510    15.4330
  903.0000  -999.2500  -999.2500  -999.2500  -999.2500   -29.2410   104.4110   -93.8020     8.3870     7.9470     7.2660   -97.8770    88.1290    15.4360
  903.5000  -999.2500  -999.2500  -999.2500  -999.2500   -29.3380   104.1720   -90.1950     8.4000     7.9470     7.3420  -124.4980    88.2070    15.4390
  904.0000  -999.2500  -999.2500  -999.2500  -999.2500   -29.3490   101.3880   -86.5870     8.4000     7.9470     7.4180  -114.1820    88.2930    15.4420
  904.5000  -999.2500  -999.2500  -999.2500  -999.2500   -29.1550    98.8050   -82.9800     8.4000     7.9470     7.4950  -104.6560    88.0650    15.4450
  905.0000  -999.2500  -999.2500  -999.2500  -999.2500   -28.9680    95.8060   -79.3730     8.4000     7.9470     7.6270   -95.1310    87.9180    15.4480
  905.5000  -999.2500  -999.2500  -999.2500  -999.2500   -28.7730    94.8980   -75.7660     8.4000     7.9470     7.5100   -85.6050    88.0030    15.4520
  906.0000  -999.2500  -999.2500  -999.2500  -999.2500   -28.5810    96.4480   -68.8380     8.4000     7.9480     7.3820   -76.0790    88.0920    15.4550
  906.5000  -999.2500  -999.2500  -999.2500  -999.2500   -28.3920    99.4940   -60.4210     8.4000     7.9470     7.3820   -66.5540    88.4250    15.4580
  907.0000  -999.2500  -999.2500  -999.2500  -999.2500   -28.1920    99.3530   -52.0040     8.4000     7.9470     7.3820   -64.2570    88.7760    15.4600
  907.5000  -999.2500  -999.2500  -999.2500  -999.2500   -28.0110    98.7500   -43.5870     8.4020     7.9480     7.3820   -64.2570    89.1280    15.4600
  908.0000  -999.2500  -999.2500  -999.2500  -999.2500   -27.8210    98.1220   -34.5690     8.3780     7.9470     7.3820   -64.2570    89.4800    15.4600
  908.5000  -999.2500  -999.2500  -999.2500  -999.2500   -28.0020    99.9060   -46.2930     8.3090     7.9470     7.3820   -64.2570    89.9000    15.4600
  909.0000  -999.2500  -999.2500  -999.2500  -999.2500   -28.2130   101.8290   -58.9180     8.2410     7.9310     7.3820   -64.2570    89.9140    15.4600
  909.5000  -999.2500  -999.2500  -999.2500  -999.2500   -28.4330   103.8880   -64.6290     8.1720     7.9080     7.3500   -63.7120    89.9320    15.4600
  910.0000  -999.2500  -999.2500  -999.2500  -999.2500   -28.6470   103.2500   -58.2830     8.1040     7.8850     7.2920   -61.2930    89.9510    15.4600
  910.5000  -999.2500  -999.2500  -999.2500  -999.2500   -28.8780   101.5840   -49.8660     8.0350     7.8630     7.2310   -58.8740    89.9690    15.4600
  911.0000  -999.2500  -999.2500  -999.2500  -999.2500   -29.0070   100.9300   -41.4500     7.9670     7.8400     7.1720   -56.4540    89.9870    15.4600
  911.5000  -999.2500  -999.2500  -999.2500  -999.2500   -28.8900   100.6610   -34.5690     7.8980     7.8170     7.1140   -54.0350    90.0050    15.4600
  912.0000  -999.2500  -999.2500  -999.2500  -999.2500   -28.7860   100.3260   -30.3030     7.8300     7.7950     7.0570   -51.6160    90.0230    15.4600
  912.5000  -999.2500  -999.2500  -999.2500  -999.2500   -28.6770   100.0420   -26.6960     7.7910     7.7720     6.9810   -49.1970    90.0410    15.4600
  913.0000  -999.2500  -999.2500  -999.2500  -999.2500   -28.5670    99.7220   -23.0890     7.7740     7.7490     6.9860   -46.7780    90.0590    15.4610
  913.5000  -999.2500  -999.2500  -999.2500  -999.2500   -28.4580    99.8010   -19.4820     7.7570     7.7270     6.9840   -44.1770    90.0780    15.4500
  914.0000  -999.2500  -999.2500  -999.2500  -999.2500   -28.3490   102.3900   -15.8750     7.7390     7.7040     6.9840   -44.1770    90.0960    15.4300
  914.5000  -999.2500  -999.2500  -999.2500  -999.2500   -28.2400   107.3940   -17.4080     7.7220     7.6810     6.9840   -44.1770    90.0530    15.4120
  915.0000  -999.2500  -999.2500  -999.2500  -999.2500   -28.1310   111.4300   -21.9990     7.7050     7.6600     6.9840   -44.1770    89.9900    15.3930
  915.5000  -999.2500  -999.2500  -999.2500  -999.2500   -28.0220   110.0210   -26.5900     7.6870     7.6430     6.9840   -44.1770    89.9260    15.3830
  916.0000  -999.2500  -999.2500  -999.2500  -999.2500   -27.9130   108.7260   -31.1810     7.6700     7.6270     6.9840   -44.1770    90.0170    15.3950
  916.5000  -999.2500  -999.2500  -999.2500  -999.2500   -27.8040   107.2060   -34.5690     7.6530     7.6110     6.9840   -44.1770    90.2200    15.4060
  917.0000  -999.2500  -999.2500  -999.2500  -999.2500   -27.6950   105.7870   -34.5690     7.6350     7.5940     6.9840   -44.6310    90.5020    15.4190
  917.5000  -999.2500  -999.2500  -999.2500  -999.2500   -27.5860   104.3070   -34.5690     7.6180     7.5780     6.9840   -46.8400    90.3190    15.4300
  918.0000  -999.2500  -999.2500  -999.2500  -999.2500   -27.4770   103.7070   -34.5690     7.6000     7.5630     6.9840   -49.0480    90.0930    15.4420
  918.5000  -999.2500  -999.2500  -999.2500  -999.2500   -27.3740   104.3320   -34.5690     7.5830     7.5460     6.9840   -51.2570    89.8670    15.4550
  919.0000  -999.2500  -999.2500  -999.2500  -999.2500   -27.2850   102.9620   -34.5690     7.5650     7.5300     6.9840   -53.4660    89.7810    15.4590
