~VERSION INFORMATION
 VERS.                2.0:   CWLS LOG ASCII STANDARD - VERSION 2.0
 WRAP.                 NO:   ONE LINE PER DEPTH STEP
~WELL INFORMATION
#MNEM.UNIT      DATA TYPE    INFORMATION
#----------   ------------   ------------------------------
 STRT.F          794.0000:   START DEPTH
 STOP.F         2828.0000:   STOP DEPTH
 STEP.F            0.5000:   STEP LENGTH
 NULL.          -999.2500:   NO VALUE
 COMP.           U S NAVY:   COMPANY
 WELL. U S NAVY NPR 3 "A" #10-33:   WELL
 FLD .        TEAPOT DOME:   FIELD
 LOC .      S33 T39N R78W:   LOCATION
 CNTY.            NATRONA:   COUNTY
 STAT.            WYOMING:   STATE
 CTRY. UNITED STATES OF AMERICA:   COUNTRY
 SRVC.         MCCULLOUGH:   SERVICE COMPANY
 DATE.        25-JUL-1968:   LOGDATE
 API .     49025102180000:   API NUMBER
~CURVE INFORMATION
#MNEM.UNIT       API CODE    CURVE DESCRIPTION
#----------   ------------   ------------------------------
 DEPT.F                  :   
 GRN .GAPI   35 310 01 00:   GAMMA RAY
 NEUT.NAPI   35 330 01 00:   NEUTRON
 TEMP.DEG    99 000 00 00:   TEMPERATURE AT TOOL
~PARAMETER INFORMATION
#MNEM.UNIT          VALUE    DESCRIPTION
#----------   ------------   ------------------------------
 EKB .F            0.0000:   Kelly bushing
 EGL .F            0.0000:   Ground level
 EDF .F            0.0000:   Drilling floor
 EPD .F            0.0000:   Permanent datum
 TD  .F         2829.0000:   Total depth
 DATE.        25-JUL-1968:   Date logged
 CLNT.            A2DTECH:   Client Code
 DL  .F              2829:   Depth logger
 BLI .F              2825:   Bottom log interval
 TLI .F               800:   Top log interval
 DFT .                DRY:   Type fluid in hole
 TCS .HRS               2:   Time Circ. stopped
 ENGI.           KIMBERRY:   Recorded By
 ORIG.        2" 5" PRINT:   Origin of data
 UWI .     49025102180000:   Unique Well ID
 DICO. A2D TECHNOLOGIES, INC.:   Digitizing Company
~OTHER INFORMATION
~A   DEPT       GRN      NEUT       TEMP   
# ...
 2432.0000    70.3450   556.8440  -999.2500
 2432.5000    72.4260   570.5820  -999.2500
 2433.0000    73.4280   589.0550  -999.2500
 2433.5000    72.3660   579.1920  -999.2500
 2434.0000    69.2660   573.0100  -999.2500
 2434.5000    67.7360   580.6730  -999.2500
 2435.0000    68.2310   586.3690  -999.2500
 2435.5000    69.1460   580.4890  -999.2500
 2436.0000    69.5070   572.1150  -999.2500
 2436.5000    70.4600   563.6700  -999.2500
 2437.0000    70.7670   555.2260  -999.2500
 2437.5000    70.7260   548.3120  -999.2500
 2438.0000    70.4850   548.7010  -999.2500
 2438.5000    69.4400   570.1450  -999.2500
 2439.0000    68.9450   590.4070  -999.2500
 2439.5000    71.8090   592.9220  -999.2500
 2440.0000    73.7360   558.8110  -999.2500
 2440.5000    75.0500   568.0960  -999.2500
 2441.0000    75.0370   549.1790  -999.2500
 2441.5000    72.0650   533.3120  -999.2500
 2442.0000    68.9140   527.2090  -999.2500
 2442.5000    67.2740   553.7690  -999.2500
 2443.0000    65.2210   560.4500  -999.2500
 2443.5000    64.8680   568.2800  -999.2500
 2444.0000    66.3160   555.1970  -999.2500
 2444.5000    67.9140   575.1420  -999.2500
 2445.0000    65.4440   599.9700  -999.2500
 2445.5000    65.3710   629.2120  -999.2500
 2446.0000    64.9430   658.7050  -999.2500
 2446.5000    64.8130   673.6380  -999.2500
 2447.0000    65.5960   663.8410  -999.2500
 2447.5000    67.4410   687.1690  -999.2500
 2448.0000    69.3720   686.9970  -999.2500
 2448.5000    70.6040   684.1610  -999.2500
 2449.0000    70.9400   669.3660  -999.2500
 2449.5000    71.4820   650.7900  -999.2500
 2450.0000    71.5430   658.3630  -999.2500
 2450.5000    70.4310   668.5730  -999.2500
 2451.0000    71.1800   664.2580  -999.2500
 2451.5000    74.0270   660.9040  -999.2500
 2452.0000    74.7630   679.4960  -999.2500
 2452.5000    73.2100   661.0390  -999.2500
 2453.0000    73.1870   659.7700  -999.2500
 2453.5000    72.5970   671.2420  -999.2500
 2454.0000    72.8810   656.9460  -999.2500
 2454.5000    73.8020   674.1200  -999.2500
 2455.0000    74.3010   684.6260  -999.2500
 2455.5000    73.8710   682.9080  -999.2500
 2456.0000    74.0810   669.7180  -999.2500
 2456.5000    74.0930   657.3300  -999.2500
 2457.0000    75.0880   659.5790  -999.2500
 2457.5000    75.2330   657.7460  -999.2500
 2458.0000    72.8250   661.3580  -999.2500
 2458.5000    69.6320   657.7330  -999.2500
 2459.0000    66.8900   649.1540  -999.2500
 2459.5000    67.6260   639.2710  -999.2500
 2460.0000    68.6570   632.5830  -999.2500
 2460.5000    71.3410   653.4020  -999.2500
 2461.0000    71.6170   657.4930  -999.2500
 2461.5000    69.8500   656.9420  -999.2500
 2462.0000    69.5990   649.0830  -999.2500
 2462.5000    68.6010   655.3920  -999.2500
 2463.0000    64.5760   635.6490  -999.2500
 2463.5000    63.9230   622.1960  -999.2500
 2464.0000    61.7170   623.3940  -999.2500
 2464.5000    65.3090   630.6340  -999.2500
 2465.0000    67.4390   652.4860  -999.2500
 2465.5000    65.0010   684.7320  -999.2500
 2466.0000    62.3740   655.8390  -999.2500
 2466.5000    60.7030   667.3810  -999.2500
 2467.0000    61.4850   656.9410  -999.2500
 2467.5000    62.7180   643.3310  -999.2500
 2468.0000    64.8160   657.0000  -999.2500
 2468.5000    64.7970   655.6650  -999.2500
 2469.0000    67.4350   674.5500  -999.2500
 2469.5000    67.8820   684.8520  -999.2500
 2470.0000    67.1650   661.7920  -999.2500
 2470.5000    68.0150   688.5580  -999.2500
 2471.0000    67.7190   675.9140  -999.2500
 2471.5000    64.3850   668.9250  -999.2500
 2472.0000    63.6430   643.2880  -999.2500
 2472.5000    63.7520   644.3490  -999.2500
 2473.0000    63.2310   664.6090  -999.2500
 2473.5000    63.4630   680.6340  -999.2500
 2474.0000    63.3170   685.0790  -999.2500
 2474.5000    65.7090   658.6160  -999.2500
 2475.0000    65.3500   662.0920  -999.2500
 2475.5000    67.2190   655.3740  -999.2500
 2476.0000    67.9160   635.6840  -999.2500
 2476.5000    67.4020   632.8490  -999.2500
 2477.0000    65.4880   642.8450  -999.2500
 2477.5000    63.7890   662.3870  -999.2500
 2478.0000    62.2230   641.3620  -999.2500
 2478.5000    59.8470   646.1930  -999.2500
 2479.0000    58.6300   652.9770  -999.2500
 2479.5000    59.1240   657.4640  -999.2500
 2480.0000    61.6950   635.9230  -999.2500
 2480.5000    63.7760   643.4010  -999.2500
 2481.0000    63.4950   632.6380  -999.2500
 2481.5000    66.2760   628.6250  -999.2500
 2482.0000    66.8780   647.6380  -999.2500
 2482.5000    67.9920   669.1670  -999.2500
 2483.0000    67.4870   675.6240  -999.2500
 2483.5000    69.1520   675.5160  -999.2500
 2484.0000    69.5410   660.8980  -999.2500
 2484.5000    68.3660   665.1540  -999.2500
 2485.0000    67.7620   668.2950  -999.2500
 2485.5000    68.0320   646.4660  -999.2500
 2486.0000    67.7790   616.5470  -999.2500
 2486.5000    64.2690   634.1560  -999.2500
 2487.0000    66.7360   645.3150  -999.2500
 2487.5000    69.1580   630.3830  -999.2500
 2488.0000    68.7820   634.6290  -999.2500
 2488.5000    67.5950   633.9570  -999.2500
 2489.0000    65.7410   622.7520  -999.2500
 2489.5000    65.3160   619.1560  -999.2500
 2490.0000    66.7400   638.4800  -999.2500
 2490.5000    64.7280   629.6090  -999.2500
 2491.0000    63.9160   626.3660  -999.2500
 2491.5000    62.6630   631.9360  -999.2500
 2492.0000    61.5200   637.4090  -999.2500
 2492.5000    61.2760   640.8310  -999.2500
 2493.0000    62.7770   642.4410  -999.2500
 2493.5000    63.8090   642.9310  -999.2500
 2494.0000    61.8340   654.7300  -999.2500
 2494.5000    62.4010   679.5860  -999.2500
 2495.0000    61.2370   686.2020  -999.2500
 2495.5000    61.0150   685.5850  -999.2500
 2496.0000    60.8420   671.8930  -999.2500
 2496.5000    60.8540   649.3040  -999.2500
 2497.0000    63.6350   632.5750  -999.2500
 2497.5000    65.1020   646.4430  -999.2500
 2498.0000    65.9690   660.2820  -999.2500
 2498.5000    65.2510   652.3760  -999.2500
 2499.0000    64.4340   647.7300  -999.2500
 2499.5000    63.9200   658.5710  -999.2500
 2500.0000    64.7270   620.6010    96.4620
 2500.5000    64.5300   632.7770    96.4660
 2501.0000    66.8850   646.0150    96.4780
 2501.5000    68.3200   644.7240    96.6500
 2502.0000    65.7170   633.6640    96.5010
 2502.5000    64.5100   628.0080    96.5140
 2503.0000    65.8070   625.6180    96.5260
 2503.5000    65.0740   630.3650    96.5390
 2504.0000    65.5290   630.9350    96.5520
 2504.5000    65.7940   615.5440    96.5650
 2505.0000    63.2360   636.9600    96.5790
 2505.5000    62.4130   649.0100    96.5930
 2506.0000    63.6370   638.8350    96.6070
 2506.5000    62.9040   649.3130    96.6210
 2507.0000    57.9490   629.7460    96.6350
 2507.5000    57.2600   628.9680    96.6490
 2508.0000    56.9940   658.4040    96.6630
 2508.5000    59.4430   648.6410    96.6770
 2509.0000    64.9790   666.4510    96.6910
 2509.5000    66.7660   671.4490    96.7050
 2510.0000    65.4270   656.6510    96.7190
 2510.5000    66.3830   672.4400    96.7320
 2511.0000    66.5960   665.7000    96.7460
 2511.5000    67.2130   657.4850    96.7600
 2512.0000    66.2350   669.8190    96.7740
 2512.5000    64.4230   675.0130    96.7880
 2513.0000    64.6310   666.0490    96.8020
 2513.5000    65.2830   662.5880    96.8160
 2514.0000    64.5510   670.0390    96.8290
 2514.5000    63.5110   654.2950    96.8420
 2515.0000    64.0300   653.7620    96.8740
 2515.5000    64.7150   648.6300    96.9080
 2516.0000    65.8060   650.3570    96.9420
 2516.5000    66.5090   656.6570    96.9710
 2517.0000    67.5860   654.9080    96.9920
 2517.5000    68.6730   650.9280    97.0120
 2518.0000    68.9730   657.5510    97.0320
 2518.5000    69.3060   675.5990    97.0510
 2519.0000    71.0500   682.8590    97.0650
 2519.5000    69.6140   682.0840    97.0800
 2520.0000    68.6260   674.9180    97.0940
 2520.5000    67.7820   681.5610    97.1080
 2521.0000    66.2650   684.8560    97.1220
 2521.5000    66.2710   668.4440    97.1370
 2522.0000    65.2300   630.8940    97.1510
 2522.5000    63.1650   619.9230    97.1650
