~VERSION INFORMATION
 VERS.                2.0:   CWLS LOG ASCII STANDARD - VERSION 2.0
 WRAP.                 NO:   ONE LINE PER DEPTH STEP
~WELL INFORMATION
#MNEM.UNIT      DATA TYPE    INFORMATION
#----------   ------------   ------------------------------
 STRT.F         2185.0000:   START DEPTH
 STOP.F         5688.0000:   STOP DEPTH
 STEP.F            0.5000:   STEP LENGTH
 NULL.          -999.2500:   NO VALUE
 COMP.       FLUOR DANIEL:   COMPANY
 WELL.   FLUOR "X" #53-10:   WELL
 FLD .           N.P.R #3:   FIELD
 LOC .      S10 T38N R78W:   LOCATION
 CNTY.            NATRONA:   COUNTY
 STAT.            WYOMING:   STATE
 CTRY. UNITED STATES OF AMERICA:   COUNTRY
 SRVC.      WESTERN ATLAS:   SERVICE COMPANY
 DATE.        23-MAR-1997:   LOGDATE
 API .     49025228470000:   API NUMBER
~CURVE INFORMATION
#MNEM.UNIT       API CODE    CURVE DESCRIPTION
#----------   ------------   ------------------------------
 DEPT.F                  :   
 CNC .DEC    42 890 03 00:   NEUTRON POROSITY SANDSTONE
 TEND.LBS    45 635 01 00:   TENSION FORM DENSITY LOG
 GRD .GAPI   45 310 01 00:   GAMMA RAY FROM DENSITY LOG
 CALD.IN     45 280 60 00:   CALIPER FROM DENSITY LOG
 ZDEN.G/C3   45 350 01 00:   BULK DENSITY
 ZCOR.G/C3   45 356 01 00:   DENSITY CORRECTION
 PE  .B/E    45 358 01 00:   PHOTOELECTRIC FACTOR
 R4SL.OHMM   07 000 00 00:   RESISTIVITY DEL 4
 R2SL.OHMM   07 000 00 00:   RESISTIVITY DEL 2
~PARAMETER INFORMATION
#MNEM.UNIT          VALUE    DESCRIPTION
#----------   ------------   ------------------------------
 EKB .F         5182.0000:   Kelly bushing
 EGL .F         5172.0000:   Ground level
 EDF .F         5181.0000:   Drilling floor
 EPD .F         5172.0000:   Permanent datum
 TD  .F         5690.0000:   Total depth
 CLNT.            A2DTECH:   Client Code
 SL  . 1183' FNL & 2118' FEL:   Surface Location
 PD  .                 GL:   Permanent Datum
 LMF .                 KB:   Log Measured From
 DMF .                 KB:   Drilling Measured From
 DAPD.F                10:   Feet Above Permanent Datum
 DATE.        23-MAR-1997:   Date Logged [DD-MMM-YYYY]
 DD  .F              5690:   Depth driller
 DL  .F              5688:   Depth logger
 BLI .F              5648:   Bottom log interval
 TLI .F              2200:   Top log interval
 CS1 .IN            9.625:   Casing size
 CBD1.      9.625" @ 446':   Casing driller 1
 CBL1.F               452:   Casing logger 1
 BS1 .IN             8.75:   Bit size
 BSD1.F              5690:   Depth drilled with bit1
 DFT .           GEL CHEM:   Type fluid in hole
 DFD .                9.8:   Density
 DFV .                 66:   Viscosity
 DFPH.                8.5:   pH
 DFL .                8.4:   Fluid loss
 MSS .              CIRC.:   Source of sample
 RMS .OHMM            1.1:   Rm
 MST .F                73:   Rm Meas. temp.
 RMF .OHMM           0.87:   Rmf
 MFST.F                73:   Rmf Meas. temp.
 MFSS.               CALC:   Source Rmf.
 RMC .OHMM           1.35:   Rmc
 MCST.F                73:   Rmc Meas. temp.
 MCSS.               CALC:   Source Rmc.
 RMB .OHMM           0.46:   Rm. at BHT
 BHT .F               174:   BHT.
 TCS .HRS               5:   Time Circ. stopped
 MRT .F               174:   Maximum recorded temp.
 LUN .            HL 6530:   Logging unit number
 LUL .          CASPER WY:   Logging unit location
 ENGI.           BROWNLOW:   Recorded By
 WITN.              HARDY:   Witnessed by
 ORIG.     2.5", 5" PRINT:   Origin of data
 UWI .     49025228470000:   Unique Well ID
 DICO. A2D TECHNOLOGIES, INC.:   Digitizing Company
~OTHER INFORMATION
~A  DEPTH      CNC       TEND        GRD       CALD       ZDEN       ZCOR         PE       R4SL       R2SL
# ...
 5141.5000     0.1040   -21.4394    48.0110     9.2428     2.7792     0.0092     4.1064  -999.2500  -999.2500
 5142.0000     0.1210   -21.2144    53.4556     9.2584     2.7734     0.0047     3.9561  -999.2500  -999.2500
 5142.5000     0.1151   -20.9895    44.4206     9.2439     2.7788     0.0017     3.8961  -999.2500  -999.2500
 5143.0000     0.1086   -20.7645    34.1789     9.2296     2.7733     0.0002     3.6253  -999.2500  -999.2500
 5143.5000     0.1075   -20.4985    26.0489     9.2302     2.7523     0.0017     3.2190  -999.2500  -999.2500
 5144.0000     0.1162    -5.2856    24.8567     9.2308     2.7194     0.0107     2.9332  -999.2500  -999.2500
 5144.5000     0.1290    -5.0653    27.8956     9.2162     2.6444     0.0287     2.8882  -999.2500  -999.2500
 5145.0000     0.1466     2.6513    32.5792     9.1866     2.5815     0.0639     2.9488  -999.2500  -999.2500
 5145.5000     0.1642    40.3527    42.0995     9.1723     2.5298     0.1214     3.0093  -999.2500  -999.2500
 5146.0000     0.1763    55.5655    46.3375     9.1729     2.5006     0.1214     3.0849  -999.2500  -999.2500
 5146.5000     0.1780    48.2345    48.1622     9.1735     2.4856     0.1184     3.1467  -999.2500  -999.2500
 5147.0000     0.1718    41.0045    49.3836     9.1757     2.5050     0.1423     3.1910  -999.2500  -999.2500
 5147.5000     0.1622    33.7332    51.5100     9.1899     2.5477     0.1662     3.2365  -999.2500  -999.2500
 5148.0000     0.1416     3.3532    57.8595     9.2055     2.6276     0.1213     3.2519  -999.2500  -999.2500
 5148.5000     0.1307    -4.0984    64.8125     9.2061     2.7002     0.0734     3.2672  -999.2500  -999.2500
 5149.0000     0.1277    -4.0984    68.7488     9.1916     2.7119     0.0494     3.2675  -999.2500  -999.2500
 5149.5000     0.1349    10.8048    72.3834     9.1922     2.6944     0.0389     3.1925  -999.2500  -999.2500
 5150.0000     0.1361    10.8048    74.2081     9.1757     2.6801     0.0359     3.1048  -999.2500  -999.2500
 5150.5000     0.1322    10.8048    69.3414     9.1635     2.6779     0.0351     2.9521  -999.2500  -999.2500
 5151.0000     0.1325     3.3532    65.6296     9.1642     2.6779     0.0054     3.1633  -999.2500  -999.2500
 5151.5000     0.1434   -11.5499    63.9960     9.1649     2.6726     0.0000     3.2690  -999.2500  -999.2500
 5152.0000     0.1530   -19.0015    75.7791     9.1657     2.6621     0.0149     3.3145  -999.2500  -999.2500
 5152.5000     0.1575   -19.0015    85.1251     9.1664     2.6561     0.0269     3.3298  -999.2500  -999.2500
 5153.0000     0.1581   -19.0015    91.2295     9.1822     2.6613     0.0448     3.3452  -999.2500  -999.2500
 5153.5000     0.1585   -19.0015    90.6469     9.1830     2.6703     0.0583     3.3756  -999.2500  -999.2500
 5154.0000     0.1590   -19.0015    91.5727     9.1837     2.6732     0.0418     3.4060  -999.2500  -999.2500
 5154.5000     0.1578     3.3532    93.4035     9.1845     2.6732     0.0268     3.4515  -999.2500  -999.2500
 5155.0000     0.1488    10.8048    95.2343     9.1703     2.6781     0.0238     3.6476  -999.2500  -999.2500
 5155.5000     0.1275    10.8048    92.5402     9.1711     2.7094     0.0253     4.1129  -999.2500  -999.2500
 5156.0000     0.1003     3.3532    84.9242     9.1718     2.7784     0.0235     4.7919  -999.2500  -999.2500
 5156.5000     0.0903     3.3532    65.1968     9.1726     2.8652     0.0080     5.0792  -999.2500  -999.2500
 5157.0000     0.0903    10.8048    49.1608     9.1733     2.8719    -0.0077     4.7784  -999.2500  -999.2500
 5157.5000     0.1000    18.2563    42.8497     9.1740     2.8266     0.0013     4.3419  -999.2500  -999.2500
 5158.0000     0.1293    10.8048    54.6405     9.1595     2.7444     0.0072     4.0410  -999.2500  -999.2500
 5158.5000     0.1554   -26.4531    64.9177     9.1605     2.6919     0.0117     4.0413  -999.2500  -999.2500
 5159.0000     0.1623   -56.2593    70.3684     9.1763     2.6814     0.0192     4.0567  -999.2500  -999.2500
 5159.5000     0.1553   -41.3562    72.5008     9.1770     2.6792     0.0297     4.0570  -999.2500  -999.2500
 5160.0000     0.1443   -41.3562    73.1250     9.1777     2.6799     0.0296     4.0573  -999.2500  -999.2500
 5160.5000     0.1222   -41.3562    73.1458     9.1785     2.6876     0.0221     4.0424  -999.2500  -999.2500
 5161.0000     0.0966   -56.2593    71.6583     9.1792     2.7175     0.0128     3.9975  -999.2500  -999.2500
 5161.5000     0.0909   -56.2593    68.0592     9.1800     2.7490    -0.0037     3.9377  -999.2500  -999.2500
 5162.0000     0.0746   -41.3562    61.1419     9.1807     2.7939    -0.0112     3.9831  -999.2500  -999.2500
 5162.5000     0.0602   -33.9046    50.9063     9.1664     2.8246    -0.0157     4.7364  -999.2500  -999.2500
 5163.0000     0.0505   -19.0015    46.1006     9.1521     2.8546    -0.0187     5.0700  -999.2500  -999.2500
 5163.5000     0.0421     3.3532    38.2782     9.1530     2.8891    -0.0233     5.2400  -999.2500  -999.2500
 5164.0000     0.0379     3.3532    31.9642     9.1549     2.9093    -0.0293     5.4452  -999.2500  -999.2500
 5164.5000     0.0385    -4.0984    21.4270     9.1696     2.8876    -0.0292     5.2799  -999.2500  -999.2500
 5165.0000     0.0445   -11.5499    15.1129     9.1702     2.8366    -0.0168     4.7079  -999.2500  -999.2500
 5165.5000     0.0656   -19.0015    18.8638     9.1710     2.7699     0.0006     4.3016  -999.2500  -999.2500
 5166.0000     0.0944   -19.0015    30.1274     9.1718     2.7091     0.0065     4.0006  -999.2500  -999.2500
 5166.5000     0.1192   -19.0015    55.9046     9.1725     2.6942     0.0125     3.8202  -999.2500  -999.2500
 5167.0000     0.1279   -19.0015    71.0084     9.1732     2.6889     0.0169     3.7000  -999.2500  -999.2500
 5167.5000     0.1306   -19.0015    78.8723     9.1588     2.6987     0.0244     3.5798  -999.2500  -999.2500
 5168.0000     0.1165   -19.0015    83.7197     9.1597     2.7309     0.0333     3.5198  -999.2500  -999.2500
 5168.5000     0.0905   -26.4531    81.6289     9.1604     2.7706     0.0423     3.5804  -999.2500  -999.2500
 5169.0000     0.0544   -26.4531    63.5502     9.1612     2.8366     0.0288     3.9271  -999.2500  -999.2500
 5169.5000     0.0414   -26.4531    46.3764     9.1619     2.8823     0.0048     4.7407  -999.2500  -999.2500
 5170.0000     0.0372   -19.0015    28.5994     9.1627     2.8861    -0.0192     5.6747  -999.2500  -999.2500
 5170.5000     0.0360   -19.0015    18.6678     9.1935     2.8687    -0.0042     5.9009  -999.2500  -999.2500
 5171.0000     0.0357    -4.0984    23.8145     9.2093     2.8673     0.0148     5.2738  -999.2500  -999.2500
 5171.5000     0.0303    10.8048    28.9635     9.2267     2.8900     0.0197     5.0431  -999.2500  -999.2500
 5172.0000     0.0215    10.8048    28.3810     9.2584     2.9190     0.0166     5.3145  -999.2500  -999.2500
 5172.5000     0.0157    10.8048    20.8603     9.2720     2.9340     0.0136     5.9775  -999.2500  -999.2500
 5173.0000     0.0143    10.8048    12.4347     9.2727     2.9265     0.0120     5.8121  -999.2500  -999.2500
 5173.5000     0.0167     3.3532     7.9306     9.2735     2.8816     0.0121     5.1949  -999.2500  -999.2500
 5174.0000     0.0243    -4.0984     8.3001     9.2742     2.8358     0.0255     4.7886  -999.2500  -999.2500
 5174.5000     0.0384   -11.5499    15.4130     9.2750     2.8036     0.0434     4.5329  -999.2500  -999.2500
 5175.0000     0.0486   -11.5499    22.7300     9.2604     2.8088     0.0554     4.4126  -999.2500  -999.2500
 5175.5000     0.0517   -19.0015    27.3253     9.2463     2.8171    -0.0060     4.7443  -999.2500  -999.2500
 5176.0000     0.0456   -11.5499    26.1395     9.2318     2.8081    -0.0195     5.1060  -999.2500  -999.2500
 5176.5000     0.0342   -11.5499    25.8534     9.2175     2.7969     0.0358     5.5431  -999.2500  -999.2500
 5177.0000     0.0264   -19.0015    27.3878     9.2032     2.8178     0.0433     6.0554  -999.2500  -999.2500
 5177.5000     0.0179   -26.4531    28.6152     9.1738     2.8816     0.0163     6.3268  -999.2500  -999.2500
