~VERSION INFORMATION
 VERS.                2.0:   CWLS LOG ASCII STANDARD - VERSION 2.0
 WRAP.                 NO:   ONE LINE PER DEPTH STEP
~WELL INFORMATION
#MNEM.UNIT      DATA TYPE    INFORMATION
#----------   ------------   ------------------------------
 STRT.F           46.5000:   START DEPTH
 STOP.F         3160.0000:   STOP DEPTH
 STEP.F            0.5000:   STEP LENGTH
 NULL.          -999.2500:   NO VALUE
 COMP. LAWRENCE ALLISON & WEST:   COMPANY
 WELL. LAWRENCE NPR 3 "AX" #42-34:   WELL
 FLD .                NPR:   FIELD
 LOC .      S34 T39N R78W:   LOCATION
 CNTY.            NATRONA:   COUNTY
 STAT.            WYOMING:   STATE
 CTRY. UNITED STATES OF AMERICA:   COUNTRY
 SRVC.      WESTERN ATLAS:   SERVICE COMPANY
 DATE.        19-OCT-1987:   LOGDATE
 API .     49025111830000:   API NUMBER
~CURVE INFORMATION
#MNEM.UNIT       API CODE    CURVE DESCRIPTION
#----------   ------------   ------------------------------
 DEPT.F                  :   
 CALD.IN     45 280 60 00:   CALIPER FROM DENSITY LOG
 DEN .LBS    45 635 01 00:   BUCK DENSITY
 CORR.G/C3   45 356 01 00:   DENSITY CORRECTION
 NPOR.DEC    42 890 03 00:   ALPHA PROCESSED NEUTRON POROSITY
 SPR .MV     07 010 01 00:   SPONTANEOUS POTENTIAL
 GRR .GAPI   07 310 01 00:   GAMMA RAY FROM RESISTIVITY
 RFOC.OHMM   07 220 04 00:   RESISTIVITY FOCUSED LOG RES.
 RILD.OHMM   07 120 46 00:   DEEP INDUCTION RESISTIVITY
 RILM.OHMM   07 120 44 00:   INDUCTION LOG MEDIUM RESISTIVITY
 TENR.LBS    07 635 01 00:   TENSION FROM RESISTIVITY
~PARAMETER INFORMATION
#MNEM.UNIT          VALUE    DESCRIPTION
#----------   ------------   ------------------------------
 EKB .F         5088.0000:   Kelly bushing
 EGL .F         5077.0000:   Ground level
 EDF .F         5087.0000:   Drilling floor
 TD  .F         3151.0000:   Total depth
 DATE.        19-OCT-1987:   Date logged
 CLNT.            A2DTECH:   Client Code
 SL  . 1032' FNL & 2316' FWL:   Surface Location
 PD  .                 GL:   Permanent Datum
 EPD .F              5077:   Elevation Permanent Datum
 LMF .                 KB:   Log Measured From
 DMF .                 KB:   Drilling Measured From
 DAPD.F                11:   Feet Above Permanent Datum
 DD  .F              3151:   Depth driller
 DL  .F              3151:   Depth logger
 BLI .F              3149:   Bottom log interval
 TLI .F                50:   Top log interval
 CS1 .IN            8.625:   Casing size
 CBD1.      8.625" @ 693':   Casing driller 1
 CBL1.F               693:   Casing logger 1
 BS1 .IN            7.875:   Bit size
 BSD1.F              3151:   Depth drilled with bit1
 DFT .        KCL/POLYMER:   Type fluid in hole
 DFD .                9.2:   Density
 DFV .                 53:   Viscosity
 DFPH.                9.5:   pH
 DFL .               11.8:   Fluid loss
 MSS .            MUD/PIT:   Source of sample
 RMS .OHMM           .441:   Rm
 MST .F                66:   Rm Meas. temp.
 RMF .OHMM           .336:   Rmf
 MFST.F                66:   Rmf Meas. temp.
 RMC .OHMM           .711:   Rmc
 MCST.F                66:   Rmc Meas. temp.
 MFSS.               MEAS:   Source Rmf.
 MCSS.               MEAS:   Source Rmc.
 RMB .OHMM           .244:   Rm. at BHT
 BHT .F               119:   BHT.
 TCS .HRS               3:   Time Circ. stopped
 MRT .F               119:   Maximum recorded temp.
 LUN .            HL-6343:   Logging unit number
 LUL .               CODY:   Logging unit location
 ENGI.               JULL:   Recorded By
 WITN.             STRONG:   Witnessed by
 ORIG.           5" PRINT:   Origin of data
 UWI .     49025111830000:   Unique Well ID
 DICO. A2D TECHNOLOGIES, INC.:   Digitizing Company
~OTHER INFORMATION
~A   DEPT     CALD        DEN       CORR       NPOR        SPR         GRR      RFOC       RILD       RILM       TENR   
# ...
 1353.0000  -999.2500  -999.2500  -999.2500  -999.2500   -25.9419   107.3860     8.7040     7.3200     6.9655   -71.7480
 1353.5000  -999.2500  -999.2500  -999.2500  -999.2500   -26.1490   102.5349     8.7832     7.2506     7.0288   -81.5913
 1354.0000  -999.2500  -999.2500  -999.2500  -999.2500   -25.9528   101.7165     8.5396     7.3166     7.0275   -81.3440
 1354.5000  -999.2500  -999.2500  -999.2500  -999.2500   -26.3594   104.5277     8.1780     7.3833     7.0259   -81.0967
 1355.0000  -999.2500  -999.2500  -999.2500  -999.2500   -27.3245   106.9357     8.1005     7.8770     7.0240   -80.7999
 1355.5000  -999.2500  -999.2500  -999.2500  -999.2500   -27.1792   112.5703     8.3276     7.7309     7.0224   -80.5526
 1356.0000  -999.2500  -999.2500  -999.2500  -999.2500   -26.9830   117.7995     8.7218     7.5166     7.0208   -70.2146
 1356.5000  -999.2500  -999.2500  -999.2500  -999.2500   -26.9896   114.9647     8.6098     7.6556     7.1504   -90.1486
 1357.0000  -999.2500  -999.2500  -999.2500  -999.2500   -26.5917   112.9364     8.6074     7.6538     7.3507  -109.9837
 1357.5000  -999.2500  -999.2500  -999.2500  -999.2500   -26.3955   113.3281     8.6857     7.7239     7.4868   -89.6539
 1358.0000  -999.2500  -999.2500  -999.2500  -999.2500   -26.1993   112.9132     9.0964     7.7218     7.5549   -89.4066
 1358.5000  -999.2500  -999.2500  -999.2500  -999.2500   -26.2037   110.0780     9.4384     7.7200     7.5532   -89.1593
 1359.0000  -999.2500  -999.2500  -999.2500  -999.2500   -26.3452   106.0327     9.5242     7.7186     7.2762   -99.0026
 1359.5000  -999.2500  -999.2500  -999.2500  -999.2500   -26.4174   104.4074     9.0061     7.7165     7.1407   -98.7553
 1360.0000  -999.2500  -999.2500  -999.2500  -999.2500   -27.0280   106.0092     8.5163     7.6434     7.0077   -88.3678
 1360.5000  -999.2500  -999.2500  -999.2500  -999.2500   -26.2267   112.4516     8.1281     7.6416     7.0061   -88.1205
 1361.0000  -999.2500  -999.2500  -999.2500  -999.2500   -26.0305   116.0683     7.8300     7.5695     7.0048   -87.8731
 1361.5000  -999.2500  -999.2500  -999.2500  -999.2500   -25.4308   111.6192     8.1244     7.4975     7.0026   -87.6258
 1362.0000  -999.2500  -999.2500  -999.2500  -999.2500   -26.2442   107.5734     8.1980     7.4261     7.0010   -87.3785
 1362.5000  -999.2500  -999.2500  -999.2500  -999.2500   -25.4428   104.3343     8.1961     7.4244     6.9994   -87.1312
 1363.0000  -999.2500  -999.2500  -999.2500  -999.2500   -25.6467   106.7431     8.5042     7.3540     6.9978   -86.8838
 1363.5000  -999.2500  -999.2500  -999.2500  -999.2500   -25.8572   109.9588     8.4237     7.3523     7.0615   -86.6365
 1364.0000  -999.2500  -999.2500  -999.2500  -999.2500   -26.0644   110.3506     8.1905     7.2827     7.0599   -76.2985
 1364.5000  -999.2500  -999.2500  -999.2500  -999.2500   -26.0698   109.1285     8.2650     7.2813     7.0583   -96.2325
 1365.0000  -999.2500  -999.2500  -999.2500  -999.2500   -25.8736   106.2926     8.3402     7.2793     7.0567   -85.8450
 1365.5000  -999.2500  -999.2500  -999.2500  -999.2500   -25.4788   105.8774     8.1093     7.2104     7.0551   -85.5977
 1366.0000  -999.2500  -999.2500  -999.2500  -999.2500   -25.8845   110.3039     8.1830     7.2087     6.9873   -85.3504
 1366.5000  -999.2500  -999.2500  -999.2500  -999.2500   -25.8900   112.7108     8.1056     7.2077     6.9860   -95.1937
 1367.0000  -999.2500  -999.2500  -999.2500  -999.2500   -25.8954   113.5143     8.1037     7.1388     6.9848   -94.9464
 1367.5000  -999.2500  -999.2500  -999.2500  -999.2500   -26.7587   106.6349     8.1015     7.3379     6.9835   -84.6084
 1368.0000  -999.2500  -999.2500  -999.2500  -999.2500   -27.1180   105.4126     8.1752     7.3369     6.9819   -64.1797
 1368.5000  -999.2500  -999.2500  -999.2500  -999.2500   -26.9217   106.2079     8.3258     7.3353     6.9800   -94.2044
 1369.0000  -999.2500  -999.2500  -999.2500  -999.2500   -26.9272   107.8102     8.4023     7.3336     6.9784   -93.9571
 1369.5000  -999.2500  -999.2500  -999.2500  -999.2500   -26.3274   109.0091     8.1696     7.3319     6.9127   -93.7098
 1370.0000  -999.2500  -999.2500  -999.2500  -999.2500   -26.3329   108.9974     7.9434     7.1293     6.9108  -103.5037
 1370.5000  -999.2500  -999.2500  -999.2500  -999.2500   -26.1366   111.4070     8.0904     7.1271     6.9092   -93.1656
 1371.0000  -999.2500  -999.2500  -999.2500  -999.2500   -26.1420   110.5882     8.0886     7.1254     6.7802   -82.8276
 1371.5000  -999.2500  -999.2500  -999.2500  -999.2500   -25.9414   106.1349     8.0867     7.1238     6.7790   -82.5803
 1372.0000  -999.2500  -999.2500  -999.2500  -999.2500   -25.5476   100.8767     8.0849     7.1225     6.7778   -62.1516
 1372.5000  -999.2500  -999.2500  -999.2500  -999.2500   -25.1506   102.0755     8.0080     7.0544     6.7756   -92.1763
 1373.0000  -999.2500  -999.2500  -999.2500  -999.2500   -24.7524   108.5212     8.0062     7.0528     6.7741   -91.9290
 1373.5000  -999.2500  -999.2500  -999.2500  -999.2500   -24.5561   114.9648     7.9725     7.0512     6.7725   -91.6817
 1374.0000  -999.2500  -999.2500  -999.2500  -999.2500   -24.5615   113.7447     7.9389     7.1147     6.7713  -101.5250
 1374.5000  -999.2500  -999.2500  -999.2500  -999.2500   -24.7688   107.6788     7.9268     7.0479     6.8326   -91.1870
 1375.0000  -999.2500  -999.2500  -999.2500  -999.2500   -25.1779   104.8417     7.9250     7.0904     6.8950   -90.8902
 1375.5000  -999.2500  -999.2500  -999.2500  -999.2500   -25.1800   103.2153     7.9971     7.1769     6.9578   -90.6429
 1376.0000  -999.2500  -999.2500  -999.2500  -999.2500   -26.1979   100.7769     8.1451     7.1753     7.0207   -90.3955
 1376.5000  -999.2500  -999.2500  -999.2500  -999.2500   -26.2033   100.7674     8.2192     7.1736     7.0191   -90.1482
 1377.0000  -999.2500  -999.2500  -999.2500  -999.2500   -26.4107   101.5629     8.2940     7.2389     7.0175   -89.9009
 1377.5000  -999.2500  -999.2500  -999.2500  -999.2500   -26.6180   105.9913     8.3694     7.2373     7.0156   -89.6536
 1378.0000  -999.2500  -999.2500  -999.2500  -999.2500   -26.6245   110.0163     8.3671     7.2353     7.0144   -89.4062
 1378.5000  -999.2500  -999.2500  -999.2500  -999.2500   -26.6300   114.8442     8.1354     7.2337     7.0131   -89.1589
 1379.0000  -999.2500  -999.2500  -999.2500  -999.2500   -26.4337   114.8353     8.1336     7.2314     7.0112   -88.9116
 1379.5000  -999.2500  -999.2500  -999.2500  -999.2500   -26.6399   113.6146     8.1317     7.2301     7.0092   -88.6642
 1380.0000  -999.2500  -999.2500  -999.2500  -999.2500   -26.8483   109.1621     8.0548     7.2287     7.0076   -88.3674
 1380.5000  -999.2500  -999.2500  -999.2500  -999.2500   -26.8538   106.7281     8.0529     7.1602     7.0060   -88.1201
 1381.0000  -999.2500  -999.2500  -999.2500  -999.2500   -26.4556   106.3126     8.0511     7.1585     6.9400   -87.8728
 1381.5000  -999.2500  -999.2500  -999.2500  -999.2500   -26.0573   106.3009     8.0493     7.1570     6.8743   -87.6255
 1382.0000  -999.2500  -999.2500  -999.2500  -999.2500   -25.6591   104.2680     8.1225     7.0891     6.7460   -97.4194
 1382.5000  -999.2500  -999.2500  -999.2500  -999.2500   -25.0589   103.8525     8.1206     6.9570     6.6822   -97.2215
 1383.0000  -999.2500  -999.2500  -999.2500  -999.2500   -24.8603   105.4557     7.9691     6.9551     6.6186   -96.9742
 1383.5000  -999.2500  -999.2500  -999.2500  -999.2500   -25.2706   106.6552     7.9672     6.9535     6.5560   -96.7268
 1384.0000  -999.2500  -999.2500  -999.2500  -999.2500   -25.2782   107.0472     7.8189     6.9519     6.5548   -96.4795
 1384.5000  -999.2500  -999.2500  -999.2500  -999.2500   -25.2837   109.0544     7.8171     6.8863     6.5530   -96.2322
 1385.0000  -999.2500  -999.2500  -999.2500  -999.2500   -25.8948   111.4654     7.8153     6.8848     6.5518   -85.8447
 1385.5000  -999.2500  -999.2500  -999.2500  -999.2500   -25.6984   111.8575     7.8136     6.8832     6.5500   -85.5973
 1386.0000  -999.2500  -999.2500  -999.2500  -999.2500   -25.0982   111.8459     7.8118     6.8816     6.5485   -95.4407
