~VERSION INFORMATION
 VERS.                2.0:   CWLS LOG ASCII STANDARD - VERSION 2.0
 WRAP.                 NO:   ONE LINE PER DEPTH STEP
~WELL INFORMATION
#MNEM.UNIT      DATA TYPE    INFORMATION
#----------   ------------   ------------------------------
 STRT.F            0.0000:   START DEPTH
 STOP.F         3964.0000:   STOP DEPTH
 STEP.F            0.5000:   STEP LENGTH
 NULL.          -999.2500:   NO VALUE
 COMP. LAWRENCE ALLISON & ASSOCIATES:   COMPANY
 WELL. LAWRENCE NPR 3 "X" #43-10:   WELL
 FLD .              N P R:   FIELD
 LOC .      S10 T38N R78W:   LOCATION
 CNTY.            NATRONA:   COUNTY
 STAT.            WYOMING:   STATE
 CTRY. UNITED STATES OF AMERICA:   COUNTRY
 SRVC.      DRESSER ATLAS:   SERVICE COMPANY
 DATE.        07-AUG-1985:   LOGDATE
 API .     49025111390000:   API NUMBER
~CURVE INFORMATION
#MNEM.UNIT       API CODE    CURVE DESCRIPTION
#----------   ------------   ------------------------------
 DEPT.F                  :   
 CNC .DEC    42 890 03 00:   NEUTRON PORISITY SANDSTONE
 RHOB.G/C3   45 350 01 00:   BULK DENSITY
 CORR.G/C3   45 356 01 00:   DENSITY CORRECTION
 TEND.LBS    45 635 01 00:   TENSION FROM DENSITY LOG
 GRR .GAPI   07 310 01 00:   GAMMA RAY FROM RESISTIVITY
 CALR.IN     07 280 01 00:   CALIPER FROM RESISTIVITY
 SPR .MV     07 010 01 00:   SPONTANEOUS POTENTIAL
 TENR.LBS    07 635 01 00:   TENSION FROM RESISTIVITY
 RILD.OHMM   07 120 46 00:   DEEP INDUCTION RESISTIVITY
 RILM.OHMM   07 120 44 00:   INDUCTION LOG MEDIUM RESISTIVITY
 RFOC.OHMM   07 220 04 00:   RESISTIVITY FOCUSED LOG RES.
 DT  .US/F   60 520 00 00:   DELTA TIME
 TENS.LBS    60 635 01 00:   TENSION FROM SONIC
~PARAMETER INFORMATION
#MNEM.UNIT          VALUE    DESCRIPTION
#----------   ------------   ------------------------------
 EKB .F         5223.0000:   Kelly bushing
 EGL .F         5211.0000:   Ground level
 EDF .F            0.0000:   Drilling floor
 EPD .F         5211.0000:   Permanent datum
 TD  .F         3950.0000:   Total depth
 DATE.        07-AUG-1985:   Date logged
 CLNT.            A2DTECH:   Client Code
 SL  . 2016' FNL & 2230' FWL:   Surface Location
 PD  .                 GL:   Permanent Datum
 DD  .F              3950:   Depth driller
 DL  .F              3950:   Depth logger
 BLI .F              3948:   Bottom log interval
 CS1 .IN            8.625:   Casing size
 CBD1.      8.625" @ 518':   Casing driller 1
 CBL1.F               520:   Casing logger 1
 BS1 .IN            7.875:   Bit size
 DFT .            KCL-GEL:   Type fluid in hole
 DFD .                8.9:   Density
 DFV .                 40:   Viscosity
 DFPH.                  9:   pH
 DFL .                 12:   Fluid loss
 MSS .           FLOWLINE:   Source of sample
 RMS .OHMM           .318:   Rm
 MST .F                82:   Rm Meas. temp.
 RMF .OHMM            .24:   Rmf
 MFST.F                82:   Rmf Meas. temp.
 RMC .OHMM            .40:   Rmc
 MCST.F                82:   Rmc Meas. temp.
 MFSS.               CALC:   Source Rmf.
 RMB .OHMM            .19:   Rm. at BHT
 BHT .F               140:   BHT.
 TCS .HRS               4:   Time Circ. stopped
 MRT .F               140:   Maximum recorded temp.
 LUN .               6264:   Logging unit number
 LUL .               GLTE:   Logging unit location
 ENGI.           FAHLSING:   Recorded By
 WITN.             STRONG:   Witnessed by
 ORIG.           5" PRINT:   Origin of data
 UWI .     49025111390000:   Unique Well ID
 DICO. A2D TECHNOLOGIES, INC.:   Digitizing Company
 DAPD.                 12:   Feet Above Permanent Datum
 BSD1.               3950:   Depth drilled with bit1
 MCSS.               CALC:   Source Rmc.
~OTHER INFORMATION
~A    DEPT     CNC       RHOB       CORR       TEND         GRR      CALR        SPR       TENR       RILD       RILM       RFOC         DT       TENS   
# ...
 1872.0000  -999.2500  -999.2500  -999.2500  -999.2500   121.0700     8.5740   -84.3540   -75.5100     6.7700     7.0520     7.9690  -999.2500  -999.2500
 1872.5000  -999.2500  -999.2500  -999.2500  -999.2500   120.0380     8.5830   -84.3190   -76.0440     6.6830     7.0070     8.1440  -999.2500  -999.2500
 1873.0000  -999.2500  -999.2500  -999.2500  -999.2500   120.2380     8.5920   -84.2840   -76.0440     6.6360     6.9470     8.2670  -999.2500  -999.2500
 1873.5000  -999.2500  -999.2500  -999.2500  -999.2500   121.5360     8.6010   -84.2480   -76.0440     6.7410     6.9730     8.1510  -999.2500  -999.2500
 1874.0000  -999.2500  -999.2500  -999.2500  -999.2500   123.9590     8.6270   -84.2130   -76.0440     6.8130     7.0130     8.0180  -999.2500  -999.2500
 1874.5000  -999.2500  -999.2500  -999.2500  -999.2500   123.5060     8.6570   -84.1840   -76.0440     6.8380     7.0520     7.8970  -999.2500  -999.2500
 1875.0000  -999.2500  -999.2500  -999.2500  -999.2500   123.6030     8.6820   -84.1850   -76.0440     6.8640     7.0920     7.8970  -999.2500  -999.2500
 1875.5000  -999.2500  -999.2500  -999.2500  -999.2500   126.0280     8.6770   -84.1850   -76.0440     6.8890     7.1320     8.1170  -999.2500  -999.2500
 1876.0000  -999.2500  -999.2500  -999.2500  -999.2500   128.2570     8.6720   -84.1670   -76.0440     6.9140     7.1710     8.2670  -999.2500  -999.2500
 1876.5000  -999.2500  -999.2500  -999.2500  -999.2500   126.8680     8.6680   -84.0740   -76.0440     6.9400     7.2130     8.1270  -999.2500  -999.2500
 1877.0000  -999.2500  -999.2500  -999.2500  -999.2500   124.5730     8.6640   -83.9990   -76.0440     6.9960     7.2700     8.0030  -999.2500  -999.2500
 1877.5000  -999.2500  -999.2500  -999.2500  -999.2500   122.6200     8.6590   -84.2390   -76.0440     7.0650     7.3260     7.9690  -999.2500  -999.2500
 1878.0000  -999.2500  -999.2500  -999.2500  -999.2500   122.0600     8.6550   -84.4890   -76.0440     7.1330     7.3830     8.3560  -999.2500  -999.2500
 1878.5000  -999.2500  -999.2500  -999.2500  -999.2500   122.2100     8.6510   -84.7360   -76.0440     7.2010     7.4400     8.5750  -999.2500  -999.2500
 1879.0000  -999.2500  -999.2500  -999.2500  -999.2500   125.2070     8.6470   -84.6800   -76.0440     7.2720     7.4960     8.4990  -999.2500  -999.2500
 1879.5000  -999.2500  -999.2500  -999.2500  -999.2500   128.1050     8.6420   -84.4640   -76.0440     7.3380     7.5580     8.4430  -999.2500  -999.2500
 1880.0000  -999.2500  -999.2500  -999.2500  -999.2500   130.2840     8.6390   -84.2490   -76.0440     7.4070     7.6450     8.4190  -999.2500  -999.2500
 1880.5000  -999.2500  -999.2500  -999.2500  -999.2500   130.7230     8.6350   -84.0330   -76.0440     7.4760     7.7320     8.6610  -999.2500  -999.2500
 1881.0000  -999.2500  -999.2500  -999.2500  -999.2500   129.2240     8.6310   -83.8200   -76.0440     7.5440     7.8190     8.8950  -999.2500  -999.2500
 1881.5000  -999.2500  -999.2500  -999.2500  -999.2500   127.5280     8.6280   -83.7410   -88.0520     7.6130     7.9050     8.8510  -999.2500  -999.2500
 1882.0000  -999.2500  -999.2500  -999.2500  -999.2500   123.9650     8.6240   -83.6830  -108.0910     7.6550     7.9920     8.7770  -999.2500  -999.2500
 1882.5000  -999.2500  -999.2500  -999.2500  -999.2500   118.1490     8.6070   -83.6250  -110.7590     7.6960     8.0430     8.7340  -999.2500  -999.2500
 1883.0000  -999.2500  -999.2500  -999.2500  -999.2500   117.0200     8.5850   -83.5950   -87.6360     7.7540     8.0000     8.9580  -999.2500  -999.2500
 1883.5000  -999.2500  -999.2500  -999.2500  -999.2500   121.2700     8.6070   -83.5960   -64.5130     7.7010     7.9650     9.1430  -999.2500  -999.2500
 1884.0000  -999.2500  -999.2500  -999.2500  -999.2500   127.3630     8.6340   -83.5950   -56.1630     7.6190     7.9300     9.1190  -999.2500  -999.2500
 1884.5000  -999.2500  -999.2500  -999.2500  -999.2500   131.9110     8.6610   -83.5510   -57.2640     7.5360     7.8970     9.0910  -999.2500  -999.2500
 1885.0000  -999.2500  -999.2500  -999.2500  -999.2500   136.0630     8.6560   -83.5010   -58.3190     7.4280     7.7120     9.0630  -999.2500  -999.2500
 1885.5000  -999.2500  -999.2500  -999.2500  -999.2500   136.5880     8.6490   -83.4490   -59.3730     7.2480     7.4960     8.8830  -999.2500  -999.2500
 1886.0000  -999.2500  -999.2500  -999.2500  -999.2500   131.2990     8.6440   -83.4130   -60.4280     7.0110     7.3390     8.5130  -999.2500  -999.2500
 1886.5000  -999.2500  -999.2500  -999.2500  -999.2500   121.0900     8.6620   -83.1880   -61.4830     7.0340     7.3390     7.7060  -999.2500  -999.2500
 1887.0000  -999.2500  -999.2500  -999.2500  -999.2500   118.5470     8.6790   -83.2550   -62.5370     7.0680     7.3690     7.3390  -999.2500  -999.2500
 1887.5000  -999.2500  -999.2500  -999.2500  -999.2500   119.6760     8.6960   -83.6250   -63.5920     7.1030     7.4710     7.9130  -999.2500  -999.2500
 1888.0000  -999.2500  -999.2500  -999.2500  -999.2500   121.3410     8.7140   -83.9990   -64.6470     7.1400     7.5740     8.6610  -999.2500  -999.2500
 1888.5000  -999.2500  -999.2500  -999.2500  -999.2500   122.3280     8.7160   -84.3690   -65.7020     7.2480     7.6760     8.8950  -999.2500  -999.2500
 1889.0000  -999.2500  -999.2500  -999.2500  -999.2500   118.7410     8.7080   -84.2950   -66.7560     7.3670     7.7790     8.7610  -999.2500  -999.2500
 1889.5000  -999.2500  -999.2500  -999.2500  -999.2500   115.1680     8.6990   -84.1770   -67.8110     7.4860     7.8810     8.5750  -999.2500  -999.2500
 1890.0000  -999.2500  -999.2500  -999.2500  -999.2500   117.0780     8.6910   -84.0590   -68.8660     7.6050     7.9900     8.6380  -999.2500  -999.2500
 1890.5000  -999.2500  -999.2500  -999.2500  -999.2500   127.5410     8.6820   -83.8620   -69.9200     7.7240     8.1400     8.7240  -999.2500  -999.2500
 1891.0000  -999.2500  -999.2500  -999.2500  -999.2500   128.7980     8.6740   -83.5310   -70.9750     7.8430     8.2670     8.8140  -999.2500  -999.2500
 1891.5000  -999.2500  -999.2500  -999.2500  -999.2500   129.5470     8.6650   -82.8330   -72.0300     7.9580     8.1220     9.1790  -999.2500  -999.2500
 1892.0000  -999.2500  -999.2500  -999.2500  -999.2500   131.8240     8.6570   -82.7140   -73.0850     8.0740     8.0430     9.5710  -999.2500  -999.2500
 1892.5000  -999.2500  -999.2500  -999.2500  -999.2500   134.8850     8.6500   -82.6260   -74.1390     8.1910     8.7340     9.7480  -999.2500  -999.2500
 1893.0000  -999.2500  -999.2500  -999.2500  -999.2500   135.2180     8.6420   -82.6830   -75.1940     8.1910     8.6020     9.6960  -999.2500  -999.2500
 1893.5000  -999.2500  -999.2500  -999.2500  -999.2500   130.9580     8.6340   -82.7680   -75.8510     8.1910     8.4190     9.6080  -999.2500  -999.2500
 1894.0000  -999.2500  -999.2500  -999.2500  -999.2500   126.8020     8.6260   -82.8550   -74.8570     8.3620     8.6400     9.5200  -999.2500  -999.2500
 1894.5000  -999.2500  -999.2500  -999.2500  -999.2500   128.7190     8.6180   -82.9400   -73.8640     8.4970     8.8950     9.3970  -999.2500  -999.2500
 1895.0000  -999.2500  -999.2500  -999.2500  -999.2500   130.1920     8.6100   -83.0080   -72.8700     8.2650     8.6790     9.4710  -999.2500  -999.2500
 1895.5000  -999.2500  -999.2500  -999.2500  -999.2500   126.9930     8.6040   -83.0490   -71.8770     8.1170     8.2670     9.5910  -999.2500  -999.2500
 1896.0000  -999.2500  -999.2500  -999.2500  -999.2500   120.0520     8.6160   -83.1490   -70.8840     8.1170     8.3120     9.6590  -999.2500  -999.2500
 1896.5000  -999.2500  -999.2500  -999.2500  -999.2500   120.1580     8.6190   -83.2470   -69.8900     8.1170     8.3430     9.5640  -999.2500  -999.2500
 1897.0000  -999.2500  -999.2500  -999.2500  -999.2500   122.6940     8.6100   -83.3490   -68.8970     8.1170     8.2570     9.4980  -999.2500  -999.2500
 1897.5000  -999.2500  -999.2500  -999.2500  -999.2500   125.5670     8.6020   -83.5430   -67.9030     8.1170     8.1910     9.4330  -999.2500  -999.2500
