~VERSION INFORMATION
 VERS.                2.0:   CWLS LOG ASCII STANDARD - VERSION 2.0
 WRAP.                 NO:   ONE LINE PER DEPTH STEP
~WELL INFORMATION
#MNEM.UNIT      DATA TYPE    INFORMATION
#----------   ------------   ------------------------------
 STRT.F          186.0000:   START DEPTH
 STOP.F         3060.0000:   STOP DEPTH
 STEP.F            0.5000:   STEP LENGTH
 NULL.          -999.2500:   NO VALUE
 COMP.    FENIX & SCISSON:   COMPANY
 WELL. FENIX NPR 3 "AX" #63-29:   WELL
 FLD .              N P R:   FIELD
 LOC .      S29 T39N R78W:   LOCATION
 CNTY.            NATRONA:   COUNTY
 STAT.            WYOMING:   STATE
 CTRY. UNITED STATES OF AMERICA:   COUNTRY
 SRVC.           BIRDWELL:   SERVICE COMPANY
 DATE.        28-FEB-1978:   LOGDATE
 API .     49025105960000:   API NUMBER
~CURVE INFORMATION
#MNEM.UNIT       API CODE    CURVE DESCRIPTION
#----------   ------------   ------------------------------
 DEPT.F                  :   
 CALD.IN     45 280 60 00:   CALIPER FROM DENSITY LOG
 GRD .GAPI   45 310 01 00:   GAMMA RAY FROM DENSITY LOG
 DEN .LBS    07 635 01 00:   
 CORR.G/C3   45 356 01 00:   DENSITY CORRECTION
 SPR .MV     05 010 01 00:   SPONTANEOUS POTENTIAL
 SN  .OHMM   05 040 00 00:   SHORT NORMAL
 ILD .OHMM   05 120 46 00:   DEEP INDUCTION RESISTIVITY
~PARAMETER INFORMATION
#MNEM.UNIT          VALUE    DESCRIPTION
#----------   ------------   ------------------------------
 EKB .F         4993.0000:   Kelly bushing
 EGL .F         4983.0000:   Ground level
 EDF .F            0.0000:   Drilling floor
 TD  .F         3060.0000:   Total depth
 DATE.        28-FEB-1978:   Date logged
 CLNT.            A2DTECH:   Client Code
 SL  . 1300' FNL & 1050' FEL:   Surface Location
 PD  .                 GL:   Permanent Datum
 DD  .F              3060:   Depth driller
 DL  .F              3056:   Depth logger
 BLI .F              5050:   Bottom log interval
 CS1 .IN            8.625:   Casing size
 CBD1.      8.625" @ 214':   Casing driller 1
 CBL1.F               218:   Casing logger 1
 BS1 .IN            7.875:   Bit size
 DFT .     LIGNOSULFONATE:   Type fluid in hole
 DFD .                  9:   Density
 DFV .                 34:   Viscosity
 DFPH.               10.5:   pH
 DFL .                  9:   Fluid loss
 MSS .           FLOWLINE:   Source of sample
 RMS .OHMM            1.8:   Rm
 MST .F                58:   Rm Meas. temp.
 RMF .OHMM             .9:   Rmf
 MFST.F                65:   Rmf Meas. temp.
 RMC .OHMM            2.5:   Rmc
 MCST.F                70:   Rmc Meas. temp.
 MFSS.               MEAS:   Source Rmf.
 RMB .OHMM             88:   Rm. at BHT
 BHT .F               118:   BHT.
 TCS .HRS               8:   Time Circ. stopped
 MRT .F               118:   Maximum recorded temp.
 LUN .               2959:   Logging unit number
 LUL .               CASP:   Logging unit location
 ENGI.             MILLER:   Recorded By
 WITN.         HARRINGTON:   Witnessed by
 ORIG.           5" PRINT:   Origin of data
 UWI .     49025105960000:   Unique Well ID
 DICO. A2D TECHNOLOGIES, INC.:   Digitizing Company
 BSD1.F              3060:   Depth drilled with bit1
 EPD .F              4983:   Elevation Permanent Datum
 LMF .                 KB:   Log Measured From
 DMF .                 KB:   Drilling Measured From
 TLI .F               800:   Top log interval
~OTHER INFORMATION
~A   DEPT     CALD         GRD       DEN       CORR        SPR         SN        ILD   
# ...
  959.5000    11.4590    65.7090     2.5210     0.0390   -55.6090    10.7990     9.9460
  960.0000    11.4800    69.3320     2.5230     0.0410   -55.5760    10.9910     9.8300
  960.5000    11.5000    76.2940     2.5140     0.0430   -55.5440    10.7740     9.7280
  961.0000    11.5210    80.3800     2.5050     0.0460   -55.5120    10.5480     9.6250
  961.5000    11.5430    79.6700     2.5140     0.0480   -55.4800    10.3220     9.3680
  962.0000    11.5550    79.4540     2.5210     0.0500   -55.4470    10.0960     9.0180
  962.5000    11.5540    79.2530     2.5230     0.0490   -55.4150    10.0240     8.9070
  963.0000    11.5540    78.9320     2.5190     0.0480   -55.3830    10.0370     8.9070
  963.5000    11.5540    78.6870     2.5170     0.0470   -55.3510    10.0620     8.9070
  964.0000    11.5540    80.5890     2.5190     0.0450   -55.3190    10.0870     8.9070
  964.5000    11.5540    83.8040     2.5230     0.0440   -55.2840    10.1120     8.9070
  965.0000    11.5540    87.3110     2.5270     0.0430   -55.2560    10.1380     8.9070
  965.5000    11.5540    86.2550     2.5270     0.0420   -55.2290    10.1630     8.9070
  966.0000    11.5540    84.8200     2.5260     0.0430   -55.3710    10.1880     8.9070
  966.5000    11.5540    85.2160     2.5210     0.0460   -55.5260    10.2100     8.9070
  967.0000    11.5540    86.0030     2.5130     0.0500   -55.6900    10.3660     9.2390
  967.5000    11.5540    86.5460     2.5040     0.0480   -55.8410    10.5790     9.5360
  968.0000    11.5540    85.7150     2.5020     0.0450   -56.0140    10.7900     9.8330
  968.5000    11.5540    84.3330     2.5140     0.0410   -56.0110    10.8030     9.9690
  969.0000    11.5540    82.8190     2.5270     0.0380   -55.9870    10.8610    10.0080
  969.5000    11.5540    78.4370     2.5400     0.0380   -55.9570    10.9180    10.0460
  970.0000    11.5540    75.0640     2.5440     0.0380   -55.9310    10.9750    10.0840
  970.5000    11.5540    74.3000     2.5360     0.0380   -55.9040    11.2060    10.1230
  971.0000    11.5540    73.1260     2.5270     0.0380   -55.8760    11.2360    10.1610
  971.5000    11.5540    73.8500     2.5180     0.0380   -55.8490    11.2670    10.1990
  972.0000    11.5540    79.2600     2.5150     0.0380   -55.8220    11.2970    10.2370
  972.5000    11.5540    80.5180     2.5150     0.0380   -55.7950    11.3280    10.2760
  973.0000    11.5540    78.5130     2.5150     0.0380   -55.7680    11.3590    10.3180
  973.5000    11.5540    76.6050     2.5160     0.0380   -55.7410    11.3910    10.3970
  974.0000    11.5540    75.1400     2.5180     0.0380   -55.7140    11.4220    10.4850
  974.5000    11.5540    74.7970     2.5200     0.0320   -55.6860    11.4520    10.5720
  975.0000    11.5540    73.3790     2.5210     0.0270   -55.6600    11.4830    10.6600
  975.5000    11.5540    72.0020     2.5210     0.0220   -55.6330    11.5140    10.7480
  976.0000    11.5540    70.8130     2.5210     0.0160   -55.6150    11.5450    10.8390
  976.5000    11.5540    70.4040     2.5210     0.0140   -55.6040    11.5760    11.1060
  977.0000    11.5540    70.8890     2.5210     0.0220   -55.5930    11.6070    11.1060
  977.5000    11.5540    71.7720     2.5150     0.0290   -55.5820    11.6150    11.3120
  978.0000    11.5540    72.5900     2.5090     0.0360   -55.5710    11.6150    11.3120
  978.5000    11.5540    73.3360     2.5070     0.0430   -55.5600    11.4710    11.2240
  979.0000    11.5540    73.0940     2.5130     0.0500   -55.5490    11.2850    10.9970
  979.5000    11.5530    72.7250     2.5190     0.0570   -55.5380    11.0990    10.7690
  980.0000    11.5540    72.0240     2.5260     0.0640   -55.5270    10.9130    10.5420
  980.5000    11.5550    74.0880     2.5320     0.0720   -55.5160    10.7270    10.3140
  981.0000    11.5850    77.8290     2.5370     0.0740   -55.5050    10.5410    10.0870
  981.5000    11.6190    81.3630     2.5360     0.0690   -55.4940    10.3550     9.8590
  982.0000    11.6540    84.0110     2.5350     0.0630   -55.4830    10.1690     9.6320
  982.5000    11.6890    84.3680     2.5330     0.0570   -55.4720     9.9830     9.4040
  983.0000    11.7130    83.0070     2.5330     0.0510   -55.4610     9.7970     9.1770
  983.5000    11.7140    81.6470     2.5240     0.0450   -55.4500     9.6740     8.9490
  984.0000    11.7150    80.3800     2.5160     0.0420   -55.4390     9.7230     8.7450
  984.5000    11.7150    80.0690     2.5100     0.0500   -55.4280     9.7720     8.7450
  985.0000    11.7160    80.9210     2.5090     0.0550   -55.4170     9.8200     8.8370
  985.5000    11.7170    81.9400     2.5080     0.0620   -55.4060     9.8690     8.9350
  986.0000    11.7170    82.9230     2.5070     0.0590   -55.3950     9.9180     9.0330
  986.5000    11.7180    81.4060     2.5130     0.0530   -55.3840     9.9660     9.1320
  987.0000    11.7180    77.7860     2.5200     0.0500   -55.3730    10.0150     9.2300
  987.5000    11.7190    75.2710     2.5270     0.0500   -55.3620    10.0640     9.3280
  988.0000    11.7200    77.2650     2.5310     0.0550   -55.3510    10.1120     9.4270
  988.5000    11.7200    81.4180     2.5220     0.0590   -55.3400    10.1610     9.5250
  989.0000    11.7210    84.2360     2.5190     0.0630   -55.3290    10.2100     9.5870
  989.5000    11.7220    83.4050     2.5220     0.0670   -55.3170    10.2580     9.6210
  990.0000    11.7220    82.4980     2.5270     0.0630   -55.3060    10.3070     9.6560
  990.5000    11.7230    81.6330     2.5310     0.0600   -55.2950    10.3550     9.6920
  991.0000    11.7240    81.0070     2.5340     0.0570   -55.2840    10.3990     9.7270
  991.5000    11.7250    81.9260     2.5350     0.0540   -55.2730    10.3730     9.7640
  992.0000    11.7250    80.8110     2.5370     0.0510   -55.2620    10.3360     9.7640
  992.5000    11.7260    78.4850     2.5390     0.0480   -55.2510    10.2990     9.7380
  993.0000    11.7270    77.5670     2.5410     0.0450   -55.2400    10.2620     9.7150
  993.5000    11.7270    77.8760     2.5400     0.0420   -55.2290    10.2250     9.6930
  994.0000    11.7280    78.0490     2.5380     0.0420   -55.2180    10.1890     9.6700
  994.5000    11.7290    78.2910     2.5360     0.0430   -55.2070    10.1520     9.6480
  995.0000    11.7290    78.4710     2.5350     0.0460   -55.1960    10.1130     9.6250
  995.5000    11.7300    81.2670     2.5320     0.0480   -55.1850    10.0710     9.6010
  996.0000    11.7310    84.8110     2.5280     0.0500   -55.1740    10.0280     9.5160
  996.5000    11.7310    87.4180     2.5240     0.0520   -55.1630    10.0370     9.3220
  997.0000    11.7320    80.6220     2.5240     0.0540   -55.1520     9.8420     9.1280
  997.5000    11.7330    79.0380     2.5260     0.0540   -55.1410     9.8800     8.9070
  998.0000    11.7330    77.5340     2.5270     0.0540   -55.1300     9.9180     8.9070
  998.5000    11.7340    77.2870     2.5290     0.0540   -55.1190     9.9540     8.9070
  999.0000    11.7350    77.2510     2.5310     0.0540   -55.1080     9.9870     8.9070
  999.5000    11.7350    78.2880     2.5330     0.0540   -55.0970    10.0190     8.9070
 1000.0000    11.7360    79.8380     2.5330     0.0540   -55.0860    10.0510     8.9070
 1000.5000    11.7370    81.3090     2.5250     0.0540   -55.0750    10.0840     8.9070
 1001.0000    11.7370    82.7410     2.5130     0.0540   -55.0640    10.1160     8.9070
 1001.5000    11.7380    82.7660     2.5240     0.0540   -55.0530    10.1490     8.9070
 1002.0000    11.7390    82.0600     2.5400     0.0540   -55.0410    10.1810     8.9070
 1002.5000    11.7390    81.3520     2.5380     0.0540   -55.0300    10.2080     8.9070
 1003.0000    11.7400    80.6240     2.5330     0.0540   -55.0190    10.2020     8.9870
 1003.5000    11.7410    79.9320     2.5280     0.0540   -55.0080    10.1930     9.0940
 1004.0000    11.7410    79.2670     2.5230     0.0540   -54.9970    10.1820     9.2020
 1004.5000    11.7420    79.3500     2.5250     0.0530   -54.9860    10.1720     9.2560
