~VERSION INFORMATION
 VERS.                2.0:   CWLS LOG ASCII STANDARD - VERSION 2.0
 WRAP.                 NO:   ONE LINE PER DEPTH STEP
~WELL INFORMATION
#MNEM.UNIT      DATA TYPE    INFORMATION
#----------   ------------   ------------------------------
 STRT.F           70.0000:   START DEPTH
 STOP.F         2751.5000:   STOP DEPTH
 STEP.F            0.5000:   STEP LENGTH
 NULL.          -999.2500:   NO VALUE
 COMP.          INTEX OIL:   COMPANY
 WELL. INTEX N.P.R. "AX" #75-20:   WELL
 FLD .             TEAPOT:   FIELD
 LOC .      S20 T39N R78W:   LOCATION
 CNTY.            NATRONA:   COUNTY
 STAT.            WYOMING:   STATE
 CTRY. UNITED STATES OF AMERICA:   COUNTRY
 SRVC.       SCHLUMBERGER:   SERVICE COMPANY
 DATE.        06-MAY-1966:   LOGDATE
 API .     49025095120000:   API NUMBER
~CURVE INFORMATION
#MNEM.UNIT       API CODE    CURVE DESCRIPTION
#----------   ------------   ------------------------------
 DEPT.F                  :   
 CALD.IN     45 280 60 00:   CALIPER FROM DENSITY LOG
 GRD .GAPI   45 310 01 00:   GAMMA RAY FROM DENSITY LOG
 RHOB.G/C3   45 350 01 00:   BULK DENSITY
 CORR.G/C3   45 356 01 00:   DENSITY CORRECTION
 SPR .MV     05 010 01 00:   SPONTANEOUS POTENTIAL
 ILD .OHMM   05 120 46 00:   DEEP INDUCTION RESISTIVITY
 ASN .OHMM   05 041 16 00:   AMPLIFIED SHORT NORMAL 16"
~PARAMETER INFORMATION
#MNEM.UNIT          VALUE    DESCRIPTION
#----------   ------------   ------------------------------
 EKB .F         5016.3000:   Kelly bushing
 EGL .F         5006.0000:   Ground level
 EDF .F            0.0000:   Drilling floor
 TD  .F         2750.0000:   Total depth
 DATE.        06-MAY-1966:   Date logged
 CLNT.            A2DTECH:   Client Code
 PD  .                 GL:   Permanent Datum
 DD  .F              2750:   Depth driller
 DL  .F              2746:   Depth logger
 BLI .F              2745:   Bottom log interval
 CS1 .IN            10.75:   Casing size
 CBD1.       10.75" @ 30':   Casing driller 1
 BS1 .IN            7.875:   Bit size
 DFT .           OIL/EMUL:   Type fluid in hole
 DFD .                9.8:   Density
 DFV .                 43:   Viscosity
 DFPH.                  8:   pH
 DFL .               11.8:   Fluid loss
 MSS .         CIRCULATED:   Source of sample
 RMS .OHMM           1.84:   Rm
 MST .F                73:   Rm Meas. temp.
 RMF .OHMM           1.21:   Rmf
 MFST.F                74:   Rmf Meas. temp.
 MFSS.                 FP:   Source Rmf.
 RMB .OHMM           1.27:   Rm. at BHT
 BHT .F               106:   BHT.
 TCS .HRS             1.5:   Time Circ. stopped
 MRT .F               106:   Maximum recorded temp.
 LUN .               3527:   Logging unit number
 LUL .               CSPR:   Logging unit location
 ENGI.               HAUG:   Recorded By
 WITN.      TUTTLE/HUDSON:   Witnessed by
 ORIG.           5" PRINT:   Origin of data
 UWI .     49025095120000:   Unique Well ID
 DICO. A2D TECHNOLOGIES, INC.:   Digitizing Company
 DAPD.F              10.3:   Feet Above Permanent Datum
 BSD1.F              2750:   Depth drilled with bit1
 MCSS.                 FP:   Source Rmc.
 EPD .F              5006:   Elevation Permanent Datum
 LMF .                 KB:   Log Measured From
 DMF .                 KB:   Drilling Measured From
 TLI .F                88:   Top log interval
~OTHER INFORMATION
~A   DEPT     CALD        GRD       RHOB       CORR        SPR        ILD          ASN 
# ...
 2072.0000     9.4310   123.5420     2.4780     0.0000   -47.2790     3.1860     4.9370
 2072.5000     9.4230   119.8280     2.4920     0.0050   -47.3990     3.3220     5.2230
 2073.0000     9.4150   115.6190     2.5000     0.0100   -47.5190     3.4550     5.5130
 2073.5000     9.4070   112.9460     2.4950     0.0110   -47.6370     3.5840     5.8030
 2074.0000     9.3990   115.0200     2.4900     0.0110   -47.7550     3.7190     6.0320
 2074.5000     9.3910   118.2090     2.4910     0.0120   -47.7060     3.7420     6.0310
 2075.0000     9.3830   121.6360     2.4940     0.0120   -47.3980     3.7690     5.8470
 2075.5000     9.3750   122.9360     2.4960     0.0170   -47.0960     3.7970     5.6610
 2076.0000     9.3670   123.5880     2.5010     0.0290   -46.8550     3.8230     5.6280
 2076.5000     9.3590   123.4540     2.5080     0.0320   -46.9630     3.8500     5.7510
 2077.0000     9.3510   121.1080     2.5140     0.0200   -47.0650     3.8770     5.8720
 2077.5000     9.3430   118.1450     2.5200     0.0090   -47.1650     3.9030     5.9930
 2078.0000     9.3350   115.4440     2.5210     0.0050   -47.2650     3.9300     6.1130
 2078.5000     9.3270   113.0010     2.5170     0.0050   -47.3660     3.9560     6.1560
 2079.0000     9.3180   115.9090     2.5060     0.0130   -47.4650     3.9830     6.2150
 2079.5000     9.3100   118.2610     2.5040     0.0230   -47.5610     4.0100     6.2750
 2080.0000     9.3010   118.4680     2.5030     0.0190   -47.5280     4.0360     6.3290
 2080.5000     9.2920   120.4130     2.5020     0.0070   -47.1650     4.0630     6.3070
 2081.0000     9.2830   122.3610     2.5010     0.0060   -46.8140     4.0900     6.2790
 2081.5000     9.2750   123.1350     2.5050     0.0180   -46.6930     4.1240     6.2490
 2082.0000     9.2660   120.1780     2.4990     0.0130   -46.7770     4.2120     6.4690
 2082.5000     9.2570   114.1150     2.4870     0.0080   -46.8590     4.3010     6.7620
 2083.0000     9.2480   112.8660     2.4760     0.0020   -46.9410     4.3900     7.0580
 2083.5000     9.2390   113.9540     2.4810    -0.0030   -47.0240     4.4790     7.3610
 2084.0000     9.2300   116.5920     2.4900    -0.0010   -47.1080     4.5670     7.4960
 2084.5000     9.2210   119.2370     2.5000     0.0030   -47.1910     4.6560     7.4880
 2085.0000     9.2120   120.6070     2.5060     0.0020   -47.2750     4.7440     7.4740
 2085.5000     9.2030   119.6630     2.5000    -0.0030   -47.3580     4.8330     7.4660
 2086.0000     9.1940   118.5280     2.4960    -0.0050   -47.4290     4.9220     7.5360
 2086.5000     9.1860   117.1400     2.5000    -0.0030   -47.3320     5.0030     7.6050
 2087.0000     9.1760   118.5520     2.5100    -0.0010   -47.2330     5.0180     7.6730
 2087.5000     9.1680   118.3050     2.5180     0.0010   -47.1350     5.0370     7.7410
 2088.0000     9.1580   116.6760     2.5220     0.0040   -47.0540     5.0560     7.8100
 2088.5000     9.1650   115.1890     2.5270     0.0050   -47.2800     5.0760     7.8780
 2089.0000     9.1750   113.4740     2.5190     0.0010   -47.5110     5.0950     7.9460
 2089.5000     9.1850   112.3640     2.5020    -0.0010   -47.7480     5.1140     8.0150
 2090.0000     9.1950   112.4300     2.5070     0.0010   -47.5190     5.1340     8.0820
 2090.5000     9.2060   113.9310     2.5160     0.0050   -47.0550     5.1530     8.1360
 2091.0000     9.2160   116.3790     2.5240     0.0070   -47.0390     5.1720     8.0700
 2091.5000     9.2260   118.8650     2.5310     0.0050   -47.1610     5.1910     8.0040
 2092.0000     9.2360   118.3020     2.5190     0.0030   -47.3590     5.1700     7.9390
 2092.5000     9.2460   116.4080     2.5130     0.0010   -47.2880     5.0860     7.8730
 2093.0000     9.2560   114.5760     2.5150    -0.0010   -47.0480     5.0020     7.8080
 2093.5000     9.2660   114.5200     2.5160    -0.0010   -47.3280     4.9180     7.7420
 2094.0000     9.2740   114.5270     2.5080     0.0010   -47.8200     4.8340     7.7000
 2094.5000     9.2740   113.8120     2.5130     0.0050   -47.8910     4.7510     7.7010
 2095.0000     9.2750   117.2470     2.5220     0.0070   -47.6620     4.6670     7.7040
 2095.5000     9.2740   121.4840     2.5200     0.0050   -47.4380     4.5830     7.5700
 2096.0000     9.2740   123.7430     2.5120     0.0030   -47.2760     4.4990     7.4010
 2096.5000     9.2740   129.4310     2.5040     0.0010   -47.5730     4.4120     7.2320
 2097.0000     9.2740   132.8210     2.4970    -0.0020   -47.7910     4.5250     7.0630
 2097.5000     9.2750   134.8170     2.4900    -0.0030   -47.5230     4.6760     6.9710
 2098.0000     9.2750   133.4290     2.4920     0.0010   -47.2520     4.8280     7.2650
 2098.5000     9.2750   127.8490     2.4960     0.0050   -46.9790     4.9800     7.5640
 2099.0000     9.2750   123.1630     2.5040     0.0090   -47.1230     5.1330     7.8630
 2099.5000     9.2750   121.3170     2.5030     0.0070   -47.6540     5.2850     8.1610
 2100.0000     9.2750   120.4200     2.5070     0.0040   -48.0320     5.4370     8.4590
 2100.5000     9.2750   118.2000     2.5140     0.0010   -47.9380     5.5900     8.7550
 2101.0000     9.2750   114.6070     2.5210     0.0010   -47.8540     5.7420     8.9730
 2101.5000     9.2750   112.4340     2.5250     0.0030   -47.7730     5.8940     8.9010
 2102.0000     9.2750   113.2430     2.5200     0.0050   -47.6900     6.0520     8.8260
 2102.5000     9.2750   114.2800     2.5130     0.0040   -47.6090     6.0930     8.7680
 2103.0000     9.2750   115.1230     2.5050     0.0030   -47.5420     6.1050     8.8470
 2103.5000     9.2750   115.0960     2.5000     0.0020   -47.5440     6.1160     8.9560
 2104.0000     9.2750   115.6490     2.5000     0.0010   -47.2520     6.1280     9.0660
 2104.5000     9.2750   116.7550     2.5020     0.0010   -47.5870     6.1390     9.1750
 2105.0000     9.2750   117.7680     2.5150     0.0020   -47.3240     6.1510     9.2850
 2105.5000     9.2750   118.7640     2.5170     0.0020   -47.0750     6.1620     9.3440
 2106.0000     9.2750   118.1180     2.5060     0.0020   -47.2390     6.1740     9.3390
 2106.5000     9.2750   115.6310     2.4940     0.0030   -47.6490     6.1850     9.3350
 2107.0000     9.2750   114.6060     2.4980     0.0030   -48.0050     6.1960     9.3310
 2107.5000     9.2750   116.2720     2.5020     0.0040   -47.7010     6.2080     9.3230
 2108.0000     9.2750   116.0550     2.5070     0.0040   -47.3900     6.2190     9.2420
 2108.5000     9.2750   118.1830     2.5120     0.0040   -47.0860     6.2300     9.1600
 2109.0000     9.2750   119.4180     2.5150     0.0050   -47.3280     6.2420     9.0790
 2109.5000     9.2750   119.5730     2.5090     0.0050   -47.6260     6.2530     8.9990
 2110.0000     9.2750   119.4870     2.5090     0.0030   -47.4840     6.2650     8.9830
 2110.5000     9.2750   119.7620     2.5070     0.0020   -47.3110     6.2760     9.1450
 2111.0000     9.2750   120.3820     2.5050     0.0010   -47.1360     6.2870     9.3040
 2111.5000     9.2750   121.8190     2.5040     0.0000   -47.0330     6.2990     9.4630
 2112.0000     9.2750   123.6350     2.5000    -0.0010   -47.3270     6.3100     9.6220
 2112.5000     9.2750   125.5400     2.4930    -0.0020   -47.6140     6.3220     9.7760
 2113.0000     9.2750   125.0640     2.4890    -0.0030   -47.3530     6.3330     9.7160
 2113.5000     9.2750   123.3630     2.4850    -0.0010   -47.0850     6.3440     9.5970
 2114.0000     9.2750   121.0130     2.4830     0.0040   -47.0700     6.3560     9.4760
 2114.5000     9.2750   119.8120     2.4990     0.0080   -47.1890     6.3670     9.3560
 2115.0000     9.2750   120.0900     2.5240     0.0130   -47.3070     6.3790     9.2340
 2115.5000     9.2750   117.7730     2.5200     0.0110   -47.4240     6.3910     9.2870
 2116.0000     9.2750   114.2390     2.5090     0.0060   -47.5400     6.3700     9.5010
 2116.5000     9.2750   111.5310     2.5030     0.0030   -47.6100     6.3420     9.7130
 2117.0000     9.2750   111.4670     2.4970    -0.0010   -47.4910     6.3140     9.9260
