~VERSION INFORMATION
 VERS.                2.0:   CWLS LOG ASCII STANDARD - VERSION 2.0
 WRAP.                 NO:   ONE LINE PER DEPTH STEP
~WELL INFORMATION
#MNEM.UNIT      DATA TYPE    INFORMATION
#----------   ------------   ------------------------------
 STRT.F          207.0000:   START DEPTH
 STOP.F         3130.0000:   STOP DEPTH
 STEP.F            0.5000:   STEP LENGTH
 NULL.          -999.2500:   NO VALUE
 COMP. FENIX & SCISSON U.S. NAVY:   COMPANY
 WELL.    FENIX "A" #61-3:   WELL
 FLD .             NPR #3:   FIELD
 LOC .       S3 T38N R78W:   LOCATION
 CNTY.            NATRONA:   COUNTY
 STAT.            WYOMING:   STATE
 CTRY. UNITED STATES OF AMERICA:   COUNTRY
 SRVC.              WELEX:   SERVICE COMPANY
 DATE.        13-MAY-1977:   LOGDATE
 API .     49025103630000:   API NUMBER
~CURVE INFORMATION
#MNEM.UNIT       API CODE    CURVE DESCRIPTION
#----------   ------------   ------------------------------
 DEPT.F                  :   
 SPR .MV     07 010 01 00:   SPONTANEOUS POTENTIAL
 SFLU.OHMM   07 220 01 00:   SPHERICALLY FOCUSED LOG UNAVERAGED RESISTIVITY
 ILD .OHMM   07 120 46 00:   INDUCTION LOG DEEP RESISTIVITY
 ILM .OHMM   07 120 44 00:   INDUCTION LOG MEDIUM RESISTIVITY
 CALD.IN     45 280 60 00:   CALIPER FROM DENSITY LOG
 GRD .GAPI   45 310 01 00:   GAMMA RAY FROM DENSITY LOG
 RHOB.G/C3   45 350 01 00:   BULK DENSITY
 CORR.G/C3   45 356 01 00:   DENSITY CORRECTION
~PARAMETER INFORMATION
#MNEM.UNIT          VALUE    DESCRIPTION
#----------   ------------   ------------------------------
 EKB .F         5109.0000:   Kelly bushing
 EGL .F         5099.0000:   Ground level
 EDF .F            0.0000:   Drilling floor
 TD  .F         3130.0000:   Total depth
 DATE.        13-MAY-1977:   Date logged
 CLNT.            A2DTECH:   Client Code
 SL  . 330' FNL & 1650' FEL:   Surface Location
 PD  .                 GL:   Permanent Datum
 EPD .F              5099:   Elevation Permanent Datum
 LMF .                 KB:   Log Measured From
 DMF .                 KB:   Drilling Measured From
 DAPD.F                10:   Feet Above Permanent Datum
 DD  .F              3126:   Depth driller
 DL  .F              3129:   Depth logger
 BLI .F              3127:   Bottom log interval
 TLI .F               210:   Top log interval
 CS1 .IN            8.625:   Casing size
 CBD1.      8.625" @ 200':   Casing driller 1
 CBL1.F               216:   Casing logger 1
 BS1 .IN            7.875:   Bit size
 BSD1.F              3126:   Depth drilled with bit1
 DFT .            KCL MUD:   Type fluid in hole
 DFD .                9.1:   Density
 DFV .                 32:   Viscosity
 DFPH.                  8:   pH
 DFL .                8.4:   Fluid loss
 MSS .           FLOWLINE:   Source of sample
 RMS .OHMM            .29:   Rm
 MST .F                68:   Rm Meas. temp.
 RMF .OHMM            .28:   Rmf
 MFST.F                68:   Rmf Meas. temp.
 RMC .OHMM            .43:   Rmc
 MCST.F                68:   Rmc Meas. temp.
 MFSS.           FANN KIT:   Source Rmf.
 MCSS.           FANN KIT:   Source Rmc.
 RMB .OHMM            .16:   Rm. at BHT
 BHT .F               123:   BHT.
 TCS .HRS             2.5:   Time Circ. stopped
 MRT .F               123:   Maximum recorded temp.
 LUN .               9685:   Logging unit number
 LUL .           BRIGHTON:   Logging unit location
 ENGI.          T. JOYNER:   Recorded By
 WITN.      B. HARRINGTON:   Witnessed by
 ORIG.           5" PRINT:   Origin of data
 UWI .     49025103630000:   Unique Well ID
 DICO. A2D TECHNOLOGIES, INC.:   Digitizing Company
~OTHER INFORMATION
~A   DEPT      SPR       SFLU        ILD        ILM       CALD        GRD       RHOB       CORR   
# ...
 1543.5000   -35.0957     8.8491     5.6381     6.0681     8.5813   104.0653     2.5159     0.0219
 1544.0000   -35.1038     7.9219     5.6887     6.0665     8.5817   104.4657     2.5060     0.0199
 1544.5000   -35.1118     7.9198     5.7395     6.2347     8.5820   105.6553     2.5020     0.0140
 1545.0000   -35.1198     7.8451     5.7376     6.2330     8.5824   106.4502     2.4990     0.0100
 1545.5000   -35.3278     7.8430     5.7364     6.2314     8.5630   106.8506     2.4980     0.0100
 1546.0000   -35.3358     8.1349     5.7346     6.4041     8.5436   106.8563     2.4960     0.0101
 1546.5000   -35.1439     8.2837     5.7334     6.4615     8.5637   106.1130     2.4981     0.0021
 1547.0000   -35.1519     8.2057     5.7322     6.4598     8.5837   105.3297     2.4981     0.0042
 1547.5000   -35.1599     8.2798     5.7301     6.6389     8.5841   104.9410     2.5021     0.0062
 1548.0000   -35.1679     8.5092     5.7289     6.5763     8.5844   103.3687     2.5081     0.0102
 1548.5000   -35.1760     8.6649     5.7273     7.0119     8.5650   103.7290     2.5151     0.0163
 1549.0000   -35.1840     8.5828     5.7258     7.0749     8.5457   103.3404     2.5182     0.0183
 1549.5000   -35.1904     8.6602     5.7243     6.8800     8.5657   104.1352     2.5172     0.0184
 1550.0000   -34.9985     8.7379     5.7225     6.8786     8.6055   104.9300     2.5172     0.0184
 1550.5000   -35.4064     8.4978     5.6689     6.8768     8.5522   105.7018     2.5133     0.0202
 1551.0000   -35.2145     8.2633     5.6680     6.8749     8.5464   106.9034     2.5112     0.0184
 1551.5000   -35.4225     8.2620     5.6143     6.8102     8.5464   106.9034     2.5132     0.0184
 1552.0000   -35.4305     8.1092     5.6125     6.7460     8.5661   108.0868     2.5182     0.0184
 1552.5000   -35.6385     8.0328     5.5090     6.6824     8.5661   108.0868     2.5212     0.0224
 1553.0000   -35.6497     8.0307     5.5079     6.6195     8.5858   107.6923     2.5242     0.0224
 1553.5000   -35.4546     8.0285     5.4543     6.4971     8.5858   106.9034     2.5262     0.0204
 1554.0000   -35.4626     8.1754     5.4540     6.3769     8.5661   106.5089     2.5292     0.0204
 1554.5000   -35.2706     8.3250     5.4523     6.2590     8.5661   108.0868     2.5302     0.0224
 1555.0000   -35.2787     8.5556     5.4514     6.2001     8.5661   107.2978     2.5292     0.0204
 1555.5000   -35.0867     8.6324     5.5000     6.1417     8.5464   106.5089     2.5232     0.0184
 1556.0000   -35.0947     8.7894     5.4986     6.1400     8.5661   108.0868     2.5182     0.0184
 1556.5000   -35.1028     8.8692     5.5476     6.1951     8.5464   107.2978     2.5152     0.0164
 1557.0000   -35.3108     8.9488     5.5980     6.3668     8.5661   106.1144     2.5120     0.0164
 1557.5000   -35.3188     8.9463     5.5960     6.4833     8.5661   105.3654     2.5100     0.0144
 1558.0000   -35.5268     8.7809     5.6468     6.6030     8.5661   105.7599     2.5080     0.0144
 1558.5000   -35.1348     8.6185     5.6450     6.6002     8.5661   106.1544     2.5060     0.0144
 1559.0000   -35.3428     8.3817     5.6432     6.5984     8.5661   107.7323     2.5002     0.0144
 1559.5000   -35.1509     8.0028     5.6420     6.4764     8.5661   107.7323     2.4982     0.0044
 1560.0000   -35.1589     7.7116     5.6411     6.1840     8.6056   107.7323     2.4972     0.0044
 1560.5000   -35.3669     7.6394     5.6387     5.9587     8.5661   105.7599     2.4972     0.0024
 1561.0000   -35.3749     7.6373     5.6375     5.7950     8.5661   104.9310     2.4982     0.0104
 1561.5000   -35.3830     7.6353     5.6361     5.7934     8.5858   106.9034     2.5002     0.0104
 1562.0000   -35.3910     7.7745     5.6346     5.8457     8.6056   107.2978     2.5022     0.0104
 1562.5000   -35.3990     7.9168     5.6337     6.0080     8.6056   106.5089     2.5022     0.0104
 1563.0000   -35.4070     8.1361     5.6322     6.2885     8.6056   106.5489     2.5042     0.0124
 1563.5000   -35.6150     8.4387     5.6307     6.4038     8.5858   107.3378     2.5062     0.0164
 1564.0000   -35.6231     8.7527     5.6803     6.5816     8.5858   107.3378     2.5072     0.0164
 1564.5000   -35.6311     8.9956     5.6794     6.8261     8.6056   107.7323     2.5132     0.0164
 1565.0000   -35.4391     8.9927     5.6782     7.0152     8.5858   107.3378     2.5142     0.0164
 1565.5000   -35.4471     8.9080     5.7292     7.0785     8.5661   107.7323     2.5172     0.0184
 1566.0000   -35.4552     8.6637     5.7268     7.0762     8.5661   108.5213     2.5162     0.0184
 1566.5000   -35.4632     8.2716     5.7782     6.8818     8.5858   108.5213     2.5132     0.0064
 1567.0000   -35.4712     8.1937     5.7769     6.5708     8.5858   109.7047     2.5052     0.0124
 1567.5000   -35.4792     8.1915     5.7751     6.4497     8.5858   110.8881     2.5052     0.0104
 1568.0000   -35.4873     8.1148     5.8272     6.3301     8.5858   114.7929     2.5042     0.0104
 1568.5000   -35.6953     8.1126     5.8257     6.3298     8.5661   108.1268     2.5042     0.0124
 1569.0000   -35.5049     8.1104     5.8241     6.3134     8.5661   108.1268     2.5072     0.0144
 1569.5000   -35.5097     8.1083     5.8223     6.2971     8.5661   108.1268     2.5122     0.0100
 1570.0000   -35.5161     8.1061     5.8211     6.2809     8.5661   106.1544     2.5122     0.0080
 1570.5000   -35.3274     8.1048     5.8198     6.2647     8.5661   106.5489     2.5032     0.0060
 1571.0000   -35.3354     8.1762     5.8186     6.2485     8.5661   106.1544     2.4992     0.0064
 1571.5000   -35.3434     8.1749     5.8165     6.2324     8.5661   104.9710     2.4992     0.0044
 1572.0000   -35.3515     8.1722     5.8149     6.2163     8.5661   102.9986     2.5002     0.0004
 1572.5000   -35.3595     8.1696     5.8662     6.1996     8.5661   102.6041     2.5002     0.0004
 1573.0000   -35.5675     8.2429     5.8598     6.1587     8.5661   102.6041     2.4972    -0.0016
 1573.5000   -35.5755     8.2407     5.8534     6.1788     8.5858   102.9986     2.4902    -0.0036
 1574.0000   -35.5836     8.2385     5.8470     6.1989     8.5661   106.5489     2.4862    -0.0016
 1574.5000   -35.5916     8.2367     5.8406     6.2190     8.5661   106.5489     2.4852    -0.0076
 1575.0000   -35.4028     8.2345     5.8342     6.2393     8.5858   107.7323     2.4852    -0.0036
 1575.5000   -35.6076     8.1565     5.8279     6.2596     8.5858   107.7323     2.4852    -0.0016
 1576.0000   -35.6156     8.0057     5.8215     6.2799     8.5858   106.9434     2.4912    -0.0016
 1576.5000   -35.6237     8.0036     5.8152     6.3004     8.5858   108.1268     2.4982    -0.0016
 1577.0000   -35.6317     8.0014     5.8088     6.3209     8.5858   108.5213     2.5012    -0.0016
 1577.5000   -35.6397     8.1482     5.8025     6.3414     8.6056   108.1268     2.5032     0.0064
 1578.0000   -35.6477     8.2213     5.7961     6.3621     8.5858   106.9434     2.5062     0.0040
 1578.5000   -35.8557     8.2950     5.7898     6.3828     8.5858   106.9434     2.5102     0.0080
 1579.0000   -35.8638     8.2928     5.7835     6.4035     8.5858   107.7323     2.5132     0.0144
 1579.5000   -35.6718     8.2906     5.7772     6.4244     8.6056   108.5213     2.5192     0.0164
 1580.0000   -35.6798     8.2883     5.7709     6.4453     8.6056   108.9157     2.5172     0.0164
 1580.5000   -35.6878     8.2857     5.7646     6.4635     8.6056   108.9157     2.5122     0.0084
 1581.0000   -35.6959     8.2835     5.7583     6.5221     8.6056   109.3102     2.5122     0.0084
 1581.5000   -35.5039     8.2812     5.7520     6.7647     8.5858   110.0992     2.5152     0.0064
 1582.0000   -35.7119     8.2790     5.7457     6.8884     8.5858   110.4936     2.5142     0.0064
 1582.5000   -35.7199     8.2011     5.7395     6.8865     8.5858   110.0992     2.5092     0.0064
 1583.0000   -35.7280     8.0495     5.7332     6.8217     8.5858   110.0992     2.5062     0.0064
 1583.5000   -35.7360     8.1216     5.7265     6.6956     8.5858   111.2826     2.5062     0.0084
