~VERSION INFORMATION
 VERS.                2.0:   CWLS LOG ASCII STANDARD - VERSION 2.0
 WRAP.                 NO:   ONE LINE PER DEPTH STEP
~WELL INFORMATION
#MNEM.UNIT      DATA TYPE    INFORMATION
#----------   ------------   ------------------------------
 STRT.F            4.0000:   START DEPTH
 STOP.F         5696.0000:   STOP DEPTH
 STEP.F            0.5000:   STEP LENGTH
 NULL.          -999.2500:   NO VALUE
 COMP.       FLUOR DANIEL:   COMPANY
 WELL.   FLUOR "X" #72-10:   WELL
 FLD .             NPR #3:   FIELD
 LOC .      S10 T38N R78W:   LOCATION
 CNTY.            NATRONA:   COUNTY
 STAT.            WYOMING:   STATE
 CTRY. UNITED STATES OF AMERICA:   COUNTRY
 SRVC.      WESTERN ATLAS:   SERVICE COMPANY
 DATE.        26-SEP-1996:   LOGDATE
 API .     49025228080000:   API NUMBER
~CURVE INFORMATION
#MNEM.UNIT       API CODE    CURVE DESCRIPTION
#----------   ------------   ------------------------------
 DEPT.F                  :   
 GRR .GAPI   07 310 01 00:   GAMMA RAY FROM RESISTIVITY
 SPR .MV     07 010 01 00:   SPONTANEOUS POTENTIAL
 CALR.IN     07 280 01 00:   CALIPER FROM RESISTIVITY
 RD  .OHMM   07 220 10 00:   RESISTIVITY DEEP
 RS  .OHMM   07 220 09 00:   RESISTIVITY SHALLOW
 TENR.LBS    07 635 01 00:   TENSION FROM RESISTIVITY
~PARAMETER INFORMATION
#MNEM.UNIT          VALUE    DESCRIPTION
#----------   ------------   ------------------------------
 EKB .F         5178.0000:   Kelly bushing
 EGL .F         5168.0000:   Ground level
 EDF .F         5177.0000:   Drilling floor
 TD  .F         5698.0000:   Total depth
 CLNT.            A2DTECH:   Client Code
 SL  . 687' FNL & 1002' FEL:   Surface Location
 PD  .                 GL:   Permanent Datum
 EPD .F              5168:   Elevation Permanent Datum
 LMF .                 KB:   Log Measured From
 DMF .                 KB:   Drilling Measured From
 DAPD.F                10:   Feet Above Permanent Datum
 DATE.        26-SEP-1996:   Date Logged [DD-MMM-YYYY]
 DD  .F              5698:   Depth driller
 DL  .F              5697:   Depth logger
 BLI .F              5685:   Bottom log interval
 CS1 .IN            9.625:   Casing size
 CBD1.      9.625" @ 526':   Casing driller 1
 CBL1.F               526:   Casing logger 1
 BS1 .IN             8.75:   Bit size
 BSD1.F              5698:   Depth drilled with bit1
 DFT .               CHEM:   Type fluid in hole
 DFD .                9.1:   Density
 DFV .                 60:   Viscosity
 DFPH.                9.5:   pH
 DFL .                7.6:   Fluid loss
 MSS .               CIRC:   Source of sample
 RMS .OHMM           0.82:   Rm
 MST .F                64:   Rm Meas. temp.
 RMF .OHMM           0.64:   Rmf
 MFST.F                64:   Rmf Meas. temp.
 MFSS.               CALC:   Source Rmf.
 RMC .OHMM           1.08:   Rmc
 MCST.F                64:   Rmc Meas. temp.
 MCSS.               CALC:   Source Rmc.
 RMB .OHMM           0.29:   Rm. at BHT
 BHT .F               183:   BHT.
 TCS .HRS               5:   Time Circ. stopped
 MRT .F               183:   Maximum recorded temp.
 LUN .            HL-6530:   Logging unit number
 LUL .             CASPER:   Logging unit location
 ENGI.           BROWNLOW:   Recorded By
 ORIG.        2" 5" PRINT:   Origin of data
 UWI .     49025228080000:   Unique Well ID
 WITN.              HARDY:   Witnessed by
 DICO. A2D TECHNOLOGIES, INC.:   Digitizing Company
~OTHER INFORMATION
~A  DEPTH      GRR        SPR       CALR         RD         RS       TENR
# ...
 5620.0000    15.1684   -43.7293     8.7370   792.3552   458.5553   238.7393
 5620.5000    15.1909   -43.4183     8.7377   765.4185   416.1610   246.0960
 5621.0000    14.3070   -43.2584     8.7384   754.9434   404.8053   269.3857
 5621.5000    12.8245   -44.0049     8.7392   776.2265   422.0872   290.7943
 5622.0000    11.6384   -45.0512     8.7399   861.3173   471.7386   290.6199
 5622.5000    10.7545   -45.3467     8.7406   962.3823   519.9456   282.8580
 5623.0000    10.4749   -45.4867     8.7431  1024.4026   549.7035   275.3134
 5623.5000     9.8931   -45.4777     8.7572   989.5773   541.8192   282.6700
 5624.0000    10.5422   -45.4668     8.7579   873.5779   428.2913   305.0192
 5624.5000    12.3661   -45.3069     8.7588   545.3451   329.0419   334.8298
 5625.0000    13.8992   -45.2981     8.7594   393.7673   263.5416   349.6827
 5625.5000    15.7343   -45.1378     8.7602   324.3350   218.5408   349.5432
 5626.0000    17.5750   -44.8250     8.7609   291.4885   194.2430   349.4003
 5626.5000    18.2017   -44.6651     8.7618   256.2855   185.0551   349.2291
 5627.0000    17.6193   -44.6563     8.7624   232.6029   164.4856   349.0895
 5627.5000    16.4395   -44.7985     8.7631   200.9968   141.2111   348.9500
 5628.0000    16.4620   -45.0895     8.7488   172.6861   129.0443   348.7755
 5628.5000    17.6929   -45.0807     8.7497   156.7287   122.0053   371.1247
 5629.0000    18.6224   -45.2229     8.7504   146.2442   116.3189   385.9821
 5629.5000    18.0455   -45.0608     8.7512   137.4123   112.3660   378.3069
 5630.0000    16.2553   -45.0520     8.7519   131.8241   108.5474   355.6786
 5630.5000    14.7671   -45.0431     8.7526   129.1179   107.0648   355.5390
 5631.0000    14.1854   -45.0340     8.7535   130.1520   110.0967   355.8658
 5631.5000    14.2134   -45.1662     8.7542   138.4058   114.7932   377.7136
 5632.0000    12.7253   -45.1662     8.7399   146.3055   121.3670   400.0628
 5632.5000    11.5393   -45.1662     8.7407   155.8966   128.3132   407.4213
 5633.0000    12.4737   -45.1662     8.7414   170.4271   133.7868   414.7762
 5633.5000    14.3088   -45.0151     8.7421   185.2184   140.6631   414.6017
 5634.0000    13.4306   -44.7130     8.7430   206.9515   151.6342   421.9933
 5634.5000    12.5410  -999.2500     8.7437   246.1206   163.6857   421.8141
 5635.0000    14.3818  -999.2500     8.7444   327.0220   177.9257   429.1755
 5635.5000    17.2191  -999.2500     8.7451   388.9104   207.3117   436.4973
 5636.0000    22.2873  -999.2500     8.7459   482.1562   239.8726   451.5383
 5636.5000    28.0499  -999.2500     8.7467   546.2505   287.3485   466.2032
 5637.0000    28.9788  -999.2500     8.7474   614.5909   371.5428   473.5599
 5637.5000    22.0581  -999.2500     8.7633   664.8856   423.9718   480.8846
 5638.0000    16.6425  -999.2500     8.7640   839.6324   504.3720   480.7072
 5638.5000    13.3417  -999.2500     8.7647   977.9854   577.1805   480.5676
 5639.0000    11.5571  -999.2500     8.7655  1077.6986   643.2477   480.4281
 5639.5000    11.8816  -999.2500     8.7813  1123.5282   661.4418   488.5652
 5640.0000    12.2062  -999.2500     8.7820  1092.8809   647.8951   510.0991
 5640.5000    12.2342  -999.2500     8.7977  1092.9689   643.4970   517.4906
 5641.0000    11.8063  -999.2500     8.8007  1147.3905   666.3282   524.8125
 5641.5000  -999.2500  -999.2500     8.8144  1246.9717   694.7526   532.1691
 5642.0000  -999.2500  -999.2500     8.8301  1345.8361   744.8065   524.4984
 5642.5000  -999.2500  -999.2500     8.8460  1403.0710   804.0018   516.8625
 5643.0000  -999.2500  -999.2500     8.8315  1442.6232   844.1378   516.6880
 5643.5000  -999.2500  -999.2500     8.7722  1462.8524   874.6507   516.5483
 5644.0000  -999.2500  -999.2500     8.7428  1403.3773   886.3918   508.9206
 5644.5000  -999.2500  -999.2500     8.7285  1256.1628   827.0898   508.7707
 5645.0000  -999.2500  -999.2500     8.7294  1101.2554   782.5178   508.5985
 5645.5000  -999.2500  -999.2500     8.7302   965.4664   715.1188   515.9901
 5646.0000  -999.2500  -999.2500     8.7309   858.2204   676.5809   515.8156
 5646.5000  -999.2500  -999.2500     8.7316   747.1902   635.6923   523.1724
 5647.0000  -999.2500  -999.2500     8.7173   602.7856   553.3892   530.5291
 5647.5000  -999.2500  -999.2500     8.7181   499.9502   452.5552   552.8433
 5648.0000  -999.2500  -999.2500     8.7188   406.1265   364.9923   590.1850
 5648.5000  -999.2500  -999.2500     8.7195   362.8642   310.5335   597.5417
 5649.0000  -999.2500  -999.2500     8.7052   343.9454   294.4097   604.8984
 5649.5000  -999.2500  -999.2500     8.7061   353.6361   326.7661   604.7226
 5650.0000  -999.2500  -999.2500     8.7068   420.5611   388.7326   604.5495
 5650.5000  -999.2500  -999.2500     8.7076   620.0287   538.7583   604.4099
 5651.0000  -999.2500  -999.2500     8.7083  1109.8429   828.5864   611.7690
 5651.5000  -999.2500  -999.2500     8.6940  1802.9106  1213.8956   619.1233
 5652.0000  -999.2500  -999.2500     8.6798  1959.4155  1414.3811   618.9488
 5652.5000  -999.2500  -999.2500     8.6805  1841.0538  1338.1598   626.3403
 5653.0000  -999.2500  -999.2500     8.6662  1165.3298  1086.7621   633.6622
 5653.5000  -999.2500  -999.2500     8.6821   938.4697   903.1041   633.4877
 5654.0000  -999.2500  -999.2500     8.6978   927.2183   817.8500   633.3481
 5654.5000  -999.2500  -999.2500     8.6985  1157.5239   876.7442   640.7048
 5655.0000  -999.2500  -999.2500     8.7144  1697.2384  1173.6277   655.5229
 5655.5000  -999.2500  -999.2500     8.7151  2024.8546  1747.7510   677.8720
 5656.0000  -999.2500  -999.2500     8.7158  4968.5195  2838.6050   700.2211
 5656.5000  -999.2500  -999.2500     8.7148  8651.2822  4517.2070   730.0666
 5657.0000  -999.2500  -999.2500     8.7022 10361.0967  5646.2798   737.4232
 5657.5000  -999.2500  -999.2500     8.7031 10507.4219  5726.6099   722.2563
 5658.0000  -999.2500  -999.2500     8.7188  9341.5410  5688.3496   732.0090
 5658.5000  -999.2500  -999.2500     8.7197  8717.4912  5411.9702   739.5052
 5659.0000  -999.2500  -999.2500     8.6821  8248.6748  4818.2139   761.9940
 5659.5000  -999.2500  -999.2500     8.6531  7913.5557  4655.0146   799.5064
 5660.0000  -999.2500  -999.2500     8.6389  7593.2256  4591.6885   791.9790
 5660.5000  -999.2500  -999.2500     8.6241  6565.8623  4427.3809   769.4902
 5661.0000  -999.2500  -999.2500     8.5964  1597.2289  2324.9277   769.4902
 5661.5000  -999.2500  -999.2500     8.5975   635.5315   788.3473   791.9790
 5662.0000  -999.2500  -999.2500     8.5985   130.9168   171.2672   821.9640
 5662.5000  -999.2500  -999.2500     8.5082    67.3174    73.4571   844.4528
 5663.0000  -999.2500  -999.2500     8.3754    48.6114    50.5088   874.4378
 5663.5000  -999.2500  -999.2500     8.3010    35.8409    41.8904   874.4378
 5664.0000  -999.2500  -999.2500     8.2572    28.3227    38.0207   859.4453
 5664.5000  -999.2500  -999.2500     8.2432    28.7227    37.5035   889.4303
 5665.0000  -999.2500  -999.2500     8.2446    29.9471    41.9212   904.4228
 5665.5000  -999.2500  -999.2500     8.2456    31.2237    49.1922   926.9116
 5666.0000  -999.2500  -999.2500     8.2467    34.6513    56.5313   949.4003
 5666.5000  -999.2500  -999.2500     8.2478    43.2617    62.3155   956.8965
 5667.0000  -999.2500  -999.2500     8.2491    48.6789    61.8997   956.8965
 5667.5000  -999.2500  -999.2500     8.2501    51.1070    60.1667   949.4003
 5668.0000  -999.2500  -999.2500     8.2512    61.2101    58.5851   949.4003
 5668.5000  -999.2500  -999.2500     8.2372    83.0471    67.7987   964.3928
 5669.0000  -999.2500  -999.2500     8.2386   123.2971    90.1395   986.8815
 5669.5000  -999.2500  -999.2500     8.2243   299.4579   131.1910  1009.3703
 5670.0000  -999.2500  -999.2500     8.2257   870.8024   246.7351  1054.3478
 5670.5000  -999.2500  -999.2500     8.2267  1442.1470   500.9541  1069.3403
 5671.0000  -999.2500  -999.2500     8.2278  2014.6074   935.8218  1061.8441
 5671.5000  -999.2500  -999.2500     8.2291  4142.8228  2473.4565  1084.3329
