~VERSION INFORMATION
 VERS.                2.0:   CWLS LOG ASCII STANDARD - VERSION 2.0
 WRAP.                 NO:   ONE LINE PER DEPTH STEP
~WELL INFORMATION
#MNEM.UNIT      DATA TYPE    INFORMATION
#----------   ------------   ------------------------------
 STRT.F            4.0000:   START DEPTH
 STOP.F         5696.0000:   STOP DEPTH
 STEP.F            0.5000:   STEP LENGTH
 NULL.          -999.2500:   NO VALUE
 COMP.       FLUOR DANIEL:   COMPANY
 WELL.   FLUOR "X" #72-10:   WELL
 FLD .             NPR #3:   FIELD
 LOC .      S10 T38N R78W:   LOCATION
 CNTY.            NATRONA:   COUNTY
 STAT.            WYOMING:   STATE
 CTRY. UNITED STATES OF AMERICA:   COUNTRY
 SRVC.      WESTERN ATLAS:   SERVICE COMPANY
 DATE.        26-SEP-1996:   LOGDATE
 API .     49025228080000:   API NUMBER
~CURVE INFORMATION
#MNEM.UNIT       API CODE    CURVE DESCRIPTION
#----------   ------------   ------------------------------
 DEPT.F                  :   
 GRR .GAPI   07 310 01 00:   GAMMA RAY FROM RESISTIVITY
 SPR .MV     07 010 01 00:   SPONTANEOUS POTENTIAL
 CALR.IN     07 280 01 00:   CALIPER FROM RESISTIVITY
 RD  .OHMM   07 220 10 00:   RESISTIVITY DEEP
 RS  .OHMM   07 220 09 00:   RESISTIVITY SHALLOW
 TENR.LBS    07 635 01 00:   TENSION FROM RESISTIVITY
~PARAMETER INFORMATION
#MNEM.UNIT          VALUE    DESCRIPTION
#----------   ------------   ------------------------------
 EKB .F         5178.0000:   Kelly bushing
 EGL .F         5168.0000:   Ground level
 EDF .F         5177.0000:   Drilling floor
 TD  .F         5698.0000:   Total depth
 CLNT.            A2DTECH:   Client Code
 SL  . 687' FNL & 1002' FEL:   Surface Location
 PD  .                 GL:   Permanent Datum
 EPD .F              5168:   Elevation Permanent Datum
 LMF .                 KB:   Log Measured From
 DMF .                 KB:   Drilling Measured From
 DAPD.F                10:   Feet Above Permanent Datum
 DATE.        26-SEP-1996:   Date Logged [DD-MMM-YYYY]
 DD  .F              5698:   Depth driller
 DL  .F              5697:   Depth logger
 BLI .F              5685:   Bottom log interval
 CS1 .IN            9.625:   Casing size
 CBD1.      9.625" @ 526':   Casing driller 1
 CBL1.F               526:   Casing logger 1
 BS1 .IN             8.75:   Bit size
 BSD1.F              5698:   Depth drilled with bit1
 DFT .               CHEM:   Type fluid in hole
 DFD .                9.1:   Density
 DFV .                 60:   Viscosity
 DFPH.                9.5:   pH
 DFL .                7.6:   Fluid loss
 MSS .               CIRC:   Source of sample
 RMS .OHMM           0.82:   Rm
 MST .F                64:   Rm Meas. temp.
 RMF .OHMM           0.64:   Rmf
 MFST.F                64:   Rmf Meas. temp.
 MFSS.               CALC:   Source Rmf.
 RMC .OHMM           1.08:   Rmc
 MCST.F                64:   Rmc Meas. temp.
 MCSS.               CALC:   Source Rmc.
 RMB .OHMM           0.29:   Rm. at BHT
 BHT .F               183:   BHT.
 TCS .HRS               5:   Time Circ. stopped
 MRT .F               183:   Maximum recorded temp.
 LUN .            HL-6530:   Logging unit number
 LUL .             CASPER:   Logging unit location
 ENGI.           BROWNLOW:   Recorded By
 ORIG.        2" 5" PRINT:   Origin of data
 UWI .     49025228080000:   Unique Well ID
 WITN.              HARDY:   Witnessed by
 DICO. A2D TECHNOLOGIES, INC.:   Digitizing Company
~OTHER INFORMATION
~A  DEPTH      GRR        SPR       CALR         RD         RS       TENR
# ...
 3228.0000   103.9675   -61.8099     9.2581    10.5123     9.8147   -82.6536
 3228.5000   101.8900   -61.9440     9.2597    11.4247    10.3080   -82.9158
 3229.0000   102.8858   -62.3082     9.2761    11.6179    10.6759   -75.6291
 3229.5000   107.3813   -62.5586     9.2777    11.6679    10.4601   -68.3949
 3230.0000   111.3279   -62.8089     9.2635    10.8135     9.6285   -68.6047
 3230.5000   112.2624   -62.9956     9.2651     9.9525     9.0503   -61.1465
 3231.0000   111.6987   -63.2775     9.2512    10.2337     8.9904   -46.5353
 3231.5000   109.6212   -63.4165     9.2376    10.5225     9.1204   -39.3012
 3232.0000   107.5437   -63.3972     9.2234    10.5969     9.3893   -39.5109
 3232.5000   106.0686   -63.3779     9.2250    10.5987     9.5162   -32.2767
 3233.0000   107.3121   -63.2118     9.2266    10.3821     9.2594   -24.9377
 3233.5000   109.4515   -63.1964     9.2279     9.0404     8.6424   -10.2073
 3234.0000   113.6993   -63.0247     9.2291     7.5520     7.7923   -10.4198
 3234.5000   119.4609   -62.7098     9.2305     6.7608     7.0251   -10.6791
 3235.0000   123.7087   -62.4631     9.2471     5.8465     5.9916   -40.8738
 3235.5000   125.8481   -62.3085     9.2484     5.3393     5.3848   -56.6522
 3236.0000   126.2009   -61.9066     9.2648     5.0218     4.9043   -18.8568
 3236.5000   134.6526   -61.7406     9.2816     4.8180     4.8051   -34.0590
 3237.0000   141.6113   -61.7251     9.2980     4.6547     4.7080   -56.7575
 3237.5000   146.4615   -62.0109     9.2993     4.4351     4.5498   -71.9640
 3238.0000   147.3960   -62.4472     9.3160     4.2847     4.3358   -87.2142
 3238.5000   147.1258   -62.5824     9.3173     3.9986     4.1034  -102.4164
 3239.0000   149.8753   -62.4125     9.3185     3.5693     3.4614  -102.6261
 3239.5000   152.9622   -62.0920     9.3047     3.2494     3.1117  -102.8882
 3240.0000   157.4750   -61.9259     9.2911     3.1829     3.2008   -95.5492
 3240.5000   155.3976   -61.6093     9.2769     3.4167     3.4800   -92.7172
 3241.0000   145.1875   -61.4428     9.2785     4.4703     4.3168   -86.8057
 3241.5000   129.8647   -62.0263     9.2801     5.5414     5.1360   -43.8094
 3242.0000   119.0523   -62.7639     9.2813     6.1064     6.0266   -28.9742
 3242.5000   115.7700   -63.2002     9.2826     6.5453     6.2022   -44.2287
 3243.0000   117.9298   -63.6366     9.2839     6.8238     6.3760   -59.4833
 3243.5000   121.5625   -63.9185     9.2855     6.9199     6.5579   -67.1893
 3244.0000   122.1881   -64.0536     9.2713     7.3880     6.8869   -59.8503
 3244.5000   118.3111   -64.1888     9.2729     7.8953     7.2833   -52.6162
 3245.0000   112.9281   -64.1695     9.2744     8.0065     7.4393   -60.3746
 3245.5000   108.7422   -64.1541     9.2757     8.1192     7.5987   -75.5768
 3246.0000   107.5606   -64.1386     9.2770     8.2337     7.7079   -98.3857
 3246.5000   108.5080   -64.1193     9.2786     8.3496     7.6583   -98.5372
 3247.0000   108.2403   -64.1039     9.2947     8.2930     7.6612   -98.7469
 3247.5000   107.6612   -64.0884     9.2808     8.2944     7.6112   -98.9566
 3248.0000   109.5071   -63.9185     9.2827     8.2382     7.5093   -91.6701
 3248.5000   114.6662   -63.9030     9.2840     8.1260     7.3074   -69.4434
 3249.0000   116.8056   -63.7370     9.2698     7.7884     7.0611   -47.1119
 3249.5000   117.4389   -63.7214     9.2714     7.2758     6.8184   -32.0545
 3250.0000   118.3735   -63.5516     9.2729     6.9324     6.3250   -17.5987
 3250.5000   121.4242   -63.3856     9.2742     6.5144     5.9445   -25.3570
 3251.0000   123.5636   -62.9183     9.2755     6.1643     5.7442   -33.0630
 3251.5000   125.7030   -62.7413     9.2619     6.3382     5.6281   -33.3251
 3252.0000   126.9795   -62.5824     9.2446     7.2305     6.2050   -33.5348
 3252.5000   126.6762   -62.4594     9.2367     8.4218     7.2306   -49.1158
 3253.0000   122.1891   -62.5446     9.2336     8.9026     7.9747   -26.8651
 3253.5000   112.8827   -62.4024     9.2500     8.8423     8.1992     2.7189
 3254.0000   106.6918   -62.3895     9.2661     6.8773     7.6528    17.4274
 3254.5000   106.1679   -62.3767     9.2823     5.9756     6.5724    17.1435
 3255.0000   111.8078   -62.3638     9.2985     5.4880     5.4022    24.3628
 3255.5000   120.1822   -62.3509     9.3149     5.1154     4.6430    23.1356
 3256.0000   125.6296   -62.3373     9.3462     5.1513     4.5174   -36.2533
 3256.5000   125.9501   -62.3238     9.3623     5.3338     4.5830   -59.0260
 3257.0000   122.6687   -62.3091     9.3785     5.4834     4.8112   -66.8063
 3257.5000   124.1268   -62.2963     9.3795     5.5989     4.9137   -67.0915
 3258.0000   129.6547   -62.1325     9.3654     5.4463     4.9150   -67.4453
 3258.5000   130.8853   -61.9661     9.3818     5.1889     4.8486   -67.7292
 3259.0000   129.7062   -61.9532     9.3828     4.9401     4.7137   -60.5170
 3259.5000   127.3223   -61.6392     9.3989     4.8090     4.4640   -53.3048
 3260.0000   128.5594   -61.3251     9.4154     4.7105     4.2536   -30.1182
 3260.5000   132.1996   -61.0105     9.4467     4.6138     4.0531    -8.8952
 3261.0000   133.4302   -60.9949     9.4477     4.4264     3.9432    13.2385
 3261.5000   131.3475   -60.8315     9.4487     4.0082     3.5957    20.5218
 3262.0000   127.1319   -60.8186     9.4497     3.8014     3.3406    19.9640
 3262.5000   126.5797   -60.9563     9.4661     3.9357     3.4355   -10.1732
 3263.0000   130.2264   -60.9402     9.4823     4.0746     3.6073   -32.9459
 3263.5000   132.6618   -61.0798     9.5136     4.2477     3.7878   -33.2300
 3264.0000   133.2899   -61.2157     9.5297     4.4319     3.8954   -18.5215
 3264.5000   133.3157   -61.2028     9.5459     4.5530     3.9237   -18.8156
 3265.0000   132.1431   -61.1898     9.5471     4.7795     3.9796   -19.1603
 3265.5000   130.3616   -61.3750     9.5482     5.0172     4.1787   -26.9406
 3266.0000   127.0741   -61.4639     9.5426     5.2304     4.3877   -34.7209
 3266.5000   122.5818   -61.4503     9.5350     5.5083     4.6543   -20.0124
 3267.0000   118.9097   -61.4365     9.5274     5.8441     5.0087   -12.8001
 3267.5000   115.4108   -61.5742     9.5219     6.0087     5.1509    -5.5878
 3268.0000   113.0269   -61.5581     9.5231     6.2640     5.3341     1.6244
 3268.5000   114.2575   -61.5453     9.5241     6.5302     5.4856    -6.2268
 3269.0000   117.8977   -61.5331     9.5252     6.7608     5.6028    -6.5217
 3269.5000   122.1468   -61.5195     9.5264     6.8555     5.6825   -14.3621
 3270.0000   126.0882   -61.3529     9.5274     6.9516     5.7634   -29.6386
 3270.5000   123.4031   -61.3400     9.5284     7.0004     5.7649   -52.4114
 3271.0000   120.7180   -61.3271     9.5294     7.0008     5.8066   -52.6987
 3271.5000   118.3341   -61.4681     9.5153     7.0014     5.8085   -53.0504
 3272.0000   118.6675   -61.4518     9.5164     6.9534     5.7695   -30.7746
 3272.5000   120.5005   -61.4359     9.5176     6.8584     5.7311    -8.6408
 3273.0000   123.2371   -61.5736     9.5337     6.7645     5.6930    13.5639
 3273.5000   123.9035   -61.4091     9.5348     6.6719     5.6537    35.7687
 3274.0000   122.0838   -61.3976     9.5358     6.6205     5.5409    20.4212
 3274.5000   124.2244   -61.3749     9.5370     6.5356     5.4657     5.1447
 3275.0000   125.4550   -61.2177     9.5380     6.4461     5.3549   -10.1317
 3275.5000   123.9748   -61.2049     9.5390     6.3141     5.2460   -10.4197
 3276.0000   121.2897   -61.1920     9.5400     6.2709     5.1751    -3.2745
 3276.5000   115.7384   -61.4803     9.5411     6.1851     5.1052     3.9377
 3277.0000   112.3050   -61.7687     9.5423     6.1004     5.1068     3.6537
 3277.5000   114.7469   -62.0570     9.5433     5.9754     5.0729    -4.1264
 3278.0000   117.7847   -62.1947     9.5443     5.8530     4.9697   -19.4740
 3278.5000   121.1237   -62.1787     9.5453     5.7684     4.8649   -27.2542
 3279.0000   126.2764   -62.1657     9.5314     5.6546     4.8029   -27.5382
 3279.5000   128.1093   -62.1497     9.5324     5.6550     4.7710   -35.3185
