~VERSION INFORMATION
 VERS.                2.0:   CWLS LOG ASCII STANDARD - VERSION 2.0
 WRAP.                 NO:   ONE LINE PER DEPTH STEP
~WELL INFORMATION
#MNEM.UNIT      DATA TYPE    INFORMATION
#----------   ------------   ------------------------------
 STRT.F           42.0000:   START DEPTH
 STOP.F         2778.0000:   STOP DEPTH
 STEP.F            0.5000:   STEP LENGTH
 NULL.          -999.2500:   NO VALUE
 COMP.    FENIX & SCISSON:   COMPANY
 WELL. FENIX & SCISSON SHX #56-23:   WELL
 FLD .        TEAPOT DOME:   FIELD
 LOC .      S23 T38N R78W:   LOCATION
 CNTY.            NATRONA:   COUNTY
 STAT.            WYOMING:   STATE
 CTRY. UNITED STATES OF AMERICA:   COUNTRY
 SRVC.           BIRDWELL:   SERVICE COMPANY
 DATE.        29-AUG-1979:   LOGDATE
 API .     49025107920000:   API NUMBER
~CURVE INFORMATION
#MNEM.UNIT       API CODE    CURVE DESCRIPTION
#----------   ------------   ------------------------------
 DEPT.F                  :   
 GRD .GAPI   45 310 01 00:   GAMMA RAY FROM DENSITY LOG
 CALD.IN     45 280 60 00:   CALIPER FROM DENSITY LOG
 RHOB.G/C3   45 350 01 00:   BULK DENSITY
 CORR.G/C3   45 356 01 00:   DENSITY CORRECTION
 ILD .OHMM   07 120 46 00:   DEEP INDUCTION RESISTIVITY
 SFL .OHMM   07 220 01 00:   SHALLOW FOCUSED LOG RESISTIVITY
 SPR .MV     07 010 01 00:   SPONTANEOUS POTENTIAL
~PARAMETER INFORMATION
#MNEM.UNIT          VALUE    DESCRIPTION
#----------   ------------   ------------------------------
 EKB .F         5361.0000:   Kelly bushing
 EGL .F         5351.0000:   Ground level
 EDF .F         5360.0000:   Drilling floor
 TD  .F         1465.0000:   Total depth
 DATE.        29-AUG-1979:   Date logged
 CLNT.            A2DTECH:   Client Code
 PD  .                 GL:   Permanent Datum
 EPD .F              5351:   Elevation Permanent Datum
 LMF .                 KB:   Log Measured From
 DMF .                 KB:   Drilling Measured From
 DAPD.F                 9:   Feet Above Permanent Datum
 DD  .F              1465:   Depth driller
 DL  .F              1462:   Depth logger
 BLI .F              1457:   Bottom log interval
 TLI .F                40:   Top log interval
 CBD1.F                40:   Casing driller 1
 CBL1.F                40:   Casing logger 1
 BS1 .IN            12.25:   Bit size
 BSD1.F              1465:   Depth drilled with bit1
 DFT .            GEL/MUD:   Type fluid in hole
 DFD .                9.5:   Density
 DFV .                 40:   Viscosity
 DFPH.                9.0:   pH
 DFL .                 40:   Fluid loss
 MSS .            MUD PIT:   Source of sample
 RMS .OHMM            2.6:   Rm
 MST .F                68:   Rm Meas. temp.
 RMF .OHMM            1.8:   Rmf
 MFST.F                78:   Rmf Meas. temp.
 RMC .OHMM            2.8:   Rmc
 MCST.F                76:   Rmc Meas. temp.
 MFSS.               MEAS:   Source Rmf.
 MCSS.               MEAS:   Source Rmc.
 RMB .OHMM           1.96:   Rm. at BHT
 BHT .F                90:   BHT.
 TCS .HRS               5:   Time Circ. stopped
 MRT .F                90:   Maximum recorded temp.
 LUN .               2959:   Logging unit number
 LUL .             CASPER:   Logging unit location
 ENGI.         B. ROLLINS:   Recorded By
 WITN.              AMEND:   Witnessed by
 ORIG.           5" PRINT:   Origin of data
 UWI .     49025107920000:   Unique Well ID
 DICO. A2D TECHNOLOGIES, INC.:   Digitizing Company
~OTHER INFORMATION
~A   DEPT       GRD      CALD       RHOB         CORR      ILD        SFL         SPR  
# ...
 1589.0000   144.2790    10.3020     2.5140     0.2390  -999.2500  -999.2500  -999.2500
 1589.5000   142.6830    10.2990     2.5210     0.2440  -999.2500  -999.2500  -999.2500
 1590.0000   141.9980    10.2950     2.5280     0.2440  -999.2500  -999.2500  -999.2500
 1590.5000   146.1380    10.2910     2.5220     0.2420  -999.2500  -999.2500  -999.2500
 1591.0000   154.5960    10.2870     2.5220     0.2430  -999.2500  -999.2500  -999.2500
 1591.5000   160.0240    10.2840     2.5260     0.2470  -999.2500  -999.2500  -999.2500
 1592.0000   159.0460    10.2800     2.5300     0.2510  -999.2500  -999.2500  -999.2500
 1592.5000   157.1080    10.2760     2.5330     0.2630  -999.2500  -999.2500  -999.2500
 1593.0000   157.9430    10.2720     2.5360     0.2640  -999.2500  -999.2500  -999.2500
 1593.5000   159.7290    10.2690     2.5390     0.2640  -999.2500  -999.2500  -999.2500
 1594.0000   159.2590    10.2650     2.5480     0.2670  -999.2500  -999.2500  -999.2500
 1594.5000   154.7290    10.2610     2.5620     0.2770  -999.2500  -999.2500  -999.2500
 1595.0000   150.1840    10.2570     2.5710     0.2730  -999.2500  -999.2500  -999.2500
 1595.5000   146.2700    10.2540     2.5490     0.2540  -999.2500  -999.2500  -999.2500
 1596.0000   144.7480    10.2500     2.5240     0.2440  -999.2500  -999.2500  -999.2500
 1596.5000   142.2930    10.2460     2.5300     0.2470  -999.2500  -999.2500  -999.2500
 1597.0000   141.1030    10.2420     2.5350     0.2520  -999.2500  -999.2500  -999.2500
 1597.5000   141.0270    10.2400     2.5400     0.2540  -999.2500  -999.2500  -999.2500
 1598.0000   142.6270    10.2440     2.5320     0.2560  -999.2500  -999.2500  -999.2500
 1598.5000   144.9840    10.2480     2.5240     0.2580  -999.2500  -999.2500  -999.2500
 1599.0000   147.2400    10.2530     2.5160     0.2690  -999.2500  -999.2500  -999.2500
 1599.5000   148.8500    10.2570     2.5060     0.2930  -999.2500  -999.2500  -999.2500
 1600.0000   149.1760    10.2620     2.5150     0.3390  -999.2500  -999.2500  -999.2500
 1600.5000   150.3100    10.2660     2.5660     0.3640  -999.2500  -999.2500  -999.2500
 1601.0000   152.8010    10.2710     2.5950     0.3540  -999.2500  -999.2500  -999.2500
 1601.5000   155.9010    10.2750     2.5330     0.2790  -999.2500  -999.2500  -999.2500
 1602.0000   157.2860    10.2800     2.5120     0.2400  -999.2500  -999.2500  -999.2500
 1602.5000   156.8340    10.2840     2.5170     0.2480  -999.2500  -999.2500  -999.2500
 1603.0000   154.4450    10.2890     2.5220     0.2550  -999.2500  -999.2500  -999.2500
 1603.5000   152.0630    10.2930     2.5270     0.2630  -999.2500  -999.2500  -999.2500
 1604.0000   149.9350    10.2980     2.5300     0.2700  -999.2500  -999.2500  -999.2500
 1604.5000   149.5330    10.3020     2.5600     0.2780  -999.2500  -999.2500  -999.2500
 1605.0000   154.8170    10.3070     2.5530     0.2690  -999.2500  -999.2500  -999.2500
 1605.5000   162.7600    10.3110     2.5250     0.2530  -999.2500  -999.2500  -999.2500
 1606.0000   163.6080    10.3160     2.5160     0.2400  -999.2500  -999.2500  -999.2500
 1606.5000   159.2910    10.3170     2.5170     0.2380  -999.2500  -999.2500  -999.2500
 1607.0000   155.8860    10.3090     2.5190     0.2360  -999.2500  -999.2500  -999.2500
 1607.5000   155.8660    10.3010     2.5200     0.2350  -999.2500  -999.2500  -999.2500
 1608.0000   163.4800    10.2940     2.5100     0.2330  -999.2500  -999.2500  -999.2500
 1608.5000   159.4360    10.2860     2.5150     0.2330  -999.2500  -999.2500  -999.2500
 1609.0000   153.8150    10.2780     2.5300     0.2320  -999.2500  -999.2500  -999.2500
 1609.5000   154.5940    10.2710     2.5300     0.2320  -999.2500  -999.2500  -999.2500
 1610.0000   157.8120    10.2630     2.5290     0.2330  -999.2500  -999.2500  -999.2500
 1610.5000   167.0620    10.2560     2.5320     0.2420  -999.2500  -999.2500  -999.2500
 1611.0000   170.5870    10.2480     2.5430     0.2510  -999.2500  -999.2500  -999.2500
 1611.5000   172.3360    10.2410     2.5490     0.2500  -999.2500  -999.2500  -999.2500
 1612.0000   170.2020    10.2330     2.5430     0.2460  -999.2500  -999.2500  -999.2500
 1612.5000   167.6960    10.2250     2.5270     0.2430  -999.2500  -999.2500  -999.2500
 1613.0000   170.1580    10.2190     2.5150     0.2400  -999.2500  -999.2500  -999.2500
 1613.5000   169.3430    10.2090     2.5120     0.2400  -999.2500  -999.2500  -999.2500
 1614.0000   167.1970    10.2070     2.5050     0.2400  -999.2500  -999.2500  -999.2500
 1614.5000   165.7110    10.1700     2.4990     0.2450  -999.2500  -999.2500  -999.2500
 1615.0000   169.6480    10.1560     2.4380     0.2560  -999.2500  -999.2500  -999.2500
 1615.5000   178.2880    10.1970     2.3870     0.2640  -999.2500  -999.2500  -999.2500
 1616.0000   187.4690    10.3300     2.3310     0.3620  -999.2500  -999.2500  -999.2500
 1616.5000   183.7010    10.9720     2.3740     0.4500  -999.2500  -999.2500  -999.2500
 1617.0000   176.2130    11.4110     2.3550     0.5000  -999.2500  -999.2500  -999.2500
 1617.5000   168.7280    11.4390     2.2750     0.4910  -999.2500  -999.2500  -999.2500
 1618.0000   165.3060    11.5110     2.1970     0.4860  -999.2500  -999.2500  -999.2500
 1618.5000   167.1030    11.7150     2.1610     0.4960  -999.2500  -999.2500  -999.2500
 1619.0000   173.1110    12.0840     2.1870     0.5000  -999.2500  -999.2500  -999.2500
 1619.5000   175.7240    12.0850     2.2820     0.5000  -999.2500  -999.2500  -999.2500
 1620.0000   174.9740    11.8100     2.3920     0.4910  -999.2500  -999.2500  -999.2500
 1620.5000   174.3280    11.5240     2.3630     0.4770  -999.2500  -999.2500  -999.2500
 1621.0000   173.4860    11.4820     2.3080     0.4920  -999.2500  -999.2500  -999.2500
 1621.5000   172.9390    11.7110     2.2570     0.5000  -999.2500  -999.2500  -999.2500
 1622.0000   171.6480    12.0620     2.1240     0.5000  -999.2500  -999.2500  -999.2500
 1622.5000   169.8700    12.3900     2.0030     0.5000  -999.2500  -999.2500  -999.2500
 1623.0000   162.5250    12.8930     2.0010     0.5000  -999.2500  -999.2500  -999.2500
 1623.5000   154.5100    12.6370     2.0900     0.5000  -999.2500  -999.2500  -999.2500
 1624.0000   156.4260    11.9700     2.1970     0.4890  -999.2500  -999.2500  -999.2500
 1624.5000   160.0770    11.9130     2.3040     0.4790  -999.2500  -999.2500  -999.2500
 1625.0000   160.5760    11.8230     2.4650     0.4930  -999.2500  -999.2500  -999.2500
 1625.5000   162.2220    11.7540     2.4450     0.4730  -999.2500  -999.2500  -999.2500
 1626.0000   168.8800    11.6800     2.3920     0.3990  -999.2500  -999.2500  -999.2500
 1626.5000   167.5660    11.6060     2.3390     0.4080  -999.2500  -999.2500  -999.2500
 1627.0000   166.9350    11.5330     2.3500     0.4210  -999.2500  -999.2500  -999.2500
 1627.5000   163.2450    11.4570     2.4280     0.3750  -999.2500  -999.2500  -999.2500
 1628.0000   160.4950    11.3970     2.4570     0.3240  -999.2500  -999.2500  -999.2500
 1628.5000   162.5260    11.3970     2.4640     0.3340  -999.2500  -999.2500  -999.2500
 1629.0000   168.9090    11.3910     2.4850     0.3730  -999.2500  -999.2500  -999.2500
 1629.5000   164.8650    11.4300     2.5140     0.4260  -999.2500  -999.2500  -999.2500
 1630.0000   161.4280    11.5000     2.5390     0.4200  -999.2500  -999.2500  -999.2500
 1630.5000   164.7550    11.5700     2.4840     0.4080  -999.2500  -999.2500  -999.2500
 1631.0000   164.2680    11.6410     2.4930     0.4130  -999.2500  -999.2500  -999.2500
 1631.5000   161.0320    11.7080     2.4850     0.4160  -999.2500  -999.2500  -999.2500
 1632.0000   154.7360    11.7860     2.4680     0.4170  -999.2500  -999.2500  -999.2500
 1632.5000   158.5450    11.8310     2.4740     0.4050  -999.2500  -999.2500  -999.2500
 1633.0000   162.9970    11.7990     2.4480     0.3520  -999.2500  -999.2500  -999.2500
 1633.5000   167.7500    11.3800     2.4580     0.3410  -999.2500  -999.2500  -999.2500
 1634.0000   170.1310    11.0260     2.5010     0.3410  -999.2500  -999.2500  -999.2500
