~VERSION INFORMATION
 VERS.                2.0:   CWLS LOG ASCII STANDARD - VERSION 2.0
 WRAP.                 NO:   ONE LINE PER DEPTH STEP
~WELL INFORMATION
#MNEM.UNIT      DATA TYPE    INFORMATION
#----------   ------------   ------------------------------
 STRT.F            3.5000:   START DEPTH
 STOP.F         5648.0000:   STOP DEPTH
 STEP.F            0.5000:   STEP LENGTH
 NULL.          -999.2500:   NO VALUE
 COMP.       FLUOR DANIEL:   COMPANY
 WELL.   FLUOR "X" #46-10:   WELL
 FLD .          N.P.R. #3:   FIELD
 LOC .      S10 T38N R78W:   LOCATION
 CNTY.            NATRONA:   COUNTY
 STAT.            WYOMING:   STATE
 CTRY. UNITED STATES OF AMERICA:   COUNTRY
 SRVC.      WESTERN ATLAS:   SERVICE COMPANY
 DATE.        25-MAR-1996:   LOGDATE
 API .     49025227700000:   API NUMBER
~CURVE INFORMATION
#MNEM.UNIT       API CODE    CURVE DESCRIPTION
#----------   ------------   ------------------------------
 DEPT.F                  :   
 CALD.IN     45 280 60 00:   CALIPER FROM DENSITY LOG
 ZDEN.G/C3   45 350 01 00:   BULK DENSITY
 ZCOR.G/C3   45 356 01 00:   DENSITY CORRECTION
 TEND.LBS    45 635 01 00:   TENSION FORM DENSITY LOG
 GRD .GAPI   45 310 01 00:   GAMMA RAY FROM DENSITY LOG
 CNC .DEC    42 890 01 00:   NEUTRON POROSITY LIMESTONE
 SPR .MV     07 010 01 00:   SPONTANEOUS POTENTIAL
 RD  .OHMM   07 220 10 00:   RESISTIVITY DEEP
 RS  .OHMM   07 220 09 00:   RESISTIVITY SHALLOW
~PARAMETER INFORMATION
#MNEM.UNIT          VALUE    DESCRIPTION
#----------   ------------   ------------------------------
 EKB .F         5216.0000:   Kelly bushing
 EGL .F         5206.0000:   Ground level
 EDF .F         5215.0000:   Drilling floor
 TD  .F         5650.0000:   Total depth
 CLNT.            A2DTECH:   Client Code
 SL  . 1493' FSL & 2330' FWL:   Surface Location
 PD  .                 GL:   Permanent Datum
 EPD .F              5206:   Elevation Permanent Datum
 LMF .                 KB:   Log Measured From
 DMF .                 KB:   Drilling Measured From
 DAPD.F                10:   Feet Above Permanent Datum
 DATE.        25-MAR-1996:   Date Logged [DD-MMM-YYYY]
 DD  .F              5650:   Depth driller
 DL  .F              5648:   Depth logger
 BLI .F              5636:   Bottom log interval
 TLI .F                 0:   Top log interval
 CS1 .IN            9.625:   Casing size
 CBD1.      9.625" @ 498':   Casing driller 1
 CBL1.F               496:   Casing logger 1
 BS1 .IN             8.75:   Bit size
 BSD1.F              5650:   Depth drilled with bit1
 DFT .           CHEM GEL:   Type fluid in hole
 DFD .                9.6:   Density
 DFV .                 54:   Viscosity
 DFPH.                9.5:   pH
 DFL .                8.4:   Fluid loss
 MSS .           FLOWLINE:   Source of sample
 RMS .OHMM          0.635:   Rm
 MST .F                68:   Rm Meas. temp.
 RMF .OHMM          0.483:   Rmf
 MFST.F                68:   Rmf Meas. temp.
 MFSS.               MEAS:   Source Rmf.
 RMC .OHMM          0.789:   Rmc
 MCST.F                68:   Rmc Meas. temp.
 MCSS.               MEAS:   Source Rmc.
 RMB .OHMM           0.26:   Rm. at BHT
 BHT .F               166:   BHT.
 TCS .HRS               6:   Time Circ. stopped
 MRT .F               166:   Maximum recorded temp.
 LUN .            HL-6530:   Logging unit number
 LUL .             CASPER:   Logging unit location
 ENGI.        VERN RAUTIO:   Recorded By
 WITN. LORRAINE LAFRENIERE:   Witnessed by
 ORIG.           5" PRINT:   Origin of data
 UWI .     49025227700000:   Unique Well ID
 DICO. A2D TECHNOLOGIES, INC.:   Digitizing Company
~OTHER INFORMATION
~A  DEPTH     CALD       ZDEN       ZCOR       TEND        GRD        CNC        SPR         RD         RS
# ...
 4566.0000     9.3373     2.6929     0.0228   -29.5485   102.4096     0.1932   -74.8678    23.5898    24.0053
 4566.5000     9.3382     2.6847     0.0213   -25.8964   112.3494     0.2029   -74.7127    23.7513    23.8358
 4567.0000     9.3389     2.6727     0.0349   -25.8964   115.0602     0.1980   -74.2966    23.7475    23.8327
 4567.5000     9.3547     2.6456     0.0815   -35.8566   111.1446     0.1944   -74.0419    23.9093    23.8297
 4568.0000     9.3554     2.6472     0.0770   -19.1733   108.7349     0.1998   -73.4898    24.9189    25.0093
 4568.5000     9.3411     2.6629     0.0334    -5.9761   108.4337     0.1752   -72.8815    28.8126    28.3257
 4569.0000     9.3570     2.6832     0.0305    -5.9761   108.7349     0.1505   -72.2721    37.2153    33.9095
 4569.5000     9.3577     2.6930     0.0320    -5.9761    99.6988     0.1223   -71.6638    49.0752    45.3489
 4570.0000     9.3584     2.6892     0.0305   -19.4935    82.5301     0.0934   -70.9048    54.0605    52.8052
 4570.5000     9.3592     2.6759     0.0245   -35.8566    73.1928     0.0723   -70.4472    59.1415    55.8078
 4571.0000     9.3601     2.6712     0.0110   -25.8964    66.6925     0.0684   -70.2904    62.0689    56.5771
 4571.5000     9.3608     2.6697     0.0005   -25.8964    61.7470     0.0651   -69.9838    62.0589    56.5680
 4572.0000     9.3615     2.6674     0.0021   -25.8964    60.2410     0.0621   -69.8281    60.3569    55.0155
 4572.5000     9.3622     2.6621     0.0021   -20.9163    63.2530     0.0597   -69.8219    58.7014    53.4820
 4573.0000     9.3630     2.6591     0.0036   -15.9363    66.3077     0.0591   -69.8170    58.6922    53.8688
 4573.5000     9.3638     2.6599     0.0052   -16.2345    67.7711     0.0588   -69.8121    59.0922    54.2379
 4574.0000     9.3645     2.6591     0.0052   -25.2461    66.5663     0.0591   -69.8059    59.4948    54.6061
 4574.5000     9.3652     2.6591     0.0067   -16.8307    64.1566     0.0594   -69.8010    59.4853    54.5973
 4575.0000     9.3509     2.6591     0.0053    -5.1638    60.5422     0.0600   -69.7961    58.6601    53.8394
 4575.5000     9.3517     2.6554     0.0023     3.9841    58.1325     0.0615   -70.0928    56.2673    51.2852
 4576.0000     9.3525     2.6486     0.0008     3.9841    58.1325     0.0630   -70.0867    52.1349    47.1881
 4576.5000     9.3532     2.6441    -0.0022     3.9841    60.8434     0.0642   -70.2338    48.9807    44.9494
 4577.0000     9.3539     2.6418    -0.0036    -5.9761    64.7590     0.0651   -70.3786    47.6374    44.0196
 4577.5000     9.3699     2.6501    -0.0036   -25.8964    66.8675     0.0666   -70.9769    46.9751    43.4071
 4578.0000     9.3553     2.6539    -0.0036   -27.6394    68.3735     0.0681   -71.5753    46.3235    42.8046
 4578.5000     9.3562     2.6569     0.0010   -35.7671    69.5783     0.0705   -71.8720    45.6809    42.2104
 4579.0000     9.3419     2.6569     0.0089   -55.7848    71.9880     0.0745   -71.8658    44.3558    41.6232
 4579.5000     9.3426     2.6606     0.0176   -55.7795    75.0000     0.0811   -71.8597    42.6145    41.0454
 4580.0000     9.3584     2.6622     0.0206   -51.5083    78.6145     0.0871   -71.5531    40.3143    39.3698
 4580.5000     9.3592     2.6629     0.0221   -35.8566    80.7229     0.0913   -71.5482    37.8653    37.2421
 4581.0000     9.3600     2.6622     0.0237   -25.8964    82.2289     0.0934   -72.1466    36.5814    34.9873
 4581.5000     9.3607     2.6622     0.0207   -35.8566    81.6265     0.0997   -72.5929    35.5781    33.7922
 4582.0000     9.3614     2.6622     0.0192   -41.0359    79.8193     0.1045   -73.0405    34.6024    32.8638
 4582.5000     9.3623     2.6629     0.0177   -55.7769    81.0392     0.1078   -73.3373    33.6523    32.4076
 4583.0000     9.3630     2.6659     0.0178   -45.8167    85.2410     0.1102   -73.6340    34.1180    32.1808
 4583.5000     9.3637     2.6674     0.0178   -45.8167    88.2530     0.1075   -73.6278    35.5587    32.4468
 4584.0000     9.3645     2.6682     0.0148   -35.8566    87.0482     0.1042   -73.4721    36.8046    34.0031
 4584.5000     9.3804     2.6667     0.0118   -25.8964    85.1997     0.1006   -73.3151    37.5730    36.1851
 4585.0000     9.3810     2.6606     0.0074    -5.9761    79.8193     0.0969   -73.3102    38.6213    37.2317
 4585.5000     9.3818     2.6561     0.0014     3.9841    77.7108     0.0934   -73.4561    38.6162    37.7106
 4586.0000     9.3825     2.6561     0.0104    -0.4980    76.2048     0.0973   -73.6020    37.0399    35.4264
 4586.5000     9.3833     2.6554     0.0135   -15.9363    76.8286     0.0997   -73.7479    36.2743    34.2163
 4587.0000     9.3841     2.6501     0.0105   -25.8964    78.3133     0.0981   -73.8929    36.5215    34.2108
 4587.5000     9.3848     2.6388     0.0045   -16.1766    79.5181     0.0955   -74.0385    37.8011    34.6835
 4588.0000     9.3855     2.6358     0.0015    -6.4076    78.0120     0.0946   -74.1844    39.6721    36.6545
 4588.5000     9.3864     2.6433     0.0016   -15.5418    75.8748     0.0946   -74.1783    40.2199    39.8256
 4589.0000     9.3871     2.6479     0.0001   -15.9363    76.2048     0.0946   -74.1733    39.6607    38.7313
 4589.5000     9.3878     2.6501     0.0001   -15.9363    79.5181     0.1051   -74.1672    37.5199    35.6383
 4590.0000     9.3886     2.6411     0.0002   -27.4121    85.8434     0.1162   -74.1623    35.4948    33.2485
 4590.5000     9.3894     2.6388     0.0017   -29.6640    88.5542     0.1126   -74.0065    34.5202    32.7869
 4591.0000     9.3749     2.6381     0.0047   -31.9347    87.9518     0.1098   -73.8507    34.5158    34.1736
 4591.5000     9.3606     2.6426     0.0078   -34.1689    85.5422     0.1054   -73.8446    35.9744    36.1156
 4592.0000     9.3464     2.6471     0.0108   -35.8674    81.0241     0.1012   -74.1414    39.1346    36.3619
 4592.5000     9.3473     2.6501     0.0138   -35.8566    75.9036     0.0982   -74.1365    39.6237    35.6086
 4593.0000     9.3480     2.6479     0.0169   -35.8566    76.5060     0.1001   -74.4332    38.2701    35.1131
 4593.5000     9.3487     2.6418     0.0184   -35.8566    84.6386     0.1027   -74.7299    37.4789    34.3868
 4594.0000     9.3494     2.6403     0.0184   -32.8685    89.4578     0.1015   -74.5730    37.9952    33.9095
 4594.5000     9.3502     2.6411     0.0170   -45.8167    88.2530     0.0943   -74.1154    38.5209    34.8563
 4595.0000     9.3509     2.6411     0.0095   -45.8167    84.0361     0.0820   -73.8077    40.1475    36.8371
 4595.5000     9.3517     2.6448     0.0035   -45.8167    76.2048     0.0699   -73.8028    44.2245    41.1482
 4596.0000     9.3525     2.6576     0.0020   -59.0139    67.4699     0.0633   -73.7979    48.7170    45.1519
 4596.5000     9.3532     2.6712     0.0005   -35.8566    60.5422     0.0573   -73.7917    54.7916    51.6979
 4597.0000     9.3539     2.6802     0.0006   -35.8566    57.2289     0.0527   -73.7873    62.9143    55.3978
 4597.5000     9.3548     2.6817     0.0021   -35.8566    54.5181     0.0492   -73.7160    65.5730    56.9731
 4598.0000     9.3555     2.6697     0.0021   -37.5996    51.5060     0.0477   -73.4741    65.1124    57.7333
 4598.5000     9.3562     2.6622     0.0037   -45.8167    49.6988     0.0471   -73.1675    63.2571    56.9301
 4599.0000     9.3571     2.6569     0.0097   -45.8167    49.3976     0.0489   -73.1626    58.6759    54.2008
 4599.5000     9.3425     2.6508     0.0128   -35.8566    50.9036     0.0534   -73.0068    52.8841    48.1988
 4600.0000     9.3434     2.6494     0.0143   -33.0899    56.3253     0.0588   -73.0007    47.3353    43.9517
 4600.5000     9.3441     2.6494     0.0188   -27.3351    63.5603     0.0633   -73.1478    44.5707    41.0848
 4601.0000     9.3599     2.6471     0.0220   -15.9363    67.1818     0.0693   -73.1417    41.7917    39.1306
 4601.5000     9.3608     2.6426     0.0249   -15.9363    67.7898     0.0744   -73.2864    38.9976    36.5007
 4602.0000     9.3604     2.6426     0.0249     3.9841    68.3978     0.0843   -73.4335    36.3902    34.5247
