~VERSION INFORMATION
 VERS.                2.0:   CWLS LOG ASCII STANDARD - VERSION 2.0
 WRAP.                 NO:   ONE LINE PER DEPTH STEP
~WELL INFORMATION
#MNEM.UNIT      DATA TYPE    INFORMATION
#----------   ------------   ------------------------------
 STRT.F           10.0000:   START DEPTH
 STOP.F         2950.0000:   STOP DEPTH
 STEP.F            0.5000:   STEP LENGTH
 NULL.          -999.2500:   NO VALUE
 COMP.    FENIX & SCISSON:   COMPANY
 WELL.   PENIX SHX #11-23:   WELL
 FLD .  TEAPOT DOME NPR-3:   FIELD
 LOC .      S23 T38N R78W:   LOCATION
 CNTY.            NATRONA:   COUNTY
 STAT.            WYOMING:   STATE
 CTRY. UNITED STATES OF AMERICA:   COUNTRY
 SRVC.           BIRDWELL:   SERVICE COMPANY
 DATE.        19-MAY-1979:   LOGDATE
 API .     49025107790000:   API NUMBER
~CURVE INFORMATION
#MNEM.UNIT       API CODE    CURVE DESCRIPTION
#----------   ------------   ------------------------------
 DEPT.F                  :   
 ILD .OHMM   05 120 46 00:   INDUCTION LOG DEEP
 SN  .OHMM   05 040 16 00:   SHORT NORMAL 16"
 CALD.IN     45 280 60 00:   CALIPER FROM DENSITY LOG
 GRD .GAPI   45 310 01 00:   GAMMA RAY FROM DENSITY LOG
 RHOB.G/C3   45 350 01 00:   BULK DENSITY
 CORR.G/C3   45 356 01 00:   DENSITY CORRECTION
~PARAMETER INFORMATION
#MNEM.UNIT          VALUE    DESCRIPTION
#----------   ------------   ------------------------------
 EKB .F         5275.0000:   Kelly bushing
 EGL .F         5265.0000:   Ground level
 EDF .F            0.0000:   Drilling floor
 TD  .F         2995.0000:   Total depth
 DATE.        19-MAY-1979:   Date logged
 CLNT.            A2DTECH:   Client Code
 SL  . 337' FNL & 237' FWL:   Surface Location
 PD  .                 GL:   Permanent Datum
 EPD .F              5265:   Elevation Permanent Datum
 LMF .                 KB:   Log Measured From
 DMF .                 KB:   Drilling Measured From
 DAPD.F                10:   Feet Above Permanent Datum
 DD  .F              2995:   Depth driller
 DL  .F              2950:   Depth logger
 BLI .F              2944:   Bottom log interval
 TLI .F              1050:   Top log interval
 CS1 .IN            9.625:   Casing size
 CBD1.     9.625" @ 2050':   Casing driller 1
 CBL1.F              1050:   Casing logger 1
 BS1 .IN             8.75:   Bit size
 BSD1.F              2995:   Depth drilled with bit1
 DFT . AIR/FORRATION FLUIDS:   Type fluid in hole
 TCS .HRS              12:   Time Circ. stopped
 LUN .               3029:   Logging unit number
 LUL .             CASPER:   Logging unit location
 ENGI.         B. ROLLINS:   Recorded By
 ORIG.         2.5" PRINT:   Origin of data
 UWI .     49025107790000:   Unique Well ID
 DICO. A2D TECHNOLOGIES, INC.:   Digitizing Company
~OTHER INFORMATION
~A   DEPT      ILD         SN       CALD        GRD       RHOB         CORR 
# ...
  946.0000  -999.2500  -999.2500    12.0810    75.0620     2.3900     0.0360
  946.5000  -999.2500  -999.2500    12.0800    75.2310     2.3950     0.0200
  947.0000  -999.2500  -999.2500    12.0800    75.1970     2.4020     0.0190
  947.5000  -999.2500  -999.2500    12.0790    75.2830     2.4110     0.0200
  948.0000  -999.2500  -999.2500    12.0780    75.4380     2.4100     0.0210
  948.5000  -999.2500  -999.2500    12.0770    75.8270     2.4020     0.0220
  949.0000  -999.2500  -999.2500    12.0770    76.7640     2.4030     0.0230
  949.5000  -999.2500  -999.2500    12.0760    77.5830     2.4110     0.0330
  950.0000  -999.2500  -999.2500    12.0750    78.1690     2.4180     0.0420
  950.5000  -999.2500  -999.2500    12.0740    76.7080     2.4210     0.0490
  951.0000  -999.2500  -999.2500    12.0740    75.6020     2.4080     0.0370
  951.5000  -999.2500  -999.2500    12.0730    74.5210     2.3930     0.0220
  952.0000  -999.2500  -999.2500    12.0720    76.6510     2.3870     0.0110
  952.5000  -999.2500  -999.2500    12.0710    78.7470     2.3890     0.0100
  953.0000  -999.2500  -999.2500    12.0710    78.9060     2.3900     0.0100
  953.5000  -999.2500  -999.2500    12.0700    77.4390     2.3940     0.0100
  954.0000  -999.2500  -999.2500    12.0690    76.2160     2.3990     0.0100
  954.5000  -999.2500  -999.2500    12.0680    75.4030     2.4010     0.0100
  955.0000  -999.2500  -999.2500    12.0680    75.5330     2.4000     0.0100
  955.5000  -999.2500  -999.2500    12.0670    75.7790     2.4080     0.0100
  956.0000  -999.2500  -999.2500    12.0670    77.8610     2.4170     0.0090
  956.5000  -999.2500  -999.2500    12.0660    76.5070     2.4210     0.0060
  957.0000  -999.2500  -999.2500    12.0660    77.1290     2.4140     0.0030
  957.5000  -999.2500  -999.2500    12.0650    78.6810     2.4200     0.0050
  958.0000  -999.2500  -999.2500    12.0640    80.2390     2.4310     0.0110
  958.5000  -999.2500  -999.2500    12.0640    81.2050     2.4420     0.0160
  959.0000  -999.2500  -999.2500    12.0630    80.3550     2.4520     0.0210
  959.5000  -999.2500  -999.2500    12.0630    78.4580     2.4620     0.0260
  960.0000  -999.2500  -999.2500    12.0620    79.4750     2.4730     0.0310
  960.5000  -999.2500  -999.2500    12.0620    80.5330     2.4700     0.0360
  961.0000  -999.2500  -999.2500    12.0610    79.7710     2.4710     0.0410
  961.5000  -999.2500  -999.2500    12.0610    78.9780     2.4690     0.0430
  962.0000  -999.2500  -999.2500    12.0600    81.0920     2.4570     0.0380
  962.5000  -999.2500  -999.2500    12.0600    80.0920     2.4430     0.0230
  963.0000  -999.2500  -999.2500    12.0590    77.6310     2.4490     0.0260
  963.5000  -999.2500  -999.2500    12.0590    78.4250     2.4600     0.0300
  964.0000  -999.2500  -999.2500    12.0580    79.6130     2.4610     0.0340
  964.5000  -999.2500  -999.2500    12.0580    80.9180     2.4570     0.0270
  965.0000  -999.2500  -999.2500    12.0570    81.8640     2.4610     0.0190
  965.5000  -999.2500  -999.2500    12.0570    82.3390     2.4670     0.0180
  966.0000  -999.2500  -999.2500    12.0560    82.6600     2.4740     0.0180
  966.5000  -999.2500  -999.2500    12.0560    83.0920     2.4800     0.0210
  967.0000  -999.2500  -999.2500    12.0550    83.7400     2.4860     0.0320
  967.5000  -999.2500  -999.2500    12.0550    87.1510     2.4840     0.0300
  968.0000  -999.2500  -999.2500    12.0540    88.1770     2.4700     0.0240
  968.5000  -999.2500  -999.2500    12.0530    84.4610     2.4550     0.0130
  969.0000  -999.2500  -999.2500    12.0530    80.6200     2.4440     0.0030
  969.5000  -999.2500  -999.2500    12.0520    80.1190     2.4390    -0.0010
  970.0000  -999.2500  -999.2500    12.0520    82.5890     2.4430     0.0040
  970.5000  -999.2500  -999.2500    12.0510    87.3550     2.4570     0.0110
  971.0000  -999.2500  -999.2500    12.0510    85.8600     2.4710     0.0180
  971.5000  -999.2500  -999.2500    12.0500    82.8980     2.4830     0.0250
  972.0000  -999.2500  -999.2500    12.0500    79.8300     2.4980     0.0320
  972.5000  -999.2500  -999.2500    12.0490    78.2080     2.4980     0.0380
  973.0000  -999.2500  -999.2500    12.0490    79.1380     2.4920     0.0340
  973.5000  -999.2500  -999.2500    12.0480    79.8680     2.4860     0.0300
  974.0000  -999.2500  -999.2500    12.0480    80.6520     2.4770     0.0240
  974.5000  -999.2500  -999.2500    12.0470    81.4640     2.4620     0.0160
  975.0000  -999.2500  -999.2500    12.0470    80.1740     2.4650     0.0070
  975.5000  -999.2500  -999.2500    12.0460    81.8120     2.4740     0.0030
  976.0000  -999.2500  -999.2500    12.0460    84.1680     2.4820     0.0080
  976.5000  -999.2500  -999.2500    12.0450    82.8630     2.4900     0.0220
  977.0000  -999.2500  -999.2500    12.0450    80.4720     2.4960     0.0220
  977.5000  -999.2500  -999.2500    12.0440    78.0750     2.4860     0.0190
  978.0000  -999.2500  -999.2500    12.0440    77.0010     2.4780     0.0160
  978.5000  -999.2500  -999.2500    12.0430    78.7940     2.4690     0.0130
  979.0000  -999.2500  -999.2500    12.0420    78.6710     2.4790     0.0110
  979.5000  -999.2500  -999.2500    12.0420    76.8950     2.4890     0.0160
  980.0000  -999.2500  -999.2500    12.0410    78.0760     2.4990     0.0210
  980.5000  -999.2500  -999.2500    12.0410    80.8420     2.4950     0.0260
  981.0000  -999.2500  -999.2500    12.0400    83.2310     2.4840     0.0200
  981.5000  -999.2500  -999.2500    12.0400    85.7070     2.4730     0.0130
  982.0000  -999.2500  -999.2500    12.0390    84.0590     2.4620     0.0060
  982.5000  -999.2500  -999.2500    12.0390    80.8930     2.4570    -0.0010
  983.0000  -999.2500  -999.2500    12.0380    80.6350     2.4680     0.0060
  983.5000  -999.2500  -999.2500    12.0380    83.1330     2.4780     0.0150
  984.0000  -999.2500  -999.2500    12.0370    85.8320     2.4890     0.0240
  984.5000  -999.2500  -999.2500    12.0370    85.9860     2.4970     0.0290
  985.0000  -999.2500  -999.2500    12.0360    82.5520     2.4870     0.0220
  985.5000  -999.2500  -999.2500    12.0360    79.7570     2.4800     0.0140
  986.0000  -999.2500  -999.2500    12.0350    79.9410     2.4820     0.0100
  986.5000  -999.2500  -999.2500    12.0350    81.1610     2.4810     0.0200
  987.0000  -999.2500  -999.2500    12.0340    83.2320     2.4820     0.0410
  987.5000  -999.2500  -999.2500    12.0340    84.4370     2.5020     0.0620
  988.0000  -999.2500  -999.2500    12.0330    88.6450     2.5320     0.0890
  988.5000  -999.2500  -999.2500    12.0330    89.9820     2.5250     0.1210
  989.0000  -999.2500  -999.2500    12.0320    90.4390     2.4810     0.1550
  989.5000  -999.2500  -999.2500    12.0310    97.1120     2.4450     0.1300
  990.0000  -999.2500  -999.2500    12.0310   100.3470     2.4380     0.1040
  990.5000  -999.2500  -999.2500    12.0300   108.1830     2.4400     0.1110
  991.0000  -999.2500  -999.2500    12.0300   102.6190     2.4210     0.1110
  991.5000  -999.2500  -999.2500    12.0300    98.7600     2.3950     0.1000
  992.0000  -999.2500  -999.2500    12.0270    94.5510     2.3540     0.0600
  992.5000  -999.2500  -999.2500    12.0330    90.9260     2.3800     0.0310
  993.0000  -999.2500  -999.2500    11.9880    87.4550     2.4630     0.0660
  993.5000  -999.2500  -999.2500    11.9440    86.4310     2.4970     0.0780
  994.0000  -999.2500  -999.2500    11.9500    88.5490     2.4910     0.0720
  994.5000  -999.2500  -999.2500    11.9480    89.2060     2.4880     0.0680
  995.0000  -999.2500  -999.2500    11.9480    87.9710     2.4960     0.0720
  995.5000  -999.2500  -999.2500    11.9490    88.0170     2.5040     0.0760
  996.0000  -999.2500  -999.2500    11.9480    89.0170     2.5210     0.0850
  996.5000  -999.2500  -999.2500    11.9480    93.0050     2.5300     0.1020
  997.0000  -999.2500  -999.2500    11.9480    93.2040     2.5230     0.0930
  997.5000  -999.2500  -999.2500    11.9480    92.9700     2.5120     0.0840
