~VERSION INFORMATION
 VERS.                2.0:   CWLS LOG ASCII STANDARD - VERSION 2.0
 WRAP.                 NO:   ONE LINE PER DEPTH STEP
~WELL INFORMATION
#MNEM.UNIT      DATA TYPE    INFORMATION
#----------   ------------   ------------------------------
 STRT.F            0.0000:   START DEPTH
 STOP.F         1064.0000:   STOP DEPTH
 STEP.F            0.5000:   STEP LENGTH
 NULL.          -999.2500:   NO VALUE
 COMP.  JOHN BROWN E. & C:   COMPANY
 WELL. JOHN BROWN NPR 3-1 "X" #68-2:   WELL
 FLD .                NPR:   FIELD
 LOC .       S2 T38N R78W:   LOCATION
 CNTY.            NATRONA:   COUNTY
 STAT.            WYOMING:   STATE
 CTRY. UNITED STATES OF AMERICA:   COUNTRY
 SRVC.     ATLAS WIRELINE:   SERVICE COMPANY
 DATE.        25-JAN-1992:   LOGDATE
 API .     49025224850000:   API NUMBER
~CURVE INFORMATION
#MNEM.UNIT       API CODE    CURVE DESCRIPTION
#----------   ------------   ------------------------------
 DEPT.F                  :   
 GRR .GAPI   07 310 01 00:   GAMMA RAY FROM RESISTIVITY
 TENR.LBS    07 635 01 00:   TENSION
 RILD.OHMM   07 120 46 00:   INDUCTION LOG DEEP RESISTIVITY
 RILM.OHMM   07 120 44 00:   INDUCTION LOG MEDIUM RESISTIVITY
~PARAMETER INFORMATION
#MNEM.UNIT          VALUE    DESCRIPTION
#----------   ------------   ------------------------------
 EKB .F         5197.0000:   Kelly bushing
 EGL .F         5187.0000:   Ground level
 TD  .F         1060.0000:   Total depth
 DATE.        25-JAN-1992:   Date logged
 CLNT.            A2DTECH:   Client Code
 PD  .                 GL:   Permanent Datum
 EPD .F               518:   Elevation Permanent Datum
 LMF .                 KB:   Log Measured From
 DMF .                 KB:   Drilling Measured From
 DAPD.F                10:   Feet Above Permanent Datum
 DD  .F              1060:   Depth driller
 DL  .F              1057:   Depth logger
 BLI .F              1055:   Bottom log interval
 CS1 .IN            10.75:   Casing size
 CBD1.       10.75" @ 50':   Casing driller 1
 CBL1.F                50:   Casing logger 1
 BS1 .IN             8.75:   Bit size
 BSD1.F              1060:   Depth drilled with bit1
 DFT .                AIR:   Type fluid in hole
 LUN .            HL-6307:   Logging unit number
 LUL .             CASPER:   Logging unit location
 ENGI.             ZIEGER:   Recorded By
 WITN.             STRONG:   Witnessed by
 ORIG.           5" PRINT:   Origin of data
 UWI .     49025224850000:   Unique Well ID
 DICO. A2D TECHNOLOGIES, INC.:   Digitizing Company
~OTHER INFORMATION
~A    DEPT      GRR      TENR       RILD       RILM   
# ...
  146.0000   115.1420   -44.3830     6.0760     6.0070
  146.5000   113.8470   -44.3830     6.1470     6.0780
  147.0000   111.6040   -44.3830     6.2190     6.1500
  147.5000   111.8590   -44.3830     6.2790     6.2210
  148.0000   115.9760   -44.3830     6.3590     6.2920
  148.5000   117.7420   -44.3830     6.4380     6.3770
  149.0000   117.8640   -44.3830     6.5900     6.5410
  149.5000   114.8080   -44.3830     6.8230     6.7040
  150.0000   111.6960   -44.3830     7.2160     7.0140
  150.5000   111.7090   -44.3830     7.6290     7.4740
  151.0000   111.8090   -44.3830     8.0410     7.9350
  151.5000   106.6200   -44.3830     8.5860     8.2680
  152.0000    96.3450   -44.3830     9.2050     8.6090
  152.5000    81.6540   -44.3830     8.8900     8.7090
  153.0000    77.6220   -44.3830     8.7890     8.4490
  153.5000    83.7170   -44.3830     8.8710     8.2140
  154.0000    97.1390   -44.3830     8.6730     7.9800
  154.5000   110.6230   -44.3830     8.3700     7.7490
  155.0000   116.2620   -44.3830     7.9940     7.5220
  155.5000   119.5780   -44.3830     7.4650     7.2940
  156.0000   119.9990   -44.3830     7.1070     7.0660
  156.5000   118.3770   -44.3830     7.1040     6.9130
  157.0000   116.5700   -44.3830     7.0990     6.9130
  157.5000   114.7660   -44.3830     7.0940     6.9130
  158.0000   113.3050   -44.3830     7.0900     6.9130
  158.5000   115.0300   -44.3830     7.0850     6.9130
  159.0000   119.6770   -44.3830     7.0800     6.9130
  159.5000   121.9090   -44.3830     7.0750     6.9130
  160.0000   122.3620   -44.3830     7.0710     6.9130
  160.5000   122.8970   -44.3830     7.0660     6.9130
  161.0000   125.2490   -44.3830     7.0610     6.9130
  161.5000   127.0470   -44.3830     7.0570     6.9130
  162.0000   126.7020   -44.3830     7.0520     6.9130
  162.5000   124.5420   -44.3830     7.0470     6.9130
  163.0000   124.1350   -44.3830     7.0430     6.9020
  163.5000   125.7200   -44.3830     7.0310     6.8700
  164.0000   126.3370   -44.3830     7.0160     6.8390
  164.5000   126.6590   -44.3830     7.0020     6.8070
  165.0000   127.0560   -44.1830     6.9880     6.7760
  165.5000   127.9200   -42.9260     6.9730     6.7450
  166.0000   127.9470   -41.6700     6.9590     6.7130
  166.5000   125.0220   -40.4140     6.9450     6.6820
  167.0000   119.7870   -39.1570     6.9300     6.6640
  167.5000   113.9920   -37.9010     6.9160     6.6910
  168.0000   112.7720   -36.6450     6.9040     6.7130
  168.5000   113.5470   -35.3890     6.8930     6.7340
  169.0000   114.5700   -34.3890     6.8820     6.7560
  169.5000   114.5720   -34.5940     6.8710     6.7770
  170.0000   114.3340   -34.7990     6.8600     6.7860
  170.5000   114.0850   -35.0040     6.8490     6.6720
  171.0000   114.4620   -35.2100     6.7730     6.5760
  171.5000   115.8650   -35.4150     6.6950     6.4790
  172.0000   117.6850   -35.6200     6.6010     6.4200
  172.5000   118.4160   -35.8250     6.6450     6.4990
  173.0000   118.1650   -36.0300     6.7020     6.6020
  173.5000   117.8610   -36.2350     6.7580     6.7050
  174.0000   117.6050   -36.4400     6.8150     6.8080
  174.5000   117.6480   -36.6450     6.8680     6.8560
  175.0000   116.6990   -36.8500     6.9140     6.8670
  175.5000   116.2670   -37.0550     6.9600     6.8780
  176.0000   116.9480   -37.2610     7.0070     6.8890
  176.5000   117.6190   -37.4660     7.0530     6.9000
  177.0000   118.3070   -37.6710     7.0990     6.9110
  177.5000   119.1210   -37.8760     7.1730     6.9680
  178.0000   117.8640   -38.0810     7.1070     7.0370
  178.5000   115.2390   -38.2860     7.2570     7.1050
  179.0000   114.3670   -38.4910     7.3810     7.1730
  179.5000   114.4640   -38.6960     7.5060     7.2750
  180.0000   115.9270   -38.9010     7.6300     7.3740
  180.5000   117.1360   -39.1070     7.6910     7.3860
  181.0000   119.6880   -39.3120     7.7550     7.4120
  181.5000   122.8000   -39.5170     7.8180     7.4380
  182.0000   122.8100   -39.7220     7.8670     7.4640
  182.5000   120.8100   -39.9270     7.7950     7.4900
  183.0000   118.1830   -40.1320     7.8090     7.5170
  183.5000   115.2750   -40.3370     7.8410     7.5430
  184.0000   115.5110   -40.5420     7.8730     7.5690
  184.5000   118.8760   -40.7470     7.9050     7.5950
  185.0000   120.7590   -40.9520     7.9380     7.6220
  185.5000   119.3290   -41.1580     7.9700     7.6480
  186.0000   117.8110   -41.3630     8.0100     7.6520
  186.5000   119.5220   -41.5680     7.9640     7.6190
  187.0000   122.4370   -41.7730     7.8870     7.5670
  187.5000   122.9540   -41.9780     7.8090     7.5160
  188.0000   120.2870   -42.1830     7.7320     7.4640
  188.5000   118.0310   -42.3880     7.6550     7.4130
  189.0000   118.3830   -42.5930     7.5820     7.3430
  189.5000   119.1220   -42.7980     7.4440     7.2210
  190.0000   119.9310   -43.0040     7.3140     7.0980
  190.5000   120.7310   -43.2090     7.1840     6.9750
  191.0000   119.9030   -43.4140     7.0530     6.8530
  191.5000   118.8410   -43.6190     6.9230     6.7300
  192.0000   118.4940   -43.8240     6.7930     6.6080
  192.5000   120.3960   -44.0290     6.7220     6.4850
  193.0000   118.6470   -44.2340     6.7130     6.4200
  193.5000   113.1090   -44.3830     6.7050     6.4200
  194.0000   107.8200   -44.3830     6.6970     6.5280
  194.5000   107.2750   -44.3830     6.6890     6.6010
  195.0000   112.2500   -44.3830     6.6810     6.6010
  195.5000   115.7830   -44.3830     6.6730     6.6010
  196.0000   118.0200   -44.3830     6.6640     6.5400
  196.5000   118.8930   -44.3830     6.5720     6.3650
  197.0000   119.0660   -44.3830     6.4410     6.2350
  197.5000   119.2120   -44.3830     6.3110     6.1050
  198.0000   120.2480   -44.3830     6.1800     5.9750
  198.5000   120.3530   -44.3830     6.0490     5.8450
  199.0000   117.8110   -44.3830     5.9180     5.7160
  199.5000   115.0990   -44.3830     5.7870     5.5860
  200.0000   113.4790   -44.3830     5.6560     5.4560
  200.5000   111.8380   -44.3830     5.5250     5.3260
  201.0000   109.9020   -44.3830     5.4870     5.2880
  201.5000   106.8690   -44.3830     5.4870     5.2880
  202.0000   105.5610   -44.3830     5.5090     5.3700
  202.5000   110.6430   -44.3830     5.5770     5.4590
  203.0000   115.2570   -44.3830     5.6460     5.5480
  203.5000   117.0730   -44.3830     5.7140     5.6360
  204.0000   116.4810   -44.3830     5.7820     5.7250
  204.5000   116.6390   -44.3830     5.8510     5.8140
  205.0000   115.0170   -44.3830     5.9080     5.8540
  205.5000   111.8930   -44.3830     5.9080     5.8410
  206.0000   110.0110   -44.3830     5.9080     5.8300
  206.5000   114.2560   -44.3830     5.9080     5.8190
  207.0000   118.1250   -44.3830     5.9080     5.8090
  207.5000   115.9900   -44.3830     5.9080     5.7880
  208.0000   112.5850   -44.3830     5.8670     5.7280
  208.5000   113.1990   -44.3830     5.7970     5.6670
  209.0000   116.4050   -44.3830     5.7270     5.6070
  209.5000   117.6450   -44.3830     5.6580     5.5460
  210.0000   116.0860   -44.3830     5.5890     5.4870
  210.5000   114.2420   -44.3830     5.6180     5.5180
  211.0000   114.6100   -44.3830     5.6520     5.5670
  211.5000   117.3950   -44.3830     5.6860     5.6160
  212.0000   119.9630   -44.3830     5.7210     5.6650
  212.5000   119.4910   -44.3830     5.7470     5.7140
  213.0000   116.9580   -44.3830     5.8320     5.7640
  213.5000   115.6780   -44.3830     5.9080     5.8000
  214.0000   115.8400   -44.3830     5.8560     5.7270
  214.5000   115.2400   -44.3830     5.8070     5.6690
  215.0000   112.1320   -44.3830     5.7580     5.6120
  215.5000   109.9930   -44.3830     5.7090     5.5540
  216.0000   111.0370   -44.3830     5.6600     5.4960
  216.5000   113.8240   -44.3830     5.6110     5.4380
  217.0000   115.4600   -44.3830     5.5620     5.3870
  217.5000   116.0230   -44.3830     5.5330     5.3870
  218.0000   116.6000   -44.3830     5.5160     5.4030
  218.5000   117.1750   -44.3830     5.4990     5.4530
