~VERSION INFORMATION
 VERS.                2.0:   CWLS LOG ASCII STANDARD - VERSION 2.0
 WRAP.                 NO:   ONE LINE PER DEPTH STEP
~WELL INFORMATION
#MNEM.UNIT      DATA TYPE    INFORMATION
#----------   ------------   ------------------------------
 STRT.F          492.0000:   START DEPTH
 STOP.F         3008.0000:   STOP DEPTH
 STEP.F            0.5000:   STEP LENGTH
 NULL.          -999.2500:   NO VALUE
 COMP.    FENIX & SCISSON:   COMPANY
 WELL. FENIX & SCISSON AX #24-28:   WELL
 FLD .             TEAPOT:   FIELD
 LOC .      S28 T39N R78W:   LOCATION
 CNTY.            NATRONA:   COUNTY
 STAT.            WYOMING:   STATE
 CTRY. UNITED STATES OF AMERICA:   COUNTRY
 SRVC.              WELEX:   SERVICE COMPANY
 DATE.        03-AUG-1980:   LOGDATE
 API .     49025108490000:   API NUMBER
~CURVE INFORMATION
#MNEM.UNIT       API CODE    CURVE DESCRIPTION
#----------   ------------   ------------------------------
 DEPT.F                  :   
 SPR .MV     07 010 01 00:   SPONTANEOUS POTENTIAL
 ILD .OHMM   07 120 46 00:   DEEP INDUCTION RESISTIVITY
 ILM .OHMM   07 120 44 00:   INDUCTION LOG MEDIUM RESISTIVITY
 SGRD.OHMM   07 220 05 00:   SHALLOW SHORT GUARD RESISTIVITY
 GRD .GAPI   45 310 01 00:   GAMMA RAY FROM DENSITY LOG
 CALD.IN     45 280 60 00:   CALIPER FROM DENSITY LOG
 CORR.G/C3   45 356 01 00:   DENSITY CORRECTION
 RHOB.G/C3   45 350 01 00:   BULK DENSITY
~PARAMETER INFORMATION
#MNEM.UNIT          VALUE    DESCRIPTION
#----------   ------------   ------------------------------
 EKB .F         5061.0000:   Kelly bushing
 EGL .F         5051.0000:   Ground level
 TD  .F         3000.0000:   Total depth
 CLNT.            A2DTECH:   Client Code
 SL  . 2350' FNL & 1000' FWL:   Surface Location
 DATE.         3-AUG-1980:   Date Logged [DD-MMM-YYYY]
 DD  .F              3000:   Depth driller
 DL  .F              3010:   Depth logger
 BLI .F              3008:   Bottom log interval
 TLI .F               308:   Top log interval
 CS1 .              8.625:   Casing size
 CBD1.      8.625" @ 393':   Casing driller 1
 BS1 .IN            7.875:   Bit size
 BSD1.F              3000:   Depth drilled with bit1
 DFT .     WATER BASE MUD:   Type fluid in hole
 DFD .                8.9:   Density
 TCS .HRS               8:   Time Circ. stopped
 MRT .F               115:   Maximum recorded temp.
 ENGI.           WACHTELL:   Recorded By
 WITN.           DINSMORE:   Witnessed by
 ORIG.      2.5" 5" PRINT:   Origin of data
 UWI .     49025108490000:   Unique Well ID
 DICO. A2D TECHNOLOGIES, INC.:   Digitizing Company
 PD  .                 GL:   Permanent Datum
 EPD .F              3051:   Elevation Permanent Datum
 LMF .                 KB:   Log Measured From
 DMF .                 KB:   Drilling Measured From
 DAPD.F                10:   Feet Above Permanent Datum
 DFV .                 43:   Viscosity
 DFPH.                9.5:   pH
 DFL .                7.2:   Fluid loss
 MSS .           FLOWLINE:   Source of sample
 RMS .OHMM             .9:   Rm
 MST .F                80:   Rm Meas. temp.
 RMF .OHMM            .72:   Rmf
 MFST.F                80:   Rmf Meas. temp.
 MFSS.               MEAS:   Source Rmf.
 RMC .OHMM           1.08:   Rmc
 MCST.F                80:   Rmc Meas. temp.
 MCSS.               MEAS:   Source Rmc.
 RMB .OHMM            .06:   Rm. at BHT
 BHT .F               115:   BHT.
 LUN .               1892:   Logging unit number
 LUL .             CASPER:   Logging unit location
~OTHER INFORMATION
~A   DEPT      SPR        ILD        ILM       SGRD        GRD       CALD       CORR       RHOB   
# ...
 1990.5000    -9.3828     6.9521     8.7637     9.1327    90.5801     8.4100     0.1180     2.5524
 1991.0000    -9.3901     6.8489     8.8849     9.1284    91.4399     8.4384     0.1240     2.5585
 1991.5000    -9.3973     6.7457     8.8831     9.1240    92.0999     8.4968     0.1299     2.5833
 1992.0000    -9.4048     6.6443     9.0059     9.1197    92.9750     8.5398     0.1056     2.5933
 1992.5000    -9.4122     6.5625     9.0040     9.1154    93.6301     8.5538     0.0827     2.5653
 1993.0000    -9.7173     6.5362     9.0021     9.2389    93.8403     8.5223     0.0736     2.5427
 1993.5000    -9.7247     6.4653     9.0002     9.2343    92.9163     8.4912     0.0825     2.4983
 1994.0000    -9.7321     6.4622     9.1249     9.3601    90.6354     8.4750     0.0945     2.5409
 1994.5000    -9.7396     6.4590     9.1227     9.4859    88.7917     8.4737     0.0747     2.5463
 1995.0000    -9.7470     6.3666     9.2487     9.6142    87.4553     8.4873     0.0428     2.5019
 1995.5000    -9.7545     6.3177     9.2468     9.7443    87.4358     8.5183     0.0291     2.5290
 1996.0000    -9.6032     6.2723     9.2449     9.9069    87.6460     8.5738     0.0426     2.5601
 1996.5000    -9.4717     6.2687     9.3723    10.0486    87.8513     8.5878     0.0848     2.5553
 1997.0000    -9.4804     6.2657     9.3704    10.1922    87.6020     8.4669     0.0938     2.5482
 1997.5000    -9.4877     6.3510     9.3684    10.3379    87.8074     8.3911     0.0997     2.5311
 1998.0000    -9.4949     6.5270     9.3665    10.4857    87.7871     8.4662     0.0980     2.5108
 1998.5000    -9.5021     6.6155     9.4962    10.6356    87.7632     8.5092     0.0964     2.5410
 1999.0000    -9.5093     6.7992     9.4941    10.8541    87.9685     8.5522     0.0978     2.5573
 1999.5000    -9.5166     6.9880     9.6254    11.0008    88.1787     8.5798     0.1007     2.5222
 2000.0000    -9.8214     7.0827     9.6234    11.1495    89.0538     8.5934     0.1384     2.5620
 2000.5000    -9.8289     7.1839     9.7887    11.3002    90.3836     8.4572     0.1655     2.5814
 2001.0000    -9.8363     7.3780     9.8494    11.2941    91.7133     8.4256     0.1745     2.5873
 2001.5000    -9.8438     7.4945     9.9102    11.1327    92.6275     8.4409     0.1744     2.5902
 2002.0000    -9.8512     7.6857     9.9709    10.8221    94.3680     8.5112     0.1244     2.5670
 2002.5000    -9.8846     7.7898    10.0098    10.6675    95.0391     8.5691     0.0576     2.5100
 2003.0000   -10.0750     7.8204    10.0043    10.3699    93.6681     8.6125     0.0469     2.5001
 2003.5000   -10.1927     8.0023     9.9996    10.3648    92.9804     8.6849     0.0407     2.4793
 2004.0000   -10.2028     8.1099     9.9949    10.3753    94.3080     8.4745     0.0603     2.4569
 2004.5000    -9.9152     8.1060     9.9902    10.6710    95.1902     8.3833     0.0874     2.4792
 2005.0000    -9.9256     8.1020     9.9854    10.9752    95.8696     8.3965     0.1009     2.5066
 2005.5000    -9.9360     8.0981     9.9805    11.0906    96.9502     8.4246     0.1099     2.5478
 2006.0000    -9.6477     8.0941     9.9757    11.2407    95.1338     8.4672     0.0734     2.4939
 2006.5000    -9.6592     8.0902     9.9708    11.2343    91.9680     8.4655     0.0200     2.4707
 2007.0000    -9.3702     8.0863     9.9659    11.1611    89.9266     8.4786     0.0051     2.4512
 2007.5000    -9.0848     8.0823     9.9048    10.9931    89.4595     8.5226    -0.0041     2.4325
 2008.0000    -8.7976     8.0784     9.8185    10.8277    89.8919     8.5795    -0.0178     2.4145
 2008.5000    -8.5104     8.0744     9.8137    10.6045    91.4950     8.4433    -0.0013     2.4293
 2009.0000    -8.5226     7.9269     9.8080    10.4530    93.2261     8.3670     0.0062     2.4369
 2009.5000    -8.5326     7.6976     9.6678    10.1614    95.4576     8.3504     0.0030     2.4546
 2010.0000    -8.2451     7.4304     9.6632    10.1565    96.7896     8.3487     0.0498     2.4942
 2010.5000    -8.2551     7.1085     9.6587    10.0115    95.6478     8.3619     0.0572     2.5083
 2011.0000    -8.5628     6.8550     9.5205    10.0067    93.1566     8.3750     0.0616     2.5172
 2011.5000    -8.5729     6.7164     9.5160    10.0020    90.8904     8.3580     0.0494     2.5089
 2012.0000    -8.5833     6.6203     9.5114     9.9973    88.5759     8.3716     0.0538     2.5029
 2012.5000    -8.5938     6.5257     9.3753     9.9924    87.7072     8.4440     0.0643     2.5244
 2013.0000    -8.6042     6.5226     9.3707     9.9876    89.9344     8.5168     0.0687     2.5550
 2013.5000    -8.6146     6.4293     9.3661     9.9536    91.4912     8.6194     0.1079     2.5595
 2014.0000    -8.6250     6.3373     9.3615     9.8968    93.2730     8.4427     0.1244     2.5736
 2014.5000    -8.6354     6.3343     9.3570     9.8401    95.0547     8.3025     0.1395     2.5915
 2015.0000    -8.6458     6.3312     9.3524     9.7833    97.2862     8.3161     0.1620     2.6041
 2015.5000    -8.6582     6.3281     9.3479     9.7266    99.0920     8.3438     0.1696     2.6160
 2016.0000    -8.6683     6.2375     9.3425     9.7067   100.8453     8.3719     0.1754     2.6189
 2016.5000    -8.6783     6.2344     9.3381     9.7027    97.4547     8.4000     0.1102     2.6151
 2017.0000    -8.6884     6.2314     9.2045     9.6978    94.5137     8.4296     0.0768     2.5754
 2017.5000    -8.6984     6.2284     9.2002     9.6940    92.0226     8.5004     0.0525     2.5029
 2018.0000    -8.7085     6.2253     9.1959     9.6901    89.0817     8.5434     0.0387     2.4976
 2018.5000    -8.7188     6.2218     9.0644     9.6862    87.0404     8.5570     0.0492     2.5020
 2019.0000    -8.7292     6.2188     9.0529     9.6823    88.2234     8.4506     0.0521     2.4892
 2019.5000    -8.7396     6.2159     8.7910     9.5447    91.7239     8.3147     0.0520     2.4809
 2020.0000    -8.7500     6.2130     8.5135     9.5407    93.7305     8.3130     0.0551     2.4958
 2020.5000    -8.7604     6.1241     8.1752     9.5367    95.7371     8.3705     0.0833     2.5122
 2021.0000    -8.6479     6.1212     7.9387     9.4010    97.0691     8.3841     0.1016     2.5173
 2021.5000    -8.4836     6.2042     7.7091     9.3586    97.9513     8.4117     0.0969     2.5195
 2022.0000    -8.4940     6.1153     7.6426     9.2156    98.3837     8.4994     0.0711     2.5135
 2022.5000    -8.5063     6.1123     7.5331     9.0054    96.6869     8.5574     0.0588     2.4865
 2023.0000    -8.2173     6.1093     7.5288     8.8773    92.9473     8.4650     0.0633     2.4862
 2023.5000    -8.2288     6.1063     7.4756     8.7503    91.1308     8.3150     0.0722     2.5052
 2024.0000    -8.2388     6.0189     7.4108     8.7468    89.5393     8.3282     0.0827     2.4870
 2024.5000    -8.2489     5.9327     7.3460     8.7433    89.9717     8.3563     0.0642     2.4646
 2025.0000    -8.2589     5.8478     7.3081     8.6190    91.7534     8.3848     0.0502     2.4533
 2025.5000    -8.2693     5.7636     7.2036     8.4965    93.5351     8.4129     0.0415     2.4450
 2026.0000    -8.2798     5.7609     7.0946     8.3757    93.4361     8.4405     0.0383     2.4360
 2026.5000    -8.2902     5.7582     6.9734     8.3649    90.7974     8.4387     0.0352     2.4314
 2027.0000    -8.3006     5.6758     6.7840     8.1234    89.6556     8.4218     0.0411     2.4352
 2027.5000    -8.3110     5.5172     6.5629     7.8654    90.0880     8.3902     0.0531     2.4485
 2028.0000    -8.1905     5.4373     6.3391     7.4948    90.5247     8.3438     0.0696     2.4589
 2028.5000    -8.0342     5.2739     6.2122     7.0013    90.2782     8.3276     0.0807     2.4715
 2029.0000    -8.0467     5.1273     6.1171     6.6462    85.9879     8.3702     0.0888     2.4826
 2029.5000    -8.0568     4.9101     6.0707     6.4114    82.0915     8.3998     0.0977     2.4542
 2030.0000    -8.0668     4.7681     6.0672     6.2323    80.3267     8.4412     0.1067     2.5057
 2030.5000    -8.0769     4.6541     5.7356     6.4056    79.8595     8.4693     0.1048     2.5363
