~VERSION INFORMATION
 VERS.                2.0:   CWLS LOG ASCII STANDARD - VERSION 2.0
 WRAP.                 NO:   ONE LINE PER DEPTH STEP
~WELL INFORMATION
#MNEM.UNIT      DATA TYPE    INFORMATION
#----------   ------------   ------------------------------
 STRT.F            0.0000:   START DEPTH
 STOP.F         3358.0000:   STOP DEPTH
 STEP.F            0.5000:   STEP LENGTH
 NULL.          -999.2500:   NO VALUE
 COMP. LAWRENCE ALLISON & ASSOC.:   COMPANY
 WELL. LAWRENCE NPR 3 "X" #14-11:   WELL
 FLD .                NPR:   FIELD
 LOC .      S11 T38N R78W:   LOCATION
 CNTY.            NATRONA:   COUNTY
 STAT.            WYOMING:   STATE
 CTRY. UNITED STATES OF AMERICA:   COUNTRY
 SRVC.      DRESSER ATLAS:   SERVICE COMPANY
 DATE.        25-SEP-1985:   LOGDATE
 API .     49025110470000:   API NUMBER
~CURVE INFORMATION
#MNEM.UNIT       API CODE    CURVE DESCRIPTION
#----------   ------------   ------------------------------
 DEPT.F                  :   
 TENR.LBS    07 635 01 00:   TENSION
 SPR .MV     07 010 01 00:   SPONTANEOUS POTENTIAL
 SFL .OHMM   07 220 01 00:   SHALLOW FOCUSED LOG RESISTIVITY
 ILD .OHMM   07 120 46 00:   DEEP INDUCTION RESISTIVITY
 ILM .OHMM   07 120 44 00:   INDUCTION LOG MEDIUM RESISTIVITY
 TENS.LBS    60 635 01 00:   TENSION FROM SONIC LOG
 DT  .US/F   60 520 00 00:   DELTA TIME
 TEND.LBS    45 635 01 00:   TENSION FROM DENSITY LOG
 RHOB.G/C3   45 350 01 00:   BULK DENSITY
 CORR.G/C3   45 356 01 00:   DENSITY CORRECTION
 NPHI.DEC    42 890 01 00:   NEUTRON POROSITY LIMESTONE
 GRR .GAPI   07 310 01 00:   GAMMA RAY FROM RESISTIVITY
~PARAMETER INFORMATION
#MNEM.UNIT          VALUE    DESCRIPTION
#----------   ------------   ------------------------------
 EKB .F         5184.0000:   Kelly bushing
 EGL .F         5173.0000:   Ground level
 EDF .F            0.0000:   Drilling floor
 TD  .F         3353.0000:   Total depth
 DATE.        25-SEP-1985:   Date logged
 CLNT.            A2DTECH:   Client Code
 SL  . 473' FWL & 2360' FNL:   Surface Location
 PD  .                 GL:   Permanent Datum
 EPD .F              5173:   Elevation Permanent Datum
 LMF .                 KB:   Log Measured From
 DMF .                 KB:   Drilling Measured From
 DAPD.F                11:   Feet Above Permanent Datum
 DD  .F              3353:   Depth driller
 DL  .F              3346:   Depth logger
 BLI .F              3344:   Bottom log interval
 CS1 .IN            8.625:   Casing size
 CBD1.      8.625" @ 586':   Casing driller 1
 CBL1.F               585:   Casing logger 1
 BS1 .IN            7.875:   Bit size
 BSD1.F              3353:   Depth drilled with bit1
 DFT .     GEL/KCL/STAFLO:   Type fluid in hole
 DFD .                8.9:   Density
 DFV .                 39:   Viscosity
 DFPH.                  8:   pH
 DFL .                8.9:   Fluid loss
 MSS .           FLOWLINE:   Source of sample
 RMS .OHMM            .45:   Rm
 MST .F                80:   Rm Meas. temp.
 RMF .OHMM            .33:   Rmf
 MFST.F                80:   Rmf Meas. temp.
 RMC .OHMM            .56:   Rmc
 MCST.F                80:   Rmc Meas. temp.
 MFSS.               CALC:   Source Rmf.
 MCSS.               CALC:   Source Rmc.
 RMB .OHMM            .27:   Rm. at BHT
 BHT .F               130:   BHT.
 TCS .HRS               3:   Time Circ. stopped
 MRT .F               135:   Maximum recorded temp.
 LUN .               6274:   Logging unit number
 LUL .               GLTE:   Logging unit location
 ENGI.               MACK:   Recorded By
 WITN.             STRONG:   Witnessed by
 ORIG.           5" PRINT:   Origin of data
 UWI .     49025110470000:   Unique Well ID
 DICO. A2D TECHNOLOGIES, INC.:   Digitizing Company
~OTHER INFORMATION
~A    DEPT    TENR        SPR        SFL        ILD        ILM       TENS         DT       TEND       RHOB       CORR       NPHI         GRR  
# ...
 1876.0000   -93.4960   -55.3160     5.1590     4.6840     4.5990  -999.2500  -999.2500  -999.2500  -999.2500  -999.2500  -999.2500    51.6510
 1876.5000   -93.5920   -54.8170     5.2540     4.6220     4.5380  -999.2500  -999.2500  -999.2500  -999.2500  -999.2500  -999.2500    51.6330
 1877.0000   -93.6890   -54.4010     5.2910     4.6220     4.5380  -999.2500  -999.2500  -999.2500  -999.2500  -999.2500  -999.2500    52.5240
 1877.5000   -93.7850   -53.9350     5.3510     4.7330     4.6470  -999.2500  -999.2500  -999.2500  -999.2500  -999.2500  -999.2500    52.4940
 1878.0000   -93.8820   -53.8010     5.4500     4.8250     4.7380  -999.2500  -999.2500  -999.2500  -999.2500  -999.2500  -999.2500    51.3000
 1878.5000   -93.9790   -54.2310     5.5880     4.9180     4.8280  -999.2500  -999.2500  -999.2500  -999.2500  -999.2500  -999.2500    50.6070
 1879.0000   -94.0750   -54.5850     5.7030     5.0100     4.9190  -999.2500  -999.2500  -999.2500  -999.2500  -999.2500  -999.2500    52.2820
 1879.5000   -94.1720   -54.9620     5.8180     5.0650     4.9730  -999.2500  -999.2500  -999.2500  -999.2500  -999.2500  -999.2500    55.5900
 1880.0000   -94.2680   -55.3380     5.9190     4.9860     4.8740  -999.2500  -999.2500  -999.2500  -999.2500  -999.2500  -999.2500    59.4040
 1880.5000   -94.3650   -55.6970     6.0830     4.9070     4.7740  -999.2500  -999.2500  -999.2500  -999.2500  -999.2500  -999.2500    58.3990
 1881.0000   -94.4610   -56.1080     6.0830     4.8280     4.6740  -999.2500  -999.2500  -999.2500  -999.2500  -999.2500  -999.2500    54.0120
 1881.5000   -94.5580   -56.1700     5.6660     4.7490     4.5750  -999.2500  -999.2500  -999.2500  -999.2500  -999.2500  -999.2500    52.2230
 1882.0000   -94.6550   -56.2300     5.1440     4.6700     4.4750  -999.2500  -999.2500  -999.2500  -999.2500  -999.2500  -999.2500    52.2920
 1882.5000   -94.7510   -56.2770     4.6220     4.6220     4.3750  -999.2500  -999.2500  -999.2500  -999.2500  -999.2500  -999.2500    52.4820
 1883.0000   -94.8480   -56.3380     4.6220     4.7570     4.4760  -999.2500  -999.2500  -999.2500  -999.2500  -999.2500  -999.2500    53.1000
 1883.5000   -94.9440   -56.3900     5.0730     4.8930     4.6440  -999.2500  -999.2500  -999.2500  -999.2500  -999.2500  -999.2500    54.2120
 1884.0000   -95.0410   -56.4470     5.6370     5.0280     4.8120  -999.2500  -999.2500  -999.2500  -999.2500  -999.2500  -999.2500    54.9910
 1884.5000   -95.1380   -56.5000     6.2010     5.1630     4.9800  -999.2500  -999.2500  -999.2500  -999.2500  -999.2500  -999.2500    55.5310
 1885.0000   -95.2340   -56.5520     6.4270     5.2980     5.1480  -999.2500  -999.2500  -999.2500  -999.2500  -999.2500  -999.2500    55.9760
 1885.5000   -95.3310   -56.4620     6.4000     5.4340     5.3160  -999.2500  -999.2500  -999.2500  -999.2500  -999.2500  -999.2500    56.4570
 1886.0000   -95.4270   -56.2350     6.3770     5.5690     5.4500  -999.2500  -999.2500  -999.2500  -999.2500  -999.2500  -999.2500    56.9000
 1886.5000   -95.5240   -56.0190     6.3550     5.7580     5.6540  -999.2500  -999.2500  -999.2500  -999.2500  -999.2500  -999.2500    57.3630
 1887.0000   -95.6210   -55.7960     6.3330     5.5890     5.4790  -999.2500  -999.2500  -999.2500  -999.2500  -999.2500  -999.2500    57.9170
 1887.5000   -95.7170   -55.5780     6.3100     5.3060     5.1880  -999.2500  -999.2500  -999.2500  -999.2500  -999.2500  -999.2500    59.1470
 1888.0000   -95.8140   -55.3580     6.3100     5.0240     4.8970  -999.2500  -999.2500  -999.2500  -999.2500  -999.2500  -999.2500    61.1580
 1888.5000   -95.9100   -55.1320     5.9540     4.7410     4.6050  -999.2500  -999.2500  -999.2500  -999.2500  -999.2500  -999.2500    63.1740
 1889.0000   -96.0070   -54.9710     5.5100     4.4590     4.3140  -999.2500  -999.2500  -999.2500  -999.2500  -999.2500  -999.2500    64.1030
 1889.5000   -96.1040   -54.9100     5.0650     4.1770     4.0230  -999.2500  -999.2500  -999.2500  -999.2500  -999.2500  -999.2500    64.8570
 1890.0000   -96.2000   -54.7600     5.0650     3.8940     3.7320  -999.2500  -999.2500  -999.2500  -999.2500  -999.2500  -999.2500    66.1910
 1890.5000   -96.2970   -54.6260     4.7440     3.6120     3.4410  -999.2500  -999.2500  -999.2500  -999.2500  -999.2500  -999.2500    70.4730
 1891.0000   -96.3930   -54.4770     4.3420     3.3860     3.3240  -999.2500  -999.2500  -999.2500  -999.2500  -999.2500  -999.2500    76.9340
 1891.5000   -96.4900   -54.3490     3.9400     3.4830     3.4200  -999.2500  -999.2500  -999.2500  -999.2500  -999.2500  -999.2500    79.5250
 1892.0000   -96.5870   -54.1700     3.7790     3.7260     3.6580  -999.2500  -999.2500  -999.2500  -999.2500  -999.2500  -999.2500    82.8330
 1892.5000   -96.6830   -54.3450     4.6070     3.9690     3.8970  -999.2500  -999.2500  -999.2500  -999.2500  -999.2500  -999.2500    81.7660
 1893.0000   -96.7800   -54.8220     5.5830     4.5320     4.4500  -999.2500  -999.2500  -999.2500  -999.2500  -999.2500  -999.2500    79.4490
 1893.5000   -96.8760   -55.2770     6.7490     5.3090     5.2130  -999.2500  -999.2500  -999.2500  -999.2500  -999.2500  -999.2500    76.7350
 1894.0000   -96.9730   -55.7390     7.9150     6.0860     5.9750  -999.2500  -999.2500  -999.2500  -999.2500  -999.2500  -999.2500    77.0760
 1894.5000   -97.0700   -56.2020     8.6140     6.8620     6.7380  -999.2500  -999.2500  -999.2500  -999.2500  -999.2500  -999.2500    78.4010
 1895.0000   -97.1660   -56.6700     8.6810     7.4670     7.3320  -999.2500  -999.2500  -999.2500  -999.2500  -999.2500  -999.2500    79.7620
 1895.5000   -97.2630   -57.1570     8.7470     7.9580     7.8130  -999.2500  -999.2500  -999.2500  -999.2500  -999.2500  -999.2500    78.2790
 1896.0000   -97.3590   -57.3630     9.0790     8.6140     8.4580  -999.2500  -999.2500  -999.2500  -999.2500  -999.2500  -999.2500    76.0180
 1896.5000   -97.4560   -57.1670     9.7920     8.6030     8.4470  -999.2500  -999.2500  -999.2500  -999.2500  -999.2500  -999.2500    73.8850
 1897.0000   -97.5520   -56.7280     9.7680     8.5740     8.4190  -999.2500  -999.2500  -999.2500  -999.2500  -999.2500  -999.2500    71.5840
 1897.5000   -97.6490   -56.3040     9.7280     8.5460     8.3910  -999.2500  -999.2500  -999.2500  -999.2500  -999.2500  -999.2500    71.8450
 1898.0000   -97.7460   -55.8710     9.6870     8.5170     8.3620  -999.2500  -999.2500  -999.2500  -999.2500  -999.2500  -999.2500    74.1750
 1898.5000   -97.8420   -55.4430     9.6470     8.4880     8.3340  -999.2500  -999.2500  -999.2500  -999.2500  -999.2500  -999.2500    77.3990
 1899.0000   -97.9390   -55.0110     9.6150     8.4600     8.3060  -999.2500  -999.2500  -999.2500  -999.2500  -999.2500  -999.2500    80.8630
 1899.5000   -98.0350   -54.5870     9.6150     8.4310     8.2780  -999.2500  -999.2500  -999.2500  -999.2500  -999.2500  -999.2500    81.8150
 1900.0000   -98.1320   -54.1430     9.5820     8.4020     8.2500  -999.2500  -999.2500  -999.2500  -999.2500  -999.2500  -999.2500    83.7670
 1900.5000   -98.2290   -53.7400     9.5280     8.3730     8.2220  -999.2500  -999.2500  -999.2500  -999.2500  -999.2500  -999.2500    86.5110
 1901.0000   -98.3250   -53.1920     9.4730     8.3450     8.1930  -999.2500  -999.2500  -999.2500  -999.2500  -999.2500  -999.2500    87.3280
 1901.5000   -98.4220   -53.1030     9.4400     8.3050     8.1540  -999.2500  -999.2500  -999.2500  -999.2500  -999.2500  -999.2500    84.6220
 1902.0000   -98.5180   -53.3110     9.4400     8.4300     8.2770  -999.2500  -999.2500  -999.2500  -999.2500  -999.2500  -999.2500    82.9810
 1902.5000   -98.6150   -53.4830    10.0860     8.6380     8.4820  -999.2500  -999.2500  -999.2500  -999.2500  -999.2500  -999.2500    80.9660
 1903.0000   -98.7120   -53.6640    10.7310     8.8470     8.6860  -999.2500  -999.2500  -999.2500  -999.2500  -999.2500  -999.2500    80.4940
 1903.5000   -98.8080   -53.8410    10.6230     9.0560     8.8910  -999.2500  -999.2500  -999.2500  -999.2500  -999.2500  -999.2500    80.8780
