~VERSION INFORMATION
 VERS.                2.0:   CWLS LOG ASCII STANDARD - VERSION 2.0
 WRAP.                 NO:   ONE LINE PER DEPTH STEP
~WELL INFORMATION
#MNEM.UNIT      DATA TYPE    INFORMATION
#----------   ------------   ------------------------------
 STRT.F           40.0000:   START DEPTH
 STOP.F         3326.0000:   STOP DEPTH
 STEP.F            0.5000:   STEP LENGTH
 NULL.          -999.2500:   NO VALUE
 COMP.    FENIX & SCISSON:   COMPANY
 WELL.  FENIX "AX" #53-15:   WELL
 FLD .              NPR-3:   FIELD
 LOC .      S15 T38N R78W:   LOCATION
 CNTY.            NATRONA:   COUNTY
 STAT.            WYOMING:   STATE
 CTRY. UNITED STATES OF AMERICA:   COUNTRY
 SRVC.              WELEX:   SERVICE COMPANY
 DATE.        02-MAR-1977:   LOGDATE
 API .     49025102640000:   API NUMBER
~CURVE INFORMATION
#MNEM.UNIT       API CODE    CURVE DESCRIPTION
#----------   ------------   ------------------------------
 DEPT.F                  :   
 CALD.IN     42 280 60 00:   CALIPER
 TEND.LBS    42 635 01 00:   TENSION FROM NEUTRON POROSITY LOG
 GRD .GAPI   42 310 30 00:   GAMMA RAY
 NPHI.DEC    42 890 03 00:   NEUTRON POROSITY SANDSTONE
 DPHI.DEC    45 890 12 00:   DENSITY POROSITY SANDSTONE
 SPR .MV     07 010 01 00:   SPONTANEOUS POTENTIAL
 ILD .OHMM   07 120 46 00:   DEEP INDUCTION RESISTIVITY
 ILM .OHMM   07 120 44 00:   INDUCTION LOG MEDIUM RESISTIVITY
 SGRD.OHMM   07 220 05 00:   SHALLOW SHORT GUARD RESISTIVITY
~PARAMETER INFORMATION
#MNEM.UNIT          VALUE    DESCRIPTION
#----------   ------------   ------------------------------
 EKB .F            0.0000:   Kelly bushing
 EGL .F         5251.0000:   Ground level
 EDF .F            0.0000:   Drilling floor
 TD  .F          750.0000:   Total depth
 DATE.        02-MAR-1977:   Date logged
 CLNT.            A2DTECH:   Client Code
 SL  . 1650' FNL & 2360' FEL:   Surface Location
 PD  .                 GL:   Permanent Datum
 EPD .F              5253:   Elevation Permanent Datum
 LMF .                 GL:   Log Measured From
 DMF .                 GL:   Drilling Measured From
 DD  .F               750:   Depth driller
 DL  .F               747:   Depth logger
 BLI .F               745:   Bottom log interval
 CS1 .IN            8.625:   Casing size
 CBD1.       8.625" @ 40':   Casing driller 1
 CBL1.F                44:   Casing logger 1
 BS1 .IN            7.875:   Bit size
 BSD1.F               750:   Depth drilled with bit1
 DFT .           CHEM-GEL:   Type fluid in hole
 MSS .           FLOWLINE:   Source of sample
 RMS .OHMM          0.425:   Rm
 MST .F                56:   Rm Meas. temp.
 RMF .OHMM          0.466:   Rmf
 MFST.F                56:   Rmf Meas. temp.
 RMC .OHMM          0.712:   Rmc
 MCST.F                56:   Rmc Meas. temp.
 MFSS.               MEAS:   Source Rmf.
 MCSS.               MEAS:   Source Rmc.
 RMB .OHMM          0.350:   Rm. at BHT
 BHT .F                68:   BHT.
 TCS .HRS               2:   Time Circ. stopped
 MRT .F                68:   Maximum recorded temp.
 LUN .               8611:   Logging unit number
 LUL .            GILLETH:   Logging unit location
 ENGI.          D. LAWSON:   Recorded By
 WITN.           S. BURKL:   Witnessed by
 ORIG.           5" PRINT:   Origin of data
 UWI .     49025102640000:   Unique Well ID
 DICO. A2D TECHNOLOGIES, INC.:   Digitizing Company
~OTHER INFORMATION
~A   DEPT     CALD       TEND         GRD        NPHI     DPHI        SPR        ILD        ILM       SGRD   
# ...
 1536.5000     8.3950   275.4100   116.2990     0.2900     0.0780  -999.2500  -999.2500  -999.2500  -999.2500
 1537.0000     8.3920   278.9920   112.8010     0.2910     0.0760  -999.2500  -999.2500  -999.2500  -999.2500
 1537.5000     8.3910   282.5750   113.0630     0.2900     0.0740  -999.2500  -999.2500  -999.2500  -999.2500
 1538.0000     8.3970   284.2770   108.1150     0.2890     0.0700  -999.2500  -999.2500  -999.2500  -999.2500
 1538.5000     8.4030   283.1860   110.1080     0.2880     0.0730  -999.2500  -999.2500  -999.2500  -999.2500
 1539.0000     8.4090   282.0960   114.5310     0.2950     0.0810  -999.2500  -999.2500  -999.2500  -999.2500
 1539.5000     8.4150   281.0060   113.2310     0.3020     0.0850  -999.2500  -999.2500  -999.2500  -999.2500
 1540.0000     8.4210   279.9160   112.0810     0.3070     0.0820  -999.2500  -999.2500  -999.2500  -999.2500
 1540.5000     8.4270   278.8260   114.8820     0.3130     0.0850  -999.2500  -999.2500  -999.2500  -999.2500
 1541.0000     8.4370   277.7350   111.5250     0.3180     0.0800  -999.2500  -999.2500  -999.2500  -999.2500
 1541.5000     8.4530   276.6450   117.5040     0.3190     0.0850  -999.2500  -999.2500  -999.2500  -999.2500
 1542.0000     8.4690   275.5550   112.7920     0.3180     0.0880  -999.2500  -999.2500  -999.2500  -999.2500
 1542.5000     8.4850   273.6350   109.4290     0.3150     0.0760  -999.2500  -999.2500  -999.2500  -999.2500
 1543.0000     8.5010   269.0760   109.9400     0.3120     0.0700  -999.2500  -999.2500  -999.2500  -999.2500
 1543.5000     8.5150   264.5170   111.0730     0.3090     0.0720  -999.2500  -999.2500  -999.2500  -999.2500
 1544.0000     8.5270   259.9580   111.0490     0.2970     0.0730  -999.2500  -999.2500  -999.2500  -999.2500
 1544.5000     8.5950   255.3990   111.9750     0.2970     0.0690  -999.2500  -999.2500  -999.2500  -999.2500
 1545.0000     8.7270   297.7020   110.9000     0.2980     0.0670  -999.2500  -999.2500  -999.2500  -999.2500
 1545.5000     8.6440   270.1700   109.8350     0.2990     0.0670  -999.2500  -999.2500  -999.2500  -999.2500
 1546.0000     8.5440   284.7150   109.2240     0.2970     0.0680  -999.2500  -999.2500  -999.2500  -999.2500
 1546.5000     8.4680   274.9800   115.3230     0.2950     0.0700  -999.2500  -999.2500  -999.2500  -999.2500
 1547.0000     8.4700   265.8610   114.0830     0.2920     0.0730  -999.2500  -999.2500  -999.2500  -999.2500
 1547.5000     8.4680   265.2370   112.3590     0.2930     0.0810  -999.2500  -999.2500  -999.2500  -999.2500
 1548.0000     8.4910   265.8090   116.2110     0.2980     0.0860  -999.2500  -999.2500  -999.2500  -999.2500
 1548.5000     8.5050   266.3810   117.7190     0.2980     0.0810  -999.2500  -999.2500  -999.2500  -999.2500
 1549.0000     8.5200   266.9530   116.6910     0.2950     0.0770  -999.2500  -999.2500  -999.2500  -999.2500
 1549.5000     8.5390   267.5250   114.6340     0.2890     0.0740  -999.2500  -999.2500  -999.2500  -999.2500
 1550.0000     8.5340   268.0970   111.0280     0.2860     0.0720  -999.2500  -999.2500  -999.2500  -999.2500
 1550.5000     8.5230   268.6700   106.6510     0.2910     0.0700  -999.2500  -999.2500  -999.2500  -999.2500
 1551.0000     8.5160   269.2420   103.0440     0.2970     0.0660  -999.2500  -999.2500  -999.2500  -999.2500
 1551.5000     8.5090   269.8140   105.4060     0.2950     0.0650  -999.2500  -999.2500  -999.2500  -999.2500
 1552.0000     8.5020   270.3860   110.6220     0.2950     0.0670  -999.2500  -999.2500  -999.2500  -999.2500
 1552.5000     8.4950   270.9580   114.3810     0.2950     0.0740  -999.2500  -999.2500  -999.2500  -999.2500
 1553.0000     8.4880   271.5300   110.7990     0.2920     0.0690  -999.2500  -999.2500  -999.2500  -999.2500
 1553.5000     8.4810   272.1020   115.5830     0.2900     0.0620  -999.2500  -999.2500  -999.2500  -999.2500
 1554.0000     8.4740   272.6750   113.5210     0.2920     0.0600  -999.2500  -999.2500  -999.2500  -999.2500
 1554.5000     8.4670   273.2470   108.8040     0.2850     0.0760  -999.2500  -999.2500  -999.2500  -999.2500
 1555.0000     8.4600   273.8190   106.9500     0.2810     0.0900  -999.2500  -999.2500  -999.2500  -999.2500
 1555.5000     8.4530   274.3910   106.2260     0.2850     0.0950  -999.2500  -999.2500  -999.2500  -999.2500
 1556.0000     8.4500   274.3180   110.4310     0.2890     0.0890  -999.2500  -999.2500  -999.2500  -999.2500
 1556.5000     8.4530   273.3380   110.0930     0.2890     0.0770  -999.2500  -999.2500  -999.2500  -999.2500
 1557.0000     8.4590   272.3590   118.2750     0.2820     0.0750  -999.2500  -999.2500  -999.2500  -999.2500
 1557.5000     8.4660   271.3790   122.4200     0.2790     0.0740  -999.2500  -999.2500  -999.2500  -999.2500
 1558.0000     8.4720   270.4000   119.8700     0.2800     0.0760  -999.2500  -999.2500  -999.2500  -999.2500
 1558.5000     8.4780   269.4200   115.6410     0.2820     0.0730  -999.2500  -999.2500  -999.2500  -999.2500
 1559.0000     8.4840   268.4400   110.2490     0.2860     0.0720  -999.2500  -999.2500  -999.2500  -999.2500
 1559.5000     8.4870   267.4610   111.8290     0.2890     0.0650  -999.2500  -999.2500  -999.2500  -999.2500
 1560.0000     8.4660   266.4810   113.7400     0.2940     0.0590  -999.2500  -999.2500  -999.2500  -999.2500
 1560.5000     8.4450   265.5010   117.1100     0.3050     0.0520  -999.2500  -999.2500  -999.2500  -999.2500
 1561.0000     8.4240   264.5220   118.6730     0.3050     0.0530  -999.2500  -999.2500  -999.2500  -999.2500
 1561.5000     8.4100   263.5420   113.9330     0.3080     0.0580  -999.2500  -999.2500  -999.2500  -999.2500
 1562.0000     8.4100   262.5630   109.4180     0.3100     0.0670  -999.2500  -999.2500  -999.2500  -999.2500
 1562.5000     8.4100   261.5830   110.9970     0.2970     0.0750  -999.2500  -999.2500  -999.2500  -999.2500
 1563.0000     8.4100   260.6030   112.8530     0.2990     0.0670  -999.2500  -999.2500  -999.2500  -999.2500
 1563.5000     8.4100   259.6240   110.6260     0.2970     0.0600  -999.2500  -999.2500  -999.2500  -999.2500
 1564.0000     8.4100   258.6440   120.0260     0.2940     0.0630  -999.2500  -999.2500  -999.2500  -999.2500
 1564.5000     8.4100   257.6650   124.3200     0.2900     0.0650  -999.2500  -999.2500  -999.2500  -999.2500
 1565.0000     8.4100   256.6850   120.3160     0.2860     0.0610  -999.2500  -999.2500  -999.2500  -999.2500
 1565.5000     8.4390   255.7050   117.9140     0.2790     0.0580  -999.2500  -999.2500  -999.2500  -999.2500
 1566.0000     8.4830   254.7450   117.1210     0.2720     0.0690  -999.2500  -999.2500  -999.2500  -999.2500
 1566.5000     8.5280   254.7450   115.3430     0.2810     0.0760  -999.2500  -999.2500  -999.2500  -999.2500
 1567.0000     8.5240   254.7450   110.2310     0.2910     0.0780  -999.2500  -999.2500  -999.2500  -999.2500
 1567.5000     8.5140   254.7450   113.9820     0.2920     0.0700  -999.2500  -999.2500  -999.2500  -999.2500
 1568.0000     8.5100   254.7450   116.4680     0.2980     0.0700  -999.2500  -999.2500  -999.2500  -999.2500
 1568.5000     8.5100   254.7450   111.1960     0.3140     0.0740  -999.2500  -999.2500  -999.2500  -999.2500
 1569.0000     8.5100   254.7450   105.9790     0.3220     0.0740  -999.2500  -999.2500  -999.2500  -999.2500
 1569.5000     8.5060   254.7450   108.2650     0.3190     0.0830  -999.2500  -999.2500  -999.2500  -999.2500
 1570.0000     8.4840   254.7450   111.9750     0.3150     0.0850  -999.2500  -999.2500  -999.2500  -999.2500
 1570.5000     8.4750   254.7450   116.4410     0.2930     0.0770  -999.2500  -999.2500  -999.2500  -999.2500
 1571.0000     8.4700   254.7450   113.8240     0.2890     0.0760  -999.2500  -999.2500  -999.2500  -999.2500
 1571.5000     8.4700   254.7450   116.6120     0.2940     0.0710  -999.2500  -999.2500  -999.2500  -999.2500
 1572.0000     8.4470   254.7450   117.6650     0.3030     0.0570  -999.2500  -999.2500  -999.2500  -999.2500
 1572.5000     8.4100   254.7450   113.1410     0.3110     0.0490  -999.2500  -999.2500  -999.2500  -999.2500
