~VERSION INFORMATION
 VERS.                2.0:   CWLS LOG ASCII STANDARD - VERSION 2.0
 WRAP.                 NO:   ONE LINE PER DEPTH STEP
~WELL INFORMATION
#MNEM.UNIT      DATA TYPE    INFORMATION
#----------   ------------   ------------------------------
 STRT.F           11.0000:   START DEPTH
 STOP.F         4154.0000:   STOP DEPTH
 STEP.F            0.5000:   STEP LENGTH
 NULL.          -999.2500:   NO VALUE
 COMP.   LAWRENCE ALLISON:   COMPANY
 WELL. ALLISON NPR 3 "LX" #14-22:   WELL
 FLD .                NPR:   FIELD
 LOC .      S22 T38N R78W:   LOCATION
 CNTY.            NATRONA:   COUNTY
 STAT.            WYOMING:   STATE
 CTRY. UNITED STATES OF AMERICA:   COUNTRY
 SRVC.       DRESER ATLAS:   SERVICE COMPANY
 DATE.        14-APR-1985:   LOGDATE
 API .     49025110230000:   API NUMBER
~CURVE INFORMATION
#MNEM.UNIT       API CODE    CURVE DESCRIPTION
#----------   ------------   ------------------------------
 DEPT.F                  :   
 TEND.LBS    45 635 01 00:   TENSION FROM DENSITY LOG
 RHOB.G/C3   45 350 01 00:   BULK DENSITY
 DRHO.G/C3   45 356 01 00:   DENSITY CORRECTION
 CALD.IN     45 280 60 00:   CALIPER FROM DENSITY LOG
 NPHI.DEC    42 890 03 00:   NEUTRON POROSITY SANDSTONE
 TENR.LBS    07 635 01 00:   TENSION FROM RESISTIVITY
 SPR .MV     07 010 01 00:   SPONTANEOUS POTENTIAL
 GRR .GAPI   07 310 01 00:   GAMMA RAY FROM RESISTIVITY
 RFOC.OHMM   07 220 01 00:   RESISTIVITY FOCUSED LOG RES.
 RILD.OHMM   07 120 46 00:   DEEP INDUCTION RESISTIVITY
 RILM.OHMM   07 120 44 00:   INDUCTION LOG MEDIUM RESISTIVITY
~PARAMETER INFORMATION
#MNEM.UNIT          VALUE    DESCRIPTION
#----------   ------------   ------------------------------
 EKB .F         5230.4000:   Kelly bushing
 EGL .F         5220.4000:   Ground level
 EDF .F            0.0000:   Drilling floor
 TD  .F         4150.0000:   Total depth
 DATE.        14-APR-1985:   Date logged
 CLNT.            A2DTECH:   Client Code
 SL  . 905' FNL & 824' FWL:   Surface Location
 PD  .                 GL:   Permanent Datum
 EPD .F            5220.4:   Elevation Permanent Datum
 LMF .                 KB:   Log Measured From
 DMF .                 KB:   Drilling Measured From
 DAPD.F                10:   Feet Above Permanent Datum
 DD  .F              4150:   Depth driller
 DL  .F              4140:   Depth logger
 BLI .F              4138:   Bottom log interval
 CS1 .IN            8.625:   Casing size
 CBD1.      8.625" @ 738':   Casing driller 1
 CBL1.F               738:   Casing logger 1
 BS1 .IN            7.875:   Bit size
 BSD1.F              4150:   Depth drilled with bit1
 DFT .            KCL/GEL:   Type fluid in hole
 DFD .                9.1:   Density
 DFV .                 48:   Viscosity
 DFPH.                8.5:   pH
 DFL .                 10:   Fluid loss
 MSS .           FLOWLINE:   Source of sample
 RMS .OHMM            .35:   Rm
 MST .F                62:   Rm Meas. temp.
 RMF .OHMM            .26:   Rmf
 MFST.F                62:   Rmf Meas. temp.
 RMC .OHMM            .43:   Rmc
 MCST.F                62:   Rmc Meas. temp.
 MFSS.               CALC:   Source Rmf.
 MCSS.               CALC:   Source Rmc.
 RMB .OHMM            .16:   Rm. at BHT
 BHT .F               140:   BHT.
 TCS .HRS               6:   Time Circ. stopped
 MRT .F               140:   Maximum recorded temp.
 LUN .               6274:   Logging unit number
 LUL .               GLTE:   Logging unit location
 ENGI.               MACK:   Recorded By
 WITN.             STRONG:   Witnessed by
 ORIG.           5" PRINT:   Origin of data
 UWI .     49025110230000:   Unique Well ID
 DICO. A2D TECHNOLOGIES, INC.:   Digitizing Company
~OTHER INFORMATION
~A   DEPT     TEND       RHOB       DRHO       CALD       NPHI       TENR        SPR        GRR       RFOC       RILD       RILM   
# ...
 3427.0000   -49.9480     2.5230     0.0020     9.9110     0.1970   -97.1050   -59.1390    94.7990    11.4220    10.2510    10.6470
 3427.5000   -42.1390     2.5220     0.0010     9.9110     0.2010   -94.8450   -59.2030    98.9090    10.7260     9.8420    10.3830
 3428.0000   -36.4950     2.5240    -0.0050     9.9110     0.2050   -87.5980   -59.2670   103.0060    10.3220     9.5660    10.1180
 3428.5000   -34.5260     2.5260    -0.0060     9.9110     0.2060   -77.5480   -59.3310   105.8780    10.2030     9.6430     9.8340
 3429.0000   -32.2790     2.5340     0.0070     9.9110     0.2020   -74.8250   -59.3950   103.5750    10.2030     9.7280    10.0060
 3429.5000   -30.0310     2.5500     0.0230     9.9110     0.1930   -74.8250   -59.4570    96.0740    11.2050     9.8120    10.2420
 3430.0000   -27.7830     2.5550     0.0410     9.9110     0.1990   -74.8250   -59.5470    88.4090    12.0900     9.8340    10.4780
 3430.5000   -25.5350     2.5530     0.0420     9.9110     0.2060   -74.8250   -59.6610    86.7890    12.7540     9.3120    10.5870
 3431.0000   -23.2870     2.5490     0.0410     9.9110     0.2100   -74.8250   -59.7750    93.0160    11.1710     8.8150    10.0930
 3431.5000   -21.0390     2.5460     0.0210     9.9120     0.2080   -74.8250   -59.8890    98.2770     9.7050     8.3370     9.3660
 3432.0000   -18.7910     2.5360     0.0110     9.9120     0.2070   -74.8250   -60.0030   103.0540     7.8090     7.8590     8.6390
 3432.5000   -16.6340     2.5250     0.0030     9.9120     0.2170   -74.8250   -60.1180   104.7970     8.0130     7.3810     7.9120
 3433.0000   -17.9530     2.5160     0.0020     9.9130     0.2250   -72.6530   -60.2340   104.7180     8.5790     6.9030     7.1850
 3433.5000   -19.2210     2.5100     0.0050     9.9130     0.2250   -68.7880   -60.2660   105.9380     9.0510     6.4250     6.4350
 3434.0000   -20.4890     2.5040     0.0090     9.9130     0.2320   -64.8150   -60.2770   111.8320     8.6740     5.9470     6.0220
 3434.5000   -21.7570     2.4990     0.0090     9.9140     0.2470   -66.2530   -60.2860   120.1470     7.4370     5.4690     5.6370
 3435.0000   -23.0250     2.4930     0.0060     9.9140     0.2670   -68.1140   -60.2960   128.4530     6.2000     4.7910     5.2530
 3435.5000   -24.2930     2.4860     0.0010     9.9150     0.2860   -69.9760   -60.3060   134.2170     4.9630     4.8220     4.8680
 3436.0000   -25.5610     2.4790    -0.0040     9.9150     0.2790   -71.8370   -60.3160   132.4780     4.2920     4.9020     4.4830
 3436.5000   -26.3290     2.4770    -0.0060     9.9150     0.2670   -73.6980   -60.3260   130.5050     4.0220     4.9830     4.0960
 3437.0000   -25.2050     2.4810    -0.0010     9.9160     0.2620   -75.5590   -60.3360   128.7820     3.8050     5.0630     4.0960
 3437.5000   -24.0810     2.4810     0.0030     9.9160     0.2590   -77.4200   -60.3460   130.4890     3.7890     5.0090     4.0960
 3438.0000   -22.9570     2.4780    -0.0030     9.9160     0.2560   -79.2810   -60.3560   132.4680     3.7730     4.9400     4.0960
 3438.5000   -21.8340     2.4830    -0.0050     9.9170     0.2500   -81.1420   -60.3660   134.2550     3.7700     4.8720     4.0960
 3439.0000   -20.7100     2.4880     0.0010     9.9170     0.2510   -83.0030   -60.3750   134.9230     3.8480     4.8040     4.0960
 3439.5000   -19.5860     2.4870     0.0080     9.9170     0.2590   -84.8350   -60.3850   135.6140     3.9450     4.7910     4.1730
 3440.0000   -18.4620     2.4690     0.0150     9.9180     0.2740   -83.8530   -60.3950   134.8160     4.0420     4.8680     4.2220
 3440.5000   -17.3380     2.4440     0.0270     9.9180     0.2730   -82.8870   -60.4050   131.8280     4.1380     4.9430     4.4670
 3441.0000   -16.6340     2.4450     0.0280     9.9180     0.2710   -81.9200   -60.4150   129.4410     4.2350     5.0170     4.9700
 3441.5000   -16.6340     2.4710     0.0230     9.9190     0.2690   -80.9540   -60.4250   128.4080     4.3290     5.1390     5.4510
 3442.0000   -16.6340     2.4970     0.0190     9.9190     0.2580   -79.9880   -60.4350   127.9690     4.6640     5.2600     5.5090
 3442.5000   -16.6340     2.5210     0.0190     9.9200     0.2410   -79.0210   -60.4450   124.0790     5.0660     5.3510     5.7250
 3443.0000   -16.6340     2.5320     0.0190     9.9200     0.2230   -78.0550   -60.4570   120.1550     5.4510     5.8650     6.4500
 3443.5000   -16.6340     2.5520     0.0190     9.9200     0.2060   -77.0890   -60.3140   116.2740     6.8400     6.3600     7.1740
 3444.0000   -16.6340     2.5680     0.0200     9.9210     0.1950   -76.1220   -60.0930   112.9820     8.1720     6.8540     7.8990
 3444.5000   -16.6340     2.5690     0.0170     9.9210     0.1860   -75.1560   -59.8710   111.8170     9.5030     7.3210     8.6230
 3445.0000   -22.1250     2.5630     0.0150     9.9210     0.1770   -78.6620   -59.6480   110.6000    10.6670     8.3740     9.3050
 3445.5000   -27.9430     2.5590     0.0170     9.9220     0.1750   -87.0370   -59.4260   109.3330    11.3550     9.3700     9.9310
 3446.0000   -33.7610     2.5610     0.0190     9.9220     0.1760   -95.4120   -59.2040   108.6670    12.0420    10.3670    10.5600
 3446.5000   -34.1810     2.5610     0.0170     9.9220     0.1910  -103.7870   -58.9830   109.9090    12.2690    11.2920    11.1880
 3447.0000   -29.8180     2.5580     0.0080     9.9230     0.1960  -102.2970   -58.8840   111.8960    11.9210    11.5270    11.8160
 3447.5000   -25.4540     2.5590    -0.0010     9.9230     0.1870   -92.9910   -58.9590   112.9290    11.6480    11.7190    12.3830
 3448.0000   -21.0910     2.5810    -0.0080     9.9230     0.1780   -83.6860   -59.0310   110.7110    11.3970    11.9350    12.6820
 3448.5000   -16.7270     2.6140    -0.0170     9.9240     0.1770   -74.3800   -59.1050   108.1640    12.3140    11.9050    13.0220
 3449.0000   -12.3630     2.6220    -0.0170     9.9240     0.1830   -65.0740   -59.1780   105.6920    13.2320    11.8440    13.3310
 3449.5000    -8.0000     2.5890    -0.0030     9.9240     0.1880   -55.7690   -59.2520   107.1130    13.3310    11.2810    12.5780
 3450.0000   -20.6800     2.5610     0.0130     9.9250     0.1890   -58.4300   -59.3250   113.2930    12.0790    10.4970    11.7340
 3450.5000   -22.3100     2.5360     0.0080     9.9250     0.1960   -65.7090   -59.3980   119.4620    10.9540     9.7120    10.8900
 3451.0000   -13.9190     2.5210    -0.0040     9.9260     0.2050   -72.9880   -59.4640   125.6180     9.8300     8.9280    10.0460
 3451.5000    -9.0530     2.5080    -0.0120     9.9260     0.2180   -80.2670   -59.6190   130.5280     8.7050     8.1430     9.2030
 3452.0000   -18.4740     2.4960     0.0010     9.9260     0.2340   -84.8350   -59.7880   131.9130     7.5810     7.3590     8.3590
 3452.5000   -21.8310     2.4830     0.0010     9.9270     0.2340   -90.2460   -59.9580   132.3460     6.5740     6.5750     7.5150
 3453.0000   -25.1870     2.4750     0.0010     9.9270     0.2350   -95.7650   -60.1250   132.6860     6.0490     5.7900     6.6710
 3453.5000   -28.5440     2.4710     0.0030     9.9270     0.2390  -101.2840   -60.2480   135.9830     5.5230     5.0060     5.8280
 3454.0000   -31.9000     2.4700     0.0040     9.9280     0.2690  -106.8030   -60.1610   139.8370     4.9980     4.3920     4.9840
 3454.5000   -35.2570     2.4690    -0.0140     9.9280     0.2870  -112.3220   -60.0810   143.7110     4.6170     3.9850     4.1400
 3455.0000   -38.6130     2.4730    -0.0170     9.9280     0.2810  -117.8410   -60.0010   147.5480     4.7910     3.5780     3.6460
 3455.5000   -41.9700     2.4780    -0.0090     9.9290     0.2860  -123.3600   -59.9140   151.4010     5.0630     3.1710     3.2510
 3456.0000   -45.3260     2.4760    -0.0030     9.9290     0.2950  -121.5080   -59.6560   158.6990     5.0630     2.7650     2.8550
 3456.5000   -46.4250     2.4530     0.0010     9.9290     0.3050  -116.8670   -58.8470   173.9640     4.2980     2.3990     2.4440
 3457.0000   -46.4250     2.4160     0.0180     9.9300     0.3180  -112.2260   -58.0590   188.8800     3.5470     2.3460     2.3990
