~VERSION INFORMATION
 VERS.                2.0:   CWLS LOG ASCII STANDARD - VERSION 2.0
 WRAP.                 NO:   ONE LINE PER DEPTH STEP
~WELL INFORMATION
#MNEM.UNIT      DATA TYPE    INFORMATION
#----------   ------------   ------------------------------
 STRT.F           10.5000:   START DEPTH
 STOP.F         5650.0000:   STOP DEPTH
 STEP.F            0.5000:   STEP LENGTH
 NULL.          -999.2500:   NO VALUE
 COMP.    FENIX & SCISSON:   COMPANY
 WELL. FENIX NPR 3 "LX" #56-3:   WELL
 FLD .              N P R:   FIELD
 LOC .       S3 T38N R78W:   LOCATION
 CNTY.            NATRONA:   COUNTY
 STAT.            WYOMING:   STATE
 CTRY. UNITED STATES OF AMERICA:   COUNTRY
 SRVC.              WELEX:   SERVICE COMPANY
 DATE.        13-JUN-1978:   LOGDATE
 API .     49025109250000:   API NUMBER
~CURVE INFORMATION
#MNEM.UNIT       API CODE    CURVE DESCRIPTION
#----------   ------------   ------------------------------
 DEPT.F                  :   
 NPHI.DEC    42 890 03 00:   NEUTRON POROSITY SANDSTONE
 SPR .MV     07 010 01 00:   SPONTANEOUS POTENTIAL
 ILD .OHMM   07 120 46 00:   DEEP INDUCTION RESISTIVITY
 ILM .OHMM   07 120 44 00:   INDUCTION LOG MEDIUM RESISTIVITY
 SFL .OHMM   07 220 01 00:   SHALLOW FOCUSED LOG RESISTIVITY
 GRD .GAPI   45 310 01 00:   GAMMA RAY FROM DENSITY LOG
 CALD.IN     45 280 60 00:   CALIPER FROM DENSITY LOG
 RHOB.G/C3   45 350 01 00:   BULK DENSITY
 CORR.G/C3   45 356 01 00:   DENSITY CORRECTION
~PARAMETER INFORMATION
#MNEM.UNIT          VALUE    DESCRIPTION
#----------   ------------   ------------------------------
 EKB .F         5181.0000:   Kelly bushing
 EGL .F         5171.0000:   Ground level
 EDF .F         5180.0000:   Drilling floor
 TD  .F         5644.0000:   Total depth
 DATE.        13-JUN-1978:   Date logged
 CLNT.            A2DTECH:   Client Code
 SL  . 1980' FSL & 2080' FEL:   Surface Location
 PD  .                 GL:   Permanent Datum
 EPD .F              5171:   Elevation Permanent Datum
 LMF .                 KB:   Log Measured From
 DMF .                 KB:   Drilling Measured From
 DD  .F              5640:   Depth driller
 DL  .F              5644:   Depth logger
 BLI .F              5638:   Bottom log interval
 TLI .F              3093:   Top log interval
 CS1 .IN            8.625:   Casing size
 CBD1.      8.625" @ 545':   Casing driller 1
 BS1 .IN            7.875:   Bit size
 DFT .                FGM:   Type fluid in hole
 DFD .                9.2:   Density
 DFV .                 52:   Viscosity
 DFPH.                 11:   pH
 DFL .                5.2:   Fluid loss
 MSS .           MUD/TANK:   Source of sample
 RMS .OHMM           0.59:   Rm
 MST .F                80:   Rm Meas. temp.
 RMF .OHMM           0.48:   Rmf
 MFST.F                80:   Rmf Meas. temp.
 MFSS.               MEAS:   Source Rmf.
 RMB .OHMM           0.29:   Rm. at BHT
 BHT .F               162:   BHT.
 TCS .HRS            1200:   Time Circ. stopped
 MRT .F               162:   Maximum recorded temp.
 LUN .               7675:   Logging unit number
 LUL .               CODY:   Logging unit location
 ENGI.               BOND:   Recorded By
 ORIG.           5" PRINT:   Origin of data
 UWI .     49025109250000:   Unique Well ID
 DICO. A2D TECHNOLOGIES, INC.:   Digitizing Company
 DAPD.F                10:   Feet Above Permanent Datum
 BSD1.F              5640:   Depth drilled with bit1
 TLAB.HRS            1630:   Time logger at bottom
~OTHER INFORMATION
~A  DEPTH     NPHI        SPR        ILD        ILM        SFL        GRD       CALD       RHOB       CORR
# ...
 2565.5000     0.2050   -33.4800    20.6630    14.1920    17.9250    91.1450    10.1450     2.4630     0.0570
 2566.0000     0.2070   -33.3270    20.0920    13.9250    16.9360    88.5370    10.1750     2.4620     0.0500
 2566.5000     0.2090   -33.1740    20.2640    13.6570    16.2700    85.7400    10.2040     2.4680     0.0520
 2567.0000     0.2110   -33.0170    20.4330    13.3900    15.6050    88.7850    10.2330     2.4700     0.0570
 2567.5000     0.2130   -33.0890    20.6010    13.1230    14.9720    92.9690    10.2630     2.4700     0.0620
 2568.0000     0.2150   -33.2780    20.7700    12.9240    15.1770    94.4510    10.2920     2.4650     0.0540
 2568.5000     0.2180   -33.4680    20.9380    13.4140    15.4910    96.2480    10.3220     2.4720     0.0510
 2569.0000     0.2220   -33.8560    21.1070    13.8040    15.9670    96.4890    10.3510     2.4840     0.0600
 2569.5000     0.2240   -34.4640    21.2760    14.1940    15.7360    95.0690    10.3780     2.4850     0.0630
 2570.0000     0.2240   -35.0710    21.4020    14.6990    15.2600    93.1680    10.4160     2.4680     0.0570
 2570.5000     0.2230   -35.6760    20.9970    14.4920    14.8230    91.3970    10.3390     2.4530     0.0520
 2571.0000     0.2220   -36.2830    20.6620    14.2560    14.7090    89.6370    10.2030     2.4350     0.0460
 2571.5000     0.2200   -36.4870    20.3280    14.0200    14.5950    89.9300    10.0560     2.4340     0.0410
 2572.0000     0.2190   -36.3310    19.9080    13.3440    14.1700    91.3780    10.0510     2.4400     0.0360
 2572.5000     0.2170   -36.1750    20.1280    12.2310    13.6320    92.9190    10.1080     2.4470     0.0310
 2573.0000     0.2190   -36.0160    20.2320    12.4190    13.2860    94.3400    10.1690     2.4630     0.0410
 2573.5000     0.2210   -35.8580    20.3360    12.9490    13.5810    95.8680    10.2300     2.4750     0.0450
 2574.0000     0.2230   -35.7000    20.4390    13.4780    13.9680    95.1800    10.2940     2.4780     0.0460
 2574.5000     0.2240   -35.4960    20.5430    14.0070    14.3550    94.3550    10.3310     2.4750     0.0470
 2575.0000     0.2190   -35.1010    20.6470    14.4320    14.7420    92.3570    10.2910     2.4670     0.0480
 2575.5000     0.2150   -34.7050    20.7510    14.2360    14.9720    90.2690    10.2550     2.4580     0.0480
 2576.0000     0.2120   -34.3090    20.8540    14.0410    14.6080    88.7920    10.2180     2.4500     0.0410
 2576.5000     0.2080   -33.9100    20.9580    13.8450    14.2470    88.9260    10.1770     2.4410     0.0350
 2577.0000     0.2040   -33.6970    21.0620    13.6570    13.8860    91.1920    10.1830     2.4430     0.0380
 2577.5000     0.2060   -33.5850    21.1660    13.0880    13.5260    93.3650    10.2150     2.4460     0.0400
 2578.0000     0.2070   -33.4760    21.2690    12.5730    13.0440    95.6840    10.2440     2.4490     0.0420
 2578.5000     0.2200   -33.3440    21.3730    13.2270    13.1800    97.8030    10.2730     2.4560     0.0450
 2579.0000     0.2220   -32.7060    21.4270    14.0390    13.3860    97.4040    10.3020     2.4660     0.0470
 2579.5000     0.2240   -32.0780    21.4270    13.9540    13.5320    92.9550    10.3310     2.4730     0.0500
 2580.0000     0.2250   -31.4560    21.4270    13.7790    13.0940    90.0220    10.3600     2.4570     0.0480
 2580.5000     0.2250   -30.8310    21.4270    13.6570    12.6020    87.0010    10.3710     2.4320     0.0420
 2581.0000     0.2180   -30.1470    21.6130    13.3200    12.1100    84.0790    10.3700     2.4110     0.0390
 2581.5000     0.2100   -29.9670    21.9740    12.9500    11.6810    82.6000    10.3700     2.4010     0.0390
 2582.0000     0.2070   -29.9580    22.3350    12.5800    11.5990    82.5220    10.3700     2.3940     0.0380
 2582.5000     0.2080   -30.1670    22.6060    12.2110    11.4870    83.0800    10.3700     2.3880     0.0310
 2583.0000     0.2090   -30.6300    21.6370    11.9500    11.3750    83.5510    10.3700     2.3800     0.0240
 2583.5000     0.2090   -31.2430    20.7610    11.7260    11.2600    84.0400    10.3700     2.3780     0.0170
 2584.0000     0.2090   -31.8640    19.8850    11.5010    11.1470    84.5330    10.3710     2.3800     0.0260
 2584.5000     0.2080   -32.4840    19.0100    11.2600    10.8490    85.0290    10.3610     2.4120     0.0340
 2585.0000     0.2070   -33.1040    18.1340    11.0100    10.5510    85.5230    10.3370     2.4110     0.0370
 2585.5000     0.2060   -33.7230    17.2580    10.7570    10.2520    85.9860    10.3160     2.4070     0.0360
 2586.0000     0.2060   -34.3420    16.3820    10.5050     9.9540    87.1670    10.2920     2.4050     0.0350
 2586.5000     0.2080   -34.9610    15.5330    10.2520     9.6550    89.8990    10.2720     2.4080     0.0350
 2587.0000     0.2100   -35.5810    15.1950    10.0000     9.3690    92.8470    10.2520     2.4240     0.0440
 2587.5000     0.2130   -36.2000    15.1100     9.8100     9.3690    96.0700    10.3040     2.4430     0.0560
 2588.0000     0.2150   -36.8200    15.2460    10.1850     9.9890    97.2330    10.3590     2.4620     0.0580
 2588.5000     0.2170   -37.4380    15.3740    10.5430    10.8050    95.7030    10.4170     2.4820     0.0510
 2589.0000     0.2190   -38.0550    15.5030    10.9010    11.6220    94.4340    10.4740     2.4900     0.0440
 2589.5000     0.2180   -38.4690    15.6320    11.2000    12.6890    93.1270    10.4930     2.4880     0.0400
 2590.0000     0.2140   -38.6650    15.7610    11.3640    12.5250    92.0220    10.4920     2.4900     0.0370
 2590.5000     0.2100   -38.8610    15.8900    12.2310    12.4580    91.9840    10.4920     2.4920     0.0330
 2591.0000     0.2050   -39.0560    16.0190    11.9710    13.5010    91.7870    10.4920     2.5000     0.0330
 2591.5000     0.2000   -39.2480    16.1480    11.6850    14.0390    90.7790    10.4920     2.5030     0.0410
 2592.0000     0.1970   -39.3510    16.2770    11.4000    13.4010    90.4390    10.4920     2.5040     0.0490
 2592.5000     0.1980   -39.2430    16.4060    11.1570    13.0440    90.2990    10.4900     2.5020     0.0580
 2593.0000     0.2020   -39.1420    16.5650    11.5340    13.0860    90.8920    10.5100     2.4820     0.0490
 2593.5000     0.2060   -39.0400    16.1800    11.9300    13.1620    91.9270    10.5450     2.4630     0.0340
 2594.0000     0.2100   -38.9400    15.6750    12.3270    13.2390    92.8570    10.5770     2.4560     0.0450
 2594.5000     0.2110   -38.8420    15.1700    12.8060    13.4080    93.7920    10.6080     2.4700     0.0540
 2595.0000     0.2090   -39.0660    14.5650    12.5520    13.2490    94.7450    10.6410     2.4820     0.0600
 2595.5000     0.2080   -39.8150    14.6990    12.1230    13.0480    95.6880    10.6730     2.4770     0.0540
 2596.0000     0.2070   -40.5570    14.6400    11.6950    12.8470    96.6260    10.7050     2.4750     0.0510
 2596.5000     0.2140   -41.3000    14.5810    11.3640    12.6460    97.5740    10.7370     2.4860     0.0580
 2597.0000     0.2200   -42.0440    14.5220    11.5890    12.5730    98.5370    10.7690     2.4970     0.0640
 2597.5000     0.2260   -42.7860    14.4640    11.8080    12.9550    99.1290    10.8020     2.5090     0.0720
 2598.0000     0.2240   -43.5290    14.4320    12.0270    13.2630    98.8640    10.8190     2.5090     0.0700
 2598.5000     0.2200   -44.2720    14.2760    12.2310    13.5720    98.6250    10.8170     2.4980     0.0590
 2599.0000     0.2150   -45.0150    14.1300    12.1650    13.8800    98.3640    10.8170     2.4800     0.0480
 2599.5000     0.2110   -45.7580    13.9830    12.0680    14.0390    98.1070    10.8170     2.4640     0.0430
 2600.0000     0.2100   -46.5010    13.8360    11.9710    13.4540    97.8530    10.8170     2.4630     0.0450
 2600.5000     0.2120   -47.2440    13.6890    11.8730    12.9990    97.5960    10.8170     2.4740     0.0460
 2601.0000     0.2140   -48.0050    13.5430    11.7760    12.6890    97.3400    10.8170     2.4840     0.0460
 2601.5000     0.2150   -48.3070    13.3960    11.6790    12.8070    97.0850    10.8170     2.4950     0.0470
