~VERSION INFORMATION
 VERS.                2.0:   CWLS LOG ASCII STANDARD - VERSION 2.0
 WRAP.                 NO:   ONE LINE PER DEPTH STEP
~WELL INFORMATION
#MNEM.UNIT      DATA TYPE    INFORMATION
#----------   ------------   ------------------------------
 STRT.F            0.5000:   START DEPTH
 STOP.F         1380.0000:   STOP DEPTH
 STEP.F            0.5000:   STEP LENGTH
 NULL.          -999.2500:   NO VALUE
 COMP.       FLUOR DANIEL:   COMPANY
 WELL. FLUOR 84 "X" #1-14:   WELL
 FLD .          N.P.R. #3:   FIELD
 LOC .      S14 T38N R78W:   LOCATION
 CNTY.            NATRONA:   COUNTY
 STAT.            WYOMING:   STATE
 CTRY. UNITED STATES OF AMERICA:   COUNTRY
 SRVC.     ATLAS WIRELINE:   SERVICE COMPANY
 DATE.        24-AUG-1994:   LOGDATE
 API .     49025226370000:   API NUMBER
~CURVE INFORMATION
#MNEM.UNIT       API CODE    CURVE DESCRIPTION
#----------   ------------   ------------------------------
 DEPT.F                  :   
 GRR .GAPI   07 310 01 00:   GAMMA RAY FROM RESISTIVITY
 RILD.OHMM   07 120 46 00:   INDUCTION LOG DEEP RESISTIVITY
 RILM.OHMM   07 120 44 00:   INDUCTION LOG MEDIUM RESISTIVITY
 TENR.LBS    07 635 01 00:   TENSION FROM RESISTIVITY
~PARAMETER INFORMATION
#MNEM.UNIT          VALUE    DESCRIPTION
#----------   ------------   ------------------------------
 EKB .F         5326.0000:   Kelly bushing
 EGL .F         5316.0000:   Ground level
 EDF .F         5325.0000:   Drilling floor
 TD  .F         1368.0000:   Total depth
 CLNT.            A2DTECH:   Client Code
 PD  .                 GL:   Permanent Datum
 EPD .F              5316:   Elevation Permanent Datum
 LMF .                 KB:   Log Measured From
 DMF .                 KB:   Drilling Measured From
 DAPD.F                10:   Feet Above Permanent Datum
 DATE.        24-AUG-1994:   Date Logged [DD-MMM-YYYY]
 DD  .F              1368:   Depth driller
 DL  .F              1364:   Depth logger
 BLI .F              1356:   Bottom log interval
 TLI .F                 0:   Top log interval
 CS1 .IN            9.625:   Casing size
 CBD1.       9.625" @ 56':   Casing driller 1
 CBL1.F                56:   Casing logger 1
 BS1 .IN             8.75:   Bit size
 BSD1.F              1368:   Depth drilled with bit1
 DFT .                AIR:   Type fluid in hole
 LUN .            HL 6530:   Logging unit number
 LUL .             CASPER:   Logging unit location
 WITN.        GARY STRONG:   Witnessed by
 ORIG.         2.5" PRINT:   Origin of data
 UWI .     49025226370000:   Unique Well ID
 DICO. A2D TECHNOLOGIES, INC.:   Digitizing Company
 SL  . 2551' FNL & 575' FEL:   Surface Location
~OTHER INFORMATION
~A    DEPT      GRR      RILD       RILM       TENR   
# ...
  584.5000   130.3107     5.0006     5.0454   -49.1551
  585.0000   134.4905     5.0995     5.0444   -48.9614
  585.5000   136.2751     5.1383     5.1133   -48.7389
  586.0000   135.0657     5.1372     5.1123   -48.4973
  586.5000   133.2574     5.1362     5.1822   -48.2938
  587.0000   133.8544     5.1351     5.1102   -48.0588
  587.5000   134.4314     5.1341     5.0393   -47.8395
  588.0000   132.5428     5.1328     4.9386   -47.6261
  588.5000   133.9731     4.9922     4.8334   -47.4010
  589.0000   136.2615     4.8554     4.8004   -47.1810
  589.5000   137.3781     4.7224     4.7003   -46.9585
  590.0000   133.3734     4.5930     4.6350   -46.7359
  590.5000   131.3653     4.5292     4.6300   -46.5134
  591.0000   133.7498     4.4662     4.5698   -46.2908
  591.5000   133.5918     4.4042     4.5688   -46.0682
  592.0000   131.7684     4.3430     4.5679   -45.8457
  592.5000   131.1427     4.4024     4.5669   -45.6232
  593.0000   130.7066     4.4015     4.5660   -45.4006
  593.5000   130.0958     4.4617     4.6285   -45.1781
  594.0000   129.8643     4.4608     4.6274   -44.9555
  594.5000   128.8743     4.4599     4.6687   -44.7329
  595.0000   128.0139     4.4590     4.6898   -44.5104
  595.5000   126.7894     4.5200     4.6886   -44.2878
  596.0000   127.6008     4.5818     4.6877   -44.0653
  596.5000   128.8264     4.5808     4.7614   -43.8427
  597.0000   128.8144     4.5798     4.8050   -43.6202
  597.5000   128.8024     4.6426     4.8495   -43.3976
  598.0000   125.7166     4.7060     4.9489   -43.1751
  598.5000   123.2792     4.7864     4.9479   -42.9525
  599.0000   122.7762     4.9213     4.9467   -42.6868
  599.5000   125.7584     4.9906     4.9457   -42.4676
  600.0000   126.9476     5.0378     4.9006   -38.9767
  600.5000   122.1467     5.0348     4.7444   -27.1933
  601.0000   122.3732     4.8950     4.6792   -41.8117
  601.5000   123.7414     4.7592     4.5518   -56.4540
  602.0000   129.5769     4.6913     4.4893   -41.3750
  602.5000   129.6057     4.5710     4.3671   -26.3199
  603.0000   129.2874     4.5078     4.3668   -26.1015
  603.5000   129.2784     4.5072     4.3665   -25.8831
  604.0000   127.7285     4.5224     4.3662   -40.5015
  604.5000   124.4683     4.5686     4.3659   -55.1200
  605.0000   122.0642     4.4858     4.2470   -54.8961
  605.5000   118.4626     4.4009     4.1305   -54.6736
  606.0000   116.0585     4.1606     3.9024   -52.5720
  606.5000   115.4509     3.9333     3.5354   -39.3917
  607.0000   114.8432     3.6744     3.2049   -24.3323
  607.5000   115.4332     3.2844     2.8160   -24.1098
  608.0000   116.0231     2.6313     2.4983   -23.8872
  608.5000   131.5831     2.3847     2.3418   -23.6647
  609.0000   134.5683     2.2900     2.3087   -28.7323
  609.5000   133.9606     2.2583     2.2843   -38.0995
  610.0000   133.9518     2.3211     2.3352   -37.8338
  610.5000   142.9250     2.4524     2.4694   -37.6113
  611.0000   143.5270     2.6270     2.6113   -37.3887
  611.5000   137.4622     2.8141     2.9504   -37.1662
  612.0000   133.2216     3.0564     3.2995   -36.9436
  612.5000   129.0669     3.3196     3.7169   -36.6801
  613.0000   127.9102     3.5560     3.9594   -42.6682
  613.5000   127.2165     3.7571     4.1869   -51.0802
  614.0000   126.0958     4.0806     4.4275   -50.8618
  614.5000   126.6865     4.3114     4.6441   -50.6434
  615.0000   127.4152     4.5553     4.8671   -50.4251
  615.5000   127.8664     4.8129     5.0720   -50.2067
  616.0000   127.8563     5.0164     5.2133   -49.9884
  616.5000   127.6537     5.1582     5.4327   -49.7700
  617.0000   126.4291     5.3720     5.5840   -49.5516
  617.5000   125.4341     5.4540     5.6610   -49.3323
  618.0000   127.0138     5.6750     5.8187   -49.1098
  618.5000   129.5400     5.7667     5.9807   -48.8873
  619.0000   131.3952     5.9297     5.9803   -48.6647
  619.5000   130.4860     6.0138     6.0628   -48.4421
  620.0000   129.8603     6.0992     6.0624   -48.2196
  620.5000   127.1007     6.1603     6.0620   -47.9970
  621.0000   127.9900     6.1593     6.0616   -47.7745
  621.5000   131.9474     6.0441     6.0611   -47.5519
  622.0000   133.1362     5.7958     6.0558   -47.3294
  622.5000   128.9357     5.5578     5.8811   -47.1068
  623.0000   123.5377     5.3631     5.6472   -46.8843
  623.5000   116.3432     5.1816     5.4911   -46.6617
  624.0000   113.3403     5.0021     5.2663   -46.4392
  624.5000   113.9303     4.8309     5.1056   -46.2166
  625.0000   120.5082     4.6324     4.8275   -45.9941
  625.5000   124.0922     4.4185     4.5820   -45.7302
  626.0000   124.0834     4.2977     4.4364   -45.5118
  626.5000   124.0745     4.1802     4.3322   -45.2935
  627.0000   128.8561     4.1224     4.2124   -45.0751
  627.5000   130.6436     4.1219     4.1189   -44.8567
  628.0000   129.4291     4.1786     4.1186   -44.6384
  628.5000   127.5798     4.2360     4.1183   -44.4362
  629.0000   125.1400     4.3538     4.1468   -44.2137
  629.5000   122.6996     4.4749     4.2641   -43.9833
  630.0000   121.0186     4.5994     4.4194   -43.7649
  630.5000   122.4024     4.7930     4.5965   -43.5460
  631.0000   123.9949     4.8589     4.6599   -43.3234
  631.5000   123.2525     4.9257     4.7243   -43.1009
  632.0000   122.7784     4.9250     4.7894   -42.8783
  632.5000   124.3063     4.9243     4.7890   -42.6558
  633.0000   125.9421     4.9237     4.7887   -42.4332
  633.5000   127.1488     4.9230     4.7884   -42.2107
  634.0000   127.5346     4.9223     4.7226   -56.8548
  634.5000   127.5240     4.8950     4.6577   -56.6024
  635.0000   126.7365     4.8391     4.5309   -56.3798
  635.5000   123.0808     4.4547     4.2292   -56.1573
  636.0000   119.7206     3.9950     3.7879   -55.9347
  636.5000   121.5561     3.5420     3.3005   -55.7122
  637.0000   124.5490     3.1054     2.9141   -55.4896
  637.5000   126.9710     2.7621     2.6070   -55.2671
  638.0000   127.4611     2.4677     2.3713   -55.0445
  638.5000   127.4505     2.4484     2.3387   -54.7803
  639.0000   130.4357     2.4670     2.4130   -54.5619
  639.5000   133.4208     2.4838     2.5933   -54.3436
  640.0000   134.1716     2.5540     2.8282   -54.1252
  640.5000   125.0199     2.7645     3.1629   -53.9068
  641.0000   120.8195     3.1601     3.5020   -53.6885
  641.5000   119.0142     3.5281     3.8321   -53.4701
  642.0000   121.4006     3.7794     4.0915   -53.2517
  642.5000   120.7929     4.0486     4.2674   -53.0333
  643.0000   121.3829     4.2190     4.3429   -52.8150
  643.5000   124.3680     4.3364     4.3679   -52.5964
  644.0000   125.5568     4.3961     4.4024   -52.3739
  644.5000   124.9433     4.3954     4.4021   -52.1513
  645.0000   121.3072     4.3948     4.3707   -51.9288
  645.5000   120.7398     4.3341     4.3088   -51.7062
  646.0000   124.9780     4.2156     4.2231   -51.4837
  646.5000   124.9132     4.1004     4.0910   -51.2611
  647.0000   125.0879     3.9337     3.9962   -51.0386
  647.5000   127.2912     3.7734     3.8875   -50.8160
  648.0000   125.2295     3.6165     3.7299   -50.5935
  648.5000   122.1906     3.4190     3.5298   -35.5341
  649.0000   120.5130     3.2323     3.2948   -35.3116
  649.5000   122.2286     3.0558     3.1180   -35.0890
  650.0000   121.6567     2.9021     2.9508   -34.8665
  650.5000   120.6513     2.9017     2.7925   -34.6439
  651.0000   122.9081     2.9013     2.8702   -34.4213
  651.5000   124.8233     2.9009     3.0746   -34.1988
  652.0000   124.8144     2.9772     3.2935   -33.9762
  652.5000   124.5160     3.2377     3.5768   -33.7537
  653.0000   122.6927     3.5700     3.8352   -33.5311
  653.5000   122.7697     3.8613     4.1137   -33.3086
  654.0000   124.7785     4.0833     4.4070   -33.0860
  654.5000   125.3683     4.4058     4.5889   -32.8635
  655.0000   125.3577     4.5985     4.7287   -32.6409
  655.5000   125.3488     4.7601     4.9196   -32.4184
  656.0000   124.1424     4.8622     4.9749   -32.1958
  656.5000   122.3371     4.8918     4.9746   -31.9733
  657.0000   124.1247     4.8910     4.9742   -31.7507
