~VERSION INFORMATION
 VERS.                2.0:   CWLS LOG ASCII STANDARD - VERSION 2.0
 WRAP.                 NO:   ONE LINE PER DEPTH STEP
~WELL INFORMATION
#MNEM.UNIT      DATA TYPE    INFORMATION
#----------   ------------   ------------------------------
 STRT.F          203.5000:   START DEPTH
 STOP.F         3126.0000:   STOP DEPTH
 STEP.F            0.5000:   STEP LENGTH
 NULL.          -999.2500:   NO VALUE
 COMP.    FENIX & SCISSON:   COMPANY
 WELL. FENIX NPR 3 "AX" #88-33:   WELL
 FLD .        TEAPOT DOME:   FIELD
 LOC .      S33 T39N R78W:   LOCATION
 CNTY.            NATRONA:   COUNTY
 STAT.            WYOMING:   STATE
 CTRY. UNITED STATES OF AMERICA:   COUNTRY
 SRVC.       SCHLUMBERGER:   SERVICE COMPANY
 DATE.        23-JAN-1978:   LOGDATE
 API .     49025105610000:   API NUMBER
~CURVE INFORMATION
#MNEM.UNIT       API CODE    CURVE DESCRIPTION
#----------   ------------   ------------------------------
 DEPT.F                  :   
 CALD.IN     45 280 60 00:   CALIPER FROM DENSITY LOG
 GRD .GAPI   45 310 01 00:   GAMMA RAY FROM DENSITY LOG
 RHOB.G/C3   45 350 01 00:   BULK DENSITY
 CORR.G/C3   45 356 01 00:   DENSITY CORRECTION
 SPR .MV     05 010 01 00:   SPONTANEOUS POTENTIAL
 SN  .OHMM   05 040 16 00:   SHORT NORMAL 16"
 ILD .OHMM   05 120 46 00:   DEEP INDUCTION RESISTIVITY
~PARAMETER INFORMATION
#MNEM.UNIT          VALUE    DESCRIPTION
#----------   ------------   ------------------------------
 EKB .F         5174.0000:   Kelly bushing
 EGL .F         5164.0000:   Ground level
 EDF .F            0.0000:   Drilling floor
 TD  .F         3115.0000:   Total depth
 DATE.        23-JAN-1978:   Date logged
 CLNT.            A2DTECH:   Client Code
 PD  .                 GL:   Permanent Datum
 EPD .F              5164:   Elevation Permanent Datum
 LMF .                 KB:   Log Measured From
 DMF .                 KB:   Drilling Measured From
 DD  .F              3115:   Depth driller
 DL  .F              3115:   Depth logger
 BLI .F              3115:   Bottom log interval
 TLI .F               210:   Top log interval
 CS1 .IN            8.625:   Casing size
 CBD1.      9.625" @ 219':   Casing driller 1
 CBL1.F               219:   Casing logger 1
 BS1 .IN            7.875:   Bit size
 BSD1.F              3115:   Depth drilled with bit1
 DFT .                GEL:   Type fluid in hole
 DFD .                8.9:   Density
 DFV .                 36:   Viscosity
 DFPH.                 10:   pH
 DFL .                7.8:   Fluid loss
 MSS .           FLOWLINE:   Source of sample
 RMS .OHMM            2.2:   Rm
 MST .F                62:   Rm Meas. temp.
 RMF .OHMM           1.94:   Rmf
 MFST.F                54:   Rmf Meas. temp.
 RMC .OHMM            3.4:   Rmc
 MCST.F                54:   Rmc Meas. temp.
 MFSS.               MEAS:   Source Rmf.
 MCSS.               MEAS:   Source Rmc.
 RMB .OHMM            1.1:   Rm. at BHT
 BHT .F               114:   BHT.
 TCS .HRS             4.5:   Time Circ. stopped
 MRT .F               114:   Maximum recorded temp.
 LUN .               2958:   Logging unit number
 LUL .             CASPER:   Logging unit location
 ENGI.           REYNOLDS:   Recorded By
 WITN.           MCGINLEY:   Witnessed by
 ORIG.           5" PRINT:   Origin of data
 UWI .     49025105610000:   Unique Well ID
 DICO. A2D TECHNOLOGIES, INC.:   Digitizing Company
 DAPD.F              5164:   Feet Above Permanent Datum
 SL  . 100' FSL & 550' FEL:   Surface Location
~OTHER INFORMATION
~A   DEPT     CALD        GRD       RHOB       CORR        SPR         SN        ILD   
# ...
  385.5000    11.0498   100.5942     2.4369     0.1489   -38.8354     5.9910     7.6869
  386.0000    11.0502   101.7861     2.4329     0.1490   -39.4470     5.9869     7.9725
  386.5000    11.0505   104.1658     2.4289     0.1550   -37.6689     5.9829     8.1904
  387.0000    11.0508   102.1893     2.4249     0.1669   -35.2906     5.9789     8.1860
  387.5000    11.0512   100.6082     2.4249     0.1729   -39.2903     5.9749     8.1804
  388.0000    11.0515    98.0375     2.4249     0.1769   -35.7200     6.0261     7.8051
  388.5000    11.0519    99.6248     2.4180     0.1929   -36.7298     6.0221     7.3775
  389.0000    11.0522   100.0245     2.4140     0.1929   -39.7347     6.0181     6.9742
  389.5000    11.0525    99.4338     2.4070     0.1929   -35.9588     6.0140     6.6542
  390.0000    11.1320    99.0412     2.4010     0.1889   -38.1662     6.0100     6.5286
  390.5000    11.1720    94.2920     2.3920     0.1750   -42.7605     5.6831     6.4037
  391.0000    11.1723    97.2657     2.3930     0.1710   -35.2047     5.1797     6.3404
  391.5000    11.1727    99.6459     2.3471     0.1650   -38.8098     5.3212     6.3378
  392.0000    11.1730   100.0448     2.3302     0.1610   -37.0252     5.4165     6.3327
  392.5000    11.1733   102.5855     2.3102     0.1490   -35.6454     5.4128     6.6899
  393.0000    11.2133    98.4675     2.2553     0.1510   -35.2613     5.5105     7.1358
  393.5000    11.2136    94.7081     2.2124     0.1670   -35.4746     6.2645     8.3264
  394.0000    11.2140    92.7312     2.1575     0.2908   -43.4626     6.9918     9.8488
  394.5000    11.2737    86.9929     2.0557     0.2904   -36.1003     7.1828    10.0274
  395.0000    11.2741    87.7865     2.0547     0.1431   -37.5112     7.3790    10.0220
  395.5000    11.4130    88.7811     2.1236     0.1231   -36.3277     7.5816    10.1083
  396.0000    11.0371    91.9533     2.3193     0.1411   -40.7229     7.8608    10.1941
  396.5000    11.0572    97.5034     2.4171     0.1411   -41.5336     7.9282    10.5714
  397.0000    11.0576    96.1193     2.4201     0.1511   -36.3673     8.0701    10.9642
  397.5000    11.0579    95.3307     2.3942     0.1730   -36.5806     8.2906    11.1676
  398.0000    11.0583    94.7401     2.3852     0.1950   -36.9931     8.9184    12.2867
  398.5000    11.0389    93.5555     2.3832     0.2110   -32.8319     9.2467    13.5380
  399.0000    11.0391    93.1630     2.3762     0.2309   -34.6317    10.2228    15.0479
  399.5000    11.0394    92.3745     2.3673     0.2409   -35.6416    10.8005    16.7261
  400.0000    11.0397    92.3781     2.3573     0.2589   -32.4667    11.4499    16.9862
  400.5000    11.0401    91.5421     2.3539     0.2709   -34.6944    12.1383    16.9755
  401.0000    11.0400    89.8054     2.3553     0.2329   -35.2855    12.3763    16.8093
  401.5000    11.0798    80.6969     2.3902     0.1970   -37.6928    12.5984    16.6448
  402.0000    11.0798    72.1819     2.4042     0.2489   -37.1066    12.7086    16.1809
  402.5000    11.0800    70.9941     2.2904     0.2988   -36.5233    12.7006    15.7299
  403.0000    11.0801    68.8160     2.2745     0.2529   -38.1295    12.6926    15.8676
  403.5000    11.0802    68.0242     2.3852     0.1870   -38.1435    12.6847    16.6031
  404.0000    11.0803    67.4304     2.3473     0.2469   -38.7550    12.7940    17.2156
  404.5000    11.0805    70.5996     2.2894     0.2868   -38.3707    12.9043    17.3641
  405.0000    11.0805    71.1942     2.2675     0.3168   -36.3934    13.0155    18.0069
  405.5000    11.0807    71.5908     2.2705     0.3188   -34.8115    13.1276    18.3349
  406.0000    11.0808    66.2434     2.2864     0.3244   -37.0197    13.1194    19.5392
  406.5000    11.1007    64.4611     2.3024     0.2928   -33.0566    13.1112    20.2600
  407.0000    11.0810    64.6594     2.3184     0.2749   -32.8631    13.3465    20.2473
  407.5000    11.0812    65.8482     2.3263     0.2549   -41.4447    13.8386    20.9415
  408.0000    11.0812    67.6314     2.3413     0.2345   -38.2725    13.7032    20.9336
  408.5000    11.0814    64.4622     2.3683     0.1691   -34.6993    13.6946    20.7262
  409.0000    11.0815    61.8873     2.3723     0.1531   -34.7105    13.6860    20.5208
  409.5000    11.0817    60.5009     2.3413     0.1511   -38.3118    13.6774    19.8156
  410.0000    11.1214    60.8973     2.3064     0.1471   -37.3273    13.4194    19.6216
  410.5000    11.1215    61.2937     2.2944     0.1551   -38.9373    13.2881    19.4295
  411.0000    11.1414    61.0958     2.2605     0.1491   -39.3496    13.4026    19.0652
  411.5000    11.1415    60.5017     2.2345     0.1870   -39.3636    13.2714    19.2272
  412.0000    11.1417    60.1057     2.2046     0.1970   -39.5767    13.2631    19.5726
  412.5000    11.1418    59.9078     2.2026     0.2050   -40.1882    13.3774    19.9241
  413.0000    11.1420    60.7004     2.2026     0.2130   -40.6005    13.4927    20.2820
  413.5000    11.1421    62.2856     2.2046     0.2130   -42.2076    13.4842    20.2693
  414.0000    11.1620    60.7009     2.2146     0.2070   -43.2173    13.4758    20.8244
  414.5000    11.1621    60.5029     2.2216     0.2130   -43.2313    13.5919    20.4314
  415.0000    11.1622    60.7012     2.2256     0.2210   -43.2453    13.7091    20.6179
  415.5000    11.1624    61.0977     2.2275     0.2289   -43.2594    13.9534    20.9778
  416.0000    11.1625    62.6831     2.2355     0.2369   -41.0885    14.0772    21.5549
  416.5000    11.1626    64.4667     2.2545     0.1870   -45.0824    14.1986    21.7436
  417.0000    11.1627    68.0338     2.2705     0.1671   -42.9032    14.1968    21.9284
  417.5000    11.1430    70.8083     2.2555     0.1651   -42.9172    14.4426    22.4714
  418.0000    11.1234    74.1774     2.2525     0.1631   -42.7321    14.4354    22.2515
  418.5000    11.1433    77.5450     2.2495     0.1631   -42.1459    14.4263    22.2376
  419.0000    11.1236    76.5564     2.2485     0.1731   -41.5625    14.5507    22.2237
  419.5000    11.1237    76.1604     2.2435     0.1751   -40.9791    14.4083    22.2099
  420.0000    11.1238    78.1429     2.2675     0.1770   -40.9931    14.5325    21.7909
  420.5000    11.1438    76.7562     2.2994     0.1731   -41.0072    14.5233    21.5777
  421.0000    11.0844    73.5858     2.3114     0.1551   -40.6229    14.5142    21.0295
  421.5000    11.0846    71.4061     2.3114     0.1371   -40.4378    14.5052    20.8340
  422.0000    11.0847    70.6138     2.2914     0.1371   -40.4518    14.4961    19.8735
  422.5000    11.0848    70.2178     2.2764     0.1431   -40.4658    14.4870    19.4984
  423.0000    11.0849    69.2272     2.2645     0.1571   -40.0816    14.6119    19.6690
  423.5000    11.0652    67.4437     2.2605     0.1611   -40.0956    14.7378    20.2052
  424.0000    11.0653    67.0477     2.2745     0.1651   -39.7114    15.0024    23.1857
  424.5000    11.0456    67.2462     2.2834     0.1611   -39.5263    15.4131    23.6052
  425.0000    11.0259    68.0394     2.3104     0.1451   -39.5403    15.9815    26.8389
  425.5000    10.9864    69.2290     2.3353     0.1331   -39.5543    16.2684    27.8292
  426.0000    10.9865    71.4099     2.3573     0.1132   -39.5683    16.8705    28.5915
  426.5000    10.9668    72.5997     2.3633     0.1032   -39.3776    17.1734    28.5736
  427.0000    10.9669    72.7984     2.3453     0.1012   -39.9946    17.1627    28.2939
  427.5000    10.9671    71.2129     2.3303     0.0952   -40.0087    17.1519    27.7599
  428.0000    10.9672    69.2310     2.3254     0.0888   -41.2175    16.6740    26.7386
  428.5000    10.9673    67.0507     2.3104     0.0992   -40.4350    16.5108    25.5249
  429.0000    10.9674    64.2756     2.2834     0.1830   -40.2499    15.3264    22.2075
  429.5000    10.9675    63.4828     2.2615     0.1611   -39.8656    14.7628    22.4182
  430.0000    10.9677    64.4743     2.3513     0.1451   -39.8797    14.2198    20.0539
  430.5000    10.9678    65.6642     2.3463     0.1970   -39.8909    13.9515    19.8571
