~VERSION INFORMATION
 VERS.                2.0:   CWLS LOG ASCII STANDARD - VERSION 2.0
 WRAP.                 NO:   ONE LINE PER DEPTH STEP
~WELL INFORMATION
#MNEM.UNIT      DATA TYPE    INFORMATION
#----------   ------------   ------------------------------
 STRT.F           40.0000:   START DEPTH
 STOP.F         3326.0000:   STOP DEPTH
 STEP.F            0.5000:   STEP LENGTH
 NULL.          -999.2500:   NO VALUE
 COMP.    FENIX & SCISSON:   COMPANY
 WELL.  FENIX "AX" #53-15:   WELL
 FLD .              NPR-3:   FIELD
 LOC .      S15 T38N R78W:   LOCATION
 CNTY.            NATRONA:   COUNTY
 STAT.            WYOMING:   STATE
 CTRY. UNITED STATES OF AMERICA:   COUNTRY
 SRVC.              WELEX:   SERVICE COMPANY
 DATE.        02-MAR-1977:   LOGDATE
 API .     49025102640000:   API NUMBER
~CURVE INFORMATION
#MNEM.UNIT       API CODE    CURVE DESCRIPTION
#----------   ------------   ------------------------------
 DEPT.F                  :   
 CALD.IN     42 280 60 00:   CALIPER
 TEND.LBS    42 635 01 00:   TENSION FROM NEUTRON POROSITY LOG
 GRD .GAPI   42 310 30 00:   GAMMA RAY
 NPHI.DEC    42 890 03 00:   NEUTRON POROSITY SANDSTONE
 DPHI.DEC    45 890 12 00:   DENSITY POROSITY SANDSTONE
 SPR .MV     07 010 01 00:   SPONTANEOUS POTENTIAL
 ILD .OHMM   07 120 46 00:   DEEP INDUCTION RESISTIVITY
 ILM .OHMM   07 120 44 00:   INDUCTION LOG MEDIUM RESISTIVITY
 SGRD.OHMM   07 220 05 00:   SHALLOW SHORT GUARD RESISTIVITY
~PARAMETER INFORMATION
#MNEM.UNIT          VALUE    DESCRIPTION
#----------   ------------   ------------------------------
 EKB .F            0.0000:   Kelly bushing
 EGL .F         5251.0000:   Ground level
 EDF .F            0.0000:   Drilling floor
 TD  .F          750.0000:   Total depth
 DATE.        02-MAR-1977:   Date logged
 CLNT.            A2DTECH:   Client Code
 SL  . 1650' FNL & 2360' FEL:   Surface Location
 PD  .                 GL:   Permanent Datum
 EPD .F              5253:   Elevation Permanent Datum
 LMF .                 GL:   Log Measured From
 DMF .                 GL:   Drilling Measured From
 DD  .F               750:   Depth driller
 DL  .F               747:   Depth logger
 BLI .F               745:   Bottom log interval
 CS1 .IN            8.625:   Casing size
 CBD1.       8.625" @ 40':   Casing driller 1
 CBL1.F                44:   Casing logger 1
 BS1 .IN            7.875:   Bit size
 BSD1.F               750:   Depth drilled with bit1
 DFT .           CHEM-GEL:   Type fluid in hole
 MSS .           FLOWLINE:   Source of sample
 RMS .OHMM          0.425:   Rm
 MST .F                56:   Rm Meas. temp.
 RMF .OHMM          0.466:   Rmf
 MFST.F                56:   Rmf Meas. temp.
 RMC .OHMM          0.712:   Rmc
 MCST.F                56:   Rmc Meas. temp.
 MFSS.               MEAS:   Source Rmf.
 MCSS.               MEAS:   Source Rmc.
 RMB .OHMM          0.350:   Rm. at BHT
 BHT .F                68:   BHT.
 TCS .HRS               2:   Time Circ. stopped
 MRT .F                68:   Maximum recorded temp.
 LUN .               8611:   Logging unit number
 LUL .            GILLETH:   Logging unit location
 ENGI.          D. LAWSON:   Recorded By
 WITN.           S. BURKL:   Witnessed by
 ORIG.           5" PRINT:   Origin of data
 UWI .     49025102640000:   Unique Well ID
 DICO. A2D TECHNOLOGIES, INC.:   Digitizing Company
~OTHER INFORMATION
~A   DEPT     CALD       TEND         GRD        NPHI     DPHI        SPR        ILD        ILM       SGRD   
# ...
 2814.0000     7.6960   124.8750    92.7970     0.2150     0.1150  -999.2500  -999.2500  -999.2500  -999.2500
 2814.5000     7.6940   122.0900    94.4300     0.2180     0.1130  -999.2500  -999.2500  -999.2500  -999.2500
 2815.0000     7.6930   116.1780    96.1570     0.2230     0.1140  -999.2500  -999.2500  -999.2500  -999.2500
 2815.5000     7.6910   110.2660    97.2070     0.2280     0.1160  -999.2500  -999.2500  -999.2500  -999.2500
 2816.0000     7.6920   104.8950   110.8400     0.2330     0.1200  -999.2500  -999.2500  -999.2500  -999.2500
 2816.5000     7.6940   116.5170   108.4980     0.2380     0.1180  -999.2500  -999.2500  -999.2500  -999.2500
 2817.0000     7.6970   133.2670    98.0870     0.2340     0.1130  -999.2500  -999.2500  -999.2500  -999.2500
 2817.5000     7.7000   133.2420    92.8860     0.2290     0.1170  -999.2500  -999.2500  -999.2500  -999.2500
 2818.0000     7.7020    95.5540    95.4360     0.2190     0.1260  -999.2500  -999.2500  -999.2500  -999.2500
 2818.5000     7.7050   100.2000    81.1630     0.2130     0.1230  -999.2500  -999.2500  -999.2500  -999.2500
 2819.0000     7.7070   184.8150    74.9570     0.2120     0.1170  -999.2500  -999.2500  -999.2500  -999.2500
 2819.5000     7.7010   138.1620    80.2450     0.2110     0.1120  -999.2500  -999.2500  -999.2500  -999.2500
 2820.0000     7.6360   140.7160    86.1480     0.2090     0.1080  -999.2500  -999.2500  -999.2500  -999.2500
 2820.5000     7.5710   144.9690    88.4930     0.2150     0.1540  -999.2500  -999.2500  -999.2500  -999.2500
 2821.0000     7.5050   114.8850    89.2130     0.2200     0.1680  -999.2500  -999.2500  -999.2500  -999.2500
 2821.5000     7.4920   130.8360    86.2500     0.2210     0.1710  -999.2500  -999.2500  -999.2500  -999.2500
 2822.0000     7.5330    96.7030    93.3520     0.2200     0.1740  -999.2500  -999.2500  -999.2500  -999.2500
 2822.5000     7.6560   115.0990   107.3370     0.2200     0.1350  -999.2500  -999.2500  -999.2500  -999.2500
 2823.0000     7.7790   254.7450   107.8930     0.2210     0.1080  -999.2500  -999.2500  -999.2500  -999.2500
 2823.5000     7.8290   194.7940   103.9700     0.2220     0.1180  -999.2500  -999.2500  -999.2500  -999.2500
 2824.0000     7.8300   144.8550   100.4370     0.2210     0.1300  -999.2500  -999.2500  -999.2500  -999.2500
 2824.5000     7.8300   142.4330    99.9770     0.2200     0.1250  -999.2500  -999.2500  -999.2500  -999.2500
 2825.0000     7.8780   129.8700    97.5390     0.2170     0.1160  -999.2500  -999.2500  -999.2500  -999.2500
 2825.5000     7.9570   155.1450    97.9520     0.2120     0.1110  -999.2500  -999.2500  -999.2500  -999.2500
 2826.0000     8.0350   176.5830    91.6790     0.2090     0.1090  -999.2500  -999.2500  -999.2500  -999.2500
 2826.5000     8.0730   156.4840    89.7230     0.2100     0.1180  -999.2500  -999.2500  -999.2500  -999.2500
 2827.0000     8.1130   144.8550    96.2160     0.2130     0.1260  -999.2500  -999.2500  -999.2500  -999.2500
 2827.5000     8.1500   144.8550   102.1080     0.2120     0.1140  -999.2500  -999.2500  -999.2500  -999.2500
 2828.0000     8.1230   144.8550   109.5250     0.2130     0.1100  -999.2500  -999.2500  -999.2500  -999.2500
 2828.5000     8.0910   144.8550   115.8890     0.2160     0.1150  -999.2500  -999.2500  -999.2500  -999.2500
 2829.0000     8.0580   144.8550   116.5420     0.2190     0.1170  -999.2500  -999.2500  -999.2500  -999.2500
 2829.5000     8.0260   143.5210   107.9580     0.2230     0.1230  -999.2500  -999.2500  -999.2500  -999.2500
 2830.0000     7.9940   140.5650   100.3990     0.2270     0.1280  -999.2500  -999.2500  -999.2500  -999.2500
 2830.5000     7.9700   137.6090   101.6240     0.2290     0.1250  -999.2500  -999.2500  -999.2500  -999.2500
 2831.0000     7.9710   134.8650    99.2800     0.2290     0.1240  -999.2500  -999.2500  -999.2500  -999.2500
 2831.5000     7.9720   146.8310    97.8270     0.2270     0.1300  -999.2500  -999.2500  -999.2500  -999.2500
 2832.0000     7.9720   146.7390   100.3730     0.2230     0.1240  -999.2500  -999.2500  -999.2500  -999.2500
 2832.5000     7.9730   118.0250    95.5680     0.2210     0.1130  -999.2500  -999.2500  -999.2500  -999.2500
 2833.0000     7.9740   127.0910    94.5650     0.2200     0.1110  -999.2500  -999.2500  -999.2500  -999.2500
 2833.5000     7.9750   140.7960    97.0120     0.2220     0.1000  -999.2500  -999.2500  -999.2500  -999.2500
 2834.0000     7.9750   147.4190   108.5840     0.2240     0.0970  -999.2500  -999.2500  -999.2500  -999.2500
 2834.5000     7.9760   154.8450   113.5000     0.2230     0.0990  -999.2500  -999.2500  -999.2500  -999.2500
 2835.0000     7.9770   155.8440   113.8720     0.2210     0.0980  -999.2500  -999.2500  -999.2500  -999.2500
 2835.5000     7.9780   143.2820   108.7560     0.2210     0.0930  -999.2500  -999.2500  -999.2500  -999.2500
 2836.0000     7.9790   156.9760   107.2910     0.2180     0.0860  -999.2500  -999.2500  -999.2500  -999.2500
 2836.5000     7.9790   172.7040   109.2930     0.2170     0.0910  -999.2500  -999.2500  -999.2500  -999.2500
 2837.0000     7.9800   168.7370   112.0090     0.2170     0.0960  -999.2500  -999.2500  -999.2500  -999.2500
 2837.5000     7.9810   164.7690   110.4110     0.2170     0.1010  -999.2500  -999.2500  -999.2500  -999.2500
 2838.0000     7.9820   160.8020   110.5360     0.2150     0.0970  -999.2500  -999.2500  -999.2500  -999.2500
 2838.5000     7.9820   156.8350   108.7110     0.2160     0.0950  -999.2500  -999.2500  -999.2500  -999.2500
 2839.0000     7.9830   152.8680   110.8900     0.2230     0.1040  -999.2500  -999.2500  -999.2500  -999.2500
 2839.5000     7.9840   148.9010   112.2740     0.2300     0.1140  -999.2500  -999.2500  -999.2500  -999.2500
 2840.0000     7.9850   144.8550   113.5520     0.2310     0.1180  -999.2500  -999.2500  -999.2500  -999.2500
 2840.5000     7.9850   152.2430   112.9250     0.2290     0.1130  -999.2500  -999.2500  -999.2500  -999.2500
 2841.0000     7.9860   159.7800   113.1830     0.2260     0.1150  -999.2500  -999.2500  -999.2500  -999.2500
 2841.5000     7.9870   167.3180   112.0150     0.2210     0.1170  -999.2500  -999.2500  -999.2500  -999.2500
 2842.0000     7.9880   174.8250   116.8290     0.2210     0.1180  -999.2500  -999.2500  -999.2500  -999.2500
 2842.5000     7.9880   171.6180   115.9110     0.2310     0.1150  -999.2500  -999.2500  -999.2500  -999.2500
 2843.0000     7.9890   166.3280   121.8780     0.2390     0.1120  -999.2500  -999.2500  -999.2500  -999.2500
 2843.5000     7.9900   161.0390   122.3130     0.2460     0.1080  -999.2500  -999.2500  -999.2500  -999.2500
 2844.0000     7.9750   155.7500   123.7960     0.2460     0.1050  -999.2500  -999.2500  -999.2500  -999.2500
 2844.5000     7.9570   179.8400   139.9050     0.2470     0.1040  -999.2500  -999.2500  -999.2500  -999.2500
 2845.0000     7.9380   173.7740   143.8430     0.2490     0.1060  -999.2500  -999.2500  -999.2500  -999.2500
 2845.5000     7.9200   160.5500   132.5250     0.2470     0.1130  -999.2500  -999.2500  -999.2500  -999.2500
 2846.0000     7.9100   147.3260   115.6590     0.2440     0.1170  -999.2500  -999.2500  -999.2500  -999.2500
 2846.5000     7.9100   134.8650   110.1230     0.2380     0.1180  -999.2500  -999.2500  -999.2500  -999.2500
 2847.0000     7.9100   142.4580   105.8130     0.2330     0.1190  -999.2500  -999.2500  -999.2500  -999.2500
 2847.5000     7.9100   149.6360   102.4990     0.2300     0.1200  -999.2500  -999.2500  -999.2500  -999.2500
 2848.0000     7.9100   153.1230   104.2070     0.2290     0.1190  -999.2500  -999.2500  -999.2500  -999.2500
 2848.5000     7.9100   146.8460    94.8570     0.2280     0.1170  -999.2500  -999.2500  -999.2500  -999.2500
 2849.0000     7.9100   140.5690    97.2770     0.2290     0.1190  -999.2500  -999.2500  -999.2500  -999.2500
 2849.5000     7.8880   134.2920    95.3040     0.2280     0.1180  -999.2500  -999.2500  -999.2500  -999.2500
 2850.0000     7.8630   128.0150    84.2320     0.2250     0.1200  -999.2500  -999.2500  -999.2500  -999.2500
