~VERSION INFORMATION
 VERS.                2.0:   CWLS LOG ASCII STANDARD - VERSION 2.0
 WRAP.                 NO:   ONE LINE PER DEPTH STEP
~WELL INFORMATION
#MNEM.UNIT      DATA TYPE    INFORMATION
#----------   ------------   ------------------------------
 STRT.F          220.0000:   START DEPTH
 STOP.F         3284.5000:   STOP DEPTH
 STEP.F            0.5000:   STEP LENGTH
 NULL.          -999.2500:   NO VALUE
 COMP.    FENIX & SCISSON:   COMPANY
 WELL. FENIX HARPEL "A" #85-28:   WELL
 FLD .              NPR-3:   FIELD
 LOC .      S28 T39N R78W:   LOCATION
 CNTY.            NATRONA:   COUNTY
 STAT.            WYOMING:   STATE
 CTRY. UNITED STATES OF AMERICA:   COUNTRY
 SRVC.      DRESSER ATLAS:   SERVICE COMPANY
 DATE.        07-AUG-1977:   LOGDATE
 API .     49025104040000:   API NUMBER
~CURVE INFORMATION
#MNEM.UNIT       API CODE    CURVE DESCRIPTION
#----------   ------------   ------------------------------
 DEPT.F                  :   
 GRD .GAPI   45 310 01 00:   GAMMA RAY FROM DENSITY LOG
 CALD.IN     45 280 60 00:   CALIPER FROM DENSITY LOG
 CORR.G/C3   45 356 01 00:   DENSITY CORRECTION
 RHOB.G/C3   45 350 01 00:   BULK DENSITY
 TEND.LBS    45 635 01 00:   TENSION FORM DENSITY LOG
 NPHI.DEC    42 890 03 00:   NEUTRON POROSITY SANDSTONE
 SPR .MV     11 010 01 00:   SPONTANEOUS POTENTIAL FROM RES.
 TENR.LBS    11 635 01 00:   TENSION FROM RES.
 LLD .OHMM   11 220 10 00:   LATEROLOG LOG DEEP
 LLS .OHMM   11 220 09 00:   LATEROLOG SHALLOW
 RXO .OHMM   11 270 04 00:   FLUSHED ZONE RESISTIVITY
~PARAMETER INFORMATION
#MNEM.UNIT          VALUE    DESCRIPTION
#----------   ------------   ------------------------------
 EKB .F         5059.0000:   Kelly bushing
 EGL .F         5049.0000:   Ground level
 EDF .F            0.0000:   Drilling floor
 EPD .F            0.0000:   Permanent datum
 TD  .F         3240.0000:   Total depth
 CLNT.            A2DTECH:   Client Code
 SL  . 2310' FSL & 330' FEL:   Surface Location
 PD  .                 GL:   Permanent Datum
 DAPD.F                10:   Feet Above Permanent Datum
 DATE.        07-AUG-1977:   Date Logged [DD-MMM-YYYY]
 DD  .F              3240:   Depth driller
 DL  .F              3267:   Depth logger
 BLI .F              3265:   Bottom log interval
 TLI .F               224:   Top log interval
 CS1 .IN            8.625:   Casing size
 CBD1.      8.625" @ 254':   Casing driller 1
 CBL1.F               224:   Casing logger 1
 BS1 .IN            7.875:   Bit size
 BSD1.F              3240:   Depth drilled with bit1
 DFT .                KCL:   Type fluid in hole
 DFD .                8.8:   Density
 DFV .                 36:   Viscosity
 DFPH.               10.5:   pH
 DFL .                9.6:   Fluid loss
 MSS .         CIRCULATED:   Source of sample
 RMS .OHMM           0.22:   Rm
 MST .F                78:   Rm Meas. temp.
 RMF .OHMM           0.16:   Rmf
 MFST.F                78:   Rmf Meas. temp.
 MFSS.               MEAS:   Source Rmf.
 RMC .OHMM           0.28:   Rmc
 MCST.F                78:   Rmc Meas. temp.
 MCSS.               MEAS:   Source Rmc.
 RMB .OHMM           0.14:   Rm. at BHT
 BHT .F               125:   BHT.
 TCS .HRS               7:   Time Circ. stopped
 MRT .F               125:   Maximum recorded temp.
 LUN .               6134:   Logging unit number
 LUL .              GLTTE:   Logging unit location
 ENGI.              GOULD:   Recorded By
 WITN.         HARRINGTON:   Witnessed by
 ORIG.      2.5" 5" PRINT:   Origin of data
 UWI .     49025104040000:   Unique Well ID
 DICO. A2D TECHNOLOGIES, INC.:   Digitizing Company
~OTHER INFORMATION
~A   DEPT      GRD       CALD       CORR       RHOB       TEND         NPHI      SPR       TENR        LLD        LLS        RXO   
# ...
 1440.0000    51.5350     8.9151     0.0112     2.5233  1061.3053     0.3111   -74.1141   698.7952    10.0713     8.3675     6.9750
 1440.5000    49.0129     8.9169     0.0114     2.5362  1060.7181     0.3069   -74.1350   699.2469     9.1554     8.2506     6.9721
 1441.0000    48.8850     8.9186     0.0131     2.5445  1060.1310     0.3027   -74.1519   699.6988     8.9835     8.1354     6.9692
 1441.5000    49.0507     8.9126     0.0179     2.5386  1059.5437     0.3002   -74.1688   700.1505     9.7547     8.3610     7.0631
 1442.0000    49.0671     8.9073     0.0196     2.5267  1058.9565     0.2913   -74.1862   700.6024    10.3046     8.7124     7.0597
 1442.5000    48.9338     8.9091     0.0183     2.5175  1058.3694     0.2942   -74.2042   701.0736     9.6134     8.6810     7.1549
 1443.0000    50.4444     8.9109     0.0109     2.5119  1057.7821     0.2993   -74.2222   731.6265     9.0933     8.4273     7.0542
 1443.5000    53.1432     8.9127     0.0096     2.5210  1057.1949     0.3060   -74.2402   732.0783     9.3125     8.2947     6.8596
 1444.0000    55.9911     8.9148     0.0113     2.5406  1056.6078     0.3017   -74.2618   732.5301    10.1475     8.3495     6.8568
 1444.5000    57.3486     8.9166     0.0130     2.5496  1056.0206     0.3007   -73.9784   732.9819     9.8988     8.3469     6.9755
 1445.0000    55.1294     8.9180     0.0147     2.5332  1055.4333     0.3011   -73.6937   733.4337     9.0750     8.2303     7.0432
 1445.5000    52.0160     8.9198     0.0164     2.5258  1054.8462     0.3030   -73.7119   733.9538    10.4175     8.0028     6.8483
 1446.0000    50.3929     8.9219     0.0166     2.5184  1054.2590     0.3063   -73.7288   704.2579    10.5587     8.0332     6.8450
 1446.5000    48.6208     8.9237     0.0168     2.5125  1053.6718     0.3115   -73.3739   704.6825     9.4503     8.2239     6.9373
 1447.0000    50.2764     8.9252     0.0170     2.5216  1053.0846     0.3169   -73.1620   705.1205     9.0633     8.1766     7.1285
 1447.5000    52.9752     8.9272     0.0172     2.5307  1052.4974     0.3145   -73.1832   705.5723     9.5125     8.1655     7.2247
 1448.0000    54.3327     8.9290     0.0204     2.5383  1051.9102     0.3092   -73.2042   706.0240    10.0604     8.4465     7.2216
 1448.5000    54.0509     8.9307     0.0267     2.5446  1051.3230     0.3235   -73.2212   706.4758    10.4557     8.6808     7.3193
 1449.0000    53.1730     8.9325     0.0284     2.5520  1050.7358     0.3231   -73.2381   707.0175    10.6159     8.6785     7.3158
 1449.5000    54.0835     8.9341     0.0271     2.5453  1050.1486     0.3248   -73.5660   707.4421    10.5275     8.4355     7.3128
 1450.0000    59.0180     8.9359     0.0288     2.5315  1049.2072     0.3305   -73.8739   707.8667     9.9579     8.3028     7.2092
 1450.5000    55.7582     8.9229     0.0214     2.5144  1047.5999     0.3207   -73.8919   738.4117     9.6829     8.1723     7.0104
 1451.0000    51.1572     8.9094     0.0140     2.5238  1045.9921     0.3255   -73.9099   738.8553     9.6789     8.0437     6.8171
 1451.5000    50.2819     8.9116     0.0142     2.5509  1059.3768     0.3291   -73.9279   739.3073     8.8854     7.9776     6.7211
 1452.0000    50.4799     8.9133     0.0190     2.5352  1057.7690     0.3232   -73.9485   739.7590     7.7538     7.8656     6.7023
 1452.5000    54.3538     8.9151     0.0297     2.5278  1056.1617     0.3139   -73.9654   740.2108     8.4815     7.8636     6.6235
 1453.0000    54.0692     8.9169     0.0269     2.5166  1069.5654     0.3154   -73.9824   740.7469     9.9328     8.1941     6.6208
 1453.5000    51.5546     8.9148     0.0210     2.5107  1052.9236     0.3119   -74.0000   741.1714     9.9289     8.1919     6.6181
 1454.0000    49.9342     8.9126     0.0181     2.5077  1033.8807     0.3263   -74.0180   741.5959     9.2629     8.0559     6.6149
 1454.5000    51.1454     8.9104     0.0137     2.5011  1019.3442     0.3359   -74.0360   742.0204     8.4062     7.9643     6.6123
 1455.0000    51.7605     8.9083     0.0109     2.5260  1033.1307     0.3323   -74.0541   742.4698     8.9555     8.0120     6.7015
 1455.5000    51.0342     8.9061     0.0080     2.5456  1046.5160     0.3188   -74.0753   735.5481     9.9135     8.1828     6.6988
 1456.0000    50.0100     8.9039     0.0128     2.5531  1059.9008     0.3102   -74.0922   713.1737     8.8732     8.1803     6.7134
 1456.5000    48.9857     8.9018     0.0206     2.5577  1072.8835     0.3056   -74.1091   713.7048    10.0559     8.1781     6.8158
 1457.0000    48.2594     8.8996     0.0283     2.5638  1086.2683     0.3097   -74.1261   714.2351    10.2237     7.9533     6.9731
 1457.5000    48.7455     8.8974     0.0361     2.5714  1084.6610     0.3091   -74.1441   714.6597     8.3850     8.1843     6.9702
 1458.0000    50.6051     8.8952     0.0409     2.5627  1083.0532     0.3007   -74.1622   715.0843     8.3682     8.2854     6.6846
 1458.5000    51.7440     8.8931     0.0440     2.5401  1081.4092     0.3012   -74.1802   715.5120     9.0230     8.1693     6.5905
 1459.0000    50.2773     8.8909     0.0321     2.5281  1094.4282     0.3015   -74.1982   715.9639    10.0500     8.1670     6.6794
 1459.5000    49.1040     8.8887     0.0323     2.5507  1092.8209     0.3042   -74.2190   716.4156    10.1575     8.2783     6.6767
 1460.0000    47.9307     8.8730     0.0385     2.5688  1076.2207     0.3053   -74.2359   716.8674     9.8129     8.1622     6.6925
 1460.5000    47.2045     8.8756     0.0447     2.5629  1059.6204     0.2999   -74.2528   717.3193     9.3407     8.1601     6.7945
 1461.0000    47.9685     8.8775     0.0449     2.5540  1043.0201     0.2975   -74.2703   717.8440    10.4277     8.2714     7.0381
 1461.5000    49.6268     8.8647     0.0451     2.5533  1041.4128     0.2941   -74.2883   718.2685    10.4440     8.7389     7.3405
 1462.0000    52.0302     8.8519     0.0453     2.5594  1039.8051     0.2907   -74.3063   718.6931    10.1358     8.7068     7.2372
 1462.5000    51.3040     8.8390     0.0409     2.5572  1053.1897     0.2903   -74.3243   719.1265     9.5545     8.4523     7.2343
 1463.0000    49.6286     8.8262     0.0381     2.5543  1051.5743     0.2888   -74.3458   719.5783     9.4790     8.3772     7.3319
 1463.5000    47.6161     8.8133     0.0336     2.5484  1064.9672     0.2902   -74.3627   720.0301     9.4759     8.7287     7.3290
 1464.0000    48.9811     8.8009     0.0294     2.5312  1062.9575     0.2938   -74.3796   720.4819    10.0099     8.9711     7.3259
 1464.5000    49.5914     8.8030     0.0280     2.5320  1076.7445     0.2983   -74.3965   720.9337    10.1456     8.8455     7.3229
 1465.0000    48.2738     8.8084     0.0252     2.5404  1074.7349     0.3003   -73.8128   721.4528     9.6977     8.7219     7.3199
 1465.5000    46.9514     8.8218     0.0254     2.5434  1073.1271     0.2928   -73.4570   721.8773     9.4636     8.8766     7.4184
 1466.0000    48.4607     8.8389     0.0278     2.5534  1086.5118     0.2855   -73.2460   722.3018    10.0655     9.0861     7.4149
 1466.5000    49.9699     8.8408     0.0287     2.5368  1084.9045     0.2810   -73.2673   722.7409     9.7203     8.7147     7.4121
 1467.0000    50.4359     8.8429     0.0274     2.5249  1083.2968     0.2807   -73.5886   726.1516     9.5841     8.6489     7.5121
 1467.5000    49.8587     8.8450     0.0245     2.5340  1081.6890     0.2815   -73.9058   753.7651     9.9856     8.7095     7.5090
 1468.0000    49.1249     8.8471     0.0232     2.5236  1080.0599     0.2770   -73.9227   754.2169    10.2615     8.8283     7.5059
 1468.5000    48.0909     8.8641     0.0219     2.5402  1078.4106     0.2845   -74.2402   754.7574    10.1001     9.1993     7.4664
 1469.0000    47.9781     8.8662     0.0190     2.5493  1091.8585     0.2805   -74.2583   755.1819     9.9755     9.0654     7.3484
 1469.5000    48.7469     8.8684     0.0192     2.5554  1074.8564     0.2865   -74.2763   755.5723    10.2165     8.7002     7.2921
 1470.0000    49.8091     8.8703     0.0240     2.5524  1058.2566     0.2936   -74.2943   756.0311    10.7542     8.9787     7.0910
