~VERSION INFORMATION
 VERS.                2.0:   CWLS LOG ASCII STANDARD - VERSION 2.0
 WRAP.                 NO:   ONE LINE PER DEPTH STEP
~WELL INFORMATION
#MNEM.UNIT      DATA TYPE    INFORMATION
#----------   ------------   ------------------------------
 STRT.F          484.0000:   START DEPTH
 STOP.F         4334.0000:   STOP DEPTH
 STEP.F            0.5000:   STEP LENGTH
 NULL.          -999.2500:   NO VALUE
 COMP.    FENIX & SCISSON:   COMPANY
 WELL. FENIX NPR 3 "JX" #46-27:   WELL
 FLD .              N P R:   FIELD
 LOC .      S27 T39N R78W:   LOCATION
 CNTY.            NATRONA:   COUNTY
 STAT.            WYOMING:   STATE
 CTRY. UNITED STATES OF AMERICA:   COUNTRY
 SRVC.       SCHLUMBERGER:   SERVICE COMPANY
 DATE.        01-MAR-1979:   LOGDATE
 API .     49025107660000:   API NUMBER
~CURVE INFORMATION
#MNEM.UNIT       API CODE    CURVE DESCRIPTION
#----------   ------------   ------------------------------
 DEPT.F                  :   
 TENR.LBS    07 635 01 00:   TENSION FROM RESISTIVITY
 SPR .MV     07 010 01 00:   SPONTANEOUS POTENTIAL
 SFL .OHMM   07 220 01 00:   SHALLOW FOCUSED LOG RESISTIVITY
 ILD .OHMM   07 120 46 00:   DEEP INDUCTION RESISTIVITY
 ILM .OHMM   07 120 44 00:   INDUCTION LOG MEDIUM RESISTIVITY
 TEND.LBS    42 635 01 00:   TENSION FROM COMPENSATE NEUTRON
 GRD .GAPI   45 310 01 00:   GAMMA RAY FROM DENSITY LOG
 CALD.IN     45 280 60 00:   CALIPER FROM DENSITY LOG
 RHOB.G/C3   45 350 01 00:   BULK DENSITY
 CORR.G/C3   45 356 01 00:   DENSITY CORRECTION
 NPHI.DEC    42 890 03 00:   NEUTRON POROSITY SANDSTONE
~PARAMETER INFORMATION
#MNEM.UNIT          VALUE    DESCRIPTION
#----------   ------------   ------------------------------
 EKB .F         5059.0000:   Kelly bushing
 EGL .F         5049.0000:   Ground level
 EDF .F            0.0000:   Drilling floor
 TD  .F         4320.0000:   Total depth
 DATE.        01-MAR-1979:   Date logged
 CLNT.            A2DTECH:   Client Code
 SL  . 1625' FSL & 2281' FWL:   Surface Location
 PD  .                 GL:   Permanent Datum
 DD  .F              4320:   Depth driller
 DL  .F              4319:   Depth logger
 BLI .F              4316:   Bottom log interval
 CS1 .IN            8.625:   Casing size
 CBD1.      8.625" @ 505':   Casing driller 1
 CBL1.F               500:   Casing logger 1
 BS1 .IN            7.875:   Bit size
 DFT .                FGM:   Type fluid in hole
 DFD .                9.1:   Density
 DFV .                 40:   Viscosity
 DFPH.               11.7:   pH
 DFL .                6.5:   Fluid loss
 MSS .               TANK:   Source of sample
 RMS .OHMM           .901:   Rm
 MST .F                65:   Rm Meas. temp.
 RMF .OHMM           .852:   Rmf
 MFST.F                65:   Rmf Meas. temp.
 MFSS.               MEAS:   Source Rmf.
 RMB .OHMM            .39:   Rm. at BHT
 BHT .F               151:   BHT.
 TCS .HRS            1200:   Time Circ. stopped
 MRT .F               151:   Maximum recorded temp.
 LUN .               8043:   Logging unit number
 LUL .               CSPR:   Logging unit location
 ENGI.              PFARR:   Recorded By
 WITN.              AMENO:   Witnessed by
 ORIG.         2.5" PRINT:   Origin of data
 UWI .     49025107660000:   Unique Well ID
 DICO. A2D TECHNOLOGIES, INC.:   Digitizing Company
 DAPD.                 10:   Feet Above Permanent Datum
 BSD1.F              4320:   Depth drilled with bit1
 EPD .F              5049:   Elevation Permanent Datum
 LMF .                 KB:   Log Measured From
 DMF .                 KB:   Drilling Measured From
 TLI .F               500:   Top log interval
 TLAB.HRS            1900:   Time logger at bottom
~OTHER INFORMATION
~A   DEPT     TENR        SPR        SFL        ILD        ILM       TEND         GRD      CALD       RHOB       CORR         NPHI 
# ...
 4052.5000  1289.6830   -36.7640     3.3670     2.6730     2.6630  1618.4810   129.4790     8.4210     2.5560     0.0620     0.4040
 4053.0000  1289.6830   -36.7020     3.3670     2.5600     2.5870  1622.0240   126.2430     8.4340     2.5580     0.0970     0.4200
 4053.5000  1289.6830   -36.7070     3.3670     2.4580     2.5110  1625.5670   122.9640     8.4470     2.5600     0.1080     0.4240
 4054.0000  1289.6830   -36.7030     3.3060     2.3710     2.4340  1629.1100   121.8480     8.4590     2.5590     0.1180     0.4310
 4054.5000  1289.6830   -36.7190     3.2460     2.2840     2.3580  1632.6530   120.8130     8.4020     2.5280     0.1030     0.4310
 4055.0000  1289.6830   -36.5620     3.1370     2.2110     2.2940  1636.1960   119.8490     8.3400     2.5090     0.0970     0.4320
 4055.5000  1289.6830   -36.2660     3.0240     2.2110     2.2940  1639.7390   118.8340     8.3010     2.4900     0.1080     0.4330
 4056.0000  1289.6830   -35.9780     2.9100     2.2110     2.3360  1643.2820   118.0420     8.2650     2.4890     0.1250     0.4330
 4056.5000  1289.6830   -35.9990     2.7970     2.2940     2.3740  1646.8250   118.5540     8.3330     2.4820     0.1530     0.4540
 4057.0000  1289.6830   -36.2690     2.6840     2.4230     2.5590  1645.7230   119.2780     8.5600     2.4650     0.1660     0.4690
 4057.5000  1289.6830   -36.5330     2.6070     2.6380     2.8080  1644.6210   120.1690     8.6850     2.4340     0.1350     0.4720
 4058.0000  1289.6830   -36.7940     3.3850     2.8270     3.0570  1643.5190   119.4220     8.5830     2.4290     0.0950     0.4670
 4058.5000  1289.6830   -37.0570     4.7140     3.0150     3.3050  1642.4160   117.4510     8.3270     2.4520     0.0540     0.4400
 4059.0000  1289.6830   -37.3390     5.8120     3.2030     3.5540  1641.3140   113.5030     8.0860     2.4800     0.0320     0.4010
 4059.5000  1289.6830   -37.5270     6.9930     3.3910     3.7480  1640.2120   107.0840     8.0100     2.5180     0.0210     0.3520
 4060.0000  1289.6830   -37.3780     6.2330     3.5570     3.9200  1639.1090   105.4410     8.0040     2.5460     0.0230     0.2960
 4060.5000  1289.6830   -37.1220     5.4090     3.7570     4.0420  1638.0070   106.8210     7.9960     2.5660     0.0370     0.3020
 4061.0000  1289.6830   -36.8780     4.5750     3.7570     4.0090  1636.9050   109.4390     7.9870     2.5660     0.0320     0.2880
 4061.5000  1289.6830   -36.6310     4.9230     3.8260     3.9690  1635.8020   112.8190     7.9760     2.5570     0.0190     0.3040
 4062.0000  1289.6830   -36.3810     5.6180     3.6730     3.8270  1634.7000   112.1190     8.0110     2.5560    -0.0100     0.3450
 4062.5000  1289.6830   -36.1380     6.3830     3.5040     3.6720  1633.5980   107.5590     8.0370     2.5920    -0.0030     0.3250
 4063.0000  1289.5070   -35.8880     5.6170     3.3340     3.5160  1632.4960   103.1770     8.0670     2.6400     0.0490     0.3070
 4063.5000  1289.1541   -35.6340     4.7660     3.1650     3.3600  1631.3929   103.4080     8.0930     2.7090     0.1050     0.2960
 4064.0000  1288.8020   -35.5230     3.9140     2.9960     3.2040  1630.2910   109.0090     8.1210     2.7030     0.1290     0.3020
 4064.5000  1288.4490   -35.7930     3.2460     2.8270     3.0480  1629.1890   113.5530     8.1390     2.6110     0.1160     0.3190
 4065.0000  1288.0970   -36.0270     3.3130     2.6580     2.8930  1628.0861   114.2190     8.1050     2.5540     0.0680     0.3670
 4065.5000  1287.7440   -36.2790     3.4290     2.4680     2.7370  1626.9840   116.8460     8.0640     2.5330     0.0770     0.3780
 4066.0000  1287.3910   -36.5320     3.3880     2.4680     2.5870  1625.8820   120.2700     8.0270     2.5390     0.0900     0.3830
 4066.5000  1287.0389   -36.6740     3.3020     2.5240     2.6030  1624.7800   123.5480     7.9850     2.5480     0.1030     0.3710
 4067.0000  1286.6860   -36.5430     3.2160     2.7310     2.7540  1623.6770   126.9270     8.0230     2.5430     0.1100     0.3540
 4067.5000  1286.3340   -36.4290     3.1680     2.9390     3.0880  1622.5750   127.5010     8.0750     2.5160     0.0890     0.3540
 4068.0000  1285.9810   -36.3310     3.3160     3.1470     3.4030  1621.4730   121.1650     8.1000     2.4960     0.0590     0.3820
 4068.5000  1285.6281   -36.5450     4.9970     3.3540     3.7180  1620.3700   114.7680     8.0890     2.4880     0.0380     0.4100
 4069.0000  1285.2760   -36.7520     7.4880     3.5620     4.0320  1619.2679   108.7270     8.0840     2.5110     0.0220     0.4000
 4069.5000  1284.9230   -37.0070     9.0560     3.7690     4.2700  1618.1660   101.8590     8.0770     2.5350     0.0190     0.3560
 4070.0000  1284.5710   -36.9740     7.7830     3.9690     4.2060  1617.0630   103.7100     8.0700     2.5600     0.0210     0.3220
 4070.5000  1284.2180   -36.6250     6.5090     3.9690     4.1320  1615.9611   107.6780     8.0640     2.5840     0.0440     0.2850
 4071.0000  1283.8660   -36.3210     5.2350     3.9690     4.0570  1614.8590   115.3810     8.0590     2.6030     0.0560     0.2750
 4071.5000  1283.5129   -36.3660     4.6620     3.8000     3.9690  1613.7570   122.6460     8.0640     2.5850     0.0580     0.2980
 4072.0000  1283.1600   -36.4500     4.9620     3.6360     3.8140  1612.6541   130.1200     8.0730     2.5480     0.0380     0.3020
 4072.5000  1282.8080   -36.5510     5.3170     3.4730     3.6260  1611.5520   138.0150     8.0800     2.5140     0.0130     0.3560
 4073.0000  1282.4550   -36.6350     4.8850     3.3090     3.4390  1610.4500   143.3320     8.0880     2.5350     0.0260     0.3550
 4073.5000  1282.1030   -36.6880     4.3570     3.2460     3.3670  1609.3470   145.3440     8.0950     2.5700     0.1200     0.3400
 4074.0000  1281.7500   -36.4030     3.8300     3.2460     3.3670  1608.2450   147.9840     8.1030     2.5910     0.1610     0.3310
 4074.5000  1281.3970   -35.9550     3.6220     3.5310     3.6630  1607.1429   150.4780     8.1110     2.5270     0.1230     0.3530
 4075.0000  1281.0450   -36.1110     4.5900     3.8140     3.9560  1607.1429   150.8200     8.1180     2.4500     0.0940     0.4160
 4075.5000  1280.6920   -36.3510     5.7950     4.0420     4.1920  1607.1429   138.7800     8.1260     2.4700     0.0280     0.4140
 4076.0000  1280.3400   -36.6110    14.8970     4.8760     5.4910  1607.1429   126.4480     8.1340     2.5380    -0.0160     0.3640
 4076.5000  1279.9871   -36.8500    21.1860     5.5740     6.5760  1607.1429   113.4770     8.1400     2.6070    -0.0230     0.3150
 4077.0000  1279.6340   -37.0970    20.2670     6.2710     7.6610  1607.1429   100.7090     8.1450     2.6750    -0.0100     0.2820
 4077.5000  1279.2820   -37.3590    18.7610     6.9780     8.5500  1607.1429    95.3760     8.1490     2.7180     0.0130     0.2580
 4078.0000  1278.9290   -37.5550    15.6160     6.7200     7.7790  1607.1429   104.3990     8.1530     2.6890     0.0330     0.2570
 4078.5000  1278.5770   -37.6540    12.9520     6.2050     7.1260  1607.1429   113.2200     8.1570     2.6430     0.0290     0.2570
 4079.0000  1278.2240   -37.7790    10.2880     5.6890     6.4740  1607.1429   118.8610     8.1620     2.5990     0.0170     0.2610
 4079.5000  1277.8710   -37.8910     7.6240     5.1730     5.8210  1607.1429   122.9150     8.1660     2.5540     0.0170     0.2670
 4080.0000  1277.5190   -37.9960     6.1320     4.6580     5.1680  1607.1429   126.9660     8.1700     2.5350     0.0200     0.2730
 4080.5000  1277.1660   -38.1550     5.0030     4.1420     4.5150  1607.1429   131.1920     8.1740     2.5440     0.0440     0.2970
 4081.0000  1276.8140   -38.1700     3.8750     3.6260     3.8620  1607.1429   135.1540     8.1790     2.5490     0.0640     0.3170
 4081.5000  1276.4611   -38.9550     3.3060     3.1290     3.2460  1607.1429   139.4820     8.1830     2.5390     0.0860     0.3420
 4082.0000  1276.1090   -40.4700     3.2460     3.2290     3.3500  1607.1429   141.4760     8.2160     2.5240     0.0970     0.3730
 4082.5000  1275.7560   -43.3170     3.7540     3.5190     3.6500  1607.1429   142.2140     8.2450     2.5180     0.1010     0.4040
