~VERSION INFORMATION
 VERS.                2.0:   CWLS LOG ASCII STANDARD - VERSION 2.0
 WRAP.                 NO:   ONE LINE PER DEPTH STEP
~WELL INFORMATION
#MNEM.UNIT      DATA TYPE    INFORMATION
#----------   ------------   ------------------------------
 STRT.F           11.0000:   START DEPTH
 STOP.F         4154.0000:   STOP DEPTH
 STEP.F            0.5000:   STEP LENGTH
 NULL.          -999.2500:   NO VALUE
 COMP.   LAWRENCE ALLISON:   COMPANY
 WELL. ALLISON NPR 3 "LX" #14-22:   WELL
 FLD .                NPR:   FIELD
 LOC .      S22 T38N R78W:   LOCATION
 CNTY.            NATRONA:   COUNTY
 STAT.            WYOMING:   STATE
 CTRY. UNITED STATES OF AMERICA:   COUNTRY
 SRVC.       DRESER ATLAS:   SERVICE COMPANY
 DATE.        14-APR-1985:   LOGDATE
 API .     49025110230000:   API NUMBER
~CURVE INFORMATION
#MNEM.UNIT       API CODE    CURVE DESCRIPTION
#----------   ------------   ------------------------------
 DEPT.F                  :   
 TEND.LBS    45 635 01 00:   TENSION FROM DENSITY LOG
 RHOB.G/C3   45 350 01 00:   BULK DENSITY
 DRHO.G/C3   45 356 01 00:   DENSITY CORRECTION
 CALD.IN     45 280 60 00:   CALIPER FROM DENSITY LOG
 NPHI.DEC    42 890 03 00:   NEUTRON POROSITY SANDSTONE
 TENR.LBS    07 635 01 00:   TENSION FROM RESISTIVITY
 SPR .MV     07 010 01 00:   SPONTANEOUS POTENTIAL
 GRR .GAPI   07 310 01 00:   GAMMA RAY FROM RESISTIVITY
 RFOC.OHMM   07 220 01 00:   RESISTIVITY FOCUSED LOG RES.
 RILD.OHMM   07 120 46 00:   DEEP INDUCTION RESISTIVITY
 RILM.OHMM   07 120 44 00:   INDUCTION LOG MEDIUM RESISTIVITY
~PARAMETER INFORMATION
#MNEM.UNIT          VALUE    DESCRIPTION
#----------   ------------   ------------------------------
 EKB .F         5230.4000:   Kelly bushing
 EGL .F         5220.4000:   Ground level
 EDF .F            0.0000:   Drilling floor
 TD  .F         4150.0000:   Total depth
 DATE.        14-APR-1985:   Date logged
 CLNT.            A2DTECH:   Client Code
 SL  . 905' FNL & 824' FWL:   Surface Location
 PD  .                 GL:   Permanent Datum
 EPD .F            5220.4:   Elevation Permanent Datum
 LMF .                 KB:   Log Measured From
 DMF .                 KB:   Drilling Measured From
 DAPD.F                10:   Feet Above Permanent Datum
 DD  .F              4150:   Depth driller
 DL  .F              4140:   Depth logger
 BLI .F              4138:   Bottom log interval
 CS1 .IN            8.625:   Casing size
 CBD1.      8.625" @ 738':   Casing driller 1
 CBL1.F               738:   Casing logger 1
 BS1 .IN            7.875:   Bit size
 BSD1.F              4150:   Depth drilled with bit1
 DFT .            KCL/GEL:   Type fluid in hole
 DFD .                9.1:   Density
 DFV .                 48:   Viscosity
 DFPH.                8.5:   pH
 DFL .                 10:   Fluid loss
 MSS .           FLOWLINE:   Source of sample
 RMS .OHMM            .35:   Rm
 MST .F                62:   Rm Meas. temp.
 RMF .OHMM            .26:   Rmf
 MFST.F                62:   Rmf Meas. temp.
 RMC .OHMM            .43:   Rmc
 MCST.F                62:   Rmc Meas. temp.
 MFSS.               CALC:   Source Rmf.
 MCSS.               CALC:   Source Rmc.
 RMB .OHMM            .16:   Rm. at BHT
 BHT .F               140:   BHT.
 TCS .HRS               6:   Time Circ. stopped
 MRT .F               140:   Maximum recorded temp.
 LUN .               6274:   Logging unit number
 LUL .               GLTE:   Logging unit location
 ENGI.               MACK:   Recorded By
 WITN.             STRONG:   Witnessed by
 ORIG.           5" PRINT:   Origin of data
 UWI .     49025110230000:   Unique Well ID
 DICO. A2D TECHNOLOGIES, INC.:   Digitizing Company
~OTHER INFORMATION
~A   DEPT     TEND       RHOB       DRHO       CALD       NPHI       TENR        SPR        GRR       RFOC       RILD       RILM   
# ...
 1414.0000  -999.2500  -999.2500  -999.2500  -999.2500  -999.2500   -91.9950   -68.0400    93.2960     7.7260     8.1030     7.8750
 1414.5000  -999.2500  -999.2500  -999.2500  -999.2500  -999.2500   -91.8570   -68.2320    97.3030     7.5960     8.1030     7.8350
 1415.0000  -999.2500  -999.2500  -999.2500  -999.2500  -999.2500   -91.7180   -68.2290    98.2200     7.6130     8.1030     7.8090
 1415.5000  -999.2500  -999.2500  -999.2500  -999.2500  -999.2500   -91.5790   -68.2220    97.3170     7.6440     8.1000     7.8000
 1416.0000  -999.2500  -999.2500  -999.2500  -999.2500  -999.2500   -91.4410   -68.0540    96.0840     7.6750     8.0940     7.7730
 1416.5000  -999.2500  -999.2500  -999.2500  -999.2500  -999.2500   -91.3020   -67.4280    96.2030     7.7060     8.0870     7.7470
 1417.0000  -999.2500  -999.2500  -999.2500  -999.2500  -999.2500   -91.1640   -67.0260    96.4340     7.7380     8.0810     7.7200
 1417.5000  -999.2500  -999.2500  -999.2500  -999.2500  -999.2500   -91.0250   -67.0340    95.2360     7.6720     8.0750     7.6930
 1418.0000  -999.2500  -999.2500  -999.2500  -999.2500  -999.2500   -90.8860   -67.0280    95.6330     7.4990     8.0690     7.6660
 1418.5000  -999.2500  -999.2500  -999.2500  -999.2500  -999.2500   -90.7480   -66.8670    96.3890     7.3260     8.0630     7.6390
 1419.0000  -999.2500  -999.2500  -999.2500  -999.2500  -999.2500   -90.6090   -66.6990    96.9780     7.1880     8.0570     7.5960
 1419.5000  -999.2500  -999.2500  -999.2500  -999.2500  -999.2500   -90.4710   -66.5330    96.5690     7.3830     8.0510     7.6220
 1420.0000  -999.2500  -999.2500  -999.2500  -999.2500  -999.2500   -90.3320   -66.4370    94.8050     7.5770     8.0450     7.6850
 1420.5000  -999.2500  -999.2500  -999.2500  -999.2500  -999.2500   -90.1930   -66.5410    93.0730     7.7720     8.0390     7.7490
 1421.0000  -999.2500  -999.2500  -999.2500  -999.2500  -999.2500   -90.0550   -67.0470    93.3140     7.8820     8.0330     7.8090
 1421.5000  -999.2500  -999.2500  -999.2500  -999.2500  -999.2500   -89.9160   -67.4430    93.6000     7.8420     8.0280     7.8820
 1422.0000  -999.2500  -999.2500  -999.2500  -999.2500  -999.2500   -89.7780   -67.4650    93.4510     7.7520     8.0290     7.8820
 1422.5000  -999.2500  -999.2500  -999.2500  -999.2500  -999.2500   -89.6390   -67.4980    91.7600     7.6620     8.0270     7.8820
 1423.0000  -999.2500  -999.2500  -999.2500  -999.2500  -999.2500   -89.5000   -67.5320    90.3000     7.5360     8.0280     7.8820
 1423.5000  -999.2500  -999.2500  -999.2500  -999.2500  -999.2500   -89.3620   -67.5660    91.1430     7.3070     7.8870     7.6960
 1424.0000  -999.2500  -999.2500  -999.2500  -999.2500  -999.2500   -89.2230   -67.5990    92.1160     7.1810     7.7450     7.4820
 1424.5000  -999.2500  -999.2500  -999.2500  -999.2500  -999.2500   -89.0850   -67.6290    96.4740     7.1680     7.6020     7.4010
 1425.0000  -999.2500  -999.2500  -999.2500  -999.2500  -999.2500   -88.9460   -67.6720    95.5350     7.1550     7.3890     7.3370
 1425.5000  -999.2500  -999.2500  -999.2500  -999.2500  -999.2500   -88.8070   -67.7200    94.4010     7.1410     7.3990     7.2730
 1426.0000  -999.2500  -999.2500  -999.2500  -999.2500  -999.2500   -88.6690   -67.7680    93.2920     7.1280     7.4180     7.2420
 1426.5000  -999.2500  -999.2500  -999.2500  -999.2500  -999.2500   -88.5300   -67.8160    92.2680     7.1180     7.4370     7.2180
 1427.0000  -999.2500  -999.2500  -999.2500  -999.2500  -999.2500   -88.3920   -67.8630    92.0920     7.1070     7.4580     7.1940
 1427.5000  -999.2500  -999.2500  -999.2500  -999.2500  -999.2500   -88.2530   -67.9110    94.4690     7.0960     7.4460     7.1850
 1428.0000  -999.2500  -999.2500  -999.2500  -999.2500  -999.2500   -88.1140   -67.9590    96.8310     7.0850     7.4240     7.1770
 1428.5000  -999.2500  -999.2500  -999.2500  -999.2500  -999.2500   -87.9760   -68.0070    99.1900     7.0740     7.4020     7.1690
 1429.0000  -999.2500  -999.2500  -999.2500  -999.2500  -999.2500   -87.8370   -68.0550   100.9400     7.0630     7.3810     7.1610
 1429.5000  -999.2500  -999.2500  -999.2500  -999.2500  -999.2500   -87.6990   -68.1030    99.8180     7.0560     7.3590     7.1520
 1430.0000  -999.2500  -999.2500  -999.2500  -999.2500  -999.2500   -87.5600   -68.1500    94.9680     7.0440     7.3370     7.1440
 1430.5000  -999.2500  -999.2500  -999.2500  -999.2500  -999.2500   -87.4210   -68.1960    92.3870     7.0290     7.3150     7.1360
 1431.0000  -999.2500  -999.2500  -999.2500  -999.2500  -999.2500   -87.2830   -68.0980    97.3910     7.0130     7.2930     7.1280
 1431.5000  -999.2500  -999.2500  -999.2500  -999.2500  -999.2500   -87.1440   -67.7610   100.6620     6.9980     7.2710     7.1000
 1432.0000  -999.2500  -999.2500  -999.2500  -999.2500  -999.2500   -87.0060   -67.4250   100.0910     6.9440     7.2430     6.9920
 1432.5000  -999.2500  -999.2500  -999.2500  -999.2500  -999.2500   -86.8670   -67.0870    96.1720     6.8280     7.1910     6.9400
 1433.0000  -999.2500  -999.2500  -999.2500  -999.2500  -999.2500   -86.7280   -67.0440    95.4170     6.7380     7.1380     6.8900
 1433.5000  -999.2500  -999.2500  -999.2500  -999.2500  -999.2500   -86.5900   -67.3720    96.3450     6.7740     7.0560     6.8390
 1434.0000  -999.2500  -999.2500  -999.2500  -999.2500  -999.2500   -86.4510   -67.6310    97.3340     6.8180     7.0760     6.8010
 1434.5000  -999.2500  -999.2500  -999.2500  -999.2500  -999.2500   -86.3130   -67.4570    95.5830     6.8610     7.1220     6.8870
 1435.0000  -999.2500  -999.2500  -999.2500  -999.2500  -999.2500   -86.1740   -67.2740    93.4540     6.9040     7.1670     6.9570
 1435.5000  -999.2500  -999.2500  -999.2500  -999.2500  -999.2500   -86.0350   -67.5940    91.3840     6.9480     7.2120     7.0270
 1436.0000  -999.2500  -999.2500  -999.2500  -999.2500  -999.2500   -85.8970   -68.1310    91.2650     6.9910     7.2580     7.0960
 1436.5000  -999.2500  -999.2500  -999.2500  -999.2500  -999.2500   -85.7580   -68.6170    91.5950     7.0340     7.3030     7.1660
 1437.0000  -999.2500  -999.2500  -999.2500  -999.2500  -999.2500   -85.6200   -68.5770    92.0860     7.0560     7.3480     7.1880
 1437.5000  -999.2500  -999.2500  -999.2500  -999.2500  -999.2500   -85.4810   -68.5260    93.0660     7.0560     7.3890     7.1880
 1438.0000  -999.2500  -999.2500  -999.2500  -999.2500  -999.2500   -85.3420   -68.4780    94.0230     7.0560     7.3970     7.1880
 1438.5000  -999.2500  -999.2500  -999.2500  -999.2500  -999.2500   -85.2040   -68.4270    94.9800     7.0560     7.4050     7.1880
 1439.0000  -999.2500  -999.2500  -999.2500  -999.2500  -999.2500   -85.0650   -68.3670    95.9650     7.0560     7.4140     7.1880
 1439.5000  -999.2500  -999.2500  -999.2500  -999.2500  -999.2500   -84.9270   -68.1540    97.2130     7.0560     7.4220     7.1880
 1440.0000  -999.2500  -999.2500  -999.2500  -999.2500  -999.2500   -84.8350   -67.9480    96.7010     7.0700     7.4300     7.1880
 1440.5000  -999.2500  -999.2500  -999.2500  -999.2500  -999.2500   -84.8350   -67.7420    94.7260     7.0950     7.4390     7.1880
 1441.0000  -999.2500  -999.2500  -999.2500  -999.2500  -999.2500   -84.8350   -67.5360    93.0800     7.1220     7.4470     7.1880
 1441.5000  -999.2500  -999.2500  -999.2500  -999.2500  -999.2500   -84.8350   -67.3300    93.8770     7.0280     7.4560     7.1880
 1442.0000  -999.2500  -999.2500  -999.2500  -999.2500  -999.2500   -84.8350   -67.1240    94.5820     6.9270     7.4580     7.1890
 1442.5000  -999.2500  -999.2500  -999.2500  -999.2500  -999.2500   -84.8350   -66.9180    93.8190     7.0070     7.4580     7.2000
 1443.0000  -999.2500  -999.2500  -999.2500  -999.2500  -999.2500   -84.8350   -66.8340    92.9840     7.0880     7.4580     7.2100
 1443.5000  -999.2500  -999.2500  -999.2500  -999.2500  -999.2500   -84.8350   -66.9470    93.4010     7.1220     7.4580     7.2200
 1444.0000  -999.2500  -999.2500  -999.2500  -999.2500  -999.2500   -84.8350   -67.1340    94.7610     7.1220     7.4580     7.2300
