~VERSION INFORMATION
 VERS.                2.0:   CWLS LOG ASCII STANDARD - VERSION 2.0
 WRAP.                 NO:   ONE LINE PER DEPTH STEP
~WELL INFORMATION
#MNEM.UNIT      DATA TYPE    INFORMATION
#----------   ------------   ------------------------------
 STRT.F         2200.0000:   START DEPTH
 STOP.F         3200.0000:   STOP DEPTH
 STEP.F            0.5000:   STEP LENGTH
 NULL.          -999.2500:   NO VALUE
 COMP.   LAWRENCE ALLISON:   COMPANY
 WELL. LAWRENCE "X" #18-34:   WELL
 FLD .          NPR NO. 3:   FIELD
 LOC .      S34 T39N R78W:   LOCATION
 CNTY.            NATRONA:   COUNTY
 STAT.            WYOMING:   STATE
 CTRY. UNITED STATES OF AMERICA:   COUNTRY
 SRVC.      DRESSER ATLAS:   SERVICE COMPANY
 DATE.        14-MAY-1986:   LOGDATE
 API .     49025110720000:   API NUMBER
~CURVE INFORMATION
#MNEM.UNIT       API CODE    CURVE DESCRIPTION
#----------   ------------   ------------------------------
 DEPT.F                  :   
 CALD.IN     45 280 60 00:   CALIPER FROM DENSITY LOG
 GRD .GAPI   45 310 01 00:   GAMMA RAY FROM DENSITY LOG
 TEND.LBS    45 635 01 00:   TENSION FORM DENSITY LOG
 CORR.G/C3   45 356 01 00:   DENSITY CORRECTION
 DEN .G/C3   45 350 01 00:   BULK DENSITY
 CNC .DEC    42 890 03 00:   NEUTRON POROSITY SANDSTONE
~PARAMETER INFORMATION
#MNEM.UNIT          VALUE    DESCRIPTION
#----------   ------------   ------------------------------
 EKB .F         5192.0000:   Kelly bushing
 EGL .F         5181.0000:   Ground level
 EDF .F         5189.0000:   Drilling floor
 TD  .F         3195.0000:   Total depth
 CLNT.            A2DTECH:   Client Code
 SL  . 722' FWL & 239' FSL:   Surface Location
 PD  .                 GL:   Permanent Datum
 EPD .F              5181:   Elevation Permanent Datum
 LMF .                 KB:   Log Measured From
 DMF .                 KB:   Drilling Measured From
 DAPD.F                11:   Feet Above Permanent Datum
 DATE.        14-MAY-1986:   Date Logged [DD-MMM-YYYY]
 DD  .F              3195:   Depth driller
 DL  .F              3194:   Depth logger
 BLI .F              3192:   Bottom log interval
 TLI .F                 0:   Top log interval
 CS1 .IN            8.625:   Casing size
 CBD1.      8.625" @ 601':   Casing driller 1
 CBL1.F               596:   Casing logger 1
 BS1 .IN            7.875:   Bit size
 BSD1.F              3195:   Depth drilled with bit1
 DFT .        POLYMER-KCL:   Type fluid in hole
 DFD .                  9:   Density
 DFV .                 35:   Viscosity
 DFPH.                9.5:   pH
 DFL .               16.2:   Fluid loss
 MSS .           FLOWLINE:   Source of sample
 RMS .OHMM          0.378:   Rm
 MST .F                65:   Rm Meas. temp.
 RMF .OHMM          0.306:   Rmf
 MFST.F                65:   Rmf Meas. temp.
 MFSS.               MEAS:   Source Rmf.
 RMC .OHMM          0.472:   Rmc
 MCST.F                65:   Rmc Meas. temp.
 MCSS.               CALC:   Source Rmc.
 RMB .OHMM          0.208:   Rm. at BHT
 BHT .F               118:   BHT.
 TCS .HRS               3:   Time Circ. stopped
 MRT .F               118:   Maximum recorded temp.
 LUN .            HL-6274:   Logging unit number
 LUL .           GILLETTE:   Logging unit location
 ENGI.             RAUTIO:   Recorded By
 WITN.             STRONG:   Witnessed by
 ORIG.           5" PRINT:   Origin of data
 UWI .     49025110720000:   Unique Well ID
 DICO. A2D TECHNOLOGIES, INC.:   Digitizing Company
~OTHER INFORMATION
~A  DEPT        CALD      GRD        TEND        CORR        DEN        CNC 
# ...
 2876.0000     8.6021    94.6372   -23.8190     0.0263     2.5603     0.2248
 2876.5000     8.6174    94.2589   -23.5288     0.0263     2.5671     0.2218
 2877.0000     8.6175    90.9377   -23.2331     0.0247     2.5746     0.2185
 2877.5000     8.6177    86.1083   -22.8755     0.0096     2.5806     0.2176
 2878.0000     8.6178    87.3120   -22.5851    -0.0049     2.5836     0.2173
 2878.5000     8.6330    90.0240   -29.8136     0.0019     2.5813     0.2194
 2879.0000     8.6332    93.0377   -29.5232     0.0110     2.5767     0.2270
 2879.5000     8.6484    95.5967   -36.8243     0.0170     2.5692     0.2279
 2880.0000     8.6486   101.1759   -36.4613     0.0079     2.5541     0.2248
 2880.5000     8.6487   103.2846   -43.6898    -0.0058     2.5451     0.2248
 2881.0000     8.6489   101.7734   -40.5497    -0.0090     2.5398     0.2267
 2881.5000     8.6490    98.7539   -34.9586    -0.0043     2.5488     0.2304
 2882.0000     8.6190   104.1809   -29.3674     0.0016     2.5518     0.2353
 2882.5000     8.6192   105.9879   -23.7763     0.0106     2.5511     0.2410
 2883.0000     8.6193   104.0235   -19.6241     0.0197     2.5495     0.2395
 2883.5000     8.6346    99.3449   -11.7515     0.0287     2.5488     0.2311
 2884.0000     8.6347    96.9287   -11.4611     0.0377     2.5578     0.2228
 2884.5000     8.6499    95.1158   -11.1708     0.0407     2.5759     0.2133
 2885.0000     8.6501    93.3029   -10.8804     0.0391     2.5894     0.2057
 2885.5000     8.6653    91.1530   -10.5901     0.0081     2.5917     0.2033
 2886.0000     8.6655    88.8996   -10.2997    -0.0184     2.5819     0.2042
 2886.5000     8.6656    86.9591   -18.4929    -0.0275     2.5735     0.2196
 2887.0000     8.6658    85.7496   -32.2028    -0.0215     2.5683     0.2329
 2887.5000     8.6659    87.1032   -31.9126    -0.0140     2.5667     0.2417
 2888.0000     8.6510   103.5409   -46.6597     0.0071     2.5690     0.2578
 2888.5000     8.6511   112.2861   -61.4071     0.0509     2.5667     0.2750
 2889.0000     8.6513   119.8247   -68.6466     0.0722     2.5584     0.2832
 2889.5000     8.6514   121.6315   -75.8647     0.0709     2.5478     0.2808
 2890.0000     8.6516   125.2485   -83.0924     0.0598     2.5486     0.2784
 2890.5000     8.6517   126.4522   -37.6167     0.0477     2.5572     0.2935
 2891.0000     8.6368   127.9576   -37.3263     0.0386     2.5606     0.3017
 2891.5000     8.6370   130.3680   -29.5172     0.0159     2.5508     0.3047
 2892.0000     8.6220   134.6127   -29.2268     0.0007     2.5364     0.2996
 2892.5000     8.6071   135.1887   -28.9365     0.0233     2.5342     0.2878
 2893.0000     8.5922   134.8834   -28.6461     0.0528     2.5390     0.2887
 2893.5000     8.5772   134.5788   -28.3459     0.0565     2.5454     0.2953
 2894.0000     8.5462   134.2742   -27.9928     0.0519     2.5530     0.3084
 2894.5000     8.5021   133.0647   -27.7026     0.0519     2.5567     0.3304
 2895.0000     8.5023   130.3468   -27.4436     0.0563     2.5507     0.3425
 2895.5000     8.5175   128.2054   -27.1219     0.0638     2.5356     0.3238
 2896.0000     8.5327   128.8320   -26.8315     0.0880     2.5212     0.3039
 2896.5000     8.4726   130.6390   -26.5410     0.1092     2.5105     0.2953
 2897.0000     8.3370   131.8435   -18.7218     0.1060     2.5016     0.2897
 2897.5000     8.5996   130.6332   -18.3690     0.0878     2.5287     0.2851
 2898.0000     8.7143   129.1220   -10.5599     0.0636     2.5596     0.2861
 2898.5000     8.7145   127.9124   -10.2695     0.0379     2.5626     0.2858
 2899.0000     8.7146   126.0855    -2.4604     0.0137     2.5536     0.2867
 2899.5000     8.7148   124.5876    12.8676    -0.0060     2.5566     0.2882
 2900.0000     8.7150   127.2997    -1.8797     0.0332     2.5694     0.2909
 2900.5000     8.7147   126.6934    -9.1081     0.0532     2.5884     0.2830
 2901.0000     8.7144   121.9697   -16.3366     0.0539     2.5919     0.2628
 2901.5000     8.7141   114.8853   -15.9736     0.0498     2.5866     0.2547
 2902.0000     8.7138    97.3743   -17.4732     0.0875     2.5858     0.2556
 2902.5000     8.7134    91.9297   -19.2123     0.0965     2.5963     0.2614
 2903.0000     8.7131   100.6630   -20.9513     0.1025     2.6023     0.2673
 2903.5000     8.7128   111.2063   -22.3838     0.0934     2.5977     0.2832
 2904.0000     8.7125   121.1463   -14.4986     0.0572     2.5962     0.2922
 2904.5000     8.7122   127.2149     0.8322     0.0496     2.5976     0.2947
 2905.0000     8.7119   128.6582    31.4592     0.0281     2.5983     0.2901
 2905.5000     8.7267   128.0364    30.4792     0.0238     2.6059     0.2923
 2906.0000     8.7264   127.7237    -5.7338     0.0449     2.6081     0.2998
 2906.5000     8.7261   129.8168   -35.5157     0.0585     2.6050     0.3147
 2907.0000     8.7258   132.5170   -27.7038     0.0736     2.6042     0.3162
 2907.5000     8.7255   132.8076   -35.0027     0.0796     2.6026     0.3071
 2908.0000     8.7252   130.6775   -34.6363     0.0766     2.5988     0.2990
 2908.5000     8.7249   129.7577   -26.8243     0.0644     2.5927     0.2925
 2909.0000     8.7246   130.0452   -26.5312     0.0553     2.5965     0.2818
 2909.5000     8.7242   130.0299   -18.7191     0.0568     2.6002     0.2673
 2910.0000     8.7088   130.9201   -17.9087     0.0675     2.5873     0.2727
 2910.5000     8.7085   132.4385   -10.6015     0.0721     2.5677     0.2845
 2911.0000     8.7083   131.9956   -10.2476     0.0824     2.5563     0.2885
 2911.5000     8.7080   130.8720    -9.9543     0.0914     2.5609     0.2879
 2912.0000     8.7077   130.8573    -9.6993     0.1005     2.5766     0.2933
 2912.5000     8.7074   129.6358    -9.3680     0.1156     2.5848     0.3015
 2913.0000     8.7071   127.8111    -9.0747     0.1352     2.5863     0.3100
 2913.5000     8.7068   125.3831    -8.7816     0.1533     2.5757     0.3136
 2914.0000     8.7065   123.2604    -8.4884     0.1925     2.5455     0.3152
 2914.5000     8.7062   128.9734    -8.1953     0.2212     2.5206     0.3137
 2915.0000     8.7059   131.3719    -7.8947     0.2409     2.5115     0.3115
 2915.5000     8.7056   134.0721    -7.5356     0.2256     2.5423     0.3251
 2916.0000     8.7052   133.7557   -14.7612     0.1138     2.5159     0.3439
 2916.5000     8.7049   136.7575   -14.4681     0.0277     2.4842     0.3376
 2917.0000     8.7046   136.7421   -14.1748     0.0020     2.5211     0.3261
 2917.5000     8.6893   137.9309   -13.8817     0.0216     2.5489     0.3204
 2918.0000     8.6890   141.5360   -21.1806     0.1485     2.5036     0.3183
 2918.5000     8.6736   143.3349   -28.3459     0.1867     2.4629     0.3159
 2919.0000     8.6733   141.8081   -35.5639     0.1469     2.4432     0.3141
 2919.5000     8.6730   140.5867   -35.2632     0.0771     2.4552     0.3138
 2920.0000     8.6878   139.3653   -42.4910     0.0375     2.4906     0.3226
 2920.5000     8.6875   139.6559   -42.1246     0.0320     2.5012     0.3392
 2921.0000     8.6872   138.7324   -41.8313     0.1060     2.5185     0.3371
 2921.5000     8.6869   136.6060   -41.5382     0.1800     2.5471     0.3298
 2922.0000     8.7017   132.9713   -41.2450     0.2691     2.5623     0.3238
 2922.5000     8.7013   129.3363   -33.4331     0.2962     2.5643     0.3429
 2923.0000     8.7010   129.6236   -25.6391     0.3068     2.5582     0.3377
 2923.5000     8.7007   129.3034   -25.3384     0.3128     2.5522     0.3247
 2924.0000     8.6853   125.3671   -25.0347     0.3037     2.5453     0.3139
 2924.5000     8.6850   121.4307   -24.7369     0.2929     2.5611     0.3091
 2925.0000     8.6847   120.2130   -16.9173     0.2724     2.5845     0.3054
 2925.5000     8.6844   124.7194   -24.1551     0.2099     2.5942     0.3048
 2926.0000     8.6841   129.2295   -23.7887     0.1540     2.5844     0.3055
 2926.5000     8.6839   131.3301   -23.4954     0.1056     2.5632     0.3019
 2927.0000     8.6836   128.2950   -23.2023     0.0558     2.5435     0.2931
 2927.5000     8.6682   127.9786   -22.9091     0.0210     2.5359     0.2860
