~VERSION INFORMATION
 VERS.                2.0:   CWLS LOG ASCII STANDARD - VERSION 2.0
 WRAP.                 NO:   ONE LINE PER DEPTH STEP
~WELL INFORMATION
#MNEM.UNIT      DATA TYPE    INFORMATION
#----------   ------------   ------------------------------
 STRT.F            0.5000:   START DEPTH
 STOP.F         1380.0000:   STOP DEPTH
 STEP.F            0.5000:   STEP LENGTH
 NULL.          -999.2500:   NO VALUE
 COMP.       FLUOR DANIEL:   COMPANY
 WELL. FLUOR 84 "X" #1-14:   WELL
 FLD .          N.P.R. #3:   FIELD
 LOC .      S14 T38N R78W:   LOCATION
 CNTY.            NATRONA:   COUNTY
 STAT.            WYOMING:   STATE
 CTRY. UNITED STATES OF AMERICA:   COUNTRY
 SRVC.     ATLAS WIRELINE:   SERVICE COMPANY
 DATE.        24-AUG-1994:   LOGDATE
 API .     49025226370000:   API NUMBER
~CURVE INFORMATION
#MNEM.UNIT       API CODE    CURVE DESCRIPTION
#----------   ------------   ------------------------------
 DEPT.F                  :   
 GRR .GAPI   07 310 01 00:   GAMMA RAY FROM RESISTIVITY
 RILD.OHMM   07 120 46 00:   INDUCTION LOG DEEP RESISTIVITY
 RILM.OHMM   07 120 44 00:   INDUCTION LOG MEDIUM RESISTIVITY
 TENR.LBS    07 635 01 00:   TENSION FROM RESISTIVITY
~PARAMETER INFORMATION
#MNEM.UNIT          VALUE    DESCRIPTION
#----------   ------------   ------------------------------
 EKB .F         5326.0000:   Kelly bushing
 EGL .F         5316.0000:   Ground level
 EDF .F         5325.0000:   Drilling floor
 TD  .F         1368.0000:   Total depth
 CLNT.            A2DTECH:   Client Code
 PD  .                 GL:   Permanent Datum
 EPD .F              5316:   Elevation Permanent Datum
 LMF .                 KB:   Log Measured From
 DMF .                 KB:   Drilling Measured From
 DAPD.F                10:   Feet Above Permanent Datum
 DATE.        24-AUG-1994:   Date Logged [DD-MMM-YYYY]
 DD  .F              1368:   Depth driller
 DL  .F              1364:   Depth logger
 BLI .F              1356:   Bottom log interval
 TLI .F                 0:   Top log interval
 CS1 .IN            9.625:   Casing size
 CBD1.       9.625" @ 56':   Casing driller 1
 CBL1.F                56:   Casing logger 1
 BS1 .IN             8.75:   Bit size
 BSD1.F              1368:   Depth drilled with bit1
 DFT .                AIR:   Type fluid in hole
 LUN .            HL 6530:   Logging unit number
 LUL .             CASPER:   Logging unit location
 WITN.        GARY STRONG:   Witnessed by
 ORIG.         2.5" PRINT:   Origin of data
 UWI .     49025226370000:   Unique Well ID
 DICO. A2D TECHNOLOGIES, INC.:   Digitizing Company
 SL  . 2551' FNL & 575' FEL:   Surface Location
~OTHER INFORMATION
~A    DEPT      GRR      RILD       RILM       TENR   
# ...
 1168.5000    95.3057    10.6528    10.8854    17.8571
 1169.0000    96.6367    10.6520    10.7358    17.8571
 1169.5000   101.1216    10.6513    10.5883    17.8571
 1170.0000   103.7237    10.6506    10.5876     2.9762
 1170.5000   102.8567    10.6499    10.5869     2.9762
 1171.0000   102.5285    10.6491    10.5861    17.8571
 1171.5000   103.1061    10.6484    10.5854    17.8571
 1172.0000   104.3443    10.6477    10.5847    32.7381
 1172.5000   103.1284    10.6470    10.5839    32.7381
 1173.0000   102.5405    10.6462    10.5832    32.7381
 1173.5000   102.5435    10.4997    10.5825    17.8571
 1174.0000   104.4125    10.6448    10.5818    17.8571
 1174.5000   106.1532    10.6441    10.5810    15.9248
 1175.0000   104.2542    10.6433    10.5803    17.8571
 1175.5000   102.1963    10.7904    10.5796    17.8571
 1176.0000   101.3574    10.7896    10.5788    21.4295
 1176.5000   101.3609    10.7889    10.5781    32.7381
 1177.0000   101.3639    10.7881    10.5774    32.7381
 1177.5000   102.5681    10.6397    10.5767    32.7381
 1178.0000   102.5711    10.6273    10.5152    32.7381
 1178.5000   103.7752    10.4925    10.4306    32.7381
 1179.0000   106.1806    10.4918    10.4299    17.8571
 1179.5000   107.3848    10.3474    10.4292    17.8571
 1180.0000   106.1866    10.1678    10.4284    17.8571
 1180.5000   103.7872    10.0242    10.4277    17.8571
 1181.0000   101.3877     9.9261    10.4270    17.8571
 1181.5000   102.5919     9.7895    10.2836    17.8571
 1182.0000   106.1985     9.7888    10.1423    17.8571
 1182.5000   109.8051     9.7881    10.1416    17.8571
 1183.0000   107.4057     9.7875    10.1409    32.7381
 1183.5000   102.6038     9.9227    10.1402    32.7381
 1184.0000    97.8020     9.9220    10.2801    32.7381
 1184.5000    96.6036     9.9213    10.2794    32.7381
 1185.0000    99.0092     9.9206    10.2787    32.7381
 1185.5000   101.4146     9.9199    10.2780    32.7381
 1186.0000   103.8199     9.9193    10.2773    32.7381
 1186.5000   105.6247     9.9184    10.1361    32.7381
 1187.0000   106.2283     9.7820     9.9968    32.7381
 1187.5000   106.2313     9.7813     9.9962    32.7381
 1188.0000   106.2343     9.9165     9.9955    32.7381
 1188.5000   106.2373    10.0534    10.2782    32.7381
 1189.0000   106.2423    10.1923    10.7192    32.7381
 1189.5000   106.8438    10.4766    11.3343    32.7381
 1190.0000   102.5221    10.9182    11.9846    32.7381
 1190.5000    96.5811    11.2228    12.4544    32.7381
 1191.0000    94.1259    11.3778    12.6262    32.7381
 1191.5000    90.5457    11.5350    12.5933    32.7381
 1192.0000    88.1285    11.6943    12.0433    32.7381
 1192.5000    86.9120    11.5334    11.4259    32.7381
 1193.0000    87.1934    11.3747    11.0699    32.7381
 1193.5000    89.7827    11.2182    10.6560    32.7381
 1194.0000    94.6269    10.9083    10.3619    47.6190
 1194.5000    99.3692    10.4580    10.1250    47.6190
 1195.0000   103.2224    10.0354     9.9859    47.6190
 1195.5000   108.2002     9.7581     9.8487    62.5000
 1196.0000   106.0259     9.4886     9.7133    62.5000
 1196.5000   103.8825     9.2265     9.5799    62.5000
 1197.0000   102.5385     9.1179     9.4482    62.5000
 1197.5000   101.4861     9.3981     9.4476    62.5000
 1198.0000   101.4895     9.6638     9.3755    62.5000
 1198.5000   101.1457     9.7667     9.4463    47.6190
 1199.0000    99.9815     9.7659     9.5764    47.6190
 1199.5000    97.9078     9.5911     9.4448    47.6190
 1200.0000    95.4955     9.3370     9.4438    32.7381
 1200.5000    97.8979     9.2393     9.4416    32.7381
 1201.0000   100.3003     9.3663     9.4391    32.7381
 1201.5000    99.0991     9.3650     9.4365    32.7381
 1202.0000    99.6997     9.2355     9.4339    32.7381
 1202.5000   101.5015     9.2342     9.4313    32.7381
 1203.0000   102.7027     9.2330     9.4287    32.7381
 1203.5000   102.7027     9.2317     9.4261    32.7381
 1204.0000   102.7027     9.2304     9.4235    32.7381
 1204.5000   103.6917     9.2291     9.3683    32.7381
 1205.0000   106.1680     9.2279     9.2896    32.7381
 1205.5000   109.8549     9.2266     9.3417    32.7381
 1206.0000   113.8203     9.3535     9.4132    39.2869
 1206.5000   110.8839     9.4820     9.4106    47.6190
 1207.0000   105.7502     9.4807     9.4080    47.6190
 1207.5000   104.7458     9.6110     9.4054    47.6190
 1208.0000   107.1380     9.6096     9.4028    47.6190
 1208.5000   105.5816     9.6083     9.4002    47.6190
 1209.0000   101.9646     9.5872     9.3976    32.7381
 1209.5000    99.3446     9.4741     9.3319    37.5236
 1210.0000   102.2953     9.4728     9.2007    50.5952
 1210.5000   107.8565     9.3418     9.0714    50.7440
 1211.0000   113.7231     9.2126     8.8843    50.8929
 1211.5000   118.2170     9.1872     8.8819    51.0417
 1212.0000   120.2878     9.0840     8.7863    51.1905
 1212.5000   117.9639     9.0827     8.7556    51.3393
 1213.0000   114.1664     9.0815     8.7532    51.4881
 1213.5000   109.5332     9.0802     8.8138    51.6369
 1214.0000   105.1219     9.0790     8.8696    51.7857
 1214.5000   101.1108     9.0777     8.8672    51.9345
 1215.0000   102.7246     9.0765     8.9364    52.0833
 1215.5000   104.6981     9.1545     9.0589    52.2322
 1216.0000   104.6946     9.1999     9.2330    52.3809
 1216.5000   105.2910     9.2529     9.3589    55.8034
 1217.0000   105.2874     9.3253     9.4855    67.5595
 1217.5000   106.6173     9.4534     9.6149    67.7083
 1218.0000   109.9763     9.4913     9.8801    52.9584
 1218.5000   113.5793     9.7151    10.0143    53.1250
 1219.0000   114.5910     9.8916    10.2910    38.3741
 1219.5000   112.5122    10.1680    10.5754    38.5417
 1220.0000   105.4695    10.3571    10.8677    38.6905
 1220.5000    96.3362    10.7441    11.1680    38.8393
 1221.0000    93.5927    11.1976    11.6358    38.9881
 1221.5000    93.2844    11.5680    12.1231    39.1369
 1222.0000    93.2814    12.2252    12.6308    39.2857
 1222.5000    92.0508    12.9196    13.1598    54.3155
 1223.0000    89.3612    13.5805    13.7109    54.4643
 1223.5000    87.2268    14.1537    14.0898    54.6131
 1224.0000    85.1497    14.5490    14.6799    54.7619
 1224.5000    83.9421    14.6676    14.8799    40.0055
 1225.0000    83.0838    14.6656    14.4713    40.1786
 1225.5000    82.4820    14.4941    13.6921    40.3274
 1226.0000    83.0773    13.9840    13.1346    40.4762
 1226.5000    85.4695    13.6003    12.5997    40.6250
 1227.0000    89.0593    13.2269    12.2541    40.7738
 1227.5000    92.6492    12.6087    11.9180    40.9226
 1228.0000    96.2390    12.0934    11.5912    41.0714
 1228.5000    97.4341    11.6745    11.4295    41.2203
 1229.0000    97.4307    11.4297    11.2702    41.3690
 1229.5000    97.4277    11.2717    11.1130    41.5179
 1230.0000    99.8199    11.1158    10.9581    41.6667
 1230.5000   101.0145    11.1143    10.9551    41.8155
 1231.0000   101.0116    10.9606    10.6546    41.9643
 1231.5000    99.2122    10.8803    10.6517    42.1131
 1232.0000    98.0116    10.8075    10.3596    42.2619
 1232.5000    97.4098    10.8060    10.3567    42.4107
 1233.0000    97.4068    10.8045    10.3539    42.5595
 1233.5000    97.4039    10.9530    10.3511    49.3545
 1234.0000    99.7961    10.9515    10.6371    57.7381
 1234.5000   100.3922    11.0145    10.6342    57.8869
 1235.0000   100.3890    10.9485    10.6313    58.0357
 1235.5000   100.3860    10.7971    10.3397    58.1845
 1236.0000   100.9818    10.5016    10.1955    58.3333
 1236.5000   102.7752    10.0747     9.9159    58.4821
 1237.0000   108.1615     9.9354     9.7777    58.6310
 1237.5000   111.1525     9.9341     9.7750    58.7798
 1238.0000   111.2850     9.9327     9.7723    58.9286
 1238.5000   106.9549     9.9313     9.7696    59.0774
 1239.0000   103.3592     9.9300     9.7669    59.2262
 1239.5000    99.7634     9.9286     9.7643    59.3750
 1240.0000   100.9581     9.9272     9.7616    59.5238
 1240.5000    99.1586     9.9259     9.7589    59.6726
 1241.0000    99.7544     9.9245     9.7562    59.8214
