~VERSION INFORMATION
 VERS.                2.0:   CWLS LOG ASCII STANDARD - VERSION 2.0
 WRAP.                 NO:   ONE LINE PER DEPTH STEP
~WELL INFORMATION
#MNEM.UNIT      DATA TYPE    INFORMATION
#----------   ------------   ------------------------------
 STRT.F          620.0000:   START DEPTH
 STOP.F         4350.5000:   STOP DEPTH
 STEP.F            0.5000:   STEP LENGTH
 NULL.          -999.2500:   NO VALUE
 COMP.    FENIX & SCISSON:   COMPANY
 WELL. FENIX NPR 3 "LX" #25-10:   WELL
 FLD .                NPR:   FIELD
 LOC .      S10 T38N R78W:   LOCATION
 CNTY.            NATRONA:   COUNTY
 STAT.            WYOMING:   STATE
 CTRY. UNITED STATES OF AMERICA:   COUNTRY
 SRVC.              WELEX:   SERVICE COMPANY
 DATE.        06-MAR-1980:   LOGDATE
 API .     49025108070000:   API NUMBER
~CURVE INFORMATION
#MNEM.UNIT       API CODE    CURVE DESCRIPTION
#----------   ------------   ------------------------------
 DEPT.F                  :   
 CALD.IN     45 280 60 00:   CALIPER FROM DENSITY LOG
 GRD .GAPI   45 310 01 00:   GAMMA RAY FROM DENSITY LOG
 RHOB.G/C3   45 350 01 00:   BULK DENSITY
 CORR.G/C3   45 356 01 00:   DENSITY CORRECTION
 NPHI.DEC    42 890 03 00:   NEUTRON POROSITY SANDSTONE
 SPR .MV     07 010 01 00:   SPONTANEOUS POTENTIAL
 ILD .OHMM   07 120 46 00:   DEEP INDUCTION RESISTIVITY
 ILM .OHMM   07 120 44 00:   INDUCTION LOG MEDIUM RESISTIVITY
 SGRD.OHMM   07 220 05 00:   SHALLOW SHORT GUARD RESISTIVITY
~PARAMETER INFORMATION
#MNEM.UNIT          VALUE    DESCRIPTION
#----------   ------------   ------------------------------
 EKB .F         5247.0000:   Kelly bushing
 EGL .F         5237.0000:   Ground level
 EDF .F            0.0000:   Drilling floor
 TD  .F         4352.0000:   Total depth
 DATE.        06-MAR-1980:   Date logged
 CLNT.            A2DTECH:   Client Code
 SL  . 1075' FWL & 2450' FSL:   Surface Location
 PD  .                 GL:   Permanent Datum
 EPD .F              5237:   Elevation Permanent Datum
 LMF .                 KB:   Log Measured From
 DMF .                 KB:   Drilling Measured From
 DAPD.F                10:   Feet Above Permanent Datum
 DD  .F              4350:   Depth driller
 DL  .F              4352:   Depth logger
 BLI .F              4350:   Bottom log interval
 TLI .F               630:   Top log interval
 CS1 .IN            8.625:   Casing size
 CBD1.      8.625" @ 600':   Casing driller 1
 CBL1.F               632:   Casing logger 1
 BS1 .IN            7.875:   Bit size
 BSD1.F              4350:   Depth drilled with bit1
 DFT .           CHEM/GEL:   Type fluid in hole
 DFD .                8.9:   Density
 DFV .                 47:   Viscosity
 DFPH.               10.3:   pH
 DFL .                 10:   Fluid loss
 MSS .           FLOWLINE:   Source of sample
 RMS .OHMM            .89:   Rm
 MST .F                90:   Rm Meas. temp.
 RMF .OHMM            .71:   Rmf
 MFST.F                90:   Rmf Meas. temp.
 RMC .OHMM           1.06:   Rmc
 MCST.F                90:   Rmc Meas. temp.
 MFSS.               MEAS:   Source Rmf.
 MCSS.               MEAS:   Source Rmc.
 RMB .OHMM            .60:   Rm. at BHT
 BHT .F               112:   BHT.
 TCS .HRS               1:   Time Circ. stopped
 MRT .F               132:   Maximum recorded temp.
 LUN .               1892:   Logging unit number
 LUL .             CASPER:   Logging unit location
 ENGI.               REIN:   Recorded By
 WITN.           DINSMORE:   Witnessed by
 ORIG.           5" PRINT:   Origin of data
 UWI .     49025108070000:   Unique Well ID
 DICO. A2D TECHNOLOGIES, INC.:   Digitizing Company
~OTHER INFORMATION
~A   DEPT     CALD        GRD       RHOB       CORR       NPHI         SPR       ILD        ILM         SGRD 
# ...
 1350.0000    14.2650    73.1990     2.1830     0.0030     0.2370   -22.1360     8.7770     8.1800     8.5300
 1350.5000    14.2650    72.9280     2.1940     0.0060     0.2380   -22.2760     8.7730     8.1740     8.5360
 1351.0000    14.2640    72.6070     2.1980     0.0100     0.2390   -22.2800     8.7690     8.1670     8.5410
 1351.5000    14.2640    72.3120     2.1960     0.0130     0.2350   -22.1840     8.7650     8.1610     8.5460
 1352.0000    14.2630    71.8810     2.1920     0.0150     0.2320   -22.1000     8.7600     8.1540     8.5510
 1352.5000    14.2620    71.4610     2.1880     0.0130     0.2280   -22.0160     8.7560     8.1480     8.5550
 1353.0000    14.2620    70.9020     2.1850     0.0110     0.2230   -21.9300     8.7520     8.1410     8.5260
 1353.5000    14.2610    69.9470     2.1840     0.0090     0.2230   -21.8460     8.7480     8.1350     8.4970
 1354.0000    14.2610    69.0320     2.1810     0.0100     0.2200   -21.7600     8.7440     8.1280     8.4660
 1354.5000    14.2600    68.2080     2.1780     0.0140     0.2200   -21.6750     8.7400     8.1220     8.4360
 1355.0000    14.2600    68.3620     2.1720     0.0170     0.2220   -21.5900     8.7350     8.1150     8.4050
 1355.5000    14.2590    68.5380     2.1640     0.0200     0.2240   -21.5060     8.7310     8.1090     8.3750
 1356.0000    14.2590    68.7790     2.1570     0.0240     0.2270   -21.4190     8.7270     8.1020     8.3450
 1356.5000    14.2580    69.7650     2.1520     0.0260     0.2300   -21.3340     8.7230     8.0960     8.3140
 1357.0000    14.2570    70.8580     2.1450     0.0280     0.2320   -21.2540     8.7190     8.0360     8.2840
 1357.5000    14.2570    72.0080     2.1360     0.0300     0.2350   -21.1520     8.7010     7.9730     8.2540
 1358.0000    14.2560    71.7580     2.1270     0.0320     0.2380   -21.2430     8.6580     7.9110     8.2230
 1358.5000    14.2560    70.8790     2.1180     0.0340     0.2410   -21.4740     8.6150     7.8480     8.1930
 1359.0000    14.2550    70.0460     2.1090     0.0360     0.2430   -21.6840     8.5730     7.7860     8.1630
 1359.5000    14.2550    69.3830     2.0980     0.0380     0.2440   -21.8950     8.5300     7.7230     8.1320
 1360.0000    14.2540    69.5110     2.0870     0.0400     0.2430   -22.1110     8.4870     7.6600     8.1020
 1360.5000    14.2530    69.6350     2.0710     0.0430     0.2400   -22.3190     8.4440     7.5980     8.0720
 1361.0000    14.2530    69.7690     2.0560     0.0440     0.2370   -22.5370     8.4010     7.5350     8.0410
 1361.5000    14.2520    69.9040     2.0400     0.0430     0.2340   -22.7480     8.3580     7.4720     8.0110
 1362.0000    14.2520    69.4350     2.0440     0.0450     0.2320   -22.9030     8.3150     7.4100     7.9810
 1362.5000    14.2510    68.8000     2.0560     0.0310     0.2310   -22.7740     8.2720     7.3470     7.9480
 1363.0000    14.2510    68.2000     2.0660     0.0290     0.2320   -22.6690     8.2290     7.2840     7.9090
 1363.5000    14.2500    68.4260     2.0790     0.0330     0.2340   -22.5490     8.1860     7.2220     7.8650
 1364.0000    14.2490    68.6110     2.0770     0.0380     0.2360   -22.4360     8.1430     7.1590     7.8210
 1364.5000    14.2490    69.1640     2.0730     0.0410     0.2380   -22.3220     8.0960     7.1110     7.7770
 1365.0000    14.2480    69.9220     2.0770     0.0450     0.2370   -22.2070     8.0960     7.1010     7.7340
 1365.5000    14.2480    70.6350     2.0790     0.0490     0.2370   -22.0940     8.0780     7.0910     7.6900
 1366.0000    14.2470    71.3500     2.0730     0.0530     0.2340   -21.9750     8.0620     7.0810     7.6470
 1366.5000    14.2470    72.0680     2.0760     0.0570     0.2320   -21.8670     8.0460     7.0710     7.6030
 1367.0000    14.2460    72.7910     2.0790     0.0610     0.2320   -21.7380     8.0290     7.0600     7.5590
 1367.5000    14.2450    73.5050     2.0820     0.0650     0.2320   -21.7630     8.0130     7.0500     7.5160
 1368.0000    14.2450    74.2100     2.0850     0.0690     0.2340   -21.8050     7.9970     7.0400     7.4720
 1368.5000    14.2440    74.9890     2.0890     0.0730     0.2360   -21.8540     7.9810     7.0300     7.4290
 1369.0000    14.2440    75.1050     2.0870     0.0770     0.2380   -21.8970     7.9640     7.0200     7.3850
 1369.5000    14.2430    74.5580     2.0780     0.0790     0.2400   -21.9430     7.9480     7.0090     7.3420
 1370.0000    14.2430    74.0850     2.0700     0.0770     0.2430   -21.9880     7.9320     6.9990     7.2980
 1370.5000    14.2420    73.6040     2.0670     0.0760     0.2410   -22.0330     7.9160     6.9890     7.2470
 1371.0000    14.2410    73.1110     2.0690     0.0740     0.2390   -22.0780     7.8990     6.9790     7.2470
 1371.5000    14.2410    72.6300     2.0730     0.0720     0.2380   -22.1220     7.8830     6.9690     7.2520
 1372.0000    14.2400    72.1430     2.0770     0.0710     0.2380   -22.1690     7.8670     6.9590     7.2690
 1372.5000    14.2400    71.6580     2.0810     0.0690     0.2380   -22.2140     7.8510     6.9480     7.2860
 1373.0000    14.2390    71.1710     2.0870     0.0680     0.2370   -22.2550     7.8350     6.9380     7.3030
 1373.5000    14.2390    70.6840     2.0940     0.0630     0.2350   -22.3150     7.8190     6.9280     7.3210
 1374.0000    14.2380    70.2090     2.1010     0.0590     0.2340   -22.2150     7.8030     6.9180     7.3380
 1374.5000    14.2380    69.7010     2.1100     0.0510     0.2330   -22.0020     7.8030     6.9080     7.3550
 1375.0000    14.2370    69.2450     2.1210     0.0440     0.2320   -21.8040     7.8210     6.8970     7.3730
 1375.5000    14.2360    68.8240     2.1250     0.0410     0.2310   -21.6080     7.8450     6.8870     7.3900
 1376.0000    14.2360    69.6500     2.1120     0.0450     0.2260   -21.4120     7.8680     6.8770     7.4070
 1376.5000    14.2350    70.4850     2.0970     0.0490     0.2210   -21.1990     7.8920     6.8670     7.4250
 1377.0000    14.2350    71.3940     2.0820     0.0520     0.2180   -21.1960     7.9150     6.8580     7.4420
 1377.5000    14.2340    72.2770     2.0680     0.0560     0.2180   -21.3450     7.9390     6.8790     7.4600
 1378.0000    14.2340    72.6920     2.0560     0.0530     0.2180   -21.4750     7.9620     6.9020     7.4770
 1378.5000    14.2340    71.8450     2.0540     0.0470     0.2180   -21.6060     7.9860     6.9250     7.4940
 1379.0000    14.2340    70.9500     2.0530     0.0420     0.2160   -21.7400     8.0100     6.9480     7.5110
 1379.5000    14.2340    70.6330     2.0570     0.0360     0.2150   -21.8710     8.0330     6.9710     7.5350
 1380.0000    14.2340    71.0510     2.0710     0.0310     0.2150   -22.0040     8.0570     6.9940     7.5630
 1380.5000    14.2340    71.3500     2.1020     0.0260     0.2140   -22.1360     8.0800     7.0170     7.5910
 1381.0000    14.2340    71.6500     2.1440     0.0210     0.2140   -22.2690     8.1170     7.0400     7.6200
 1381.5000    14.2340    70.9370     2.1370     0.0220     0.2150   -22.4010     8.1790     7.0630     7.6480
 1382.0000    14.2340    70.0160     2.1310     0.0160     0.2160   -22.5330     8.2410     7.0860     7.6760
 1382.5000    14.2340    69.9310     2.1270     0.0090     0.2170   -22.6650     8.3030     7.1090     7.7040
 1383.0000    14.2340    70.0890     2.1260     0.0020     0.2170   -22.7980     8.3640     7.2070     7.7320
 1383.5000    14.2340    70.6180     2.1290    -0.0040     0.2180   -22.9290     8.4260     7.3340     7.7600
 1384.0000    14.2340    71.0930     2.1330    -0.0010     0.2170   -23.0630     8.4880     7.4600     7.7880
 1384.5000    14.2340    71.5990     2.1370     0.0020     0.2140   -23.1950     8.5500     7.5470     7.8380
 1385.0000    14.2340    71.7350     2.1410     0.0050     0.2140   -23.3220     8.6120     7.5980     7.9070
 1385.5000    14.2340    71.7260     2.1460     0.0060     0.2150   -23.4740     8.6730     7.6500     7.9760
 1386.0000    14.2340    71.7250     2.1520     0.0070     0.2160   -23.3890     8.7350     7.7010     8.0450
