~VERSION INFORMATION
 VERS.                2.0:   CWLS LOG ASCII STANDARD - VERSION 2.0
 WRAP.                 NO:   ONE LINE PER DEPTH STEP
~WELL INFORMATION
#MNEM.UNIT      DATA TYPE    INFORMATION
#----------   ------------   ------------------------------
 STRT.F           36.0000:   START DEPTH
 STOP.F         4960.0000:   STOP DEPTH
 STEP.F            0.5000:   STEP LENGTH
 NULL.          -999.2500:   NO VALUE
 COMP.   TESORO PETROLEUM:   COMPANY
 WELL. TESORO NPR 3 "DX" #55-23:   WELL
 FLD .        TEAPOT DOME:   FIELD
 LOC .      S23 T38N R78W:   LOCATION
 CNTY.            NATRONA:   COUNTY
 STAT.            WYOMING:   STATE
 CTRY. UNITED STATES OF AMERICA:   COUNTRY
 SRVC.           BIRDWELL:   SERVICE COMPANY
 DATE.        17-AUG-1975:   LOGDATE
 API .     49025102510000:   API NUMBER
~CURVE INFORMATION
#MNEM.UNIT       API CODE    CURVE DESCRIPTION
#----------   ------------   ------------------------------
 DEPT.F                  :   
 TEND.LBS    45 635 01 00:   TENSION FROM DENSITY LOG
 CALD.IN     45 280 60 00:   CALIPER FROM DENSITY LOG
 CORR.G/C3   45 356 01 00:   DENSITY CORRECTION
 GRD .GAPI   45 310 01 00:   GAMMA RAY FROM DENSITY LOG
 RHOB.G/C3   45 350 01 00:   BULK DENSITY
 SPR .MV     07 010 01 00:   SPONTANEOUS POTENTIAL
 ILM .OHMM   07 120 44 00:   INDUCTION LOG MEDIUM RESISTIVITY
 ILD .OHMM   07 120 46 00:   DEEP INDUCTION RESISTIVITY
 SFL .OHMM   07 220 01 00:   SHALLOW FOCUSED LOG RESISTIVITY
~PARAMETER INFORMATION
#MNEM.UNIT          VALUE    DESCRIPTION
#----------   ------------   ------------------------------
 EKB .F         5371.0000:   Kelly bushing
 EGL .F         5360.0000:   Ground level
 EDF .F            0.0000:   Drilling floor
 TD  .F         4955.0000:   Total depth
 DATE.        17-AUG-1975:   Date logged
 CLNT.            A2DTECH:   Client Code
 SL  . 1980' FSL & 2030' FEL:   Surface Location
 PD  .                 GL:   Permanent Datum
 DD  .F              4955:   Depth driller
 DL  .F              4945:   Depth logger
 BLI .F              4943:   Bottom log interval
 CS1 .IN            8.625:   Casing size
 CBD1.     8.625" @ 1450':   Casing driller 1
 CBL1.F              1457:   Casing logger 1
 BS1 .IN            7.875:   Bit size
 DFT .            KCL/GEL:   Type fluid in hole
 DFD .                9.5:   Density
 DFV .                 53:   Viscosity
 DFPH.                8.5:   pH
 DFL .                7.4:   Fluid loss
 MSS .           FLOWLINE:   Source of sample
 RMS .OHMM            1.2:   Rm
 MST .F                72:   Rm Meas. temp.
 RMF .OHMM            .94:   Rmf
 MFST.F                74:   Rmf Meas. temp.
 MFSS.               MEAS:   Source Rmf.
 RMB .OHMM            .71:   Rm. at BHT
 BHT .F               121:   BHT.
 TCS .HRS               4:   Time Circ. stopped
 MRT .F               121:   Maximum recorded temp.
 LUN .               6078:   Logging unit number
 LUL .              GLTTE:   Logging unit location
 ENGI.      NORDEN/SUTTON:   Recorded By
 WITN.          UNDERWOOD:   Witnessed by
 ORIG.           5" PRINT:   Origin of data
 UWI .     49025102510000:   Unique Well ID
 DICO. A2D TECHNOLOGIES, INC.:   Digitizing Company
 DAPD.F                11:   Feet Above Permanent Datum
 BSD1.F              5360:   Depth drilled with bit1
 EPD .F              5360:   Elevation Permanent Datum
 LMF .                 KB:   Log Measured From
 DMF .                 KB:   Drilling Measured From
 TLI .F              1457:   Top log interval
~OTHER INFORMATION
~A   DEPT     TEND       CALD       CORR        GRD       RHOB        SPR        ILM        ILD          SFL 
# ...
 3759.0000  -999.2500  -999.2500  -999.2500  -999.2500  -999.2500   -34.9590     5.8830     5.8320     5.4920
 3759.5000  -999.2500  -999.2500  -999.2500  -999.2500  -999.2500   -34.9600     6.3320     5.4480     5.0310
 3760.0000  -999.2500  -999.2500  -999.2500  -999.2500  -999.2500   -34.9600     6.2660     5.3160     5.7390
 3760.5000  -999.2500  -999.2500  -999.2500  -999.2500  -999.2500   -34.9600     6.1500     5.5090     6.3530
 3761.0000  -999.2500  -999.2500  -999.2500  -999.2500  -999.2500   -34.9600     5.9920     5.7540     6.9680
 3761.5000  -999.2500  -999.2500  -999.2500  -999.2500  -999.2500   -35.0220     6.0220     5.9990     7.2880
 3762.0000  -999.2500  -999.2500  -999.2500  -999.2500  -999.2500   -35.0920     6.0910     6.2440     7.5490
 3762.5000  -999.2500  -999.2500  -999.2500  -999.2500  -999.2500   -35.1630     6.1600     6.3230     7.8100
 3763.0000  -999.2500  -999.2500  -999.2500  -999.2500  -999.2500   -35.2340     6.2280     6.3950     8.0710
 3763.5000  -999.2500  -999.2500  -999.2500  -999.2500  -999.2500   -35.3030     6.2740     6.4670     8.1930
 3764.0000  -999.2500  -999.2500  -999.2500  -999.2500  -999.2500   -35.3500     6.2590     6.5390     7.9690
 3764.5000  -999.2500  -999.2500  -999.2500  -999.2500  -999.2500   -35.2960     6.2470     6.5780     7.6080
 3765.0000  -999.2500  -999.2500  -999.2500  -999.2500  -999.2500   -35.2450     6.2360     6.5940     6.8780
 3765.5000  -999.2500  -999.2500  -999.2500  -999.2500  -999.2500   -35.1940     6.2250     6.6090     6.9550
 3766.0000  -999.2500  -999.2500  -999.2500  -999.2500  -999.2500   -35.1170     6.2160     6.6250     7.0780
 3766.5000  -999.2500  -999.2500  -999.2500  -999.2500  -999.2500   -34.8000     6.3300     6.7250     7.2000
 3767.0000  -999.2500  -999.2500  -999.2500  -999.2500  -999.2500   -34.4780     6.4210     6.8660     7.3220
 3767.5000  -999.2500  -999.2500  -999.2500  -999.2500  -999.2500   -34.1720     6.5110     7.0710     7.5250
 3768.0000  -999.2500  -999.2500  -999.2500  -999.2500  -999.2500   -34.1240     6.5690     7.0000     8.0730
 3768.5000  -999.2500  -999.2500  -999.2500  -999.2500  -999.2500   -34.0650     6.4990     6.8720     7.9330
 3769.0000  -999.2500  -999.2500  -999.2500  -999.2500  -999.2500   -34.0070     6.4380     6.7430     7.4450
 3769.5000  -999.2500  -999.2500  -999.2500  -999.2500  -999.2500   -33.9960     6.3770     6.6150     6.8150
 3770.0000  -999.2500  -999.2500  -999.2500  -999.2500  -999.2500   -34.1180     6.3160     6.5340     6.8710
 3770.5000  -999.2500  -999.2500  -999.2500  -999.2500  -999.2500   -34.2360     6.2560     6.4790     6.9950
 3771.0000  -999.2500  -999.2500  -999.2500  -999.2500  -999.2500   -34.3540     6.1950     6.4240     7.1190
 3771.5000  -999.2500  -999.2500  -999.2500  -999.2500  -999.2500   -34.4700     6.1340     6.3700     7.2130
 3772.0000  -999.2500  -999.2500  -999.2500  -999.2500  -999.2500   -34.5290     6.0470     6.3150     7.2470
 3772.5000  -999.2500  -999.2500  -999.2500  -999.2500  -999.2500   -34.3620     6.0830     6.2600     7.2690
 3773.0000  -999.2500  -999.2500  -999.2500  -999.2500  -999.2500   -34.2010     5.8810     6.1870     6.8930
 3773.5000  -999.2500  -999.2500  -999.2500  -999.2500  -999.2500   -34.0400     5.7200     6.0370     6.5730
 3774.0000  -999.2500  -999.2500  -999.2500  -999.2500  -999.2500   -33.9650     5.5580     5.8880     6.3210
 3774.5000  -999.2500  -999.2500  -999.2500  -999.2500  -999.2500   -33.9640     5.3970     5.7380     6.2750
 3775.0000  -999.2500  -999.2500  -999.2500  -999.2500  -999.2500   -33.9640     5.2190     5.5890     6.2300
 3775.5000  -999.2500  -999.2500  -999.2500  -999.2500  -999.2500   -33.9640     5.2340     5.4650     6.1490
 3776.0000  -999.2500  -999.2500  -999.2500  -999.2500  -999.2500   -33.9640     5.2510     5.4830     6.0530
 3776.5000  -999.2500  -999.2500  -999.2500  -999.2500  -999.2500   -33.9640     5.2670     5.4990     5.9980
 3777.0000  -999.2500  -999.2500  -999.2500  -999.2500  -999.2500   -33.9640     5.2840     5.5160     6.1210
 3777.5000  -999.2500  -999.2500  -999.2500  -999.2500  -999.2500   -33.9640     5.3000     5.5320     6.3120
 3778.0000  -999.2500  -999.2500  -999.2500  -999.2500  -999.2500   -33.9640     5.3160     5.5480     6.5690
 3778.5000  -999.2500  -999.2500  -999.2500  -999.2500  -999.2500   -33.9640     5.4370     5.5640     6.5270
 3779.0000  -999.2500  -999.2500  -999.2500  -999.2500  -999.2500   -33.9620     5.5520     5.7450     6.4610
 3779.5000  -999.2500  -999.2500  -999.2500  -999.2500  -999.2500   -34.0160     5.6680     5.9500     6.3900
 3780.0000  -999.2500  -999.2500  -999.2500  -999.2500  -999.2500   -34.0800     5.7800     6.1040     6.5970
 3780.5000  -999.2500  -999.2500  -999.2500  -999.2500  -999.2500   -34.1440     5.9370     6.1110     6.8210
 3781.0000  -999.2500  -999.2500  -999.2500  -999.2500  -999.2500   -34.2080     5.9290     6.1170     7.0460
 3781.5000  -999.2500  -999.2500  -999.2500  -999.2500  -999.2500   -34.2710     5.9170     6.1240     7.1360
 3782.0000  -999.2500  -999.2500  -999.2500  -999.2500  -999.2500   -34.3350     5.9040     6.1310     6.9340
 3782.5000  -999.2500  -999.2500  -999.2500  -999.2500  -999.2500   -34.3340     5.8910     6.1380     6.7670
 3783.0000  -999.2500  -999.2500  -999.2500  -999.2500  -999.2500   -34.2590     5.8780     6.1440     6.5990
 3783.5000  -999.2500  -999.2500  -999.2500  -999.2500  -999.2500   -34.1850     5.8650     6.1510     6.4410
 3784.0000  -999.2500  -999.2500  -999.2500  -999.2500  -999.2500   -34.1100     5.8520     6.1600     6.3590
 3784.5000  -999.2500  -999.2500  -999.2500  -999.2500  -999.2500   -34.0350     5.8390     6.1460     6.2740
 3785.0000  -999.2500  -999.2500  -999.2500  -999.2500  -999.2500   -33.9600     5.8260     6.1220     6.3620
 3785.5000  -999.2500  -999.2500  -999.2500  -999.2500  -999.2500   -33.8860     5.8130     6.0980     6.4550
 3786.0000  -999.2500  -999.2500  -999.2500  -999.2500  -999.2500   -33.8120     5.8000     6.0740     6.6090
 3786.5000  -999.2500  -999.2500  -999.2500  -999.2500  -999.2500   -33.8020     5.7870     6.0490     6.8490
 3787.0000  -999.2500  -999.2500  -999.2500  -999.2500  -999.2500   -33.9020     5.7740     6.0250     7.0710
 3787.5000  -999.2500  -999.2500  -999.2500  -999.2500  -999.2500   -34.0010     5.7610     6.0010     6.9520
 3788.0000  -999.2500  -999.2500  -999.2500  -999.2500  -999.2500   -34.1000     5.7490     5.9770     6.8170
 3788.5000  -999.2500  -999.2500  -999.2500  -999.2500  -999.2500   -34.1990     5.7360     5.9520     6.6820
 3789.0000  -999.2500  -999.2500  -999.2500  -999.2500  -999.2500   -34.2970     5.7220     5.9370     6.5690
 3789.5000  -999.2500  -999.2500  -999.2500  -999.2500  -999.2500   -34.3580     5.7620     6.0430     6.5690
 3790.0000  -999.2500  -999.2500  -999.2500  -999.2500  -999.2500   -34.3220     5.8030     6.1340     6.5690
 3790.5000  2955.9121  -999.2500  -999.2500  -999.2500     2.5680   -34.2880     5.8430     6.2740     6.6050
 3791.0000  2955.9121  -999.2500  -999.2500  -999.2500     2.5670   -34.2530     5.8840     6.2660     6.7560
 3791.5000  2895.4580  -999.2500  -999.2500  -999.2500     2.5610   -34.2180     5.9250     6.2500     6.9070
 3792.0000  2893.7881  -999.2500     0.0230  -999.2500     2.5570   -34.1830     5.9420     6.2340     7.0580
 3792.5000  2891.5610     8.3380     0.0250    55.1980     2.5510   -34.1480     5.9530     6.2160     7.2090
 3793.0000  2889.3340     8.3270     0.0280    55.8210     2.5510   -34.1130     5.9640     6.2250     7.3360
 3793.5000  2887.1079     8.3160     0.0300    56.1660     2.5500   -34.0790     5.9750     6.2360     7.1590
 3794.0000  2884.8811     8.3080     0.0330    55.9830     2.5490   -34.0440     5.9920     6.2470     6.9760
 3794.5000  2882.6541     8.2980     0.0360    55.6350     2.5460   -34.0090     5.9590     6.2590     6.7920
 3795.0000  2880.4280     8.2870     0.0360    54.8630     2.5370   -33.9740     5.8800     6.2740     6.6910
