~VERSION INFORMATION
 VERS.                2.0:   CWLS LOG ASCII STANDARD - VERSION 2.0
 WRAP.                 NO:   ONE LINE PER DEPTH STEP
~WELL INFORMATION
#MNEM.UNIT      DATA TYPE    INFORMATION
#----------   ------------   ------------------------------
 STRT.F           48.5000:   START DEPTH
 STOP.F         3509.0000:   STOP DEPTH
 STEP.F            0.5000:   STEP LENGTH
 NULL.          -999.2500:   NO VALUE
 COMP.   TESORO PETROLEUM:   COMPANY
 WELL. TESORO "TX" #45-33:   WELL
 FLD .        TEAPOT DOME:   FIELD
 LOC .      S33 T39N R78W:   LOCATION
 CNTY.            NATRONA:   COUNTY
 STAT.            WYOMING:   STATE
 CTRY. UNITED STATES OF AMERICA:   COUNTRY
 SRVC.      DRESSER ATLAS:   SERVICE COMPANY
 DATE.        03-OCT-1976:   LOGDATE
 API .     49025102700000:   API NUMBER
~CURVE INFORMATION
#MNEM.UNIT       API CODE    CURVE DESCRIPTION
#----------   ------------   ------------------------------
 DEPT.F                  :   
 SPR .MV     07 010 01 00:   SPONTANEOUS POTENTIAL
 TENR.LBS    07 635 01 00:   TENSION FROM RESISTIVITY
 SFL .OHMM   07 220 01 00:   SHALLOW FOCUSED LOG RESISTIVITY
 ILM .OHMM   07 120 44 00:   INDUCTION LOG MEDIUM RESISTIVITY
 ILD .OHMM   07 120 46 00:   DEEP INDUCTION RESISTIVITY
 GRD .GAPI   45 310 01 00:   GAMMA RAY FROM DENSITY LOG
 CALD.IN     45 280 60 00:   CALIPER FROM DENSITY LOG
 NPHI.DEC    42 890 03 00:   NEUTRON POROSITY SANDSTONE
 DPHI.DEC    45 890 12 00:   DENSITY POROSITY SANDSTONE
 TEND.LBS    45 635 01 00:   TENSION FROM DENSITY LOG
~PARAMETER INFORMATION
#MNEM.UNIT          VALUE    DESCRIPTION
#----------   ------------   ------------------------------
 EKB .F         5217.0000:   Kelly bushing
 EGL .F         5206.0000:   Ground level
 EDF .F         5216.0000:   Drilling floor
 EPD .F         5206.0000:   Permanent datum
 TD  .F         3491.0000:   Total depth
 DATE.        03-OCT-1976:   Date logged
 CLNT.            A2DTECH:   Client Code
 SL  . 2030' FWL & 2145' FSL:   Surface Location
 PD  .                 GL:   Permanent Datum
 DD  .F              3491:   Depth driller
 DL  .F              3487:   Depth logger
 BLI .F              3485:   Bottom log interval
 TLI .F               813:   Top log interval
 CS1 .IN            8.625:   Casing size
 CBD1.      8.625" @ 823':   Casing driller 1
 CBL1.F               819:   Casing logger 1
 BS1 .IN            7.875:   Bit size
 BSD1.F              3491:   Depth drilled with bit1
 DFT .           CHEM GEL:   Type fluid in hole
 DFD .                9.4:   Density
 DFV .                 47:   Viscosity
 DFPH.                 10:   pH
 DFL .                5.8:   Fluid loss
 MSS .           FLOWLINE:   Source of sample
 RMS .OHMM           1.09:   Rm
 MST .F                68:   Rm Meas. temp.
 RMF .OHMM              1:   Rmf
 MFST.F                68:   Rmf Meas. temp.
 RMC .OHMM           1.24:   Rmc
 MCST.F                68:   Rmc Meas. temp.
 MFSS.               MEAS:   Source Rmf.
 MCSS.               MEAS:   Source Rmc.
 RMB .OHMM            .62:   Rm. at BHT
 BHT .F               119:   BHT.
 TCS .HRS              12:   Time Circ. stopped
 MRT .F               119:   Maximum recorded temp.
 LUN .               6134:   Logging unit number
 LUL .              GLTTE:   Logging unit location
 ENGI.            VAUGHIN:   Recorded By
 WITN.        WOLF-CARTER:   Witnessed by
 ORIG.     2.5", 5" PRINT:   Origin of data
 UWI .     49025102700000:   Unique Well ID
 DICO. A2D TECHNOLOGIES, INC.:   Digitizing Company
 DAPD.                 11:   Feet Above Permanent Datum
~OTHER INFORMATION
~A   DEPT      SPR        TENR       SFL        ILM        ILD        GRD       CALD       NPHI       DPHI       TEND   
# ...
 1891.0000   -25.4000  -999.2500     5.8430     5.9060     5.8800   122.1110     9.1790     0.2790     0.0390   268.8830
 1891.5000   -25.4000  -999.2500     5.9440     5.9000     5.8610   121.9430     9.1830     0.2790     0.0330   270.9710
 1892.0000   -25.4000  -999.2500     6.0250     5.8940     5.8410   121.9840     9.1870     0.2780     0.0280   273.0580
 1892.5000   -25.4000  -999.2500     6.3780     5.8880     5.8220   122.4390     9.1910     0.2790     0.0300   275.0000
 1893.0000   -25.4000  -999.2500     6.7310     5.8810     5.8030   123.5300     9.1950     0.2810     0.0340   274.4240
 1893.5000   -25.4000  -999.2500     6.3610     5.8750     5.7830   124.0560     9.2000     0.2800     0.0380   273.8860
 1894.0000   -25.4000  -999.2500     5.8070     5.8690     5.7640   123.9590     9.2040     0.2790     0.0350   273.3470
 1894.5000   -25.3990  -999.2500     5.9190     5.8620     5.7440   123.8640     9.2080     0.2740     0.0320   272.8090
 1895.0000   -25.4010  -999.2500     6.0600     5.8560     5.7250   123.8230     9.2120     0.2700     0.0350   272.2710
 1895.5000   -25.3810  -999.2500     6.2000     5.8500     5.7050   124.6610     9.2160     0.2660     0.0410   271.7330
 1896.0000   -25.3340  -999.2500     6.3680     5.8440     5.6860   125.2960     9.2210     0.2640     0.0460   271.1940
 1896.5000   -25.2900  -999.2500     6.0880     5.8380     5.6670   123.3200     9.2250     0.2660     0.0470   270.6560
 1897.0000   -25.2440  -999.2500     5.7010     5.8310     5.6470   121.5100     9.2290     0.2670     0.0450   270.1180
 1897.5000   -25.1990  -999.2500     5.7800     5.8260     5.6270   120.7580     9.2170     0.2660     0.0420   269.5790
 1898.0000   -25.1540  -999.2500     5.9760     5.8180     5.5970   121.6000     9.2090     0.2640     0.0400   269.0410
 1898.5000   -25.1080  -999.2500     6.1730     5.8060     5.6110   122.4030     9.2090     0.2660     0.0380   268.5030
 1899.0000   -25.0660  -999.2500     6.3680     5.8100     5.6490   122.4090     9.2090     0.2670     0.0350   267.9640
 1899.5000   -25.0150  -999.2500     6.0250     5.8960     5.6870   121.6050     9.2090     0.2640     0.0300   267.4260
 1900.0000   -25.0290  -999.2500     6.1990     6.0070     5.7250   120.8210     9.2090     0.2620     0.0260   266.8880
 1900.5000   -25.0910  -999.2500     6.4870     6.1190     5.7630   120.5840     9.2090     0.2640     0.0240   266.3500
 1901.0000   -25.1460  -999.2500     6.4870     6.2520     5.8010   121.9530     9.2090     0.2630     0.0250   265.8110
 1901.5000   -25.2010  -999.2500     6.4160     6.1680     5.8390   123.1200     9.2090     0.2620     0.0250   265.2730
 1902.0000   -25.2560  -999.2500     6.3680     6.0630     5.8770   122.9260     9.2090     0.2640     0.0240   265.0000
 1902.5000   -25.3120  -999.2500     6.3150     5.9150     5.9150   122.7170     9.2090     0.2660     0.0220   265.0000
 1903.0000   -25.3630  -999.2500     6.2480     5.9250     5.9120   122.5190     9.2090     0.2680     0.0240   265.0000
 1903.5000   -25.4950  -999.2500     6.1810     5.9410     5.9110   122.6390     9.2090     0.2640     0.0240   265.0000
 1904.0000   -25.7530  -999.2500     6.1150     5.9570     5.9080   122.7940     9.2090     0.2600     0.0250   265.0000
 1904.5000   -26.0010  -999.2500     6.0480     5.9740     5.9060   122.3890     9.2090     0.2550     0.0390   265.0000
 1905.0000   -26.1810  -999.2500     5.9810     5.9900     5.9030   121.9130     9.2090     0.2530     0.0430   265.0000
 1905.5000   -26.0430  -999.2500     5.9140     6.0060     5.9010   122.2350     9.2090     0.2550     0.0410   265.0000
 1906.0000   -25.9280  -999.2500     5.8070     6.0220     5.8980   122.7010     9.2090     0.2590     0.0410   265.0000
 1906.5000   -25.7970  -999.2500     5.8430     6.0380     5.8960   122.1290     9.2090     0.2610     0.0430   265.0000
 1907.0000   -25.6750  -999.2500     5.9320     6.0540     5.8940   121.2120     9.2010     0.2620     0.0420   265.0000
 1907.5000   -25.5500  -999.2500     6.0220     6.0710     5.8910   120.9130     9.1920     0.2650     0.0410   265.0000
 1908.0000   -25.4250  -999.2500     6.1110     6.0870     5.8890   119.8510     9.1600     0.2670     0.0400   265.0000
 1908.5000   -25.3000  -999.2500     6.2010     6.1030     5.8860   119.2140     9.1170     0.2650     0.0420   265.0000
 1909.0000   -25.1780  -999.2500     6.2900     6.1190     5.8840   120.4060     9.0740     0.2640     0.0430   265.0000
 1909.5000   -25.0460  -999.2500     6.3800     6.1350     5.8810   120.5660     9.0320     0.2650     0.0420   265.0000
 1910.0000   -25.0200  -999.2500     6.4870     6.1520     5.8790   120.5640     9.0080     0.2660     0.0400   265.0000
 1910.5000   -25.0720  -999.2500     6.3600     6.1680     5.8770   120.5560     9.0080     0.2660     0.0370   265.0000
 1911.0000   -25.1140  -999.2500     6.2010     6.1840     5.8740   120.6050     9.0000     0.2630     0.0330   265.0000
 1911.5000   -25.1570  -999.2500     6.0420     6.2000     5.8720   121.8130     8.9660     0.2610     0.0280   265.0000
 1912.0000   -25.2020  -999.2500     5.9150     6.2160     5.8690   122.3480     8.9330     0.2620     0.0250   265.0000
 1912.5000   -25.2420  -999.2500     6.6030     6.2320     5.8670   122.0290     8.9180     0.2670     0.0230   266.6670
 1913.0000   -25.2890  -999.2500     7.5190     6.2510     5.8650   122.0310     8.9660     0.2720     0.0220   270.3630
 1913.5000   -25.3330  -999.2500     7.0390     6.2370     5.8620   123.7230     9.0140     0.2710     0.0260   274.0590
 1914.0000   -25.3570  -999.2500     5.5970     6.2190     5.8600   124.7360     9.0610     0.2690     0.0360   277.7560
 1914.5000   -25.6620  -999.2500     5.7840     6.2000     5.8570   124.7990     9.0670     0.2670     0.0370   281.4520
 1915.0000   -26.1770  -999.2500     6.0180     6.1820     5.8550   124.8660     9.0650     0.2640     0.0340   285.0000
 1915.5000   -25.9850  -999.2500     6.2520     6.1630     5.8520   124.9240     9.0640     0.2640     0.0320   276.3500
 1916.0000   -25.8410  -999.2500     5.9240     6.1440     5.8500   124.9770     9.0620     0.2640     0.0300   268.0330
 1916.5000   -25.6650  -999.2500     5.5970     6.1260     5.8480   125.0280     9.0600     0.2630     0.0290   269.5290
 1917.0000   -25.4910  -999.2500     5.8700     6.1070     5.8450   124.3980     9.0590     0.2590     0.0290   275.0000
 1917.5000   -25.3910  -999.2500     6.2520     6.0890     5.8430   123.2620     9.0570     0.2560     0.0300   275.0000
 1918.0000   -25.4030  -999.2500     5.5970     6.0700     5.8400   122.0380     9.0560     0.2600     0.0310   275.0000
 1918.5000   -25.4000  -999.2500     5.6410     6.0520     5.8380   122.2980     9.0540     0.2630     0.0280   275.0000
 1919.0000   -25.4010  -999.2500     5.7520     6.0330     5.8360   122.8190     9.0520     0.2670     0.0290   275.0000
 1919.5000   -25.4010  -999.2500     5.8640     6.0150     5.8330   123.1140     9.0510     0.2710     0.0300   275.0000
 1920.0000   -25.4000  -999.2500     5.9750     5.9960     5.8310   123.0650     9.0490     0.2680     0.0270   275.0000
 1920.5000   -25.4010  -999.2500     6.0860     5.9780     5.8280   123.0170     9.0420     0.2620     0.0300   275.0000
 1921.0000   -25.4000  -999.2500     6.1980     5.9590     5.8260   122.9670     9.0330     0.2590     0.0400   275.0000
 1921.5000   -25.4020  -999.2500     6.3090     5.9410     5.8230   122.9170     9.0230     0.2590     0.0510   275.0000
 1922.0000   -25.3990  -999.2500     6.4870     5.9220     5.8210   122.8650     9.0140     0.2600     0.0530   275.0000
 1922.5000   -25.4020  -999.2500     6.4370     5.9030     5.8190   122.8250     9.0080     0.2610     0.0450   275.0000
 1923.0000   -25.4060  -999.2500     6.3120     5.8850     5.8160   123.0460     9.0080     0.2600     0.0390   275.0000
 1923.5000   -25.5740  -999.2500     6.1880     5.8660     5.8130   123.2810     9.0080     0.2630     0.0360   275.0000
 1924.0000   -25.8000  -999.2500     6.1380     5.8480     5.8120   123.6950     9.0070     0.2660     0.0370   275.0000
