~VERSION INFORMATION
 VERS.                2.0:   CWLS LOG ASCII STANDARD - VERSION 2.0
 WRAP.                 NO:   ONE LINE PER DEPTH STEP
~WELL INFORMATION
#MNEM.UNIT      DATA TYPE    INFORMATION
#----------   ------------   ------------------------------
 STRT.F          230.0000:   START DEPTH
 STOP.F         3480.0000:   STOP DEPTH
 STEP.F            0.5000:   STEP LENGTH
 NULL.          -999.2500:   NO VALUE
 COMP.    FENIX & SCISSON:   COMPANY
 WELL. FENIX NPR 3 "AX" #33-15:   WELL
 FLD .                NPR:   FIELD
 LOC .      S15 T38N R78W:   LOCATION
 CNTY.            NATRONA:   COUNTY
 STAT.            WYOMING:   STATE
 CTRY. UNITED STATES OF AMERICA:   COUNTRY
 SRVC.       SCHLUMBERGER:   SERVICE COMPANY
 DATE.        19-MAR-1981:   LOGDATE
 API .     49025108760000:   API NUMBER
~CURVE INFORMATION
#MNEM.UNIT       API CODE    CURVE DESCRIPTION
#----------   ------------   ------------------------------
 DEPT.F                  :   
 TENR.LBS    07 635 01 00:   TENSION
 SFL .OHMM   07 220 01 00:   SHALLOW FOCUSED LOG RESISTIVITY
 ILM .OHMM   07 120 44 00:   INDUCTION LOG MEDIUM RESISTIVITY
 ILD .OHMM   07 120 46 00:   INDUCTION LOG DEEP RESISTIVITY
 SPR .MV     07 010 01 00:   SPONTANEOUS POTENTIAL
 CALD.IN     45 280 60 00:   CALIPER FROM DENSITY LOG
 GRD .GAPI   45 310 01 00:   GAMMA RAY FROM DENSITY LOG
 CORR.G/C3   45 356 01 00:   DENSITY CORRECTION
 RHOB.G/C3   45 350 01 00:   BULK DENSITY
~PARAMETER INFORMATION
#MNEM.UNIT          VALUE    DESCRIPTION
#----------   ------------   ------------------------------
 EKB .F         5286.0000:   Kelly bushing
 EGL .F         5276.0000:   Ground level
 EDF .F            0.0000:   Drilling floor
 TD  .F         3500.0000:   Total depth
 DATE.        19-MAR-1981:   Date logged
 CLNT.            A2DTECH:   Client Code
 SL  . 1545' FNL & 1467' FWL:   Surface Location
 PD  .                 GL:   Permanent Datum
 EPD .F              5276:   Elevation Permanent Datum
 LMF .                 KB:   Log Measured From
 DMF .                 KB:   Drilling Measured From
 DAPD.F                10:   Feet Above Permanent Datum
 DD  .F              3500:   Depth driller
 DL  .F              3476:   Depth logger
 BLI .F              3470:   Bottom log interval
 TLI .F               234:   Top log interval
 CS1 .IN            8.625:   Casing size
 CBD1.      8.625" @ 250':   Casing driller 1
 CBL1.F               234:   Casing logger 1
 BS1 .IN            7.875:   Bit size
 BSD1.F              3500:   Depth drilled with bit1
 DFT .                FGM:   Type fluid in hole
 DFD .                8.9:   Density
 DFV .                 39:   Viscosity
 DFPH.                9.5:   pH
 DFL .                 10:   Fluid loss
 MSS .               TANK:   Source of sample
 RMS .OHMM           2.26:   Rm
 MST .F                54:   Rm Meas. temp.
 RMF .OHMM           1.60:   Rmf
 MFST.F                54:   Rmf Meas. temp.
 MFSS.               MEAS:   Source Rmf.
 RMB .OHMM            .87:   Rm. at BHT
 BHT .F               140:   BHT.
 TCS .HRS            1030:   Time Circ. stopped
 TLAB.HRS            1300:   Time logger at bottom
 MRT .F               140:   Maximum recorded temp.
 LUN .               8039:   Logging unit number
 LUL .               CSPR:   Logging unit location
 ENGI.           C. PFARR:   Recorded By
 WITN.           R. SCOTT:   Witnessed by
 ORIG.     2.5", 5" PRINT:   Origin of data
 UWI .     49025108760000:   Unique Well ID
 DICO. A2D TECHNOLOGIES, INC.:   Digitizing Company
~OTHER INFORMATION
~A   DEPT     TENR          SFL      ILM        ILD        SPR         CALD       GRD      CORR         RHOB 
# ...
  887.0000   835.7710    11.8740     9.4910    11.5620   -59.8400     8.5610    80.6740     0.0040     2.3990
  887.5000   836.4700    11.8210     9.4640    11.5340   -59.8760     8.5610    80.2630     0.0090     2.4040
  888.0000   837.1690    11.7690     9.4380    11.5060   -59.9140     8.5610    78.6240     0.0150     2.4120
  888.5000   837.8680    11.7160     9.4120    11.4780   -59.9500     8.5610    76.5440     0.0120     2.4180
  889.0000   838.5670    11.6530     9.3860    11.4490   -59.9890     8.5610    76.1550     0.0050     2.4130
  889.5000   839.2660    11.5760     9.3550    11.4210   -60.0250     8.5610    76.8630     0.0070     2.4080
  890.0000   839.9650    11.5000     9.1830    11.3930   -60.0600     8.5610    77.5860     0.0140     2.4110
  890.5000   840.6640    11.4230     9.3240    11.3650   -60.1080     8.5610    77.4550     0.0180     2.4220
  891.0000   841.3630    11.3470     9.5370    11.3370   -60.0340     8.5610    76.3570     0.0200     2.4330
  891.5000   842.0620    11.2600     9.5160    11.3080   -59.8180     8.5610    75.6830     0.0170     2.4400
  892.0000   842.7610    11.3110     9.5210    11.2670   -59.6150     8.5610    78.4070     0.0120     2.4390
  892.5000   843.4600    11.3720     9.5090    11.2730   -59.4090     8.5610    80.8800     0.0060     2.4380
  893.0000   844.1590    11.4310     9.5010    11.3220   -59.2020     8.5610    80.7930     0.0100     2.4430
  893.5000   844.8580    11.4900     9.4930    11.3700   -58.9970     8.5610    80.6160     0.0170     2.4530
  894.0000   845.5570    11.5500     9.4850    11.4170   -58.7910     8.5610    80.6470     0.0230     2.4640
  894.5000   846.2560    11.6090     9.4780    11.4770   -58.5850     8.5610    82.2030     0.0310     2.4750
  895.0000   846.9550    11.6670     9.4710    11.4640   -58.3790     8.5610    85.0670     0.0300     2.4800
  895.5000   847.6540    11.6300     9.4630    11.3620   -58.1720     8.5610    85.8900     0.0290     2.4760
  896.0000   848.3530    11.5530     9.4560    11.2670   -57.9680     8.5610    84.3360     0.0280     2.4690
  896.5000   849.0520    11.4690     9.4490    11.1720   -57.7590     8.5610    80.6350     0.0190     2.4630
  897.0000   849.7510    11.4810     9.4410    11.0760   -57.5570     8.5610    79.7440     0.0150     2.4560
  897.5000   850.4500    11.4970     9.4340    11.0530   -57.3550     8.5610    80.5140     0.0150     2.4550
  898.0000   851.1490    11.5130     9.4260    11.1190   -57.3500     8.5610    81.5860     0.0190     2.4570
  898.5000   851.8490    11.5300     9.4190    11.1880   -57.4380     8.5610    83.6460     0.0210     2.4520
  899.0000   852.5480    11.5470     9.4120    11.2560   -57.5210     8.5610    85.9430     0.0210     2.4470
  899.5000   853.2470    11.5630     9.4040    11.3250   -57.6040     8.5610    87.3960     0.0210     2.4460
  900.0000   853.9460    11.5800     9.3970    11.3930   -57.6930     8.5610    88.4990     0.0180     2.4530
  900.5000   854.6450    11.5970     9.3900    11.4620   -57.7420     8.5610    89.6150     0.0160     2.4610
  901.0000   855.3440    11.6130     9.3820    11.5310   -57.7370     8.5610    90.6190     0.0160     2.4690
  901.5000   856.0430    11.6300     9.3750    11.5990   -57.7380     8.5610    91.4140     0.0190     2.4770
  902.0000   856.7420    11.6470     9.3670    11.6680   -57.7380     8.5610    90.5820     0.0200     2.4780
  902.5000   857.4410    11.6630     9.3600    11.6850   -57.7410     8.5610    89.0370     0.0180     2.4760
  903.0000   858.1400    11.6810     9.3530    11.5750   -57.7320     8.5610    88.3480     0.0150     2.4780
  903.5000   858.8390    11.6870     9.3450    11.4580   -57.7470     8.5610    88.6320     0.0130     2.4820
  904.0000   859.5380    11.7150     9.3380    11.3410   -57.7550     8.5610    88.4680     0.0150     2.4870
  904.5000   860.2370    11.7460     9.3310    11.2590   -58.1210     8.5610    86.0210     0.0240     2.4920
  905.0000   860.9360    11.7780     9.3230    11.2430   -58.0760     8.5610    83.9250     0.0240     2.4950
  905.5000   861.6350    11.8100     9.3160    11.2240   -57.9730     8.5610    82.8870     0.0240     2.4940
  906.0000   862.3340    11.8410     9.3080    11.2050   -57.8510     8.5610    82.6080     0.0230     2.4910
  906.5000   863.0330    11.8720     9.3010    11.1860   -57.7420     8.5610    86.9030     0.0230     2.4900
  907.0000   863.7320    11.9020     9.2940    11.1680   -57.6280     8.5610    90.5540     0.0180     2.4810
  907.5000   864.4310    11.8500     9.2860    11.1490   -57.5140     8.5610    93.4260     0.0120     2.4710
  908.0000   865.1300    11.8050     9.2790    11.1300   -57.4010     8.5610    94.1570     0.0120     2.4670
  908.5000   865.8290    11.7630     9.2720    11.1110   -57.2890     8.5610    93.8570     0.0180     2.4890
  909.0000   866.5280    11.7200     9.2640    11.0920   -57.1740     8.5610    94.2820     0.0210     2.4990
  909.5000   867.2270    11.4680     9.2570    11.0730   -57.0630     8.5610    94.0420     0.0130     2.4950
  910.0000   867.9260    11.5140     9.2490    11.0540   -56.9520     8.5610    91.7300     0.0060     2.4830
  910.5000   868.6260    11.5480     9.2420    11.0540   -56.9460     8.5610    90.6630     0.0050     2.4720
  911.0000   869.3250    11.5840     9.2350    11.0530   -56.9700     8.5610    90.6140     0.0070     2.4780
  911.5000   870.0240    11.6230     9.2270    11.0530   -57.0110     8.5610    89.9600     0.0140     2.4850
  912.0000   870.7230    11.6650     9.2200    11.0530   -57.0480     8.5610    89.8790     0.0190     2.4860
  912.5000   871.4220    11.6850     9.2120    11.0530   -57.0860     8.5610    90.5540     0.0150     2.4840
  913.0000   872.1210    11.6530     9.2050    11.0540   -57.1230     8.5610    91.2060     0.0100     2.4810
  913.5000   872.8200    11.6230     9.1980    11.0520   -57.1610     8.5610    90.6930     0.0070     2.4790
  914.0000   873.5190    11.5940     9.1890    11.0500   -57.1990     8.5610    89.1050     0.0090     2.4740
  914.5000   874.2180    11.5640     9.1850    11.0550   -57.2360     8.5610    89.3130     0.0080     2.4680
  915.0000   874.9170    11.5350     9.1470    11.0600   -57.2760     8.5610    91.6690     0.0060     2.4630
  915.5000   875.6160    11.5050     9.0880    11.0670   -57.3100     8.5610    95.3320     0.0050     2.4570
  916.0000   876.3150    11.4700     9.0170    10.8650   -57.3360     8.5610    98.6450     0.0040     2.4540
  916.5000   877.0140    11.4700     8.9690    10.7600   -57.1340     8.5610    97.5100     0.0020     2.4630
  917.0000   877.7130    11.3170     8.8510    10.6270   -56.8740     8.5610    96.1660     0.0030     2.4750
  917.5000   878.4120    11.1630     8.7330    10.4960   -56.6140     8.5610    96.8220     0.0070     2.4870
  918.0000   879.1110    11.0100     8.6160    10.4420   -56.3610     8.5610    98.1030     0.0120     2.4930
  918.5000   879.8100    10.8500     8.4980    10.2630   -56.0930     8.5610    98.4870     0.0160     2.4990
  919.0000   880.5090    10.4550     8.3810    10.0750   -55.8500     8.5610    97.0170     0.0140     2.4990
  919.5000   881.2080    10.2150     8.2640     9.8440   -55.5820     8.5610    95.6750     0.0080     2.4960
  920.0000   881.9070    10.1490     8.1470     9.6430   -55.2910     8.5610    95.4270     0.0100     2.4950
  920.5000   882.6060    10.0830     8.0660     9.4410   -54.9300     8.5620    97.1950     0.0190     2.5010
  921.0000   883.3050    10.0170     7.9740     9.2400   -55.1610     8.5640    99.6740     0.0200     2.5070
  921.5000   884.0040     9.9510     7.8370     9.0150   -55.3440     8.5660   100.9300     0.0190     2.5090
  922.0000   884.7040     9.8900     7.7190     9.0150   -55.5540     8.5670   100.6660     0.0150     2.4990
  922.5000   885.4030     9.4920     7.6020     9.0150   -55.7590     8.5690   101.2840     0.0110     2.4950
  923.0000   886.1020     9.1830     7.4900     9.0150   -55.9610     8.5700   102.4910     0.0110     2.4940
