~VERSION INFORMATION
 VERS.                2.0:   CWLS LOG ASCII STANDARD - VERSION 2.0
 WRAP.                 NO:   ONE LINE PER DEPTH STEP
~WELL INFORMATION
#MNEM.UNIT      DATA TYPE    INFORMATION
#----------   ------------   ------------------------------
 STRT.F            0.0000:   START DEPTH
 STOP.F         3040.0000:   STOP DEPTH
 STEP.F            0.5000:   STEP LENGTH
 NULL.          -999.2500:   NO VALUE
 COMP. LAWRENCE ALLISON & ASSOCIATES:   COMPANY
 WELL. LAWRENCE NPR 3 "AX" #77-28:   WELL
 FLD .      NPR - WILDCAT:   FIELD
 LOC .      S28 T39N R78W:   LOCATION
 CNTY.            NATRONA:   COUNTY
 STAT.            WYOMING:   STATE
 CTRY. UNITED STATES OF AMERICA:   COUNTRY
 SRVC.      DRESSER ATLAS:   SERVICE COMPANY
 DATE.        19-OCT-1986:   LOGDATE
 API .     49025111150000:   API NUMBER
~CURVE INFORMATION
#MNEM.UNIT       API CODE    CURVE DESCRIPTION
#----------   ------------   ------------------------------
 DEPT.F                  :   
 TENR.LBS    07 635 01 00:   TENSION FROM RESISTIVITY
 RILD.OHMM   07 120 46 00:   DEEP INDUCTION RESISTIVITY
 RILM.OHMM   07 120 44 00:   INDUCTION LOG MEDIUM RESISTIVITY
 RFOC.OHMM   07 220 04 00:   RESISTIVITY FOCUSED LOG RES.
 SPR .MV     07 010 01 00:   SPONTANEOUS POTENTIAL
 GRR .GAPI   07 310 01 00:   GAMMA RAY FROM RESISTIVITY
 CNC .DEC    42 890 03 00:   NEUTRON POROSITY SANDSTONE
 RHOB.G/C3   45 350 01 00:   BULK DENSITY
 TEND.LBS    45 635 01 00:   TENSION FROM DENSITY LOG
 CORR.G/C3   45 356 01 00:   DENSITY CORRECTION
 CALD.IN     45 280 60 00:   CALIPER FROM DENSITY LOG
~PARAMETER INFORMATION
#MNEM.UNIT          VALUE    DESCRIPTION
#----------   ------------   ------------------------------
 EKB .F         5086.0000:   Kelly bushing
 EGL .F         5074.0000:   Ground level
 EDF .F            0.0000:   Drilling floor
 TD  .F         3025.0000:   Total depth
 DATE.        19-OCT-1986:   Date logged
 CLNT.            A2DTECH:   Client Code
 SL  . 967' FSL @ 763' FEL:   Surface Location
 PD  .                 GL:   Permanent Datum
 EPD .F              5074:   Elevation Permanent Datum
 LMF .                 KB:   Log Measured From
 DMF .                 KB:   Drilling Measured From
 DAPD.F                12:   Feet Above Permanent Datum
 DD  .F              3021:   Depth driller
 DL  .F              3025:   Depth logger
 BLI .F              3023:   Bottom log interval
 CS1 .IN            8.625:   Casing size
 CBD1.      8.625" @ 620':   Casing driller 1
 CBL1.F               615:   Casing logger 1
 BS1 .IN            7.875:   Bit size
 BSD1.F              3021:   Depth drilled with bit1
 DFT .        KCL/POLTMER:   Type fluid in hole
 DFD .                8.9:   Density
 DFV .                 38:   Viscosity
 DFPH.                9.5:   pH
 DFL .                 11:   Fluid loss
 MSS .           FLOWLINE:   Source of sample
 RMS .OHMM            .25:   Rm
 MST .F                65:   Rm Meas. temp.
 RMF .OHMM           .203:   Rmf
 MFST.F                65:   Rmf Meas. temp.
 RMC .OHMM            .31:   Rmc
 MCST.F                65:   Rmc Meas. temp.
 MFSS.               MEAS:   Source Rmf.
 MCSS.               CALC:   Source Rmc.
 RMB .OHMM           .136:   Rm. at BHT
 BHT .F               119:   BHT.
 TCS .HRS               5:   Time Circ. stopped
 MRT .F               119:   Maximum recorded temp.
 LUN .               6274:   Logging unit number
 LUL .               GLTE:   Logging unit location
 ENGI.             RAUTIO:   Recorded By
 WITN.             STRONG:   Witnessed by
 ORIG.         2.5" PRINT:   Origin of data
 UWI .     49025111150000:   Unique Well ID
 DICO. A2D TECHNOLOGIES, INC.:   Digitizing Company
~OTHER INFORMATION
~A    DEPT    TENR       RILD       RILM       RFOC        SPR         GRR       CNC       RHOB       TEND       CORR       CALD   
# ...
 2531.5000   -74.2470     9.0610     9.2330    10.3910   -70.9440   110.7390     0.2040     2.4730  -104.7760     0.0050    10.1780
 2532.0000   -72.1360     9.0340     9.2040    10.4210   -70.8330   109.9820     0.2100     2.4770  -103.2840     0.0140    10.1790
 2532.5000   -70.0250     9.0070     9.1750    10.4510   -70.7200   109.1210     0.2120     2.4880  -101.7910     0.0310    10.1800
 2533.0000   -67.9140     8.9800     9.1450    10.4810   -70.6080   106.6190     0.2130     2.5020  -100.0000     0.0450    10.1810
 2533.5000   -65.8030     8.9530     9.1160    10.5260   -70.4960   106.5510     0.2150     2.5050   -95.7890     0.0590    10.1810
 2534.0000   -63.6920     8.9260     9.0870    10.5120   -70.3840   107.2470     0.2140     2.5000   -90.5260     0.0690    10.1820
 2534.5000   -61.5810     8.8990     9.0570    10.4070   -70.2720   107.8590     0.2080     2.4950   -85.2630     0.0530    10.1830
 2535.0000   -59.4700     8.8710     9.0280    10.3020   -70.1610   108.4800     0.2080     2.4920   -80.0000     0.0280    10.1840
 2535.5000   -57.3590     8.8450     8.9990    10.1600   -70.0470   107.5900     0.2110     2.4950   -74.7370     0.0260    10.1850
 2536.0000   -55.2480     8.8210     8.9540    10.3160   -69.9350   106.6810     0.2140     2.4990   -69.4740     0.0260    10.1860
 2536.5000   -53.1370     8.7940     9.0260    10.5340   -69.8480   105.6790     0.2150     2.5030   -64.2110     0.0200    10.1870
 2537.0000   -51.0260     8.9130     9.1790    10.3340   -69.8660   106.3350     0.2120     2.5000   -60.0000     0.0000    10.1870
 2537.5000   -48.9150     9.0240     9.3320    10.1490   -69.8790   107.5860     0.2050     2.4790   -60.8230    -0.0150    10.1880
 2538.0000   -46.8040     9.1350     9.4850     9.9630   -69.8980   108.6670     0.2000     2.4780   -61.5080    -0.0200    10.1890
 2538.5000   -44.6930     9.2460     9.6380     9.8000   -69.9140   109.9560     0.1990     2.4800   -62.1940    -0.0220    10.1900
 2539.0000   -44.1180     9.3570     9.7910    10.6180   -69.9300   107.6980     0.1980     2.4820   -62.8790    -0.0170    10.1910
 2539.5000   -44.1180     9.4680     9.9440    11.3470   -69.9470   104.9070     0.1930     2.4720   -63.5650    -0.0120    10.1920
 2540.0000   -44.1180     9.5790    10.0980    12.3930   -69.9640   102.3830     0.1830     2.4650   -64.2500    -0.0070    10.1930
 2540.5000   -44.1180     9.6900    10.2510    12.0900   -69.9800   102.9450     0.1850     2.4650   -64.9360    -0.0020    10.1930
 2541.0000   -44.1180     9.8010    10.3460    11.5530   -69.9970   103.8990     0.1920     2.4650   -65.6210    -0.0050    10.1940
 2541.5000   -44.1180     9.9790    10.2360    11.1210   -70.0140   104.9900     0.2000     2.4590   -66.3070    -0.0090    10.1950
 2542.0000   -44.1180     9.9260    10.1250    11.4330   -70.0300   105.6210     0.2000     2.4580   -66.9920     0.0000    10.1960
 2542.5000   -44.1180     9.7960    10.0140    11.7400   -70.0470   106.4250     0.1960     2.4650   -67.6770     0.0100    10.1970
 2543.0000   -44.1180     9.6650     9.9030    11.5580   -70.0630   106.5570     0.1930     2.4770   -68.3630     0.0150    10.2030
 2543.5000   -44.1180     9.5350     9.7920    11.3380   -70.0800   106.8300     0.1950     2.4910   -69.0480     0.0080    10.2090
 2544.0000   -44.1180     9.4050     9.6810    11.1180   -70.0970   106.9920     0.2010     2.5010   -69.7340    -0.0010    10.2150
 2544.5000   -44.1180     9.2740     9.5700    10.8970   -70.1130   107.9300     0.2040     2.4940   -70.4190    -0.0020    10.2220
 2545.0000   -44.1180     9.1440     9.4590    10.6770   -70.1300   108.5990     0.2060     2.4910   -71.1050    -0.0010    10.2280
 2545.5000   -44.1180     9.0140     9.3480    10.4560   -70.1470   107.2070     0.2090     2.4910   -71.7900     0.0080    10.2340
 2546.0000   -44.1180     8.8830     9.2370    10.3220   -70.1630   105.0830     0.2080     2.4900   -72.4760     0.0180    10.2410
 2546.5000   -44.1180     8.7940     9.1170    10.2750   -70.1790   103.5560     0.2050     2.4890   -73.1610     0.0110    10.2470
 2547.0000   -44.1180     8.8690     9.2480    10.2290   -70.2000   106.1220     0.2080     2.4880   -73.8470    -0.0080    10.2530
 2547.5000   -44.1180     9.0130     9.3920    10.1600   -70.2080   108.9230     0.2110     2.4810   -74.5320    -0.0260    10.2590
 2548.0000   -44.1180     9.1570     9.5350    10.3460   -70.2250   107.2470     0.2120     2.4750   -75.2180    -0.0340    10.2660
 2548.5000   -44.1180     9.3000     9.6780    10.8440   -69.8620   104.7210     0.2070     2.4680   -75.9030    -0.0190    10.2720
 2549.0000   -44.1180     9.4440     9.8210    11.5040   -69.3680   102.1570     0.2060     2.4630   -76.5890    -0.0010    10.2780
 2549.5000   -44.1180     9.5880     9.9650    12.1710   -68.8720   100.4490     0.2060     2.4660   -77.2740     0.0160    10.2850
 2550.0000   -44.1180     9.7320    10.1080    11.9790   -68.3860   100.0870     0.2040     2.4660   -77.9600     0.0110    10.2910
 2550.5000   -44.1180     9.8760    10.2510    11.7850   -67.9030    99.5240     0.2020     2.4640   -78.6450     0.0050    10.2970
 2551.0000   -44.1180    10.0200    10.3940    11.5900   -67.3740    99.0000     0.2040     2.4530   -79.3310    -0.0020    10.3040
 2551.5000   -44.1180    10.1600    10.5340    11.3230   -67.0810    98.5000     0.2050     2.4420   -80.0000    -0.0080    10.3100
 2552.0000   -44.1180    10.1920    10.5430    11.3880   -66.8560    97.8960     0.2040     2.4330   -79.3340    -0.0150    10.3160
 2552.5000   -44.1180    10.2230    10.5800    11.4920   -66.5930    98.1300     0.2010     2.4330   -78.6840    -0.0210    10.3220
 2553.0000   -44.1180    10.2540    10.6170    11.5300   -66.3270    99.4490     0.1990     2.4330   -78.0340    -0.0290    10.3290
 2553.5000   -44.1180    10.2860    10.6540    11.5300   -66.0680   100.7060     0.2020     2.4330   -77.3830    -0.0280    10.3350
 2554.0000   -44.1180    10.3170    10.6920    11.5300   -65.8060   100.8480     0.2070     2.4260   -76.7330    -0.0070    10.3410
 2554.5000   -44.1180    10.3460    10.7260    11.5300   -65.5750    98.1010     0.2120     2.4180   -76.0830     0.0130    10.3480
 2555.0000   -44.1180    10.8570    11.1670    11.5300   -65.5670    95.4450     0.2150     2.4170   -75.4320     0.0370    10.3540
 2555.5000   -44.1180    11.3350    11.5790    11.9540   -65.5580    93.1980     0.2140     2.4200   -74.7820     0.0370    10.3600
 2556.0000   -44.1180    11.8120    11.9900    12.6190   -65.6210    91.9890     0.2040     2.4240   -74.1320     0.0120    10.3670
 2556.5000   -44.1180    12.6190    12.4020    13.9380   -65.8110    90.1070     0.1930     2.4510   -73.4810     0.0010    10.3730
 2557.0000   -44.1180    12.5260    12.8490    15.6480   -65.9980    88.3740     0.1820     2.4830   -72.8310     0.0200    10.3790
 2557.5000   -44.1180    12.2240    12.6910    17.1540   -66.1890    85.9710     0.1790     2.5110   -72.1810     0.0420    10.3850
 2558.0000   -44.1180    11.9230    12.3840    16.0710   -66.3790    85.9880     0.1850     2.5120   -71.5300     0.0650    10.3920
 2558.5000   -44.1180    11.6210    12.0770    14.5710   -66.5690    88.8150     0.1940     2.5060   -70.8800     0.0630    10.3980
 2559.0000   -44.1180    11.3200    11.7700    13.0720   -66.7590    91.8500     0.2030     2.4950   -70.2300     0.0580    10.4090
 2559.5000   -44.1180    11.0180    11.4630    12.2090   -66.9490    95.1070     0.2080     2.4950   -69.5790     0.0510    10.4190
 2560.0000   -44.1180    10.7170    11.1560    11.8720   -67.1390    97.1690     0.2090     2.5000   -68.9290     0.0450    10.4290
 2560.5000   -44.1180    10.4150    10.8480    11.5350   -67.3270    97.2400     0.2050     2.5080   -68.2790     0.0400    10.4400
 2561.0000   -44.1180    10.3060    10.5340    11.3230   -67.5210    97.4090     0.2010     2.5110   -67.6280     0.0300    10.4500
 2561.5000   -44.1180    10.2000    10.4370    11.5300   -67.7050    99.2170     0.1980     2.5120   -66.9780     0.0510    10.4600
