~VERSION INFORMATION
 VERS.                2.0:   CWLS LOG ASCII STANDARD - VERSION 2.0
 WRAP.                 NO:   ONE LINE PER DEPTH STEP
~WELL INFORMATION
#MNEM.UNIT      DATA TYPE    INFORMATION
#----------   ------------   ------------------------------
 STRT.F          200.0000:   START DEPTH
 STOP.F         3160.0000:   STOP DEPTH
 STEP.F            0.5000:   STEP LENGTH
 NULL.          -999.2500:   NO VALUE
 COMP.    FENIX & SCISSON:   COMPANY
 WELL. FENIX NPR 3 "AX" #72-3:   WELL
 FLD .             TEAPOT:   FIELD
 LOC .       S3 T38N R78W:   LOCATION
 CNTY.            NATRONA:   COUNTY
 STAT.            WYOMING:   STATE
 CTRY. UNITED STATES OF AMERICA:   COUNTRY
 SRVC.           BIRDWELL:   SERVICE COMPANY
 DATE.        10-JAN-1978:   LOGDATE
 API .     49025105530000:   API NUMBER
~CURVE INFORMATION
#MNEM.UNIT       API CODE    CURVE DESCRIPTION
#----------   ------------   ------------------------------
 DEPT.F                  :   
 CALD.IN     45 280 60 00:   CALIPER FROM DENSITY LOG
 GRD .GAPI   45 310 01 00:   GAMMA RAY FROM DENSITY LOG
 DEN .LBS    45 635 01 00:   BUCK DENSITY
 CORR.G/C3   45 356 01 00:   DENSITY CORRECTION
 SPR .MV     07 010 01 00:   SPONTANEOUS POTENTIAL
 ILD .OHMM   07 120 46 00:   DEEP INDUCTION RESISTIVITY
 ILM .OHMM   07 120 44 00:   INDUCTION LOG MEDIUM RESISTIVITY
~PARAMETER INFORMATION
#MNEM.UNIT          VALUE    DESCRIPTION
#----------   ------------   ------------------------------
 EKB .F         5164.0000:   Kelly bushing
 EGL .F         5153.0000:   Ground level
 TD  .F         3157.0000:   Total depth
 DATE.        10-JAN-1978:   Date logged
 CLNT.            A2DTECH:   Client Code
 SL  . 900' FNL & 900' FEL:   Surface Location
 PD  .                 GL:   Permanent Datum
 EPD .F              5153:   Elevation Permanent Datum
 LMF .                 KB:   Log Measured From
 DMF .                 KB:   Drilling Measured From
 DAPD.F                11:   Feet Above Permanent Datum
 DD  .F              3156:   Depth driller
 DL  .F              3157:   Depth logger
 BLI .F              3157:   Bottom log interval
 TLI .F               200:   Top log interval
 CS1 .IN            8.625:   Casing size
 CBD1.      8.625" @ 222':   Casing driller 1
 CBL1.F               220:   Casing logger 1
 BS1 .IN            7.875:   Bit size
 BSD1.F              3156:   Depth drilled with bit1
 DFT .                KCL:   Type fluid in hole
 DFD .                8.5:   Density
 DFV .                 36:   Viscosity
 DFPH.                 10:   pH
 DFL .                8.8:   Fluid loss
 MSS .           FLOWLINE:   Source of sample
 RMS .OHMM            1.4:   Rm
 MST .F                66:   Rm Meas. temp.
 RMF .OHMM            .85:   Rmf
 MFST.F                74:   Rmf Meas. temp.
 RMC .OHMM            1.4:   Rmc
 MCST.F                72:   Rmc Meas. temp.
 MFSS.               MEAS:   Source Rmf.
 MCSS.               MEAS:   Source Rmc.
 RMB .OHMM            .83:   Rm. at BHT
 BHT .F               112:   BHT.
 TCS .HRS               4:   Time Circ. stopped
 MRT .F               112:   Maximum recorded temp.
 LUN .               2958:   Logging unit number
 LUL .             CASPER:   Logging unit location
 ENGI.            POINTER:   Recorded By
 WITN.         HARRINGTON:   Witnessed by
 ORIG.           5" PRINT:   Origin of data
 UWI .     49025105530000:   Unique Well ID
 DICO. A2D TECHNOLOGIES, INC.:   Digitizing Company
~OTHER INFORMATION
~A   DEPT     CALD        GRD          DEN     CORR        SPR        ILD        ILM   
# ...
 1929.0000     9.9435   115.1245     2.4998     0.0374   -56.6324    11.8687     9.7812
 1929.5000     9.9431   115.3255     2.4958     0.0374   -56.8342    11.8673     9.7801
 1930.0000     9.9428   115.5265     2.4958     0.0394   -56.6384    11.8659     9.6892
 1930.5000     9.9424   115.5295     2.4948     0.0414   -56.6414    11.8645     9.5992
 1931.0000     9.9421   114.9384     2.4948     0.0454   -56.6444    11.8631     9.7766
 1931.5000     9.9417   114.9413     2.4908     0.0474   -56.6474    11.8617     9.7754
 1932.0000     9.9414   115.1423     2.4768     0.0454   -56.6504    11.8603     9.5958
 1932.5000     9.9410   114.9473     2.4788     0.0455   -56.8522    11.8588     9.8635
 1933.0000     9.9407   115.5443     2.4798     0.0435   -56.8552    11.8574     9.7719
 1933.5000     9.9403   116.9335     2.4838     0.0415   -56.8582    11.8560     9.5924
 1934.0000     9.9400   116.9364     2.4918     0.0395   -57.0600    11.8546     9.9512
 1934.5000     9.9396   115.7513     2.4968     0.0415   -56.8642    11.8532     9.7684
 1935.0000     9.9393   112.7839     2.4969     0.0415   -57.0660    11.8518     9.7672
 1935.5000     9.9389   110.8066     2.4959     0.0416   -56.8702    11.8504     9.7660
 1936.0000     9.9386   109.8194     2.4959     0.0456   -56.4756    11.8490     9.4987
 1936.5000     9.9382   109.2283     2.4959     0.0496   -56.8762    11.8479     9.3242
 1937.0000     9.9378   110.2214     2.4889     0.0536   -56.8792    11.7378     9.3231
 1937.5000     9.9375   113.3928     2.4829     0.0536   -56.8822    11.6288     8.8207
 1938.0000     9.9371   115.9701     2.4869     0.0556   -56.4876    11.5208     8.3454
 1938.5000     9.9368   116.5671     2.4859     0.0596   -56.0930    11.4138     7.8957
 1939.0000     9.9364   117.1642     2.4839     0.0657   -55.6984    11.3078     7.3338
 1939.5000     9.9361   117.5632     2.4739     0.0717   -55.5026    11.2028     7.3329
 1940.0000     9.9357   117.5662     2.4639     0.0817   -55.5056    10.7962     7.3320
 1940.5000     9.9354   117.7672     2.4629     0.0637   -55.3098    10.9956     7.1973
 1941.0000     9.9350   118.1662     2.4569     0.0357   -55.3128    10.9943     7.0650
 1941.5000     9.9347   119.1593     2.4689     0.0377   -55.1170    11.1973     6.9352
 1942.0000     9.9343   119.9543     2.4969     0.0458   -55.3188    11.1960     6.8708
 1942.5000     9.9340   121.3435     2.4809     0.0518   -55.1230    11.1949     7.2604
 1943.0000     9.9336   121.5445     2.4769     0.0578   -55.1254    11.0908     7.6017
 1943.5000     9.9333   121.9435     2.4719     0.0498   -54.9296    11.0895     7.6008
 1944.0000     9.9329   122.1445     2.4699     0.0498   -55.1314    11.0882     7.9583
 1944.5000     9.9326   122.5435     2.4729     0.0518   -55.3333    11.1895     7.5991
 1945.0000     9.9322   122.5465     2.4960     0.0558   -55.3363    11.2917     7.5982
 1945.5000     9.9318   120.9652     2.4830     0.0559   -55.5381    11.2903     7.8825
 1946.0000     9.9315   118.3939     2.4810     0.0539   -55.3423    11.1855     7.8816
 1946.5000     9.9311   116.6146     2.4830     0.0479   -55.5441    11.0816     7.8806
 1947.0000     9.9308   120.5781     2.4830     0.0339   -55.5471    11.0802     7.8796
 1947.5000     9.9304   125.3331     2.4950     0.0319   -55.7489    11.0789     7.8787
 1948.0000     9.9301   133.8511     2.5020     0.0319   -55.3543    11.0776     7.8777
 1948.5000     9.9297   145.5349     2.4870     0.0300   -55.5561    11.0763     7.8046
 1949.0000     9.9294   148.7057     2.4800     0.0260   -55.5591    11.0750     7.6611
 1949.5000     9.9290   141.5830     2.4740     0.0300   -55.5621    11.0737     7.6602
 1950.0000     9.9287   136.4373     2.4710     0.0320   -55.5651    11.0723     8.0946
 1950.5000     9.9283   126.3410     2.4610     0.0500   -55.5681    10.9695     7.6584
 1951.0000     9.9280   122.9782     2.4370     0.0620   -55.5711    10.8676     7.3804
 1951.5000     9.9276   121.0009     2.4290     0.0780   -55.1765    10.6461     7.1125
 1952.0000     9.9273   119.8157     2.4280     0.0981   -55.3783    10.6449     6.8543
 1952.5000     9.9269   119.4226     2.4230     0.1021   -55.1825    10.6436     6.4849
 1953.0000     9.9265   117.8414     2.4190     0.1021   -55.1855    10.6423     6.4246
 1953.5000     9.9262   115.6661     2.4100     0.1061   -55.1885    10.6413     6.4238
 1954.0000     9.9258   114.6790     2.4000     0.1061   -55.3903    10.5633     6.6031
 1954.5000     9.9255   114.6819     2.3880     0.0881   -55.7909    10.3699     6.6634
 1955.0000     9.9251   115.0809     2.3740     0.0121   -55.5951    10.3686     6.6626
 1955.5000     9.9248   117.2622     2.3730     0.0122   -55.5981    10.4634     6.6617
 1956.0000     9.9244   117.8592     2.3680     0.0202   -55.6011    10.6567     6.7848
 1956.5000     9.9241   117.2681     2.4211     0.0262   -55.8029    10.4609     7.1038
 1957.0000     9.9237   114.6968     2.4231     0.0362   -55.6083    10.4596     7.5762
 1957.5000     9.9234   111.5314     2.4301     0.0462   -55.8089    10.4584     7.3688
 1958.0000     9.9230   108.5640     2.4241     0.0602   -55.2155    10.5539     7.1673
 1958.5000     9.9227   107.1808     2.4171     0.0683   -55.4173    10.3601     6.5353
 1959.0000     9.9223   106.3916     2.4001     0.0783   -55.6185    10.2638     5.6910
 1959.5000     9.9220   104.6124     2.3901     0.0903   -55.8203    10.1685     4.9558
 1960.0000     9.9216   103.4272     2.3631     0.1143   -56.0221    10.0740     4.6031
 1960.5000     9.9213    99.6683     2.3531     0.1643   -56.0251     9.9804     4.4770
 1961.0000     9.9209    97.2950     2.3151     0.1584   -56.0281     9.9792     4.4764
 1961.5000     9.9205    93.3375     2.3081     0.0884   -55.4347     9.9780     4.4759
 1962.0000     9.9202    94.1325     2.2961     0.0524   -55.2389     9.9768     4.5586
 1962.5000     9.9198    97.1059     2.3605     0.0544   -55.2419    10.1612     4.6858
 1963.0000     9.8989   103.0490     2.4249     0.0684   -55.4437    10.4447     5.0903
 1963.5000     9.8596   112.5571     2.4791     0.0804   -55.6455    10.4435     5.7906
 1964.0000     9.8599   118.8969     2.4781     0.0764   -55.6485    10.4423     6.5872
 1964.5000     9.8602   118.5038     2.4731     0.0585   -55.6515    10.9333     7.1559
 1965.0000     9.8605   116.7246     2.4721     0.0445   -55.6545    11.0335     7.7737
 1965.5000     9.8608   114.1532     2.4781     0.0525   -55.6575    10.9310     7.9904
 1966.0000     9.8611   111.1858     2.5052     0.0585   -55.6605    11.3400     7.8438
 1966.5000     9.8614   110.3967     2.5062     0.0165   -56.2599    11.3387     7.9154
 1967.0000     9.8617   110.2016     2.4472     0.0085   -56.6605    11.4423     8.2876
 1967.5000     9.8620   110.7987     2.4482     0.0085   -56.6635    11.6537     8.3633
 1968.0000     9.8623   112.1878     2.5112     0.0085   -56.6665    11.9790     8.5967
 1968.5000     9.8626   113.5770     2.4832     0.0106   -56.6695    11.7588     8.9187
 1969.0000     9.8629   115.1641     2.4782     0.0226   -56.6725    11.7574     9.0835
 1969.5000     9.8632   116.5533     2.4612     0.0306   -56.6755    11.7560     9.0824
 1970.0000     9.8635   117.3483     2.4532     0.0426   -57.4737    11.7546     9.0813
 1970.5000     9.8638   120.7177     2.4542     0.0486   -56.8803    11.6454     8.9963
 1971.0000     9.8641   122.7009     2.4572     0.0567   -56.6845    11.5372     8.9641
 1971.5000     9.8644   123.1000     2.4562     0.0667   -56.6875    11.4301     8.9322
 1972.0000     9.8647   123.1029     2.4532     0.0767   -56.6905    11.7491     8.9114
 1972.5000     9.8649   124.4921     2.4502     0.0867   -56.0971    11.4273     8.6671
 1973.0000     9.8652   126.8707     2.4372     0.0827   -55.3049    11.3212     8.0502
 1973.5000     9.8655   131.0322     2.4322     0.0907   -55.3079    11.1131     7.3406
 1974.0000     9.8658   135.7878     2.4392     0.1008   -55.3109    11.0098     6.5712
