~VERSION INFORMATION
 VERS.                2.0:   CWLS LOG ASCII STANDARD - VERSION 2.0
 WRAP.                 NO:   ONE LINE PER DEPTH STEP
~WELL INFORMATION
#MNEM.UNIT      DATA TYPE    INFORMATION
#----------   ------------   ------------------------------
 STRT.F            0.5000:   START DEPTH
 STOP.F         4128.0000:   STOP DEPTH
 STEP.F            0.5000:   STEP LENGTH
 NULL.          -999.2500:   NO VALUE
 COMP. LAWRENCE ALLISON ASSOC WEST:   COMPANY
 WELL. LAWRENCE NPR "AX" #12-33:   WELL
 FLD .      NPR - WILDCAT:   FIELD
 LOC .      S33 T39N R78W:   LOCATION
 CNTY.            NATRONA:   COUNTY
 STAT.            WYOMING:   STATE
 CTRY. UNITED STATES OF AMERICA:   COUNTRY
 SRVC.      DRESSER ATLAS:   SERVICE COMPANY
 DATE.        04-AUG-1984:   LOGDATE
 API .     49025109720000:   API NUMBER
~CURVE INFORMATION
#MNEM.UNIT       API CODE    CURVE DESCRIPTION
#----------   ------------   ------------------------------
 DEPT.F                  :   
 CORR.G/C3   45 356 01 00:   DENSITY CORRECTION
 TEND.LBS    45 635 01 00:   TENSION FROM DENSITY LOG
 RHOB.G/C3   45 350 01 00:   BULK DENSITY
 GRR .GAPI   07 310 01 00:   GAMMA RAY FROM RESISTIVITY
 SPR .MV     07 010 01 00:   SPONTANEOUS POTENTIAL
 RFOC.OHMM   07 220 04 00:   RESISTIVITY FOCUSED LOG RES.
 RILM.OHMM   07 120 44 00:   RESISTIVITY INDUCTION LOG MEDIUM
 RILD.OHMM   07 120 46 00:   RESISTIVITY INDUCTION LOG MEDIUM
 TENR.LBS    07 635 01 00:   TENSION FROM RESISTIVITY
 CALR.IN     07 280 01 00:   CALIPER FROM RESISTIVITY
 DT  .US/F   60 520 00 00:   DELTA TIME
 TENS.LBS    60 635 01 00:   TENSION FROM SONIC
 SPHI.DEC    60 890 00 00:   SONIC POROSITY
~PARAMETER INFORMATION
#MNEM.UNIT          VALUE    DESCRIPTION
#----------   ------------   ------------------------------
 EKB .F         5170.0000:   Kelly bushing
 EGL .F         5157.0000:   Ground level
 EDF .F            0.0000:   Drilling floor
 TD  .F         4121.0000:   Total depth
 DATE.        04-AUG-1984:   Date logged
 CLNT.            A2DTECH:   Client Code
 SL  . 857' FNL & 751' FWL:   Surface Location
 PD  .                 GL:   Permanent Datum
 EPD .F              5157:   Elevation Permanent Datum
 LMF .                 KB:   Log Measured From
 DMF .                 KB:   Drilling Measured From
 DAPD.F                13:   Feet Above Permanent Datum
 DD  .F              4120:   Depth driller
 DL  .F              4121:   Depth logger
 BLI .F              4119:   Bottom log interval
 CS1 .IN            8.625:   Casing size
 CBD1.      8.625" @ 625':   Casing driller 1
 CBL1.F               624:   Casing logger 1
 BS1 .IN            7.875:   Bit size
 BSD1.F              4120:   Depth drilled with bit1
 DFT .            GEL/KCL:   Type fluid in hole
 DFD .                9.1:   Density
 DFV .                 40:   Viscosity
 DFPH.                8.5:   pH
 DFL .                 11:   Fluid loss
 MSS .               TANK:   Source of sample
 RMS .OHMM           .302:   Rm
 MST .F                84:   Rm Meas. temp.
 RMF .OHMM            .22:   Rmf
 MFST.F                84:   Rmf Meas. temp.
 RMC .OHMM            .38:   Rmc
 MCST.F                84:   Rmc Meas. temp.
 MFSS.               CALC:   Source Rmf.
 MCSS.               CALC:   Source Rmc.
 RMB .OHMM            .19:   Rm. at BHT
 BHT .F               132:   BHT.
 TCS .HRS               4:   Time Circ. stopped
 MRT .F               132:   Maximum recorded temp.
 LUN .               6307:   Logging unit number
 LUL .               GLTE:   Logging unit location
 ENGI.           FAHLSING:   Recorded By
 WITN.       ROBERT SCOTT:   Witnessed by
 ORIG.           5" PRINT:   Origin of data
 UWI .     49025109720000:   Unique Well ID
 DICO. A2D TECHNOLOGIES, INC.:   Digitizing Company
~OTHER INFORMATION
~A    DEPT    CORR       TEND       RHOB         GRR       SPR       RFOC       RILM       RILD       TENR       CALR         DT       TENS       SPHI   
# ...
 1092.5000  -999.2500  -999.2500  -999.2500   111.0350   -39.9690     7.5130     7.0490     6.6590   -35.2150     8.4200  -999.2500  -999.2500  -999.2500
 1093.0000  -999.2500  -999.2500  -999.2500   112.8230   -39.6980     7.4340     6.9890     6.5950   -35.2150     8.4200  -999.2500  -999.2500  -999.2500
 1093.5000  -999.2500  -999.2500  -999.2500   114.6540   -39.4270     7.3550     6.9290     6.5300   -35.2150     8.4200  -999.2500  -999.2500  -999.2500
 1094.0000  -999.2500  -999.2500  -999.2500   115.7180   -39.1570     7.2760     6.8690     6.4650   -35.2150     8.4200  -999.2500  -999.2500  -999.2500
 1094.5000  -999.2500  -999.2500  -999.2500   113.5210   -38.9400     7.1970     6.8090     6.4000   -35.2150     8.4200  -999.2500  -999.2500  -999.2500
 1095.0000  -999.2500  -999.2500  -999.2500   111.4000   -38.9450     7.0970     6.7490     6.3360   -35.2150     8.4200  -999.2500  -999.2500  -999.2500
 1095.5000  -999.2500  -999.2500  -999.2500   109.8300   -39.0160     7.0710     6.6910     6.2740   -35.2150     8.4200  -999.2500  -999.2500  -999.2500
 1096.0000  -999.2500  -999.2500  -999.2500   110.6880   -39.1440     7.0710     6.6910     6.2740   -35.2150     8.4190  -999.2500  -999.2500  -999.2500
 1096.5000  -999.2500  -999.2500  -999.2500   112.9780   -39.1340     7.0710     6.6910     6.2740   -35.2150     8.4170  -999.2500  -999.2500  -999.2500
 1097.0000  -999.2500  -999.2500  -999.2500   115.2220   -39.0020     7.0830     6.6810     6.2740   -35.2150     8.4160  -999.2500  -999.2500  -999.2500
 1097.5000  -999.2500  -999.2500  -999.2500   117.2400   -38.2740     7.1100     6.6590     6.2740   -35.2150     8.4150  -999.2500  -999.2500  -999.2500
 1098.0000  -999.2500  -999.2500  -999.2500   115.2730   -37.7590     7.1360     6.6380     6.2740   -35.2150     8.4130  -999.2500  -999.2500  -999.2500
 1098.5000  -999.2500  -999.2500  -999.2500   111.7590   -37.9680     7.1620     6.6160     6.2740   -35.2150     8.4120  -999.2500  -999.2500  -999.2500
 1099.0000  -999.2500  -999.2500  -999.2500   108.6740   -38.1660     7.1890     6.5940     6.3110   -35.2150     8.4100  -999.2500  -999.2500  -999.2500
 1099.5000  -999.2500  -999.2500  -999.2500   109.7400   -38.3640     7.2020     6.5720     6.3650   -35.2150     8.4090  -999.2500  -999.2500  -999.2500
 1100.0000  -999.2500  -999.2500  -999.2500   110.8400   -38.5640     7.2020     6.5500     6.4190   -35.2150     8.4080  -999.2500  -999.2500  -999.2500
 1100.5000  -999.2500  -999.2500  -999.2500   111.9340   -38.7630     7.2020     6.5290     6.4730   -35.2150     8.4060  -999.2500  -999.2500  -999.2500
 1101.0000  -999.2500  -999.2500  -999.2500   113.0570   -38.9630     7.2020     6.5090     6.5270   -35.2150     8.4050  -999.2500  -999.2500  -999.2500
 1101.5000  -999.2500  -999.2500  -999.2500   113.2980   -39.1630     7.2020     6.6050     6.5820   -35.2150     8.4040  -999.2500  -999.2500  -999.2500
 1102.0000  -999.2500  -999.2500  -999.2500   111.1220   -39.3630     7.2010     6.6920     6.6360   -35.2150     8.4020  -999.2500  -999.2500  -999.2500
 1102.5000  -999.2500  -999.2500  -999.2500   108.7090   -39.5630     7.2910     6.7790     6.6900   -35.2150     8.4010  -999.2500  -999.2500  -999.2500
 1103.0000  -999.2500  -999.2500  -999.2500   107.4240   -39.7620     7.3710     6.8650     6.7440   -35.2150     8.3880  -999.2500  -999.2500  -999.2500
 1103.5000  -999.2500  -999.2500  -999.2500   109.2370   -39.9620     7.4510     6.9520     6.7980   -35.2150     8.3720  -999.2500  -999.2500  -999.2500
 1104.0000  -999.2500  -999.2500  -999.2500   110.9500   -40.1610     7.5300     7.0390     6.8520   -35.2150     8.3600  -999.2500  -999.2500  -999.2500
 1104.5000  -999.2500  -999.2500  -999.2500   111.8670   -40.3360     7.6100     7.1260     6.8780   -35.2150     8.3600  -999.2500  -999.2500  -999.2500
 1105.0000  -999.2500  -999.2500  -999.2500   110.7290   -40.3370     7.6900     7.2020     6.8780   -35.2150     8.3670  -999.2500  -999.2500  -999.2500
 1105.5000  -999.2500  -999.2500  -999.2500   109.9910   -40.2870     7.7700     7.2020     6.8780   -35.2150     8.3760  -999.2500  -999.2500  -999.2500
 1106.0000  -999.2500  -999.2500  -999.2500   111.8720   -39.8960     7.8240     7.1580     6.8780   -35.2150     8.3800  -999.2500  -999.2500  -999.2500
 1106.5000  -999.2500  -999.2500  -999.2500   115.0930   -39.5000     7.6370     7.1180     6.7840   -35.2150     8.3800  -999.2500  -999.2500  -999.2500
 1107.0000  -999.2500  -999.2500  -999.2500   118.2460   -39.1050     7.4960     7.0790     6.6870   -35.2150     8.3640  -999.2500  -999.2500  -999.2500
 1107.5000  -999.2500  -999.2500  -999.2500   119.7890   -38.7100     7.3550     7.0390     6.5900   -35.2150     8.3450  -999.2500  -999.2500  -999.2500
 1108.0000  -999.2500  -999.2500  -999.2500   120.0590   -38.3150     7.2130     7.0000     6.4940   -35.2150     8.3410  -999.2500  -999.2500  -999.2500
 1108.5000  -999.2500  -999.2500  -999.2500   118.9740   -37.9200     7.0720     6.9600     6.3970   -35.2150     8.3430  -999.2500  -999.2500  -999.2500
 1109.0000  -999.2500  -999.2500  -999.2500   119.0050   -37.5270     7.0060     6.9210     6.3000   -35.2150     8.3610  -999.2500  -999.2500  -999.2500
 1109.5000  -999.2500  -999.2500  -999.2500   119.6940   -37.1340     7.0140     6.8810     6.2190   -35.2150     8.3800  -999.2500  -999.2500  -999.2500
 1110.0000  -999.2500  -999.2500  -999.2500   120.5490   -36.7470     7.0740     6.8420     6.2350   -35.2150     8.3760  -999.2500  -999.2500  -999.2500
 1110.5000  -999.2500  -999.2500  -999.2500   116.4830   -36.7750     7.1340     6.8150     6.2520   -35.2150     8.3700  -999.2500  -999.2500  -999.2500
 1111.0000  -999.2500  -999.2500  -999.2500   111.0200   -37.5200     7.1940     6.7530     6.2690   -35.2150     8.3650  -999.2500  -999.2500  -999.2500
 1111.5000  -999.2500  -999.2500  -999.2500   109.7020   -38.2380     7.2540     6.7530     6.2860   -35.2150     8.3610  -999.2500  -999.2500  -999.2500
 1112.0000  -999.2500  -999.2500  -999.2500   113.8170   -38.9530     7.3360     6.7400     6.3030   -35.2150     8.3670  -999.2500  -999.2500  -999.2500
 1112.5000  -999.2500  -999.2500  -999.2500   117.3370   -39.6670     7.3360     6.7220     6.3190   -35.2150     8.3720  -999.2500  -999.2500  -999.2500
 1113.0000  -999.2500  -999.2500  -999.2500   116.2490   -40.1460     7.3360     6.7050     6.3360   -35.2150     8.3770  -999.2500  -999.2500  -999.2500
 1113.5000  -999.2500  -999.2500  -999.2500   112.7050   -40.1370     7.3360     6.6870     6.3530   -35.2150     8.3820  -999.2500  -999.2500  -999.2500
 1114.0000  -999.2500  -999.2500  -999.2500   109.7210   -40.1280     7.2440     6.6690     6.3700   -35.2150     8.3880  -999.2500  -999.2500  -999.2500
 1114.5000  -999.2500  -999.2500  -999.2500   110.3400   -40.4830     7.1470     6.6520     6.3860   -35.2150     8.3940  -999.2500  -999.2500  -999.2500
 1115.0000  -999.2500  -999.2500  -999.2500   111.4350   -40.9360     7.0510     6.6340     6.3900   -35.2150     8.4000  -999.2500  -999.2500  -999.2500
 1115.5000  -999.2500  -999.2500  -999.2500   112.5000   -40.9590     6.9540     6.6300     6.3900   -35.2150     8.3910  -999.2500  -999.2500  -999.2500
 1116.0000  -999.2500  -999.2500  -999.2500   115.3730   -40.6570     6.8150     6.6300     6.3900   -35.2150     8.3810  -999.2500  -999.2500  -999.2500
 1116.5000  -999.2500  -999.2500  -999.2500   119.5980   -40.3580     6.8250     6.6300     6.3900   -35.2150     8.3710  -999.2500  -999.2500  -999.2500
 1117.0000  -999.2500  -999.2500  -999.2500   123.8780   -40.0540     6.8410     6.6290     6.3910   -35.2150     8.3610  -999.2500  -999.2500  -999.2500
 1117.5000  -999.2500  -999.2500  -999.2500   125.7950   -39.7120     6.8580     6.6360     6.3790   -35.2150     8.3550  -999.2500  -999.2500  -999.2500
 1118.0000  -999.2500  -999.2500  -999.2500   121.1590   -39.5510     6.8750     6.5630     6.3590   -35.2150     8.3500  -999.2500  -999.2500  -999.2500
