~VERSION INFORMATION
 VERS.                2.0:   CWLS LOG ASCII STANDARD - VERSION 2.0
 WRAP.                 NO:   ONE LINE PER DEPTH STEP
~WELL INFORMATION
#MNEM.UNIT      DATA TYPE    INFORMATION
#----------   ------------   ------------------------------
 STRT.F          208.0000:   START DEPTH
 STOP.F         2980.0000:   STOP DEPTH
 STEP.F            0.5000:   STEP LENGTH
 NULL.          -999.2500:   NO VALUE
 COMP. FENIX & SCISSON INC:   COMPANY
 WELL. FENIX  32AX #28-28:   WELL
 FLD .        TEAPOT DOME:   FIELD
 LOC .      S28 T39N R78W:   LOCATION
 CNTY.            NATRONA:   COUNTY
 STAT.            WYOMING:   STATE
 CTRY. UNITED STATES OF AMERICA:   COUNTRY
 SRVC.           BIRDWELL:   SERVICE COMPANY
 DATE.        09-OCT-1977:   LOGDATE
 API .     49025104430000:   API NUMBER
~CURVE INFORMATION
#MNEM.UNIT       API CODE    CURVE DESCRIPTION
#----------   ------------   ------------------------------
 DEPT.F                  :   
 SPR .MV     05 010 01 00:   SPONTANEOUS POTENTIAL
 ILD .OHMM   05 120 46 00:   DEEP INDUCTION RESISTIVITY
 SN  .OHMM   05 040 16 00:   SHORT NORMAL
 GRD .GAPI   45 310 01 00:   GAMMA RAY FROM DENSITY LOG
 CALD.IN     45 280 60 00:   CALIPER FROM DENSITY LOG
 CORR.G/C3   45 356 01 00:   DENSITY CORRECTION
 DEN .G/C3   45 350 01 00:   BULK DENSITY
~PARAMETER INFORMATION
#MNEM.UNIT          VALUE    DESCRIPTION
#----------   ------------   ------------------------------
 EKB .F         5005.0000:   Kelly bushing
 EGL .F         4995.0000:   Ground level
 EDF .F            0.0000:   Drilling floor
 EPD .F         4995.0000:   Permanent datum
 TD  .F         2980.0000:   Total depth
 DATE.        09-OCT-1977:   Date logged
 CLNT.            A2DTECH:   Client Code
 SL  . 990' FNL & 1650' FWL:   Surface Location
 PD  .                 GL:   Permanent Datum
 DAPD.F                10:   Feet Above Permanent Datum
 DD  .F              2980:   Depth driller
 DL  .F              2979:   Depth logger
 BLI .F              2974:   Bottom log interval
 TLI .F               221:   Top log interval
 CS1 .IN            8.625:   Casing size
 CBD1.      8.625" @ 211':   Casing driller 1
 CBL1.F               221:   Casing logger 1
 BS1 .IN            7.875:   Bit size
 BSD1.F              2980:   Depth drilled with bit1
 DFT .            KCL GEL:   Type fluid in hole
 DFD .                8.8:   Density
 DFV .                 33:   Viscosity
 DFPH.                 11:   pH
 DFL .                6.4:   Fluid loss
 MSS .           FLOWLINE:   Source of sample
 RMS .OHMM            .52:   Rm
 MST .F                59:   Rm Meas. temp.
 RMF .OHMM            .67:   Rmf
 MFST.F                54:   Rmf Meas. temp.
 RMC .OHMM            .45:   Rmc
 MCST.F                56:   Rmc Meas. temp.
 MFSS.               MEAS:   Source Rmf.
 MCSS.               MEAS:   Source Rmc.
 RMB .OHMM            .35:   Rm. at BHT
 BHT .F                91:   BHT.
 TCS .HRS               3:   Time Circ. stopped
 MRT .F                91:   Maximum recorded temp.
 LUN .               2958:   Logging unit number
 LUL .             CASPER:   Logging unit location
 ENGI.                LAW:   Recorded By
 WITN.       W. PENINGELL:   Witnessed by
 ORIG.           5" PRINT:   Origin of data
 UWI .     49025104430000:   Unique Well ID
 DICO. A2D TECHNOLOGIES, INC.:   Digitizing Company
~OTHER INFORMATION
~A   DEPT      SPR        ILD         SN         GRD      CALD       CORR        DEN   
# ...
 1664.0000   -48.3410     7.5740     8.2930   143.7030     8.4040     0.0230     2.5410
 1664.5000   -48.0880     7.4870     8.2070   144.0350     8.4040     0.0240     2.5470
 1665.0000   -47.9810     7.4670     8.2280   146.4590     8.4040     0.0210     2.5510
 1665.5000   -47.9810     7.4470     8.2560   145.7890     8.4040     0.0150     2.5350
 1666.0000   -47.9760     7.4270     8.2840   144.7950     8.4040     0.0140     2.5230
 1666.5000   -47.8250     7.4060     8.3110   145.0600     8.4040     0.0170     2.5280
 1667.0000   -47.6690     7.3860     8.3390   146.8580     8.4040     0.0200     2.5330
 1667.5000   -47.5540     7.3660     8.3590   149.2810     8.4040     0.0160     2.5340
 1668.0000   -47.4100     7.3510     8.2530   145.1270     8.4040     0.0110     2.5250
 1668.5000   -47.8900     7.3010     8.1530   141.0010     8.4040     0.0170     2.5240
 1669.0000   -48.6170     7.2450     8.0520   142.3370     8.3960     0.0180     2.5320
 1669.5000   -49.1790     7.1890     7.9840   140.1730     8.3830     0.0180     2.5290
 1670.0000   -48.6080     7.1510     7.8750   145.7290     8.3710     0.0210     2.5350
 1670.5000   -48.8030     7.0020     7.8070   146.8450     8.3610     0.0230     2.5410
 1671.0000   -48.9790     6.8900     7.7400   152.6650     8.3550     0.0190     2.5310
 1671.5000   -48.9250     6.7780     7.6720   156.0390     8.3480     0.0210     2.5240
 1672.0000   -48.8740     6.6450     7.6040   158.3180     8.3430     0.0250     2.5270
 1672.5000   -48.8240     6.7780     7.5360   157.9820     8.3380     0.0250     2.5270
 1673.0000   -48.7730     6.9520     7.4680   160.5100     8.3340     0.0340     2.5320
 1673.5000   -48.7230     7.1260     7.4010   157.7230     8.3290     0.0350     2.5420
 1674.0000   -48.6730     6.7910     7.3510   151.7850     8.3250     0.0300     2.5300
 1674.5000   -48.6200     6.4050     7.3290   151.1990     8.3240     0.0250     2.5210
 1675.0000   -48.4770     6.2880     7.3090   151.6270     8.3240     0.0280     2.5120
 1675.5000   -48.3360     6.3330     7.2840   150.4370     8.3240     0.0320     2.5170
 1676.0000   -48.2850     6.3820     7.4110   140.5790     8.3240     0.0340     2.5260
 1676.5000   -48.2380     6.4050     7.5270   146.6650     8.3240     0.0270     2.5300
 1677.0000   -48.1900     6.5370     7.5560   149.3080     8.3240     0.0200     2.5170
 1677.5000   -48.1420     6.6760     7.6320   149.1100     8.3240     0.0140     2.5180
 1678.0000   -48.0940     6.8320     7.8360   146.7720     8.3240     0.0200     2.5180
 1678.5000   -48.0450     6.9970     8.0400   150.8720     8.3240     0.0260     2.5140
 1679.0000   -47.9980     7.1630     8.2440   144.7780     8.3240     0.0300     2.5200
 1679.5000   -48.0360     7.4190     8.3590   146.8800     8.3240     0.0280     2.5110
 1680.0000   -48.2930     7.3870     8.3350   140.4900     8.3240     0.0280     2.5150
 1680.5000   -48.5460     7.3160     8.3110   145.3630     8.3240     0.0310     2.5140
 1681.0000   -48.7750     7.2460     8.2880   141.2880     8.3240     0.0290     2.5030
 1681.5000   -48.8320     7.1750     8.2650   138.5910     8.3240     0.0220     2.4930
 1682.0000   -48.8830     7.0860     8.2410   134.5510     8.3240     0.0240     2.4990
 1682.5000   -48.9350     7.1780     8.2070   129.6630     8.3240     0.0320     2.5090
 1683.0000   -48.9870     7.3720     8.2830   130.3410     8.3230     0.0350     2.5200
 1683.5000   -49.0380     7.5660     8.4220   132.0100     8.3220     0.0310     2.5290
 1684.0000   -49.0900     7.8390     8.5610   128.2990     8.3210     0.0300     2.5080
 1684.5000   -49.1430     7.6800     8.6720   129.9130     8.3200     0.0420     2.5130
 1685.0000   -49.1650     7.4190     8.5220   126.5360     8.3190     0.0540     2.5190
 1685.5000   -48.9290     7.7670     8.3970   130.7070     8.3180     0.0620     2.5240
 1686.0000   -48.6870     7.6800     8.2730   137.3410     8.3160     0.0570     2.5300
 1686.5000   -48.4460     7.4840     8.1480   145.0580     8.3150     0.0440     2.5230
 1687.0000   -48.2080     7.2880     8.0230   147.1040     8.3140     0.0230     2.5180
 1687.5000   -48.2500     7.0920     7.9840   143.7670     8.3130     0.0220     2.5180
 1688.0000   -48.3950     6.9570     7.9840   145.8520     8.3120     0.0230     2.5100
 1688.5000   -48.5410     6.9530     7.9840   148.4230     8.3100     0.0170     2.4940
 1689.0000   -48.5110     6.9420     7.9840   151.2970     8.3090     0.0100     2.4760
 1689.5000   -48.0660     6.9320     7.9630   156.1070     8.3080     0.0100     2.4860
 1690.0000   -47.8190     6.9210     7.9050   149.8020     8.3070     0.0150     2.4880
 1690.5000   -47.9400     6.9100     7.8470   147.1940     8.3060     0.0150     2.4850
 1691.0000   -48.2020     6.8930     7.7680   149.1080     8.3050     0.0180     2.4830
 1691.5000   -48.7520     6.8960     7.7740   149.4850     8.3050     0.0210     2.4890
 1692.0000   -49.1140     6.9020     7.7850   146.3940     8.3060     0.0220     2.4960
 1692.5000   -48.7350     6.9090     7.7960   145.4640     8.3080     0.0220     2.5000
 1693.0000   -49.0130     6.9150     7.8070   143.7420     8.3090     0.0200     2.4960
 1693.5000   -49.3840     6.9220     7.8180   144.7150     8.3100     0.0170     2.4920
 1694.0000   -49.3600     6.9280     7.8290   142.3510     8.3110     0.0160     2.4920
 1694.5000   -49.3080     6.9350     7.8390   138.9970     8.3130     0.0180     2.4940
 1695.0000   -49.2600     6.9410     7.8390   145.6570     8.3140     0.0200     2.4960
 1695.5000   -49.2120     6.9480     7.8060   142.7280     8.3150     0.0210     2.4980
 1696.0000   -49.1640     6.9540     7.7510   141.8170     8.3160     0.0230     2.4990
 1696.5000   -49.1160     6.9580     7.7060   144.8030     8.3180     0.0220     2.4960
 1697.0000   -49.0680     6.9590     7.5670   143.3140     8.3190     0.0240     2.4940
 1697.5000   -49.0180     6.9530     7.4040   148.1800     8.3200     0.0260     2.4940
 1698.0000   -48.9870     6.4300     7.2410   152.5090     8.3210     0.0340     2.4960
 1698.5000   -49.2630     5.8970     6.9680   146.0680     8.3230     0.0350     2.4960
 1699.0000   -48.7330     5.6140     6.5240   147.1660     8.3240     0.0340     2.4710
 1699.5000   -48.2160     5.3460     6.0980   145.6460     8.3240     0.0370     2.4580
 1700.0000   -48.3620     5.0770     5.6990   145.8700     8.3240     0.0960     2.5310
 1700.5000   -48.1840     4.8080     5.5810   147.8770     8.3240     0.0760     2.5200
 1701.0000   -47.9700     4.7310     5.4790   147.9570     8.3240     0.0450     2.5070
 1701.5000   -47.7820     4.8630     5.6050   144.9290     8.3240     0.0280     2.4950
 1702.0000   -47.8050     4.4940     5.7810   143.6600     8.3240     0.0330     2.4900
 1702.5000   -47.9920     4.1980     5.8970   145.4890     8.3240     0.0370     2.4960
 1703.0000   -48.1660     4.3830     5.7370   149.0380     8.3240     0.0420     2.4910
 1703.5000   -48.2720     4.6320     5.8970   144.1100     8.3240     0.0390     2.5050
 1704.0000   -48.0750     4.8800     5.8850   147.4920     8.3240     0.0270     2.4930
 1704.5000   -48.8790     5.1290     5.8430   152.8520     8.3240     0.0310     2.5040
 1705.0000   -49.1780     5.1850     6.0610   148.3130     8.3240     0.0370     2.5190
 1705.5000   -49.0090     5.1020     6.4050   152.1000     8.3240     0.0320     2.5100
 1706.0000   -49.2290     5.0450     6.3980   157.1480     8.3240     0.0260     2.4930
 1706.5000   -49.3010     5.1970     6.3890   154.0450     8.3240     0.0200     2.4850
 1707.0000   -49.3890     5.3790     6.3800   155.5000     8.3220     0.0200     2.4820
 1707.5000   -49.4830     5.3410     6.3710   161.5840     8.3210     0.0180     2.4710
 1708.0000   -49.5620     5.2770     6.3620   166.8740     8.3200     0.0210     2.4650
 1708.5000   -49.3690     5.2140     6.3530   155.0600     8.3180     0.0240     2.4670
 1709.0000   -49.1550     5.1510     6.3460   155.8440     8.3170     0.0200     2.4680
