~VERSION INFORMATION
 VERS.                2.0:   CWLS LOG ASCII STANDARD - VERSION 2.0
 WRAP.                 NO:   ONE LINE PER DEPTH STEP
~WELL INFORMATION
#MNEM.UNIT      DATA TYPE    INFORMATION
#----------   ------------   ------------------------------
 STRT.F          212.5000:   START DEPTH
 STOP.F         3098.0000:   STOP DEPTH
 STEP.F            0.5000:   STEP LENGTH
 NULL.          -999.2500:   NO VALUE
 COMP.    FENIX & SCISSON:   COMPANY
 WELL. FENIX NPR 77 "A" #3-33:   WELL
 FLD .                NPR:   FIELD
 LOC .      S33 T39N R78W:   LOCATION
 CNTY.            NATRONA:   COUNTY
 STAT.            WYOMING:   STATE
 CTRY. UNITED STATES OF AMERICA:   COUNTRY
 SRVC.       SCHLUMBERGER:   SERVICE COMPANY
 DATE.        07-MAY-1977:   LOGDATE
 API .     49025103700000:   API NUMBER
~CURVE INFORMATION
#MNEM.UNIT       API CODE    CURVE DESCRIPTION
#----------   ------------   ------------------------------
 DEPT.F                  :   
 SPR .MV     07 010 01 00:   SPONTANEOUS POTENTIAL
 LL8 .OHMM   11 220 08 00:   LATERALOG-8 RESISTIVITY
 ILD .OHMM   07 120 46 00:   DEEP INDUCTION RESISTIVITY
 CALD.IN     45 280 60 00:   CALIPER FROM DENSITY LOG
 GRD .GAPI   45 310 01 00:   GAMMA RAY FROM DENSITY LOG
 RHOB.G/C3   45 350 01 00:   BULK DENSITY
 CORR.G/C3   45 356 01 00:   DENSITY CORRECTION
 ILM .OHMM   07 120 44 00:   INDUCTION LOG MEDIUM RESISTIVITY
~PARAMETER INFORMATION
#MNEM.UNIT          VALUE    DESCRIPTION
#----------   ------------   ------------------------------
 EKB .F         5152.0000:   Kelly bushing
 EGL .F         5141.0000:   Ground level
 TD  .F         3097.0000:   Total depth
 DATE.        07-MAY-1977:   Date logged
 CLNT.            A2DTECH:   Client Code
 SL  . 990' FEL & 990' FSL:   Surface Location
 PD  .                 GL:   Permanent Datum
 EPD .F              5141:   Elevation Permanent Datum
 LMF .                 KB:   Log Measured From
 DMF .                 KB:   Drilling Measured From
 DAPD.F                11:   Feet Above Permanent Datum
 DD  .F              3096:   Depth driller
 DL  .F              3097:   Depth logger
 BLI .F              3091:   Bottom log interval
 TLI .F               222:   Top log interval
 CS1 .IN            8.625:   Casing size
 CBD1.      8.625" @ 200':   Casing driller 1
 CBL1.F               222:   Casing logger 1
 BS1 .IN            7.875:   Bit size
 BSD1.F              3096:   Depth drilled with bit1
 DFT .                KCL:   Type fluid in hole
 DFD .                9.2:   Density
 DFV .                 38:   Viscosity
 DFPH.                  8:   pH
 DFL .                7.6:   Fluid loss
 MSS .           FLOWLINE:   Source of sample
 RMS .OHMM           .191:   Rm
 MST .F                76:   Rm Meas. temp.
 RMF .OHMM           .185:   Rmf
 MFST.F                76:   Rmf Meas. temp.
 MFSS.               MEAS:   Source Rmf.
 RMB .OHMM           .126:   Rm. at BHT
 BHT .F               115:   BHT.
 TCS .HRS            1200:   Time Circ. stopped
 TLAB.HRS            1530:   Time logger at bottom
 MRT .F                15:   Maximum recorded temp.
 LUN .               6442:   Logging unit number
 LUL .               CSPR:   Logging unit location
 ENGI.             MARTIN:   Recorded By
 WITN.          PETTMGILL:   Witnessed by
 ORIG.      2.5" 5" PRINT:   Origin of data
 UWI .     49025103700000:   Unique Well ID
 DICO. A2D TECHNOLOGIES, INC.:   Digitizing Company
~OTHER INFORMATION
~A   DEPT      SPR        LL8        ILD       CALD         GRD      RHOB       CORR        ILM   
# ...
 1913.5000   -72.6450    14.5600    13.7190     8.5710   169.9780     2.4050     0.0730    13.0920
 1914.0000   -71.9940    13.8840    13.7850     8.5830   165.9700     2.4130     0.0790    12.8960
 1914.5000   -71.3450    14.5100    13.8510     8.5950   163.9530     2.4670     0.0930    12.9180
 1915.0000   -70.6960    15.4050    13.9170     8.6070   164.3050     2.5100     0.1060    12.9420
 1915.5000   -70.0270    15.7980    13.9830     8.6190   166.2440     2.5100     0.1050    12.9660
 1916.0000   -69.6980    15.3260    14.0120     8.6310   168.0220     2.5080     0.1050    12.9900
 1916.5000   -69.9450    14.0280    13.6470     8.6430   169.5430     2.5080     0.1050    13.0150
 1917.0000   -70.2890    12.7290    13.3340     8.6550   165.7940     2.5130     0.0990    13.0430
 1917.5000   -70.6350    11.6510    13.0200     8.6670   162.3720     2.5170     0.0860    13.0720
 1918.0000   -70.9790    12.0640    12.7070     8.6790   148.1280     2.5120     0.0740    13.1000
 1918.5000   -71.3220    13.8410    12.3930     8.6900   137.8440     2.5010     0.0610    13.1360
 1919.0000   -71.6660    15.6180    12.0790     8.7020   135.6340     2.4900     0.0570    12.8160
 1919.5000   -72.0090    17.3950    11.7590     8.7160   135.6210     2.4800     0.0650    12.4020
 1920.0000   -72.3530    18.4810    11.3610     8.6990   135.3010     2.4710     0.0670    11.9890
 1920.5000   -72.6960    17.1440    10.9550     8.6340   129.1180     2.4900     0.0590    11.5760
 1921.0000   -73.0340    14.8400    10.5480     8.5660   122.0630     2.4940     0.0890    11.1620
 1921.5000   -73.1210    12.5370    10.1420     8.5660   115.5520     2.4750     0.0800    10.7490
 1922.0000   -72.7100    11.0230     9.7350     8.6210   113.8620     2.4840     0.0660    10.3350
 1922.5000   -72.3100    11.0230     9.3290     8.6530   117.4900     2.5080     0.0560     9.9220
 1923.0000   -71.9100    11.0600     9.0250     8.6870   126.7270     2.4990     0.0650     9.5090
 1923.5000   -71.5080    11.1070     8.8820     8.7190   133.1210     2.4920     0.0720     9.2510
 1924.0000   -71.1070    11.1250     8.7390     8.7520   135.0740     2.5010     0.0800     9.2510
 1924.5000   -70.7060    11.0730     8.5960     8.7850   136.4560     2.5110     0.0790     9.2510
 1925.0000   -70.3050    10.8090     8.4520     8.8190   137.7800     2.5210     0.0770     9.2510
 1925.5000   -69.9020    10.5440     8.3090     8.8390   139.1710     2.5310     0.0770     9.0810
 1926.0000   -69.4870    10.3340     8.2030     8.8170   142.6850     2.5360     0.0840     8.9980
 1926.5000   -69.6880    10.2900     8.1060     8.7910   145.5620     2.5310     0.0880     8.6340
 1927.0000   -70.1260    10.2470     8.0090     8.7540   147.7450     2.5260     0.0880     8.2710
 1927.5000   -70.5620    10.1450     7.9110     8.7590   149.4410     2.5270     0.0810     8.0550
 1928.0000   -70.9970     9.6710     7.7630     8.7580   150.7710     2.5310     0.0740     7.9810
 1928.5000   -71.4350     9.2020     7.5510     8.7580   152.7950     2.5160     0.0660     7.9080
 1929.0000   -71.6380     8.7520     7.5460     8.7580   152.2780     2.5000     0.0650     7.9080
 1929.5000   -71.6000     9.0110     7.5390     8.7580   151.0990     2.5050     0.0690     7.9080
 1930.0000   -71.3100     9.4370     7.5330     8.7570   147.2060     2.5120     0.0740     7.9080
 1930.5000   -71.0140     9.5980     7.5260     8.7600   143.4670     2.5190     0.0770     7.9050
 1931.0000   -70.7200     9.5820     7.5200     8.7550   143.7800     2.5130     0.0740     7.9130
 1931.5000   -70.4360     9.5610     7.5140     8.7870   143.4090     2.5020     0.0710     7.8330
 1932.0000   -70.4620     9.5410     7.5070     8.8350   144.6750     2.5040     0.0680     7.7630
 1932.5000   -70.5370     9.5200     7.5010     8.9230   146.4580     2.5110     0.0650     7.7630
 1933.0000   -70.6160     9.5000     7.4940     8.9960   145.6420     2.5070     0.0700     7.7740
 1933.5000   -70.8120     9.4790     7.4880     9.0760   145.5690     2.4990     0.0780     7.7880
 1934.0000   -70.7990     9.4590     7.4820     9.1230   145.6860     2.4910     0.0770     7.8020
 1934.5000   -70.4650     9.4380     7.4820     9.0630   143.1320     2.4880     0.0720     7.8160
 1935.0000   -70.1310     9.4230     7.4820     8.9690   140.7210     2.4950     0.0680     7.8330
 1935.5000   -69.8010     9.3770     7.4670     8.8840   137.9930     2.5020     0.0630     7.8210
 1936.0000   -69.4700     9.3060     7.4340     8.8020   136.6320     2.4630     0.0580     7.7980
 1936.5000   -69.1400     9.2350     7.4010     8.7910   137.3520     2.4710     0.0540     7.7760
 1937.0000   -68.8070     9.1630     7.3680     8.7820   137.8280     2.4830     0.0510     7.7540
 1937.5000   -68.6780     8.9980     7.3340     8.7760   137.5550     2.4970     0.0560     7.7310
 1938.0000   -68.6780     9.1890     7.3010     8.7680   137.2700     2.5070     0.0640     7.7090
 1938.5000   -68.6280     9.4230     7.2680     8.7610   136.8320     2.5000     0.0640     7.6870
 1939.0000   -68.5710     9.3130     7.2350     8.7540   137.1770     2.4920     0.0590     7.6640
 1939.5000   -68.5120     9.1660     7.2100     8.7460   138.5360     2.4920     0.0560     7.6410
 1940.0000   -68.4540     9.2860     7.1190     8.7390   139.7510     2.5110     0.0690     7.6210
 1940.5000   -68.3960     9.3620     7.0650     8.7320   140.1880     2.5290     0.0750     7.5510
 1941.0000   -68.3360     9.4390     7.0110     8.7250   140.2980     2.5430     0.0820     7.3790
 1941.5000   -68.2800     9.5100     6.9570     8.7190   140.2670     2.5390     0.0890     7.3050
 1942.0000   -68.0790     9.2730     6.9030     8.7180   140.3000     2.5310     0.0960     7.2320
 1942.5000   -67.6130     8.9540     6.8480     8.7150   140.0410     2.5440     0.1020     7.1590
 1943.0000   -67.1490     8.6340     6.7940     8.7140   139.4600     2.5380     0.1040     7.0850
 1943.5000   -66.6840     8.3140     6.7400     8.7110   138.2470     2.5260     0.0960     7.0120
 1944.0000   -66.2180     7.9940     6.6860     8.7090   136.8810     2.5380     0.0870     6.9380
 1944.5000   -65.7530     7.7630     6.6360     8.7070   135.5180     2.5220     0.0790     6.8850
 1945.0000   -65.3250     8.4310     6.6870     8.7050   134.1560     2.5000     0.0830     6.8850
 1945.5000   -65.4270     9.2150     6.7340     8.7030   132.7880     2.5220     0.0880     6.9490
 1946.0000   -65.6750     9.7770     6.7810     8.7010   132.4950     2.5060     0.0580     7.0140
 1946.5000   -65.3140     9.1920     6.8280     8.6990   134.3370     2.4670     0.0670     7.0730
 1947.0000   -64.5870     8.9150     6.8760     8.6970   136.1610     2.5120     0.0800     7.1280
 1947.5000   -63.8660     9.0660     6.9230     8.6950   138.0680     2.5270     0.0750     7.1830
 1948.0000   -63.3190     9.0810     6.9700     8.6930   139.8400     2.4930     0.0670     7.2380
 1948.5000   -63.7720     8.8760     7.0170     8.6910   140.1350     2.5020     0.0560     7.2770
 1949.0000   -64.3960     8.6870     7.0790     8.6890   137.4500     2.5160     0.0610     7.2770
 1949.5000   -65.0280     8.5130     7.0720     8.6870   134.9000     2.5200     0.0740     7.2770
 1950.0000   -65.6840     9.0710     7.0620     8.6850   131.5750     2.4790     0.0690     7.2770
 1950.5000   -65.7130     9.7770     7.0520     8.6830   130.2510     2.4840     0.0550     7.2770
 1951.0000   -65.1780     9.7000     7.0420     8.6810   130.5470     2.4890     0.0650     7.2770
 1951.5000   -64.5160     9.5470     7.0320     8.6800   131.7810     2.4960     0.0720     7.2770
 1952.0000   -64.3330     9.3930     7.0220     8.6940   134.5490     2.5010     0.0800     7.2770
 1952.5000   -64.4050     9.2400     7.0120     8.7100   137.2570     2.5070     0.0860     7.2770
 1953.0000   -64.5620     9.0860     7.0020     8.7260   139.5640     2.5130     0.0870     7.2770
 1953.5000   -64.7180     8.9330     6.9920     8.7420   140.4300     2.5180     0.0790     7.2770
