~VERSION INFORMATION
 VERS.                2.0:   CWLS LOG ASCII STANDARD - VERSION 2.0
 WRAP.                 NO:   ONE LINE PER DEPTH STEP
~WELL INFORMATION
#MNEM.UNIT      DATA TYPE    INFORMATION
#----------   ------------   ------------------------------
 STRT.F         3288.0000:   START DEPTH
 STOP.F         4421.0000:   STOP DEPTH
 STEP.F            0.5000:   STEP LENGTH
 NULL.          -999.2500:   NO VALUE
 COMP.       FLUOR DANIEL:   COMPANY
 WELL. FLUOR 22 "X" #2-10:   WELL
 FLD . TEA POT DOME NAVAL PETROLEUM DO:   FIELD
 LOC .      S10 T38N R78W:   LOCATION
 CNTY.            NATRONA:   COUNTY
 STAT.            WYOMING:   STATE
 CTRY. UNITED STATES OF AMERICA:   COUNTRY
 SRVC.        HALLIBURTON:   SERVICE COMPANY
 DATE.        13-DEC-1996:   LOGDATE
 API .     49025228330000:   API NUMBER
~CURVE INFORMATION
#MNEM.UNIT       API CODE    CURVE DESCRIPTION
#----------   ------------   ------------------------------
 DEPT.F                  :   
 NPHI.DEC    42 890 03 00:   NEUTRON POROSITY SANDSTONE
 GRD .GAPI   45 310 01 00:   GAMMA RAY FROM DENSITY LOG
 CALD.IN     45 280 60 00:   CALIPER FROM DENSITY LOG
 PE  .B/E    45 358 01 00:   PHOTOELECTRIC FACTOR
 CORR.G/C3   45 356 01 00:   DENSITY CORRECTION
 TEND.LBS    45 635 01 00:   TENSION FORM DENSITY LOG
 RHOB.G/C3   45 350 01 00:   BULK DENSITY
 TENR.LBS    07 635 01 00:   TENSION FROM RESISTIVITY
 ILD .OHMM   07 120 46 00:   DEEP INDUCTION RESISTIVITY
 ILM .OHMM   07 120 44 00:   INDUCTION LOG MEDIUM RESISTIVITY
 SFL .OHMM   07 220 01 00:   SHALLOW FOCUSED LOG RESISTIVITY
~PARAMETER INFORMATION
#MNEM.UNIT          VALUE    DESCRIPTION
#----------   ------------   ------------------------------
 EKB .F         5268.0000:   Kelly bushing
 EGL .F         5258.0000:   Ground level
 EDF .F         5267.0000:   Drilling floor
 TD  .F         4435.0000:   Total depth
 CLNT.            A2DTECH:   Client Code
 SL  . 569' FNL & 1440' FWL:   Surface Location
 PD  .                 GL:   Permanent Datum
 EPD .F              5258:   Elevation Permanent Datum
 LMF .                 KB:   Log Measured From
 DMF .                 KB:   Drilling Measured From
 DAPD.F                10:   Feet Above Permanent Datum
 DATE.        13-DEC-1996:   Date Logged [DD-MMM-YYYY]
 DD  .F              4435:   Depth driller
 DL  .F              4412:   Depth logger
 BLI .F              4403:   Bottom log interval
 TLI .F              3308:   Top log interval
 CS1 .IN            9.625:   Casing size
 CBD1.     9.625" @ 3307':   Casing driller 1
 CBL1.F              3308:   Casing logger 1
 BS1 .IN              8.5:   Bit size
 BSD1.F              4435:   Depth drilled with bit1
 DFT .           POLY-KCL:   Type fluid in hole
 DFD .                  9:   Density
 DFV .                 50:   Viscosity
 DFPH.                  9:   pH
 DFL .                  7:   Fluid loss
 MSS .           MUD TANK:   Source of sample
 RMS .OHMM           0.47:   Rm
 MST .F                56:   Rm Meas. temp.
 RMF .OHMM           0.36:   Rmf
 MFST.F                61:   Rmf Meas. temp.
 MFSS.               MEAS:   Source Rmf.
 RMC .OHMM           0.48:   Rmc
 MCST.F                68:   Rmc Meas. temp.
 MCSS.               MEAS:   Source Rmc.
 RMB .OHMM           0.20:   Rm. at BHT
 BHT .F               138:   BHT.
 TCS .HRS              20:   Time Circ. stopped
 TLAB.HRS            0108:   Time logger at bottom
 MRT .F               138:   Maximum recorded temp.
 LUN .              52546:   Logging unit number
 LUL .              VERNI:   Logging unit location
 ENGI.        JOHN SAVAGE:   Recorded By
 WITN.          STEBBINGS:   Witnessed by
 ORIG.         2.5" PRINT:   Origin of data
 UWI .     49025228330000:   Unique Well ID
 DICO. A2D TECHNOLOGIES, INC.:   Digitizing Company
~OTHER INFORMATION
~A  DEPT        NPHI       GRD      CALD         PE       CORR       TEND       RHOB       TENR        ILD        ILM        SFL   
# ...
 4081.0000     0.2531   107.2919     9.1622     3.0096     0.0615  3298.7666     2.5568  3250.2793     3.9835     4.0926     5.7296
 4081.5000     0.2567   107.8874     9.1315     3.0100     0.0650  3238.1968     2.5584  3134.4033     3.9810     4.1457     5.6869
 4082.0000     0.2603   110.2955     9.1009     3.0103     0.0725  3117.2043     2.5599  3077.4072     3.9256     4.0880     5.3502
 4082.5000     0.2640   113.9121     9.0400     3.0408     0.0901  3056.6350     2.5614  3338.1987     3.8709     4.0311     5.1361
 4083.0000     0.2694   115.7221     9.0094     3.0411     0.0960  3116.9114     2.5546  3109.1304     3.7658     3.8641     5.0649
 4083.5000     0.2773   116.9157     9.0089     3.0247     0.1010  3177.1877     2.5452  3200.2859     3.5617     3.6427     4.8242
 4084.0000     0.2889   116.9063     9.0085     3.0115     0.1025  3237.4641     2.5365  3188.3499     3.2660     3.3339     4.0732
 4084.5000     0.2931   116.0331     9.0383     3.0118     0.1010  3176.8882     2.5343  3083.3818     3.0122     3.0155     3.8064
 4085.0000     0.2950   112.7502     9.0680     3.0121     0.0995  3146.5256     2.5343  3142.9087     2.9075     3.0275     3.7098
 4085.5000     0.2968   110.2326     9.0782     2.9822     0.1011  3152.7637     2.5343  3173.0903     3.0914     3.3572     4.0265
 4086.0000     0.3022   110.0966     9.1402     2.9825     0.1011  3176.4551     2.5328  3132.3718     3.4151     3.5560     4.5883
 4086.5000     0.3240   109.9057     9.2022     2.9828     0.1026  3186.4053     2.5287  3108.7651     3.3675     3.4594     4.6550
 4087.0000     0.3343   113.3633     9.2642     2.9853     0.1026  3206.3735     2.5132  3176.6865     3.2317     3.1885     4.1777
 4087.5000     0.3500   120.4666     9.3074     3.0136     0.1027  3236.4048     2.5011  3134.0786     3.0192     3.0193     3.8004
 4088.0000     0.3518   123.4790     9.3673     3.0508     0.1026  3251.9526     2.4906  3091.5452     2.8589     2.8575     3.6977
 4088.5000     0.3500   124.6787     9.3971     3.0746     0.1012  3266.3140     2.4876  3151.1284     2.7072     2.6993     3.5023
 4089.0000     0.3440   124.6700     9.3664     3.1163     0.1029  3205.7141     2.4936  3183.0867     2.5628     2.5635     3.3490
 4089.5000     0.3031   121.6400     9.3358     3.1356     0.1042  3145.1445     2.5072  3211.6616     2.4938     2.5727     3.0452
 4090.0000     0.2904   111.3594     9.2749     3.1818     0.1062  3084.5750     2.5321  3242.1882     2.5819     2.8527     2.9361
 4090.5000     0.2233   102.8058     9.2443     3.2269     0.1073  3054.2170     2.5814  3213.9941     3.0963     3.3528     3.4499
 4091.0000     0.2133    97.7993     9.2469     3.2575     0.1073  3114.4934     2.6379  3127.6252     3.8858     4.2159     4.6889
 4091.5000     0.2203    93.7059     9.2788     3.1369     0.0989  3235.1929     2.6523  3181.9358     5.5854     5.9137     6.0857
 4092.0000     0.2266    93.1964     9.3034     2.9559     0.0722  3296.2593     2.6100  3193.0063     6.1837     6.4012     7.9230
 4092.5000     0.2255    95.7446     9.3424     2.9260     0.0528  3325.5342     2.5686  3072.9119     5.5139     5.9921     8.1728
 4093.0000     0.2242   100.5077     9.3742     2.8961     0.0437  3226.5286     2.5596  3116.0068     5.2922     5.4883     7.8092
 4093.5000     0.2249   103.9787     9.3926     2.9266     0.0437  3101.7590     2.5587  3206.7051     5.3617     5.4346     8.0180
 4094.0000     0.2279   105.8648     9.3921     2.9571     0.0468  3083.4026     2.5611  3105.6631     5.4315     5.4316     8.0037
 4094.5000     0.2285   107.3999     9.3741     2.9574     0.0483  3294.7366     2.5618  3197.6599     5.4280     5.4281     7.7969
 4095.0000     0.2297   107.6435     9.3307     2.9275     0.0483  3052.8701     2.5603  3282.6445     5.3530     5.4253     7.7615
 4095.5000     0.2340   108.2387     9.3605     2.8975     0.0452  3140.0374     2.5558  3138.4133     5.3365     5.4226     7.6845
 4096.0000     0.2418   108.8329     9.3903     2.8856     0.0406  3264.4441     2.5467  3226.9041     5.0054     5.2046     7.5771
 4096.5000     0.2618   110.0326     9.4201     2.8680     0.0375  3328.4456     2.5361  3215.3176     4.3643     4.3643     7.2735
 4097.0000     0.2800   111.2323     9.3894     2.8683     0.0348  3354.3806     2.5195  3141.4956     4.1938     4.1839     5.2647
 4097.5000     0.3061   112.4320     9.2983     2.8686     0.0368  3293.7842     2.5105  3288.8101     4.0152     4.0006     5.2621
 4098.0000     0.3103   113.6669     9.2677     2.8991     0.0384  3263.4260     2.5090  3202.3733     3.8582     3.8818     4.9840
 4098.5000     0.3109   115.0647     9.2711     2.8994     0.0416  3172.6453     2.5090  3115.9380     3.6044     3.6847     4.6561
 4099.0000     0.3098   117.3573     9.3331     2.8997     0.0455  3112.0754     2.5093  3202.3323     3.3673     3.4625     4.5315
 4099.5000     0.3042   117.2296     9.3570     2.9000     0.0500  3232.7749     2.5144  3176.8157     3.3204     3.3399     4.5291
 4100.0000     0.3012   117.2210     9.3545     2.8702     0.0530  3323.2629     2.5287  3119.5337     3.2303     3.2303     4.3477
 4100.5000     0.3036   117.2138     9.3416     2.9008     0.0515  3170.1699     2.5318  3210.4851     3.1245     3.1808     3.7743
 4101.0000     0.3103   117.2079     9.3288     2.9013     0.0470  3175.6189     2.5188  3310.2385     2.9735     3.0404     3.5429
 4101.5000     0.3200   119.0148     9.3254     2.9319     0.0500  3267.9902     2.5073  3239.7476     2.7435     2.6979     3.5047
 4102.0000     0.3284   120.2174     9.2646     2.9625     0.0652  3292.4653     2.5086  3179.7583     2.5290     2.4998     3.4194
 4102.5000     0.3365   122.0243     9.2643     2.9932     0.0774  3213.2720     2.5149  3102.7268     2.3629     2.4093     3.1880
 4103.0000     0.3453   122.0181     9.2640     3.0268     0.0965  3160.1140     2.5234  3025.6953     2.2682     2.2970     3.0625
 4103.5000     0.3515   121.8895     9.2637     3.0949     0.1198  3067.4788     2.5235  2949.7539     2.2352     2.2650     2.9808
 4104.0000     0.3520   120.6276     9.2936     3.2277     0.1026  3034.8625     2.5078  2896.6362     2.2013     2.2035     2.9804
 4104.5000     0.3512   118.5483     9.2945     3.4066     0.0645  3113.7661     2.5058  3189.6497     2.1757     2.2324     2.9403
 4105.0000     0.3493   115.4271     9.3233     3.5625     0.0414  3291.5127     2.5290  3075.3079     2.2152     2.2616     2.9413
 4105.5000     0.3463   112.6039     9.3230     3.7183     0.0249  3382.0242     2.5698  3028.9131     2.3077     2.3308     3.0252
 4106.0000     0.3256   109.8961     9.3227     3.9806     0.0123  3291.2197     2.6106  3193.7632     2.6936     2.6755     3.7510
 4106.5000     0.3173   111.0987     9.3117     3.5105     0.0084  3109.8042     2.5956  2990.9231     3.3011     3.2378     4.1878
 4107.0000     0.3332   112.9056     9.2789     3.2693     0.0093  3079.4460     2.5525  2961.3477     2.8443     2.8539     4.3137
 4107.5000     0.3490   114.7125     9.2158     3.1488     0.0381  3169.9341     2.5244  3025.9683     2.5520     2.5437     3.5349
 4108.0000     0.3562   118.3320     9.1099     3.0284     0.0472  3290.6335     2.5020  3315.3442     2.3209     2.3157     3.2273
 4108.5000     0.3563   122.5558     9.0492     3.0289     0.0487  3350.9099     2.4975  3112.5027     2.2582     2.2529     3.1838
 4109.0000     0.3483   124.3907     9.0187     3.0595     0.0548  3320.5439     2.5082  3201.4575     2.2940     2.2824     3.1409
 4109.5000     0.3465   124.9611     8.9882     3.1515     0.0715  3315.2258     2.5155  3114.2217     2.3591     2.3755     3.1830
 4110.0000     0.3499   124.9547     9.0181     3.2115     0.0838  3238.6646     2.5195  3058.5366     2.4460     2.5060     3.2723
 4110.5000     0.3577   124.9486     8.9876     3.2119     0.0947  3108.6104     2.5227  3030.4661     2.3636     2.3943     3.3580
 4111.0000     0.3659   124.9426     8.9873     3.1748     0.0988  3212.0068     2.5263  3206.7908     2.3151     2.3084     3.3576
