~VERSION INFORMATION
 VERS.                2.0:   CWLS LOG ASCII STANDARD - VERSION 2.0
 WRAP.                 NO:   ONE LINE PER DEPTH STEP
~WELL INFORMATION
#MNEM.UNIT      DATA TYPE    INFORMATION
#----------   ------------   ------------------------------
 STRT.F           96.5000:   START DEPTH
 STOP.F         2720.0000:   STOP DEPTH
 STEP.F            0.5000:   STEP LENGTH
 NULL.          -999.2500:   NO VALUE
 COMP.          INTEX OIL:   COMPANY
 WELL. INTEX NPR 65 "AX" #3-20:   WELL
 FLD .             TEAPOT:   FIELD
 LOC .      S20 T39N R78W:   LOCATION
 CNTY.            NATRONA:   COUNTY
 STAT.            WYOMING:   STATE
 CTRY. UNITED STATES OF AMERICA:   COUNTRY
 SRVC.       SCHLUMBERGER:   SERVICE COMPANY
 DATE.        04-MAY-1966:   LOGDATE
 API .     49025094910000:   API NUMBER
~CURVE INFORMATION
#MNEM.UNIT       API CODE    CURVE DESCRIPTION
#----------   ------------   ------------------------------
 DEPT.F                  :   
 SPR .MV     05 010 01 00:   SPONTANEOUS POTENTIAL FROM RES.
 SN  .OHMM   05 040 16 00:   SHORT NORMAL 16"
 ILD .OHMM   05 120 46 00:   INDUCTION LOG DEEP
 CALD.IN     45 280 60 00:   CALIPER FROM DENSITY LOG
 CORR.G/C3   45 356 01 00:   DENSITY CORRECTION
 GRD .GAPI   45 310 01 00:   GAMMA RAY FROM DENSITY LOG
 RHOB.G/C3   45 350 01 00:   BULK DENSITY
~PARAMETER INFORMATION
#MNEM.UNIT          VALUE    DESCRIPTION
#----------   ------------   ------------------------------
 EKB .F         5053.3000:   Kelly bushing
 EGL .F         5043.0000:   Ground level
 EDF .F            0.0000:   Drilling floor
 TD  .F         2720.0000:   Total depth
 DATE.        04-MAY-1966:   Date logged
 CLNT.            A2DTECH:   Client Code
 PD  .                 GL:   Permanent Datum
 EPD .F              5043:   Elevation Permanent Datum
 LMF .                 KB:   Log Measured From
 DMF .                 KB:   Drilling Measured From
 DAPD.F              10.3:   Feet Above Permanent Datum
 DD  .F              2720:   Depth driller
 DL  .F              2720:   Depth logger
 BLI .F              2719:   Bottom log interval
 TLI .F                97:   Top log interval
 CS1 .IN            10.75:   Casing size
 CBD1.       10.75" @ 30':   Casing driller 1
 BS1 .IN            7.875:   Bit size
 BSD1.F              2720:   Depth drilled with bit1
 DFT . GEL/Q-BROX/OIL/DAKOLITE:   Type fluid in hole
 DFD .               10.3:   Density
 DFV .                 41:   Viscosity
 DFPH.                7.2:   pH
 DFL .                8.8:   Fluid loss
 MSS .           FLOWLINE:   Source of sample
 RMS .OHMM              2:   Rm
 MST .F                61:   Rm Meas. temp.
 RMF .OHMM           1.31:   Rmf
 MFST.F                65:   Rmf Meas. temp.
 MFSS.                 FP:   Source Rmf.
 RMB .OHMM           1.15:   Rm. at BHT
 BHT .F               110:   BHT.
 TCS .HRS               2:   Time Circ. stopped
 MRT .F               110:   Maximum recorded temp.
 LUN .               4507:   Logging unit number
 LUL .               CSPR:   Logging unit location
 ENGI.            MANGOLD:   Recorded By
 WITN.             TUTTLE:   Witnessed by
 ORIG.       2", 5" PRINT:   Origin of data
 UWI .     49025094910000:   Unique Well ID
 DICO. A2D TECHNOLOGIES, INC.:   Digitizing Company
~OTHER INFORMATION
~A   DEPT      SPR         SN         ILD      CALD       CORR        GRD       RHOB   
# ...
 2189.5000   -31.5190     9.0790     6.1530     9.0440     0.0120   133.1830     2.4980
 2190.0000   -31.5030     8.8180     6.0410     9.0400     0.0090   133.4440     2.5060
 2190.5000   -31.4860     8.5640     6.0150     9.0360     0.0100   134.8140     2.5130
 2191.0000   -31.4670     8.4020     6.0860     9.0320     0.0130   137.2580     2.5020
 2191.5000   -31.4490     8.4100     6.1970     9.0280     0.0140   138.3650     2.4980
 2192.0000   -31.4320     8.5680     6.2980     9.0240     0.0130   138.1230     2.5030
 2192.5000   -31.4140     8.7650     6.3890     9.0200     0.0110   137.4190     2.5070
 2193.0000   -31.3950     8.8930     6.4810     9.0160     0.0100   135.0420     2.5130
 2193.5000   -31.3780     8.9310     6.5500     9.0120     0.0080   135.3030     2.5040
 2194.0000   -31.3610     8.9240     6.5610     9.0080     0.0060   136.3240     2.5050
 2194.5000   -31.3420     8.9170     6.5240     9.0040     0.0040   134.7310     2.5100
 2195.0000   -31.3210     8.9210     6.4790     9.0000     0.0030   129.8190     2.5110
 2195.5000   -31.3040     8.9250     6.4500     8.9960     0.0050   127.4090     2.5030
 2196.0000   -31.2970     8.9210     6.4280     8.9920     0.0080   126.9480     2.5100
 2196.5000   -31.2980     8.9170     6.3960     8.9880     0.0110   126.7310     2.5180
 2197.0000   -31.3000     8.9240     6.3540     8.9840     0.0130   127.3770     2.5140
 2197.5000   -31.3000     8.9280     6.3210     8.9800     0.0160   128.0090     2.5120
 2198.0000   -31.2990     8.9170     6.3040     8.9760     0.0140   130.8380     2.5090
 2198.5000   -31.2990     8.9090     6.2780     8.9720     0.0110   133.6620     2.5080
 2199.0000   -31.2990     8.9360     6.2200     8.9680     0.0090   136.5460     2.5110
 2199.5000   -31.2990     8.9840     6.1750     8.9640     0.0090   139.1270     2.5140
 2200.0000   -31.2990     9.0100     6.2370     8.9600     0.0100   141.3990     2.5170
 2200.5000   -31.2990     9.0340     6.4420     8.9550     0.0110   143.0530     2.5200
 2201.0000   -31.2990     9.1620     6.7280     8.9510     0.0120   144.9930     2.5230
 2201.5000   -31.2990     9.4610     7.0040     8.9470     0.0130   141.7820     2.5250
 2202.0000   -31.2990     9.8700     7.2460     8.9430     0.0130   137.2980     2.5280
 2202.5000   -31.2990    10.3040     7.4850     8.9390     0.0140   132.8170     2.5220
 2203.0000   -31.2990    10.7550     7.7430     8.9350     0.0150   128.4300     2.5250
 2203.5000   -31.2990    11.2180     8.0090     8.9310     0.0160   123.9640     2.5360
 2204.0000   -31.2990    11.5920     8.2640     8.9270     0.0180   121.0380     2.5450
 2204.5000   -31.2990    11.7920     8.5030     8.9230     0.0190   120.3550     2.5550
 2205.0000   -31.2990    11.8970     8.7480     8.9190     0.0230   119.9740     2.5530
 2205.5000   -31.2990    12.0850     9.0240     8.9150     0.0280   119.4640     2.5520
 2206.0000   -31.2990    12.4730     9.2960     8.9100     0.0330   118.6090     2.5520
 2206.5000   -31.2990    13.0740     9.4680     8.8940     0.0350   113.3950     2.5650
 2207.0000   -31.2990    13.8360     9.4870     8.8720     0.0300   108.8140     2.5690
 2207.5000   -31.2990    14.5750     9.4230     8.8520     0.0240   104.0820     2.5640
 2208.0000   -31.2990    14.9570     9.3830     8.8310     0.0150   106.2760     2.5600
 2208.5000   -31.2990    14.7200     9.3650     8.8100     0.0100   115.2500     2.5580
 2209.0000   -31.2990    13.9290     9.2670     8.7960     0.0140   123.7220     2.5450
 2209.5000   -31.2990    12.9590     9.0380     8.8200     0.0090   131.3740     2.5270
 2210.0000   -31.2990    12.2040     8.7490     8.8400     0.0020   135.4960     2.5070
 2210.5000   -31.2990    11.8280     8.5050     8.8630    -0.0010   134.0810     2.5020
 2211.0000   -31.2990    11.7370     8.3270     8.8710     0.0020   131.5930     2.5170
 2211.5000   -31.2990    11.7230     8.1770     8.8700     0.0020   127.9560     2.5280
 2212.0000   -31.2990    11.6310     8.0330     8.8690     0.0010   128.8770     2.5300
 2212.5000   -31.2990    11.4430     7.9060     8.8690     0.0010   129.9390     2.5260
 2213.0000   -31.2990    11.2360     7.7870     8.8680     0.0090   132.7870     2.5150
 2213.5000   -31.2990    11.0590     7.6470     8.8670     0.0170   133.9580     2.5110
 2214.0000   -31.2990    10.8860     7.4950     8.8670     0.0260   133.6660     2.5160
 2214.5000   -31.2990    10.6820     7.3890     8.8660     0.0200   136.5580     2.5200
 2215.0000   -31.3000    10.4750     7.3770     8.8650     0.0100   138.3460     2.5180
 2215.5000   -31.3000    10.3420     7.4370     8.8650     0.0010   138.8080     2.5090
 2216.0000   -31.2980    10.3200     7.5090     8.8640    -0.0080   139.1080     2.5010
 2216.5000   -31.2980    10.3650     7.5610     8.8630    -0.0080   139.7320     2.4940
 2217.0000   -31.3010    10.4090     7.6070     8.8630    -0.0040   140.3620     2.4860
 2217.5000   -31.3020    10.4330     7.6620     8.8620     0.0130   140.8240     2.4990
 2218.0000   -31.2960    10.4560     7.7220     8.8610     0.0270   139.9440     2.5190
 2218.5000   -31.2930    10.4890     7.7770     8.8610     0.0400   136.2620     2.5380
 2219.0000   -31.3040    10.5230     7.8300     8.8600     0.0250   132.8560     2.5480
 2219.5000   -31.3130    10.5520     7.8820     8.8590     0.0100   130.1040     2.5400
 2220.0000   -31.2750    10.5810     7.9370     8.8590     0.0090   129.5950     2.5330
 2220.5000   -31.1730    10.6110     7.9950     8.8580     0.0110   129.0820     2.5260
 2221.0000   -31.0430    10.6410     8.0520     8.8570     0.0130   130.0360     2.5300
 2221.5000   -30.9290    10.6700     8.1010     8.8570     0.0150   130.2460     2.5340
 2222.0000   -30.8190    10.7030     8.1510     8.8560     0.0160   127.8500     2.5370
 2222.5000   -30.6880    10.7350     8.2160     8.8550     0.0180   126.6070     2.5310
 2223.0000   -30.5690    10.7590     8.2840     8.8550     0.0110   127.4100     2.5240
 2223.5000   -30.5460    10.7850     8.3080     8.8540     0.0040   127.9040     2.5120
 2224.0000   -30.6400    10.8270     8.2540     8.8530    -0.0010   129.8620     2.4940
 2224.5000   -30.7770    10.8670     8.1390     8.8530     0.0020   131.0600     2.5000
 2225.0000   -30.8880    10.8550     8.0100     8.8520     0.0040   134.1050     2.5100
 2225.5000   -30.9860    10.7630     7.8980     8.8510     0.0060   134.2850     2.5200
 2226.0000   -31.1110    10.6220     7.7940     8.8510     0.0090   134.4970     2.5220
 2226.5000   -31.2270    10.4780     7.6810     8.8500     0.0110   136.1470     2.5190
 2227.0000   -31.2510    10.3480     7.5580     8.8490     0.0140   140.6530     2.5170
 2227.5000   -31.1520    10.2190     7.4410     8.8490     0.0160   143.2200     2.5140
 2228.0000   -30.9790    10.0850     7.3400     8.8480     0.0180   143.2410     2.5120
 2228.5000   -30.7930     9.9530     7.2420     8.8470     0.0160   141.6980     2.5090
 2229.0000   -30.6400     9.8200     7.1220     8.8470     0.0120   138.3600     2.5070
 2229.5000   -30.5590     9.6810     6.9840     8.8460     0.0090   139.6940     2.5050
 2230.0000   -30.5660     9.5460     6.8460     8.8450     0.0050   141.6030     2.5030
 2230.5000   -30.6370     9.4270     6.7090     8.8450     0.0060   143.0270     2.5010
 2231.0000   -30.7260     9.2990     6.5600     8.8440     0.0080   144.2530     2.5000
 2231.5000   -30.8090     9.1380     6.4350     8.8430     0.0050   145.2610     2.5030
 2232.0000   -30.8680     8.9950     6.4130     8.8430     0.0010   148.0960     2.5060
 2232.5000   -30.8650     8.9810     6.5320     8.8420     0.0040   151.9560     2.5070
 2233.0000   -30.7610     9.1420     6.7340     8.8410     0.0060   150.2690     2.5040
 2233.5000   -30.5590     9.3910     6.9340     8.8410     0.0080   143.0320     2.5000
 2234.0000   -30.3240     9.6110     7.1030     8.8400     0.0080   136.8690     2.5070
 2234.5000   -30.1750     9.7940     7.2670     8.8390     0.0080   130.6870     2.5190
