~VERSION INFORMATION
 VERS.                2.0:   CWLS LOG ASCII STANDARD - VERSION 2.0
 WRAP.                 NO:   ONE LINE PER DEPTH STEP
~WELL INFORMATION
#MNEM.UNIT      DATA TYPE    INFORMATION
#----------   ------------   ------------------------------
 STRT.F           50.5000:   START DEPTH
 STOP.F         5694.0000:   STOP DEPTH
 STEP.F            0.5000:   STEP LENGTH
 NULL.          -999.2500:   NO VALUE
 COMP. LAWRENCE ALLISON AND ASSOCIATES WEST:   COMPANY
 WELL. LAWRENCE "TX" #57-28:   WELL
 FLD .        TEAPOT DOME:   FIELD
 LOC .      S28 T39N R78W:   LOCATION
 CNTY.            NATRONA:   COUNTY
 STAT.            WYOMING:   STATE
 CTRY. UNITED STATES OF AMERICA:   COUNTRY
 SRVC.       SCHLUMBERGER:   SERVICE COMPANY
 DATE.        26-FEB-1982:   LOGDATE
 API .     49025108850000:   API NUMBER
~CURVE INFORMATION
#MNEM.UNIT       API CODE    CURVE DESCRIPTION
#----------   ------------   ------------------------------
 DEPT.F                  :   
 GRR .GAPI   11 310 01 00:   GAMMA RAY FROM RES.
 CALD.IN     45 280 60 00:   CALIPER FROM DENSITY LOG
 TEND.LBS    45 635 01 00:   TENSION FORM DENSITY LOG
 CORR.G/C3   45 356 01 00:   DENSITY CORRECTION
 RHOB.G/C3   45 350 01 00:   BULK DENSITY
 NPHI.DEC    42 890 03 00:   NEUTRON POROSITY SANDSTONE
 TENR.LBS    06 635 01 00:   TENSION FROM RESISTIVITY
 SPR .MV     11 010 01 00:   SPONTANEOUS POTENTIAL FROM RES.
 LLS .OHMM   11 220 09 00:   LATEROLOG LOG SHALLOW
 LLD .OHMM   11 220 10 00:   LATEROLOG DEEP
 MSFL.OHMM   11 270 04 00:   MICRO SPHERICALLY FOCUSED
~PARAMETER INFORMATION
#MNEM.UNIT          VALUE    DESCRIPTION
#----------   ------------   ------------------------------
 EKB .F         5101.0000:   Kelly bushing
 EGL .F         5091.0000:   Ground level
 EDF .F            0.0000:   Drilling floor
 TD  .F         3248.0000:   Total depth
 CLNT.            A2DTECH:   Client Code
 SL  . 950' FSL & 2100' FEL:   Surface Location
 PD  .                 GL:   Permanent Datum
 EPD .F              5091:   Elevation Permanent Datum
 LMF .                 KB:   Log Measured From
 DMF .                 KB:   Drilling Measured From
 DAPD.F                10:   Feet Above Permanent Datum
 DATE.        26-FEB-1982:   Date Logged [DD-MMM-YYYY]
 DD  .F              3243:   Depth driller
 DL  .F              3248:   Depth logger
 BLI .F              3216:   Bottom log interval
 TLI .F                 0:   Top log interval
 CS1 .IN            9.625:   Casing size
 CBD1.      9.625" @ 401':   Casing driller 1
 CBL1.F               401:   Casing logger 1
 BS1 .IN            7.875:   Bit size
 BSD1.F              3243:   Depth drilled with bit1
 DFT .           CHEM GEL:   Type fluid in hole
 DFD .                8.9:   Density
 DFV .                 55:   Viscosity
 DFPH.                9.5:   pH
 DFL .                 10:   Fluid loss
 MSS .            MUD PIT:   Source of sample
 RMS .OHMM           1.82:   Rm
 MST .F                76:   Rm Meas. temp.
 RMF .OHMM           1.64:   Rmf
 MFST.F                75:   Rmf Meas. temp.
 MFSS.               MEAS:   Source Rmf.
 RMB .OHMM           1.15:   Rm. at BHT
 BHT .F               120:   BHT.
 TCS .HRS            1330:   Time Circ. stopped
 TLAB.HRS            1715:   Time logger at bottom
 MRT .F               120:   Maximum recorded temp.
 LUN .               8043:   Logging unit number
 LUL .               CSPR:   Logging unit location
 ENGI.             TAYLOR:   Recorded By
 WITN.       FIVAS/STRONG:   Witnessed by
 ORIG.      1" 2.5" PRINT:   Origin of data
 UWI .     49025108850000:   Unique Well ID
 DICO. A2D TECHNOLOGIES, INC.:   Digitizing Company
~OTHER INFORMATION
~A   DEPT       GRR      CALD       TEND       CORR       RHOB       NPHI       TENR        SPR        LLS        LLD       MSFL   
# ...
 2551.5000    77.8419     9.0341  1056.1780     0.0058     2.3959     0.2049  1017.9041   -54.6297    18.9066    20.3858    13.6460
 2552.0000    83.1436     9.0331  1057.4824     0.0027     2.3988     0.2030  1020.0000   -54.6428    18.1050    19.5454    15.0242
 2552.5000    86.7818     9.0322  1058.7867    -0.0003     2.4049     0.1986  1020.0000   -54.9618    17.7375    20.2255    16.5415
 2553.0000    86.8435     9.0313  1060.0912     0.0055     2.4179     0.1931  1020.0000   -55.2813    17.9773    21.7547    18.2121
 2553.5000    83.6721     9.0304  1063.1565     0.0149     2.4385     0.1901  1013.3778   -55.3598    18.9899    23.4818    19.7852
 2554.0000    83.0610     9.0294  1093.2928     0.0206     2.4576     0.1865  1001.9556   -55.6147    18.9812    23.0515    20.6390
 2554.5000    83.0396     9.0284  1125.1521     0.0220     2.4730     0.1813   990.5333   -55.7553    18.6982    21.5698    20.8761
 2555.0000    83.6314     9.0275  1126.5242     0.0205     2.4796     0.1748   980.0000   -56.2538    17.9056    19.4788    18.1030
 2555.5000    83.8712     9.0267  1127.8962     0.0204     2.4667     0.1744   980.0000   -56.5759    17.1464    18.6762    14.2006
 2556.0000    85.4146     9.0258  1129.2682     0.0158     2.4393     0.1845   980.0000   -56.8948    16.6478    18.4096    12.0521
 2556.5000    86.6091     9.0248  1130.8513     0.0112     2.4150     0.1935   988.4889   -56.9079    16.6957    18.9167    11.9743
 2557.0000    87.8083     9.0239  1132.1558     0.0080     2.4028     0.1957   999.9111   -57.2268    17.5752    20.3000    11.9672
 2557.5000    88.3977     9.0230  1133.4602     0.0048     2.4012     0.1988  1011.3333   -57.5459    18.9156    21.1109    11.9601
 2558.0000    90.2066     9.0221  1134.7645     0.0016     2.3964     0.2049  1020.0000   -57.5596    18.3911    20.3724    12.1195
 2558.5000    91.4467     9.0210  1105.5818     0.0005     2.3928     0.2097  1020.0000   -57.2661    17.8811    19.6758    12.2866
 2559.0000    93.2148     9.0201  1101.1215     0.0027     2.3904     0.2134  1020.0000   -57.2813    17.1466    19.3944    12.6179
 2559.5000    91.0789     9.0192  1077.7029     0.0094     2.3910     0.2095  1020.0000   -57.2951    17.1638    19.1171    12.8267
 2560.0000    86.8708     9.0184  1079.2686     0.0154     2.3988     0.2067  1020.0000   -57.1458    18.7172    19.3729    13.3198
 2560.5000    83.7389     9.0175  1080.6405     0.0198     2.4206     0.2082  1020.0000   -57.0168    20.4791    20.1824    13.8495
 2561.0000    81.8272     9.0166  1082.2686     0.0213     2.4569     0.2092  1020.0000   -57.0323    23.7472    21.9197    14.9846
 2561.5000    80.9079     9.0156  1083.5736     0.0196     2.4751     0.2037  1020.0000   -57.0454    31.1309    25.5135    20.9794
 2562.0000    80.8875     9.0147  1115.3658     0.0196     2.4887     0.1789  1020.0000   -57.0585    32.7495    30.6165    32.1901
 2562.5000    82.6965     9.0138  1147.1580     0.0230     2.4979     0.1588  1020.0000   -56.7658    30.9694    32.7027    40.1385
 2563.0000    83.8957     9.0127  1148.4758     0.0266     2.5070     0.1552  1020.0000   -56.4301    26.2216    30.0586    43.5853
 2563.5000    86.9444     9.0118  1149.8479     0.0322     2.5052     0.1576  1020.0000   -55.8745    21.8968    25.3948    45.4046
 2564.0000    88.1233     9.0110  1151.2191     0.0321     2.4904     0.1626  1028.3429   -55.8899    18.7982    20.1505    16.8308
 2564.5000    87.9582     9.0101  1152.5913     0.0254     2.4706     0.1708  1043.0286   -55.7666    18.0258    18.0660    13.3009
 2565.0000    86.2500     9.0092  1153.9634     0.0178     2.4420     0.1965  1060.0000   -55.6116    18.1061    17.7281    12.6398
 2565.5000    82.3881     9.0083  1155.3354     0.0132     2.4109     0.2163  1050.3556   -55.3196    19.4735    18.4704    12.6900
 2566.0000    78.5254     9.0074  1156.9419     0.0131     2.4062     0.2176  1038.9333   -55.3349    21.5311    20.0603    12.9542
 2566.5000    75.2066     9.0373  1158.2469     0.0131     2.4047     0.2189  1027.5111   -55.3480    23.0220    21.7871    13.2111
 2567.0000    73.3570     9.0362  1159.5514     0.0136     2.4016     0.2173  1020.0000   -55.6670    24.2237    24.3955    13.3857
 2567.5000    72.7270     9.0658  1160.8558     0.0198     2.3905     0.2149  1020.0000   -55.6980    25.0460    26.3031    13.7530
 2568.0000    72.7066     9.0649  1162.1602     0.0187     2.3795     0.2113  1020.0000   -56.0489    25.7365    29.4226    13.9365
 2568.5000    73.3558     9.0640  1132.9768     0.0106     2.3741     0.2089  1020.0000   -56.7054    26.0841    31.9225    14.1284
 2569.0000    78.7215     9.0632  1134.4514     0.0022     2.3804     0.2076  1020.0000   -57.3620    25.3597    29.2656    14.3101
 2569.5000    88.5607     9.0930  1124.7426     0.0037     2.4046     0.2020  1020.0000   -58.3242    19.4851    21.3933    13.8222
 2570.0000    98.2317     9.0920  1106.7074     0.0157     2.4324     0.1956  1020.0000   -59.1540    15.3174    15.5639    12.9757
 2570.5000   102.1332     9.0911  1108.0791     0.0246     2.4467     0.1998  1020.0000   -59.7407    13.7056    13.9242    12.4381
 2571.0000   104.0020     9.0902  1109.6642     0.0306     2.4512     0.2057  1020.0000   -60.0596    12.8010    12.9623    12.2596
 2571.5000    99.3835     9.0586  1110.9685     0.0337     2.4587     0.2171  1020.0000   -60.3785    12.6719    14.4996    12.4226
 2572.0000    94.4851     9.0575  1112.2736     0.0350     2.4647     0.2232  1020.0000   -60.3916    14.8562    16.0122    12.9398
 2572.5000    91.4160     9.0566  1113.5780     0.0345     2.4707     0.2181  1020.0000   -60.0765    17.1582    17.4633    13.4799
 2573.0000    89.5664     9.0558  1084.3947     0.0306     2.4645     0.2139  1020.0000   -59.8062    18.6341    19.3119    14.2382
 2573.5000    89.5457     9.0242  1085.8229     0.0219     2.4369     0.2054  1020.0000   -59.6256    19.6848    18.8766    14.8464
 2574.0000    89.5244     9.0201  1087.1949     0.0152     2.4184     0.2000  1020.0000   -59.5266    17.6150    15.9673    15.5088
 2574.5000    89.5031     8.9917  1088.5670     0.0121     2.4203     0.2012  1020.0000   -59.2370    15.5464    14.2053    15.6575
 2575.0000    89.4817     8.9908  1089.9392     0.0135     2.4279     0.2067  1020.0000   -59.0214    14.0728    13.1079    14.3395
 2575.5000    89.1958     9.0036  1122.0576     0.0195     2.4415     0.2140  1020.0000   -58.5807    13.7143    14.4347    13.2718
 2576.0000    87.2846     9.0196  1123.3619     0.0256     2.4551     0.2195  1020.0000   -58.5952    14.7171    15.6773    12.3432
 2576.5000    85.1457     9.0186  1124.6664     0.0302     2.4657     0.2256  1020.0000   -58.3027    16.2072    16.5616    11.5195
 2577.0000    83.2961     9.0177  1125.9714     0.0333     2.4671     0.2262  1020.0000   -57.7067    17.9193    18.3069    11.0448
 2577.5000    80.8367     9.0168  1096.7881     0.0359     2.4588     0.2204  1020.0000   -57.3653    19.3822    20.9449    10.5897
 2578.0000    77.1579     9.0160  1098.1708     0.0358     2.4416     0.2117  1020.0000   -56.5123    19.8732    23.9695    10.4380
 2578.5000    74.6982     9.0150  1099.5428     0.0357     2.4218     0.2017  1020.0000   -56.1263    17.7822    23.5439    10.0033
 2579.0000    74.6768     9.0141  1100.9149     0.0326     2.4107     0.1983  1021.4933   -55.6269    16.3587    20.9473     9.8642
 2579.5000    75.6911     9.0240  1102.2863     0.0296     2.4092     0.2011  1028.3467   -55.3364    15.4712    19.4570     9.8265
 2580.0000    78.2921     9.0429  1103.6584     0.0235     2.4000     0.2057  1035.2000   -55.9657    15.2515    18.9467     9.6722
 2580.5000    80.6290     9.0725  1105.2676     0.0129     2.3817     0.2093  1042.0533   -56.5918    15.4919    18.6762     9.4457
 2581.0000    81.9085     9.0716  1106.5720     0.0083     2.3665     0.2130  1048.9066   -57.2178    15.6650    18.6664     9.4398
 2581.5000    81.8835     9.1014  1077.3885     0.0115     2.3755     0.2131  1055.7600   -57.8491    15.5787    18.3999     9.5653
