~VERSION INFORMATION
 VERS.                2.0:   CWLS LOG ASCII STANDARD - VERSION 2.0
 WRAP.                 NO:   ONE LINE PER DEPTH STEP
~WELL INFORMATION
#MNEM.UNIT      DATA TYPE    INFORMATION
#----------   ------------   ------------------------------
 STRT.F           53.0000:   START DEPTH
 STOP.F         3110.0000:   STOP DEPTH
 STEP.F            0.5000:   STEP LENGTH
 NULL.          -999.2500:   NO VALUE
 COMP. LAWRENCE ALLISON & ASSOCIATES W:   COMPANY
 WELL. LAWRENCE NPR 3 "AX" #31-34:   WELL
 FLD .      NPR - WILDCAT:   FIELD
 LOC .      S34 T39N R78W:   LOCATION
 CNTY.            NATRONA:   COUNTY
 STAT.            WYOMING:   STATE
 CTRY. UNITED STATES OF AMERICA:   COUNTRY
 SRVC.      DRESSER ATLAS:   SERVICE COMPANY
 DATE.        11-JUL-1986:   LOGDATE
 API .     49025111020000:   API NUMBER
~CURVE INFORMATION
#MNEM.UNIT       API CODE    CURVE DESCRIPTION
#----------   ------------   ------------------------------
 DEPT.F                  :   
 DEN .G/C3   45 350 01 00:   BULK DENSITY
 TEND.LBS    45 635 01 00:   TENSION FROM DENSITY LOG
 CORR.G/C3   45 356 01 00:   DENSITY CORRECTION
 NPHI.DEC    42 890 03 00:   NEUTRON POROSITY SANDSTONE
 SPR .MV     07 010 01 00:   SPONTANEOUS POTENTIAL
 RILM.OHMM   07 120 44 00:   INDUCTION LOG MEDIUM RESISTIVITY
 RILD.OHMM   07 120 46 00:   DEEP INDUCTION RESISTIVITY
 RFOC.OHMM   07 220 04 00:   RESISTIVITY FOCUSED LOG RES.
 TENR.LBS    07 635 01 00:   TENSION FROM RESISTIVITY
 GRR .GAPI   07 310 01 00:   GAMMA RAY FROM RESISTIVITY
 CALR.IN     07 280 01 00:   CALIPER FROM RESISTIVITY
~PARAMETER INFORMATION
#MNEM.UNIT          VALUE    DESCRIPTION
#----------   ------------   ------------------------------
 EKB .F          5074.800:   Kelly bushing
 EGL .F          5063.000:   Ground level
 EDF .F            0.0000:   Drilling floor
 EPD .F            0.0000:   Permanent datum
 TD  .F         3108.0000:   Total depth
 DATE.        11-JUL-1986:   Date logged
 CLNT.            A2DTECH:   Client Code
 SL  . 1796' FWL & 318' FNL:   Surface Location
 PD  .                 GL:   Permanent Datum
 DAPD.F                11:   Feet Above Permanent Datum
 DD  .F              3103:   Depth driller
 DL  .F              3108:   Depth logger
 BLI .F              3106:   Bottom log interval
 CS1 .IN            8.625:   Casing size
 CBD1.      8.625" @ 602':   Casing driller 1
 CBL1.F               596:   Casing logger 1
 BS1 .IN            7.875:   Bit size
 BSD1.F              3103:   Depth drilled with bit1
 DFT .            KCL/GEL:   Type fluid in hole
 DFD .                  9:   Density
 DFV .                 42:   Viscosity
 MSS .           MUD/TANK:   Source of sample
 RMS .OHMM           .352:   Rm
 MST .F                82:   Rm Meas. temp.
 RMF .OHMM           .264:   Rmf
 MFST.F                82:   Rmf Meas. temp.
 RMC .OHMM            .44:   Rmc
 MCST.F                82:   Rmc Meas. temp.
 MFSS.               CALC:   Source Rmf.
 MCSS.               CALC:   Source Rmc.
 RMB .OHMM            .23:   Rm. at BHT
 BHT .F               115:   BHT.
 TCS .HRS               3:   Time Circ. stopped
 MRT .F               115:   Maximum recorded temp.
 LUN .            HL-6264:   Logging unit number
 LUL .           GILLETTE:   Logging unit location
 ENGI.     P. M. FASHSING:   Recorded By
 WITN.             STRONG:   Witnessed by
 ORIG.           5" PRINT:   Origin of data
 UWI .     49025111020000:   Unique Well ID
 DICO. A2D TECHNOLOGIES, INC.:   Digitizing Company
~OTHER INFORMATION
~A   DEPT      DEN       TEND       CORR       NPHI        SPR       RILM       RILD       RFOC       TENR         GRR      CALR   
# ...
 2401.5000     2.5210   -50.1250     0.0220     0.2710   -90.4620     5.4410     5.4330     5.9870   -70.8840   110.0360    10.3800
 2402.0000     2.5140   -50.1250     0.0110     0.2620   -90.4620     5.5280     5.5010     6.2390   -70.4390   107.5390    10.3780
 2402.5000     2.5050   -50.2440     0.0100     0.2590   -90.4620     5.6160     5.5150     6.4900   -69.9950   105.3560    10.3760
 2403.0000     2.5000   -50.6440     0.0180     0.2590   -90.4620     5.7080     5.5360     6.8010   -69.5500   105.2760    10.3740
 2403.5000     2.4990   -51.0440     0.0250     0.2770   -90.4620     5.5780     5.5570     6.7190   -69.6660   107.0080    10.3720
 2404.0000     2.5030   -51.4440     0.0310     0.2920   -90.4620     5.4410     5.5770     6.5150   -70.0540   108.4030    10.3700
 2404.5000     2.5090   -51.8440     0.0320     0.2950   -90.4620     5.3050     5.5980     6.2500   -70.4420   108.4790    10.3790
 2405.0000     2.5080   -52.2440     0.0340     0.2930   -90.4620     5.1580     5.6180     5.9850   -70.8300   106.1030    10.3920
 2405.5000     2.5070   -52.6440     0.0350     0.2930   -90.4620     5.3160     5.6390     5.7610   -71.2180   104.1980    10.4050
 2406.0000     2.5100   -53.0440     0.0430     0.2930   -90.4620     5.4870     5.6600     5.8080   -71.6060   104.1320    10.4180
 2406.5000     2.5150   -53.4440     0.0610     0.2710   -90.4610     5.5590     5.6800     6.0510   -71.9950   104.5680    10.4310
 2407.0000     2.5200   -53.8440     0.0780     0.2640   -90.4770     5.5740     5.7000     6.2930   -72.3830   104.0480    10.4440
 2407.5000     2.5250   -54.2440     0.0760     0.2570   -90.4950     5.5880     5.7210     6.5360   -72.7710   103.5180    10.4500
 2408.0000     2.5320   -54.6440     0.0630     0.2580   -90.5130     5.6040     5.7410     6.7380   -73.1590   102.9970    10.4510
 2408.5000     2.5390   -55.0440     0.0490     0.2580   -90.5310     5.5360     5.7610     6.8010   -73.5470   102.6840    10.4520
 2409.0000     2.5450   -55.4440     0.0380     0.2580   -90.5490     5.4500     5.7080     6.5620   -73.9350   103.1690    10.4530
 2409.5000     2.5480   -55.8440     0.0440     0.2600   -90.5670     5.3630     5.6570     6.3270   -74.3240   104.2120    10.4540
 2410.0000     2.5460   -56.2440     0.0490     0.2700   -90.5850     5.2770     5.6050     6.0910   -74.7120   106.5180    10.4550
 2410.5000     2.5380   -56.6440     0.0560     0.2670   -90.6030     5.1900     5.5520     5.8550   -75.1000   108.9810    10.4560
 2411.0000     2.5290   -57.0440     0.0510     0.2620   -90.6210     5.1040     5.4390     5.7610   -75.4880   109.8670    10.4570
 2411.5000     2.5220   -57.4440     0.0450     0.2580   -90.6390     5.0180     5.3230     5.7970   -75.8760   108.3350    10.4580
 2412.0000     2.5150   -57.8440     0.0400     0.2680   -90.6570     4.9310     5.2070     5.8220   -76.2640   106.6790    10.4590
 2412.5000     2.5040   -58.2440     0.0330     0.2900   -90.6750     4.8450     5.0910     5.8470   -76.6530   107.0310    10.4600
 2413.0000     2.4960   -58.6440     0.0250     0.2880   -90.6930     4.7910     5.0600     5.8680   -77.0410   107.4120    10.4610
 2413.5000     2.4930   -59.0440     0.0180     0.2830   -90.7110     4.8290     5.0500     5.6340   -77.4290   107.3350    10.4620
 2414.0000     2.4970   -59.4440     0.0110     0.2810   -90.7280     4.8570     5.0400     5.4510   -77.8170   106.2070    10.4630
 2414.5000     2.4970   -59.8750     0.0030     0.2890   -90.7460     4.8850     5.0310     5.5900   -78.2050   106.4330    10.4630
 2415.0000     2.4960   -59.8750    -0.0040     0.2860   -90.7640     4.9130     5.0210     5.7190   -78.5930   106.4880    10.4640
 2415.5000     2.5050   -59.8750     0.0160     0.2800   -90.7820     4.9250     4.9940     5.8480   -78.9810   105.7340    10.4650
 2416.0000     2.5200   -59.8750     0.0570     0.2870   -90.8000     4.7980     4.9350     5.9220   -88.9640   104.1290    10.4660
 2416.5000     2.5290   -48.7270     0.0390     0.2940   -90.8180     4.7060     4.8760     5.8550   -80.8110   101.1140    10.4670
 2417.0000     2.5280   -30.6250     0.0210     0.2950   -90.8360     4.6130     4.7770     5.7870   -72.9880   100.2090    10.4680
 2417.5000     2.5290   -31.6800     0.0220     0.2940   -90.8550     4.5210     4.6690     5.5690   -69.5470   100.4910    10.4690
 2418.0000     2.5320   -33.6090     0.0350     0.2900   -90.9140     4.4290     4.5610     5.3500   -69.8360   102.6080    10.4700
 2418.5000     2.5360   -35.5380     0.0550     0.2820   -91.0220     4.3370     4.4520     5.1310   -70.1250   106.1030    10.4650
 2419.0000     2.5370   -37.4670     0.0550     0.2850   -91.1300     4.2890     4.3440     5.0020   -70.4140   109.6540    10.4580
 2419.5000     2.5340   -39.3960     0.0500     0.2880   -91.2390     4.1880     4.2500     4.9700   -70.7030   110.5450    10.4520
 2420.0000     2.5280   -41.3250     0.0280     0.2890   -91.3490     4.0950     4.1460     4.9390   -70.9920   111.5060    10.4460
 2420.5000     2.5190   -43.2540     0.0090     0.2750   -91.4600     4.0030     4.0360     4.9070   -71.2800   112.1000    10.4400
 2421.0000     2.5090   -45.1830     0.0160     0.2640   -91.3510     3.9100     3.9260     4.8760   -71.5690   111.5940    10.4330
 2421.5000     2.5000   -47.1120     0.0240     0.2620   -91.2220     3.8170     3.8160     4.8440   -71.8580   111.7690    10.4270
 2422.0000     2.4970   -49.0410     0.0300     0.2760   -91.0940     3.7250     3.7010     4.6770   -72.1470   112.3380    10.4210
 2422.5000     2.4910   -50.9700     0.0210     0.2870   -90.9660     3.6650     3.6810     4.4570   -72.4360   115.3570    10.4150
 2423.0000     2.4850   -52.8990     0.0120     0.2870   -90.8380     3.6550     3.6600     4.2370   -72.7250   118.4150    10.4090
 2423.5000     2.4790   -54.8280     0.0040     0.2860   -90.7100     3.6460     3.6390     4.0160   -73.0140   119.0100    10.4020
 2424.0000     2.4800   -56.7570     0.0060     0.2810   -90.5820     3.6360     3.6180     3.9480   -73.3030   114.0500    10.3960
 2424.5000     2.5140   -58.6860     0.0600     0.2720   -90.4630     3.6260     3.5910     4.6410   -73.5920    99.3790    10.3900
 2425.0000     2.5620   -59.3870     0.0610     0.2680   -90.4950     3.6170     3.5340     5.8680   -73.8810    87.9510    10.3840
 2425.5000     2.5530   -58.1180     0.0400     0.2770   -90.5350     3.6070     3.5250     5.3840   -74.1700    91.4450    10.3770
 2426.0000     2.5330   -56.8480     0.0210     0.2870   -90.5750     3.6000     3.5170     4.9000   -74.4590    98.3410    10.3710
 2426.5000     2.5120   -55.5780     0.0260     0.3200   -90.6150     3.6000     3.5080     4.4160   -74.7470   108.3390    10.3680
 2427.0000     2.5080   -54.3080     0.0300     0.3140   -90.6540     3.6000     3.5000     4.0830   -75.0360   114.3690    10.3640
 2427.5000     2.5090   -53.0380     0.0450     0.3030   -90.6940     3.6210     3.4910     4.0210   -75.3250   117.2530    10.3590
 2428.0000     2.5140   -51.7680     0.0640     0.2880   -90.7330     3.6750     3.4820     4.1950   -75.6140   118.1910    10.3550
 2428.5000     2.5200   -50.4980     0.0560     0.2780   -90.7730     3.7300     3.4700     4.4720   -75.9030   118.2110    10.3500
 2429.0000     2.5220   -40.3750     0.0480     0.2840   -90.8120     3.7610     3.5130     4.7910   -76.1920   117.9120    10.3450
 2429.5000     2.5240   -40.3750     0.0310     0.3040   -90.8540     3.7970     3.5970     4.7170   -76.4810   116.2350    10.3410
 2430.0000     2.5260   -40.3750     0.0390     0.3130   -90.8300     3.8340     3.6820     4.6380   -76.7700   115.9400    10.3360
 2430.5000     2.5270   -44.3770     0.0510     0.3030   -90.7650     3.8850     3.7670     4.5330   -77.0590   116.1280    10.3320
 2431.0000     2.5210   -49.2150     0.0400     0.2940   -90.7000     3.9570     3.8510     4.5490   -77.3480   115.2400    10.3270
 2431.5000     2.5150   -54.0530     0.0290     0.2890   -90.6350     4.0280     3.9360     4.5750   -77.6370   113.8200    10.3230
