~VERSION INFORMATION
 VERS.                2.0:   CWLS LOG ASCII STANDARD - VERSION 2.0
 WRAP.                 NO:   ONE LINE PER DEPTH STEP
~WELL INFORMATION
#MNEM.UNIT      DATA TYPE    INFORMATION
#----------   ------------   ------------------------------
 STRT.F           30.0000:   START DEPTH
 STOP.F         3240.0000:   STOP DEPTH
 STEP.F            0.5000:   STEP LENGTH
 NULL.          -999.2500:   NO VALUE
 COMP. LAWRENCE-ALLISON ASSOCIATES WES:   COMPANY
 WELL. LAWRENCE "AX" #87AX28:   WELL
 FLD .   TEAPOT N.P.R. #3:   FIELD
 LOC .      S28 T39N R78W:   LOCATION
 CNTY.            NATRONA:   COUNTY
 STAT.            WYOMING:   STATE
 CTRY. UNITED STATES OF AMERICA:   COUNTRY
 SRVC.       SCHLUMBERGER:   SERVICE COMPANY
 DATE.        28-MAY-1982:   LOGDATE
 API .     49025108860000:   API NUMBER
~CURVE INFORMATION
#MNEM.UNIT       API CODE    CURVE DESCRIPTION
#----------   ------------   ------------------------------
 DEPT.F                  :   
 TENR.LBS    07 635 01 00:   TENSION FROM RESISTIVITY
 GRR .GAPI   07 310 01 00:   GAMMA RAY FROM RESISTIVITY
 SPR .MV     07 010 01 00:   SPONTANEOUS POTENTIAL FROM RES.
 ILD .OHMM   07 120 46 00:   DEEP INDUCTION RESISTIVITY
 ILM .OHMM   07 120 44 00:   INDUCTION LOG MEDIUM RESISTIVITY
 SFL .OHMM   07 220 01 00:   SHALLOW FOCUSED LOG RESISITIVITY
 TEND.LBS    45 635 01 00:   TENSION FORM DENSITY LOG
 NPHI.DEC    42 890 03 00:   NEUTRON POROSITY SANDSTONE
 CALD.IN     45 280 60 00:   CALIPER FROM DENSITY LOG
 CORR.G/C3   45 356 01 00:   DENSITY CORRECTION
 RHOB.G/C3   45 350 01 00:   BULK DENSITY
~PARAMETER INFORMATION
#MNEM.UNIT          VALUE    DESCRIPTION
#----------   ------------   ------------------------------
 EKB .F         5070.0000:   Kelly bushing
 EGL .F         5060.0000:   Ground level
 TD  .F         3220.0000:   Total depth
 CLNT.            A2DTECH:   Client Code
 SL  . 1341' FSL & 162' FEL:   Surface Location
 PD  .                 GL:   Permanent Datum
 EPD .F              5060:   Elevation Permanent Datum
 LMF .                 KB:   Log Measured From
 DMF .                 KB:   Drilling Measured From
 DAPD.F                10:   Feet Above Permanent Datum
 DATE.        28-MAY-1982:   Date Logged [DD-MMM-YYYY]
 DD  .F              3220:   Depth driller
 DL  .F              3215:   Depth logger
 BLI .F              3212:   Bottom log interval
 TLI .F               489:   Top log interval
 CS1 .IN            9.625:   Casing size
 CBD1.      9.625" @ 461':   Casing driller 1
 CBL1.F               489:   Casing logger 1
 BS1 .IN            9.750:   Bit size
 BSD1.F              3220:   Depth drilled with bit1
 DFT .          POLY./KCL:   Type fluid in hole
 DFD .                8.8:   Density
 DFV .                 44:   Viscosity
 DFPH.                7.0:   pH
 DFL .                8.0:   Fluid loss
 MSS .           MUD TANK:   Source of sample
 RMS .OHMM          0.778:   Rm
 MST .F                65:   Rm Meas. temp.
 RMF .OHMM          0.710:   Rmf
 MFST.F                67:   Rmf Meas. temp.
 MFSS.               MEAS:   Source Rmf.
 RMB .OHMM          0.447:   Rm. at BHT
 BHT .F               118:   BHT.
 TCS .HRS            2000:   Time Circ. stopped
 TLAB.HRS            2430:   Time logger at bottom
 MRT .F               118:   Maximum recorded temp.
 LUN .               8043:   Logging unit number
 LUL .               CSPR:   Logging unit location
 ENGI.             DENNIS:   Recorded By
 WITN.             STRONG:   Witnessed by
 ORIG.           5" PRINT:   Origin of data
 UWI .     49025108860000:   Unique Well ID
 DICO. A2D TECHNOLOGIES, INC.:   Digitizing Company
~OTHER INFORMATION
~A   DEPT     TENR         GRR       SPR        ILD        ILM        SFL       TEND       NPHI       CALD       CORR       RHOB   
# ...
 1189.0000   825.1697    90.4866   -37.4249     9.1595     8.4288     9.3786  1016.7866    -0.0810    11.0873    -0.0043     2.4866
 1189.5000   823.0584    92.5565   -37.7252     9.0353     8.3171     9.2537  1017.0515    -0.0809    11.0872    -0.0105     2.4895
 1190.0000   821.3698    94.1662   -37.8724     8.9114     8.2642     9.0637  1017.3163    -0.0841    11.0870    -0.0089     2.5106
 1190.5000   835.6793    88.9100   -37.8650     8.7920     8.2116     9.0055  1017.5812    -0.0788    11.1021    -0.0026     2.5270
 1191.0000   833.5680    87.3158   -37.7060     8.6728     8.0435     8.8206  1017.8460    -0.0720    11.1020     0.0037     2.5426
 1191.5000   831.8790    88.0139   -37.6810     8.5553     7.8784     8.7031  1018.1109    -0.0668    11.1018     0.0101     2.5535
 1192.0000   830.1899    87.3357   -37.5395     8.4970     7.7099     8.5841  1018.3757    -0.0699    11.1169     0.0171     2.5536
 1192.5000   828.4657    87.1134   -37.8398     8.3845     7.5598     8.5290  1018.6406    -0.0721    11.1015     0.0202     2.5440
 1193.0000   810.8132    88.7275   -37.8339     8.3910     7.5670     8.4743  1018.9055    -0.0697    11.1014     0.0172     2.5335
 1193.5000   809.1241    92.1714   -37.8280     8.3962     7.6270     8.4820  1019.1703    -0.0629    11.1012     0.0102     2.5180
 1194.0000   807.4355    96.7604   -37.8220     8.4616     7.6328     8.4919  1019.4351    -0.0524    11.0858     0.0032     2.5040
 1194.5000   805.7465    99.0595   -37.8161     8.5275     7.7486     8.6182  1019.7000    -0.0466    11.0856    -0.0006     2.4940
 1195.0000   804.0574    95.6353   -37.8101     8.6554     7.8661     8.7488  1019.9648    -0.0448    11.0855    -0.0038     2.4956
 1195.5000   802.3683    93.3540   -37.8040     8.7899     7.8780     8.8813  1020.2297    -0.0467    11.0853    -0.0052     2.5003
 1196.0000   800.6232    92.4469   -37.7968     8.9822     7.9929     9.0159  1020.4946    -0.0595    11.0852    -0.0043     2.5068
 1196.5000   798.5680    91.3107   -37.6377     9.1822     8.1141     9.1525  1020.7594    -0.0742    11.0850    -0.0027     2.5160
 1197.0000   796.8790    89.4882   -37.3255     9.1879     8.3558     9.3579  1021.0242    -0.0789    11.0849     0.0020     2.5238
 1197.5000   810.7667    85.8329   -37.1665     9.1936     8.4825     9.5013  1021.2891    -0.0810    11.0847     0.0091     2.5339
 1198.0000   809.0776    84.0097   -37.1605     9.2652     8.6111     9.6452  1021.5540    -0.0801    11.0846     0.0225     2.5441
 1198.5000   807.3885    85.3926   -37.1546     9.2709     8.6176     9.5816  1021.8188    -0.0789    11.0692     0.0263     2.5403
 1199.0000   821.2758    85.8594   -37.1485     9.2767     8.6242     9.5219  1022.0837    -0.0777    11.0690     0.0116     2.5325
 1199.5000   819.1645    84.0384   -36.9881     9.2165     8.3892     9.5972  1022.3485    -0.0780    11.0688     0.0046     2.5241
 1200.0000   833.4739    83.5870   -36.9822     9.2237     8.3342     9.7426  1022.6133    -0.0814    11.0840    -0.0008     2.5187
 1200.5000   847.3616    84.2844   -37.1294     9.2300     8.1644    10.1166  1022.8782    -0.0874    11.0607    -0.0038     2.5163
 1201.0000   845.2499    87.0413   -37.1234     9.1691     8.1725     9.8278  1023.1431    -0.0955    11.0602    -0.0046     2.5195
 1201.5000   843.5613    90.8150   -37.2721     9.1102     8.1789     9.2873  1023.4079    -0.1071    11.0597     0.0004     2.5260
 1202.0000   841.8723    93.2443   -37.2703     9.1180     8.2441     9.2258  1023.6728    -0.1084    11.0593     0.0080     2.5366
 1202.5000   840.1481    94.6271   -37.5732     9.1245     8.2506     9.3001  1023.9376    -0.0947    11.0588     0.0089     2.5243
 1203.0000   838.0720    95.5520   -37.5677     9.1321     8.3164     9.3065  1024.2025    -0.0783    11.0584     0.0082     2.5135
 1203.5000   836.3829    96.4768   -37.5633     9.1384     8.5034     9.4474  1024.4673    -0.0607    11.0579     0.0067     2.5105
 1204.0000   834.6938    95.7986   -37.7121     9.2101     8.6342     9.5916  1024.7322    -0.0537    11.0575     0.0044     2.5144
 1204.5000   833.0048    92.7329   -37.7075     9.3489     8.7654     9.7365  1024.9971    -0.0617    11.0569     0.0021     2.5114
 1205.0000   846.9626    87.1161   -37.7021     9.4223     8.9624     9.8837  1025.2618    -0.0713    11.0565     0.0030     2.5084
 1205.5000   829.6270    84.6058   -37.6976     9.6405     9.0986    10.1777  1025.5267    -0.0819    11.0561     0.0101     2.5146
 1206.0000   827.8817    85.3017   -37.6932     9.7100     9.1058    10.1847  1025.7916    -0.0862    11.0556     0.0070     2.5186
 1206.5000   825.8267    87.6006   -37.6888     9.7862     9.0481    10.3388  1026.0564    -0.0905    11.0706    -0.0007     2.5202
 1207.0000   824.1376    89.6704   -37.5312     9.7929     8.9286    10.2737  1026.3213    -0.0966    11.0853    -0.0038     2.5233
 1207.5000   838.4471    92.0002   -37.5268     9.7283     8.8088    10.2075  1026.5862    -0.1064    11.0849     0.0025     2.5280
 1208.0000   852.3348    95.1864   -37.2150     9.6673     8.7530    10.1399  1026.8510    -0.1074    11.0865     0.0088     2.5345
 1208.5000   850.2235    95.4221   -36.9043     9.5316     8.7600     9.9331  1027.1158    -0.1031    11.0993     0.0121     2.5297
 1209.0000   848.5204    90.6239   -36.7468     9.4757     8.8298     9.8689  1027.3807    -0.0998    11.0987     0.0050     2.5104
 1209.5000   846.4232    87.8846   -36.4361     9.4148     8.8367     9.7355  1027.6455    -0.0944    11.0983    -0.0014     2.4934
 1210.0000   844.7342    84.2293   -36.2785     9.4229     8.8525     9.8843  1027.9104    -0.0813    11.0978    -0.0050     2.4927
 1210.5000   827.4688    82.3998   -36.2741     9.4293     8.9160     9.9621  1028.1753    -0.0664    11.0974    -0.0049     2.4967
 1211.0000   825.7797    82.1859   -36.2695     9.3686     8.8577    10.1127  1028.4401    -0.0625    11.0969    -0.0025     2.4991
 1211.5000   840.0891    82.8839   -36.2641     9.3085     8.7407    10.1197  1028.7050    -0.0668    11.0965     0.0014     2.5084
 1212.0000   837.9779    84.2667   -36.2597     9.2487     8.6218     9.9826  1028.9698    -0.0760    11.0959     0.0140     2.5208
 1212.5000   836.2537    85.6496   -36.2553     9.1239     8.3871     9.7021  1029.2346    -0.0836    11.0955     0.0241     2.5364
 1213.0000   834.1780    86.8034   -36.2509     9.0653     8.3939     9.4418  1029.4995    -0.0901    11.0951     0.0281     2.5519
 1213.5000   832.4890    87.2703   -36.3997     9.0070     8.4623     9.4483  1029.7644    -0.0959    11.0946     0.0290     2.5613
 1214.0000   830.7999    87.0501   -36.3951     9.0147     8.3488     9.4548  1030.0292    -0.0996    11.1096     0.0251     2.5489
 1214.5000   829.1108    86.3718   -36.3896     9.0209     8.2943     9.7361  1030.2941    -0.1075    11.1090     0.0010     2.5397
 1215.0000   827.4218    86.1516   -36.6915     8.9629     8.3025     9.9542  1030.5590    -0.1009    11.1086    -0.0028     2.5460
 1215.5000   825.7327    86.6207   -36.8402     9.0348     8.3091     9.9611  1030.8237    -0.0881    11.1081    -0.0004     2.5491
 1216.0000   823.9875    85.7134   -36.8358     8.9752     8.2564     9.4825  1031.0886    -0.0918    11.1076     0.0043     2.5384
 1216.5000   821.9324    83.8902   -36.8314     8.9829     8.2041     9.2212  1031.3535    -0.0977    11.1071     0.0091     2.5175
 1217.0000   820.2437    82.9830   -36.8269     8.8617     8.2123     9.1618  1031.6183    -0.0992    11.1108     0.0099     2.5052
 1217.5000   834.5532    84.5970   -36.8224     8.8048     8.1602     9.1681  1031.8832    -0.0980    11.1216     0.0084     2.5115
 1218.0000   832.4420    89.8730   -36.9712     8.8108     8.1667     9.1744  1032.1481    -0.0918    11.1211     0.0061     2.5200
 1218.5000   830.7529    91.2559   -36.9657     8.6934     8.1732     9.1808  1032.4128    -0.0783    11.1206     0.0039     2.5209
 1219.0000   829.0497    91.7227   -36.8082     8.6361     8.1796     9.1886  1032.6777    -0.0659    11.1049     0.0016     2.5140
