~VERSION INFORMATION
 VERS.                2.0:   CWLS LOG ASCII STANDARD - VERSION 2.0
 WRAP.                 NO:   ONE LINE PER DEPTH STEP
~WELL INFORMATION
#MNEM.UNIT      DATA TYPE    INFORMATION
#----------   ------------   ------------------------------
 STRT.F          206.0000:   START DEPTH
 STOP.F         2974.0000:   STOP DEPTH
 STEP.F            0.5000:   STEP LENGTH
 NULL.          -999.2500:   NO VALUE
 COMP.    FENIX & SCISSON:   COMPANY
 WELL.    FENIX AX #32-21:   WELL
 FLD .                NPR:   FIELD
 LOC .      S21 T39N R78W:   LOCATION
 CNTY.            NATRONA:   COUNTY
 STAT.            WYOMING:   STATE
 CTRY. UNITED STATES OF AMERICA:   COUNTRY
 SRVC.              WELEX:   SERVICE COMPANY
 DATE.        29-JUL-1977:   LOGDATE
 API .     49025104050000:   API NUMBER
~CURVE INFORMATION
#MNEM.UNIT       API CODE    CURVE DESCRIPTION
#----------   ------------   ------------------------------
 DEPT.F                  :   
 SPR .MV     07 010 01 00:   SPONTANEOUS POTENTIAL
 RILM.OHMM   07 120 44 00:   INDUCTION LOG MEDIUM RESISTIVITY
 RILD.OHMM   07 120 46 00:   INDUCTION LOG DEEP RESISTIVITY
 SGRD.OHMM   07 220 05 00:   SHALLOW GUARD LOG RESISTIVITY
 CALD.IN     45 280 60 00:   CALIPER FROM DENSITY LOG
 RHOB.G/C3   45 350 01 00:   BULK DENSITY
 DCOR.G/C3   45 356 01 00:   DENSITY CORRECTION
 GRD .GAPI   45 310 01 00:   GAMMA RAY FROM DENSITY LOG
~PARAMETER INFORMATION
#MNEM.UNIT          VALUE    DESCRIPTION
#----------   ------------   ------------------------------
 EKB .F         4995.0000:   Kelly bushing
 EGL .F         4985.0000:   Ground level
 EDF .F            0.0000:   Drilling floor
 EPD .F         4985.0000:   Permanent datum
 TD  .F         2978.0000:   Total depth
 DATE.        29-JUL-1977:   Date logged
 CLNT.            A2DTECH:   Client Code
 SL  . 1040' FNL & 1500' FWL:   Surface Location
 PD  .                 GL:   Permanent Datum
 LMF .                 KB:   Log Measured From
 DMF .                 KB:   Drilling Measured From
 DAPD.F                10:   Feet Above Permanent Datum
 DD  .F              2972:   Depth driller
 DL  .F              2978:   Depth logger
 BLI .F              2976:   Bottom log interval
 TLI .F               120:   Top log interval
 CS1 .IN            8.625:   Casing size
 CBD1.      8.625" @ 205':   Casing driller 1
 CBL1.F               220:   Casing logger 1
 BS1 .IN            7.875:   Bit size
 BSD1.F              2972:   Depth drilled with bit1
 DFT .                KCL:   Type fluid in hole
 DFD .                9.2:   Density
 DFV .                 43:   Viscosity
 DFPH.                 10:   pH
 DFL .                  8:   Fluid loss
 MSS .            MUD PIT:   Source of sample
 RMS .OHMM            .21:   Rm
 MST .F                91:   Rm Meas. temp.
 RMF .OHMM            .18:   Rmf
 MFST.F                91:   Rmf Meas. temp.
 RMC .OHMM            .23:   Rmc
 MCST.F                91:   Rmc Meas. temp.
 MFSS.               MEAS:   Source Rmf.
 MCSS.               MEAS:   Source Rmc.
 RMB .OHMM            .17:   Rm. at BHT
 BHT .F               110:   BHT.
 TCS .HRS               3:   Time Circ. stopped
 MRT .F               110:   Maximum recorded temp.
 LUN .               9685:   Logging unit number
 LUL .             CASPER:   Logging unit location
 ENGI.   T JOYNER/ E HOCH:   Recorded By
 WITN.         PETTINGILL:   Witnessed by
 ORIG.     2.5", 5" PRINT:   Origin of data
 UWI .     49025104050000:   Unique Well ID
 DICO. A2D TECHNOLOGIES, INC.:   Digitizing Company
~OTHER INFORMATION
~A   DEPT      SPR       RILM       RILD       SGRD       CALD       RHOB       DCOR         GRD  
# ...
 1664.0000   -74.6890     6.7360     6.3680    10.5990     8.4530     2.5050     0.0510   137.0600
 1664.5000   -74.7060     6.7430     6.4290    11.4920     8.4530     2.5040     0.0490   137.3280
 1665.0000   -74.6990     6.7500     6.4860    10.4830     8.4520     2.5120     0.0500   137.5460
 1665.5000   -74.7030     6.7580     6.4870    10.6490     8.4510     2.5210     0.0540   137.7180
 1666.0000   -74.7000     6.7660     6.4870    10.8770     8.4510     2.5300     0.0590   137.8350
 1666.5000   -74.6840     6.7740     6.4870    10.6000     8.4500     2.5400     0.0630   138.5550
 1667.0000   -74.4620     6.7820     6.4870    10.3420     8.4490     2.5430     0.0630   139.7810
 1667.5000   -74.2630     6.7900     6.4870    10.0840     8.4490     2.5350     0.0600   142.3900
 1668.0000   -74.0510     6.7970     6.4870     9.7370     8.4480     2.5280     0.0580   144.4770
 1668.5000   -73.8470     6.8050     6.4960     9.8640     8.4480     2.5210     0.0560   146.6300
 1669.0000   -73.6400     6.8130     6.5100    10.0600     8.4470     2.5180     0.0560   146.0000
 1669.5000   -73.4320     6.8210     6.5240    10.2550     8.4460     2.5150     0.0560   146.7440
 1670.0000   -73.2260     6.8290     6.5370    10.4500     8.4460     2.5120     0.0560   145.9670
 1670.5000   -73.0190     6.8360     6.5510    10.6780     8.4450     2.5090     0.0560   144.4050
 1671.0000   -72.8120     6.8440     6.5650    10.5980     8.4440     2.5050     0.0550   142.8630
 1671.5000   -72.6070     6.8510     6.5780    10.5030     8.4440     2.4980     0.0530   141.4560
 1672.0000   -72.3950     6.8810     6.5930    10.4070     8.4430     2.4900     0.0510   139.7460
 1672.5000   -72.2780     6.9430     6.6090    10.3120     8.4430     2.4900     0.0500   139.9310
 1673.0000   -72.2330     7.0050     6.7010    10.2160     8.4420     2.4920     0.0480   140.3030
 1673.5000   -72.1820     7.0670     6.8150    10.1030     8.4410     2.4920     0.0450   140.7200
 1674.0000   -72.1320     7.1260     6.9280    10.1510     8.4410     2.4880     0.0420   141.1810
 1674.5000   -72.0820     7.1860     7.0420    10.2100     8.4400     2.4770     0.0390   140.9250
 1675.0000   -72.0320     7.2470     7.1560    10.2690     8.4400     2.4670     0.0360   140.4020
 1675.5000   -71.9830     7.0700     7.2470    10.3280     8.4390     2.4550     0.0320   139.6790
 1676.0000   -71.9290     6.8930     7.0270    10.3870     8.4380     2.4560     0.0350   138.7600
 1676.5000   -71.9340     6.7160     6.8440    10.4830     8.4380     2.4660     0.0370   137.8880
 1677.0000   -71.9800     6.5390     6.6700    10.2610     8.4370     2.4760     0.0390   136.8250
 1677.5000   -72.0210     6.3620     6.5110     9.6860     8.4360     2.4850     0.0420   137.0910
 1678.0000   -72.0620     6.1240     6.3520     9.3920     8.4360     2.4920     0.0440   139.3540
 1678.5000   -72.1050     5.7860     6.1930     9.1780     8.4350     2.4880     0.0470   140.4760
 1679.0000   -72.1460     5.4470     6.0340     8.8690     8.4350     2.4860     0.0490   140.0370
 1679.5000   -72.1860     5.1090     5.8750     8.3970     8.4340     2.4910     0.0510   139.7150
 1680.0000   -72.2320     4.7700     5.7160     7.5910     8.4330     2.4960     0.0540   139.8370
 1680.5000   -72.2690     4.4850     5.5570     5.2950     8.4330     2.5020     0.0560   140.3050
 1681.0000   -72.3000     4.7340     5.3980     5.8420     8.4320     2.5080     0.0590   140.7680
 1681.5000   -72.1590     4.9180     5.2040     7.3880     8.4310     2.5100     0.0610   141.2510
 1682.0000   -72.0180     4.7410     5.2160     8.5560     8.4310     2.5040     0.0640   142.5980
 1682.5000   -71.9120     4.4850     5.2400     8.1120     8.4300     2.4990     0.0610   143.9500
 1683.0000   -71.9140     4.5790     5.2650     7.2920     8.4300     2.4960     0.0540   145.3770
 1683.5000   -71.9120     4.8580     5.2910     6.4730     8.4290     2.4890     0.0490   146.7090
 1684.0000   -71.9130     5.1380     5.2820     7.0990     8.4280     2.4780     0.0430   148.2880
 1684.5000   -71.9120     5.4170     5.2630     9.0440     8.4280     2.4680     0.0370   149.1580
 1685.0000   -71.9120     5.5500     5.2450     8.9590     8.4270     2.4640     0.0340   150.2860
 1685.5000   -71.9120     5.6280     5.2260     8.6970     8.4260     2.4590     0.0310   150.7190
 1686.0000   -71.9120     5.7060     5.2070     8.4350     8.4260     2.4570     0.0290   150.1320
 1686.5000   -71.9150     5.7840     5.1980     8.1090     8.4250     2.4570     0.0270   150.7100
 1687.0000   -71.8840     5.8620     5.1980     8.1430     8.4250     2.4510     0.0240   152.9730
 1687.5000   -71.8190     5.9400     5.1970     8.2110     8.4240     2.4440     0.0210   153.8690
 1688.0000   -71.7560     6.0250     5.1970     8.2780     8.4230     2.4350     0.0210   153.1650
 1688.5000   -71.6980     6.0050     5.1980     8.3460     8.4230     2.4370     0.0260   152.6500
 1689.0000   -71.6270     5.9820     5.1980     8.4130     8.4220     2.4460     0.0290   152.1320
 1689.5000   -71.5720     5.9590     5.1980     8.4810     8.4210     2.4540     0.0330   151.8690
 1690.0000   -71.5430     5.9360     5.0900     8.5560     8.4210     2.4620     0.0370   150.3320
 1690.5000   -71.8950     5.9150     4.9310     8.2320     8.4200     2.4650     0.0410   147.8110
 1691.0000   -72.2150     5.7460     4.7730     7.8630     8.4200     2.4670     0.0450   146.0100
 1691.5000   -72.5570     5.5890     4.6140     7.5190     8.4210     2.4680     0.0490   145.6170
 1692.0000   -72.8870     5.4320     4.4560     7.3900     8.4220     2.4700     0.0530   145.1790
 1692.5000   -73.2210     5.2750     4.2970     7.2690     8.4220     2.4720     0.0570   143.6260
 1693.0000   -73.5530     5.1180     3.9630     7.1480     8.4230     2.4710     0.0610   141.6190
 1693.5000   -73.8880     4.9610     3.5370     7.0270     8.4240     2.4610     0.0640   139.5560
 1694.0000   -74.2200     4.8030     3.2540     5.9290     8.4240     2.4420     0.0620   138.7410
 1694.5000   -74.5490     4.6530     3.5600     3.7290     8.4250     2.4250     0.0600   138.8000
 1695.0000   -74.9060     4.5990     4.0590     4.1570     8.4260     2.4070     0.0580   138.8510
 1695.5000   -75.1680     4.5470     4.7400     5.6440     8.4260     2.3890     0.0560   138.2580
 1696.0000   -75.2850     4.4950     4.4530     7.3820     8.4270     2.3760     0.0490   136.8330
 1696.5000   -75.4470     4.4430     4.0150     6.3680     8.4280     2.3760     0.0410   135.4530
 1697.0000   -75.4340     4.4030     4.0700     6.5290     8.4280     2.4110     0.0380   133.9640
 1697.5000   -75.2830     4.0990     4.1500     6.7840     8.4290     2.4680     0.0440   133.1260
 1698.0000   -75.1550     3.7310     4.1430     6.9180     8.4300     2.4620     0.0480   133.1990
 1698.5000   -75.0220     3.3630     4.0420     6.6110     8.4300     2.4440     0.0480   133.2880
 1699.0000   -74.8830     2.9940     3.9400     5.9950     8.4310     2.4250     0.0480   132.3880
 1699.5000   -74.7680     2.6750     3.8390     4.2050     8.4320     2.4060     0.0480   130.9620
 1700.0000   -74.5240     2.9780     3.7980     2.7750     8.4320     2.3950     0.0480   129.3630
 1700.5000   -74.1860     3.4820     3.7980     4.3950     8.4330     2.3890     0.0480   130.5340
 1701.0000   -73.8680     3.9860     3.9260     5.7440     8.4340     2.3860     0.0480   132.1600
 1701.5000   -73.5490     4.4900     4.1410     6.4870     8.4340     2.4000     0.0480   134.4400
 1702.0000   -73.2260     4.9940     4.3560     8.1940     8.4350     2.4390     0.0480   137.3240
 1702.5000   -72.9070     5.1740     4.6930     8.1020     8.4360     2.4800     0.0450   140.2720
 1703.0000   -72.5860     5.2640     5.0640     7.8020     8.4360     2.4820     0.0410   141.3590
 1703.5000   -72.2650     5.3550     5.4340     7.8700     8.4370     2.4810     0.0390   142.7990
 1704.0000   -71.9450     5.5430     5.8050     8.3170     8.4380     2.4840     0.0380   144.7200
