~VERSION INFORMATION
 VERS.                2.0:   CWLS LOG ASCII STANDARD - VERSION 2.0
 WRAP.                 NO:   ONE LINE PER DEPTH STEP
~WELL INFORMATION
#MNEM.UNIT      DATA TYPE    INFORMATION
#----------   ------------   ------------------------------
 STRT.F           41.0000:   START DEPTH
 STOP.F          925.0000:   STOP DEPTH
 STEP.F            0.5000:   STEP LENGTH
 NULL.          -999.2500:   NO VALUE
 COMP. LAWRENCE ALLISON & ASSOCIATION:   COMPANY
 WELL. LAWRENCE ALLISON #48-2:   WELL
 FLD .       N.P.R. NO. 3:   FIELD
 LOC .       S2 T38N R78W:   LOCATION
 CNTY.            NATRONA:   COUNTY
 STAT.            WYOMING:   STATE
 CTRY. UNITED STATES OF AMERICA:   COUNTRY
 SRVC.       SCHLUMBERGER:   SERVICE COMPANY
 DATE.        06-SEP-1982:   LOGDATE
 API .     49025109110000:   API NUMBER
~CURVE INFORMATION
#MNEM.UNIT       API CODE    CURVE DESCRIPTION
#----------   ------------   ------------------------------
 DEPT.F                  :   
 ILM .OHMM   07 120 44 00:   INDUCTION LOG MEDIUM RESISTIVITY
 ILD .OHMM   07 120 46 00:   DEEP INDUCTION RESISTIVITY
 CALD.IN     45 280 60 00:   CALIPER FROM DENSITY LOG
 GRD .GAPI   45 310 01 00:   GAMMA RAY FROM DENSITY LOG
 TEND.LBS    45 635 01 00:   TENSION FROM DENSITY LOG
 CORR.G/C3   45 356 01 00:   DENSITY CORRECTION
 RHOB.G/C3   45 350 01 00:   BULK DENSITY
 NPHI.DEC    42 890 03 00:   NEUTRON POROSITY SANDSTONE
~PARAMETER INFORMATION
#MNEM.UNIT          VALUE    DESCRIPTION
#----------   ------------   ------------------------------
 EKB .F         5192.0000:   Kelly bushing
 EGL .F         5182.0000:   Ground level
 TD  .F          920.0000:   Total depth
 CLNT.            A2DTECH:   Client Code
 DATE.         6-SEP-1982:   Date Logged [DD-MMM-YYYY]
 DD  .F               920:   Depth driller
 DL  .F               918:   Depth logger
 BLI .F               908:   Bottom log interval
 TLI .F                49:   Top log interval
 CBL1.IN               49:   Casing logger 1
 BSD1.F               920:   Depth drilled with bit1
 DFT .                AIR:   Type fluid in hole
 TCS .HRS            0730:   Time Circ. stopped
 TLAB.HRS            0900:   Time logger at bottom
 LUN .               8035:   Logging unit number
 LUL .               CSPR:   Logging unit location
 ENGI.              PENNY:   Recorded By
 WITN.           JENNINGS:   Witnessed by
 ORIG.           5" PRINT:   Origin of data
 UWI .     49025109110000:   Unique Well ID
 DICO. A2D TECHNOLOGIES, INC.:   Digitizing Company
 PD  .                 GL:   Permanent Datum
 EPD .               5180:   Elevation Permanent Datum
 LMF .                 KB:   Log Measured From
 DMF .                 KB:   Drilling Measured From
 DAPD.                 10:   Feet Above Permanent Datum
~OTHER INFORMATION
~A   DEPT      ILM        ILD       CALD         GRD      TEND       CORR       RHOB       NPHI   
# ...
  567.5000     9.5387     9.6854    12.8819   125.1416   695.4208     0.0284     2.4291  -999.2500
  568.0000     9.2657     9.6153    12.8828   124.0123   695.4206     0.0300     2.4236  -999.2500
  568.5000     9.0792     9.4095    12.8837   120.3217   695.4203     0.0284     2.4080  -999.2500
  569.0000     8.9516     9.1417    12.8845   117.6316   695.4201     0.0261     2.3987  -999.2500
  569.5000     8.9548     8.9398    12.8854   121.7734   695.4199     0.0278     2.3986  -999.2500
  570.0000     8.9573     8.8815    12.8863   126.1403   695.4196     0.0285     2.4105  -999.2500
  570.5000     9.0244     8.9451    12.8871   128.4461   695.4194     0.0222     2.4175  -999.2500
  571.0000     9.0269     8.8803    12.8880   128.6869   695.4191     0.0191     2.4175  -999.2500
  571.5000     9.0294     8.7529    12.8891   123.8974   695.4188     0.0254     2.4151  -999.2500
  572.0000     8.9667     8.6273    12.8900   118.1880   695.4186     0.0317     2.4176  -999.2500
  572.5000     8.7160     8.5649    12.8758   116.5967   695.4183     0.0333     2.4145  -999.2500
  573.0000     8.5327     8.5643    12.8769   121.6546   695.4181     0.0223     2.4044  -999.2500
  573.5000     8.4090     8.5637    12.8778   128.0826   695.4178     0.0160     2.3958  -999.2500
  574.0000     8.2365     8.4408    12.8787   132.4494   695.4176     0.0168     2.3896  -999.2500
  574.5000     8.1219     8.3197    12.8645   132.4652   695.4174     0.0231     2.3888  -999.2500
  575.0000     8.0655     8.2004    12.8361   130.1908   695.4171     0.0271     2.4013  -999.2500
  575.5000     8.0683     8.1409    12.8369   127.4086   695.4169     0.0318     2.4092  -999.2500
  576.0000     8.0706     8.0820    12.8378   123.2182   695.4166     0.0365     2.4131  -999.2500
  576.5000     8.0729     8.0236    12.8387   120.1657   695.4164     0.0414     2.4123  -999.2500
  577.0000     8.0751     8.0230    12.8396   118.8074   695.4161     0.0542     2.4178  -999.2500
  577.5000     8.0774     8.0805    12.8406   117.2200   695.4159     0.0660     2.4265  -999.2500
  578.0000     8.0797     8.1382    12.8415   115.8617   695.4156     0.0782     2.4344  -999.2500
  578.5000     8.1988     8.3149    12.8424   116.1065   695.4154     0.0766     2.4366  -999.2500
  579.0000     8.5009     8.4348    12.8432   117.0383   695.4152     0.0735     2.4335  -999.2500
  579.5000     8.6263     8.5586    12.8441   118.8861   695.4149     0.0759     2.4343  -999.2500
  580.0000     8.5056     8.6175    12.8154   121.4209   695.4147     0.0720     2.4351  -999.2500
  580.5000     8.4478     8.5550    12.8013   124.1847   695.4144     0.0587     2.4180  -999.2500
  581.0000     8.2701     8.4322    12.8024   127.1776   695.4142     0.0406     2.4055  -999.2500
  581.5000     8.0383     8.3113    12.8033   128.3383   695.4139     0.0383     2.3977  -999.2500
  582.0000     7.8129     8.0751    12.8041   128.8134   695.4137     0.0399     2.3993  -999.2500
  582.5000     7.4856     7.6782    12.8050   129.0582   695.4135     0.0408     2.3962  -999.2500
  583.0000     7.3282     7.4600    12.8059   126.5548   695.4131     0.0352     2.3822  -999.2500
  583.5000     7.1736     7.1960    12.8070   121.9904   695.4129     0.0321     2.3744  -999.2500
  584.0000     7.0737     6.9915    12.8078   119.2581   695.4127     0.0380     2.3815  -999.2500
  584.5000     6.9749     6.8419    12.8235   118.1288   695.4124     0.0513     2.3996  -999.2500
  585.0000     6.9769     6.8365    12.8243   120.0690   695.4122     0.0596     2.4122  -999.2500
  585.5000     6.9790     6.8409    12.8252   125.7214   695.4119     0.0619     2.4182  -999.2500
  586.0000     6.9813     6.8403    12.8261   131.0044   695.4117     0.0471     2.4096  -999.2500
  586.5000     6.9833     6.8893    12.8417   133.3102   695.4114     0.0384     2.4050  -999.2500
  587.0000     6.9852     6.9885    12.8426   132.1809   695.4112     0.0408     2.4097  -999.2500
  587.5000     7.0375     6.9880    12.8434   131.7347   695.4109     0.0479     2.4167  -999.2500
  588.0000     7.0395     7.0380    12.8295   131.9834   695.4107     0.0502     2.4238  -999.2500
  588.5000     7.0415     7.0374    12.8304   132.2281   695.4105     0.0408     2.4230  -999.2500
  589.0000     7.0942     7.0369    12.8313   132.4729   695.4102     0.0354     2.4215  -999.2500
  589.5000     7.1473     7.0872    12.8324   131.5726   695.4100     0.0307     2.4168  -999.2500
  590.0000     7.2009     7.1413    12.8182   129.5273   695.4097     0.0252     2.4114  -999.2500
  590.5000     7.2039     7.2492    12.8193   127.9399   695.4095     0.0213     2.4122  -999.2500
  591.0000     7.3148     7.3981    12.8202   127.4977   695.4092     0.0262     2.4185  -999.2500
  591.5000     7.5247     7.5046    12.8211   127.5134   695.4090     0.0340     2.4247  -999.2500
  592.0000     7.6356     7.6127    12.8219   126.5034   695.4088     0.0315     2.4180  -999.2500
  592.5000     7.8040     7.6673    12.8228   124.7968   695.4085     0.0237     2.4076  -999.2500
  593.0000     7.8625     7.7221    12.8237   128.2516   695.4083     0.0198     2.4037  -999.2500
  593.5000     7.9214     7.8333    12.8393   131.9314   695.4080     0.0175     2.4084  -999.2500
  594.0000     7.9236     7.8892    12.8402   134.6953   695.4078     0.0253     2.4209  -999.2500
  594.5000     7.9258     7.8886    12.8410   135.1690   695.4075     0.0300     2.4303  -999.2500
  595.0000     7.9280     7.8881    12.8419   135.6428   695.4072     0.0324     2.4342  -999.2500
  595.5000     7.9874     7.8875    12.8430   136.5746   695.4070     0.0340     2.4296  -999.2500
  596.0000     7.9325     7.7742    12.8439   137.7353   695.4067     0.0340     2.4203  -999.2500
  596.5000     7.6704     7.6627    12.8595   136.1480   695.4065     0.0301     2.4148  -999.2500
  597.0000     7.6704     7.6073    12.8751   132.2706   695.4062     0.0238     2.4125  -999.2500
  597.5000     7.6704     7.5522    12.8760   131.1412   695.4060     0.0176     2.4086  -999.2500
  598.0000     7.6704     7.4482    12.8769   132.5586   695.4058     0.0137     2.4040  -999.2500
  598.5000     7.5611     7.3933    12.8777   135.1183   695.4055     0.0105     2.4044  -999.2500
  599.0000     7.5611     7.4451    12.8786   137.8337   695.4053     0.0310     2.4337  -999.2500
  599.5000     7.5611     7.5513    12.8795   140.5976   695.4050     0.0451     2.4524  -999.2500
  600.0000     7.6704     7.5493    12.8601   148.6286   695.4048     0.0553     2.4672  -999.2500
  600.5000     7.6704     7.6026    12.8517   150.4764   680.0618     0.0632     2.4626  -999.2500
  601.0000     7.6704     7.6006    12.8380   147.9730   680.0618     0.0483     2.4470  -999.2500
  601.5000     7.5611     7.5445    12.8392   138.8285   680.0618     0.0483     2.4447  -999.2500
  602.0000     7.4533     7.4352    12.8402   136.5559   680.0618     0.0476     2.4447  -999.2500
  602.5000     7.4533     7.4337    12.8413   135.8926   680.0618     0.0460     2.4375  -999.2500
  603.0000     7.5070     7.4321    12.8423   135.4570   680.0618     0.0424     2.4253  -999.2500
  603.5000     7.5611     7.4842    12.8433   131.5818   680.0618     0.0311     2.4183  -999.2500
  604.0000     7.6155     7.4290    12.8443   126.3325   680.0618     0.0249     2.4198  -999.2500
  604.5000     7.5611     7.2645    12.8455   125.4299   680.0618     0.0311     2.4230  -999.2500
  605.0000     7.5070     7.1635    12.8465   129.1165   680.0618     0.0359     2.4261  -999.2500
  605.5000     7.4533     7.1617    12.8476   133.2565   680.0618     0.0398     2.4285  -999.2500
  606.0000     7.4000     7.2123    12.8486   134.8775   680.0618     0.0477     2.4324  -999.2500
  606.5000     7.3470     7.2104    12.8496   128.9412   680.0618     0.0579     2.4410  -999.2500
  607.0000     7.2945     7.2088    12.8654   126.2110   680.0618     0.0815     2.4590  -999.2500
  607.5000     7.2423     7.2073    12.8664   125.3129   680.0618     0.0925     2.4573  -999.2500
