~VERSION INFORMATION
 VERS.                2.0:   CWLS LOG ASCII STANDARD - VERSION 2.0
 WRAP.                 NO:   ONE LINE PER DEPTH STEP
~WELL INFORMATION
#MNEM.UNIT      DATA TYPE    INFORMATION
#----------   ------------   ------------------------------
 STRT.F            0.0000:   START DEPTH
 STOP.F         5673.0000:   STOP DEPTH
 STEP.F            0.5000:   STEP LENGTH
 NULL.          -999.2500:   NO VALUE
 COMP.       FLUOR DANIEL:   COMPANY
 WELL.   FLUOR "X" #63-10:   WELL
 FLD .             NPR #3:   FIELD
 LOC .      S10 T38N R78W:   LOCATION
 CNTY.            NATRONA:   COUNTY
 STAT.            WYOMING:   STATE
 CTRY. UNITED STATES OF AMERICA:   COUNTRY
 SRVC.      WESTERN ATLAS:   SERVICE COMPANY
 DATE.        02-MAR-1996:   LOGDATE
 API .     49025227690000:   API NUMBER
~CURVE INFORMATION
#MNEM.UNIT       API CODE    CURVE DESCRIPTION
#----------   ------------   ------------------------------
 DEPT.F                  :   
 GRD .GAPI   45 310 01 00:   GAMMA RAY FROM DENSITY LOG
 TEND.LBS    45 635 01 00:   TENSION FROM DENSITY LOG
 CALD.IN     45 280 60 00:   CALIPER FROM DENSITY LOG
 ZCOR.G/C3   45 356 01 00:   DENSITY CORRECTION
 ZDEN.G/C3   45 350 01 00:   BULK DENSITY
 CNC .DEC    42 890 03 00:   COMPENSATED NEUTRON POROSITY SANDSTONE
 SPR .MV     11 010 01 00:   SPONTANEOUS POTENTIAL FROM RESISTIVITY
 RD  .OHMM   11 220 10 00:   RESISTIVITY DEEP
 RS  .OHMM   11 220 09 00:   RESISTIVITY SHALLOW
~PARAMETER INFORMATION
#MNEM.UNIT          VALUE    DESCRIPTION
#----------   ------------   ------------------------------
 EKB .F         5196.0000:   Kelly bushing
 EGL .F         5186.0000:   Ground level
 EDF .F         5195.0000:   Drilling floor
 TD  .F         5674.0000:   Total depth
 CLNT.            A2DTECH:   Client Code
 SL  . 1688' FNL & 1730' FEL:   Surface Location
 PD  .                 GL:   Permanent Datum
 EPD .F              5186:   Elevation Permanent Datum
 LMF .                 KB:   Log Measured From
 DMF .                 KB:   Drilling Measured From
 DAPD.F                10:   Feet Above Permanent Datum
 DATE.        02-MAR-1996:   Date Logged [DD-MMM-YYYY]
 DD  .F              5674:   Depth driller
 DL  .F              5674:   Depth logger
 BLI .F              5663:   Bottom log interval
 CS1 .IN            9.625:   Casing size
 CBD1.      9.625" @ 448':   Casing driller 1
 CBL1.F               448:   Casing logger 1
 BS1 .IN             8.75:   Bit size
 BSD1.F              5674:   Depth drilled with bit1
 DFT .               CHEM:   Type fluid in hole
 DFD .                9.7:   Density
 DFV .                 53:   Viscosity
 DFPH.                9.0:   pH
 DFL .                9.2:   Fluid loss
 MSS .           FLOWLINE:   Source of sample
 RMS .OHMM          0.628:   Rm
 MST .F                71:   Rm Meas. temp.
 RMF .OHMM          0.477:   Rmf
 MFST.F                71:   Rmf Meas. temp.
 MFSS.               MEAS:   Source Rmf.
 RMC .OHMM          0.779:   Rmc
 MCST.F                71:   Rmc Meas. temp.
 MCSS.               MEAS:   Source Rmc.
 RMB .OHMM          0.251:   Rm. at BHT
 BHT .F               178:   BHT.
 TCS .F               4.5:   Time Circ. stopped
 MRT .HRS             178:   Maximum recorded temp.
 LUN .            HL-6530:   Logging unit number
 LUL .             CASPER:   Logging unit location
 ENGI.      PAT RASMUSSEN:   Recorded By
 ORIG.           5" PRINT:   Origin of data
 UWI .     49025227690000:   Unique Well ID
 WITN.         LAFRENIERE:   Witnessed by
 DICO.   A2D TECHNOLOGIES:   Digitizing Company
~OTHER INFORMATION
~A  DEPTH      GRD       TEND       CALD       ZCOR       ZDEN        CNC        SPR         RD         RS
# ...
 3905.5000   100.7349     4.8726     9.8079     0.2163     2.2756     0.2503   -85.7865     8.8766     6.5870
 3906.0000    96.5320   -62.5937     9.2969     0.1412     2.4424     0.1881   -85.0101    10.9253     8.6276
 3906.5000    83.5915  -115.0986     9.0114     0.0467     2.5251     0.1327   -85.1975    17.8581    12.7898
 3907.0000    74.8679  -145.0525     8.9365     0.0016     2.5401     0.0963   -85.3279    30.2179    22.4190
 3907.5000    80.9261  -137.5562     8.9369     0.0046     2.5416     0.0849   -85.4740    37.7110    28.9609
 3908.0000   139.9537  -115.0675     8.9221     0.0151     2.5453     0.0825   -85.7070    38.5046    31.9069
 3908.5000   250.5072  -107.5712     8.9224     0.0526     2.5528     0.0828   -85.9436    37.9772    31.6869
 3909.0000   227.0246  -107.5712     8.9378     0.0721     2.5618     0.0853   -86.1800    37.7184    31.4684
 3909.5000   203.2020  -107.5712     8.9682     0.0736     2.5451     0.0948   -86.4168    37.3845    28.5628
 3910.0000   102.9518  -107.5712     9.0887     0.0391     2.3763     0.1104   -86.6532    26.8757    23.3032
 3910.5000    67.4238  -107.1504     9.7059     0.0706     2.1711     0.1218   -86.8527    17.0232    14.2980
 3911.0000    65.9263   -77.5862    10.3676     0.1741     2.0073     0.1449   -86.8476    11.1622     9.1820
 3911.5000    69.2537   -47.6012    10.8791     0.2251     2.0000     0.1759   -86.8457     7.5616     6.0621
 3912.0000    73.4819   -40.1049    11.6012     0.2386     2.0000     0.2132   -86.9059     5.6272     5.2322
 3912.5000    87.0503   -40.1049    11.6917     0.2461     2.0000     0.2480   -86.9735     5.0377     4.9599
 3913.0000    90.3749   -62.5937    11.3161     0.2130     2.0088     0.2720   -87.0412     5.4365     5.3521
 3913.5000    90.0343   -77.5862    10.8352     0.1305     2.1906     0.2702   -87.1087     7.0234     6.4071
 3914.0000    81.3633   -92.5787    10.2791     0.0345     2.3935     0.2555   -87.1765    11.0134     8.9729
 3914.5000    75.6518  -100.0750     9.4825     0.0119     2.4829     0.2113   -87.2463    12.6490    11.6176
 3915.0000    74.4583  -107.5712     9.4526     0.0194     2.4896     0.1899   -87.2952    13.6501    12.0266
 3915.5000    75.1473  -115.0675     9.5733     0.0314     2.3454     0.1818   -87.3448    10.4947    10.8409
 3916.0000    79.6043  -107.5712     9.7841     0.0689     2.3183     0.1782   -87.3955     8.5402     8.9254
 3916.5000    85.3385   -99.0464     9.8596     0.0854     2.3762     0.1900   -87.4540     7.5821     7.5125
 3917.0000    87.1571   -70.0900     9.6945     0.0749     2.4267     0.2052   -87.1406     8.8294     7.8310
 3917.5000    87.7709   -55.0975     9.5293     0.0494     2.5422     0.1995   -86.7899    11.7267     9.6377
 3918.0000    85.3754   -55.0975     9.5146     0.0208     2.5767     0.1697   -86.4493    17.0967    12.1942
 3918.5000    79.9650   -55.0975     9.4999     0.0223     2.6218     0.1296   -86.6070    19.7076    14.6993
 3919.0000    71.8438   -47.6012     9.5152     0.0268     2.6450     0.1084   -87.1610    20.5444    15.3224
 3919.5000    62.3678   -32.6087     9.5155     0.0058     2.6669     0.1048   -87.3913    17.8903    13.0679
 3920.0000    58.3123   -32.0955     9.5158    -0.0122     2.6744     0.1084   -87.6269    14.3376    10.8409
 3920.5000    58.9289   -47.6012     9.5161     0.0163     2.6518     0.1136   -87.8407    11.8131     9.7720
 3921.0000    63.1571   -55.0975     9.5164     0.0583     2.6586     0.1321   -87.6759    11.2553     9.5713
 3921.5000    70.5226   -55.0975     9.5167     0.0642     2.6781     0.1486   -87.4991    11.5719    10.1863
 3922.0000    75.8332   -40.1049     9.5321     0.0432     2.6991     0.1612   -87.3243    13.2905    11.3789
 3922.5000    71.3274    12.3688     9.5624     0.0492     2.7127     0.1552   -87.1512    14.0481    12.4615
 3923.0000    60.1942    57.3463     9.5778     0.0552     2.6984     0.1444   -87.0484    14.3435    12.5365
 3923.5000    51.7718    79.8351     9.6238     0.0762     2.6631     0.1405   -87.0607    13.2933    11.4579
 3924.0000    52.9879   -25.1124     9.7588     0.1366     2.6135     0.1419   -86.6414    11.5759     9.6377
 3924.5000    59.9298  -137.5562     9.9245     0.1422     2.5861     0.1648   -86.1746     8.4556     8.6057
 3925.0000    68.9773  -167.5412     9.8797     0.1302     2.5939     0.1792   -85.7113     7.5910     7.6172
 3925.5000    74.1091  -145.0525     9.7550     0.1046     2.6533     0.1855   -85.4686     7.2827     7.8310
 3926.0000    75.0241   -47.5077     9.6547     0.0731     2.6916     0.1769   -85.6150     8.6587    11.0683
 3926.5000    66.6045   -17.6162     9.6250     0.0416     2.7129     0.1413   -85.7495    12.2017    13.9340
 3927.0000    60.5918   -17.6162     9.6102     0.0176     2.7141     0.1130   -85.6995    17.4201    15.8618
 3927.5000    59.3955   -10.1199     9.5955     0.0146     2.6946     0.1094   -85.2799    19.8691    16.0829
 3928.0000    60.6145     4.8726     9.6109     0.0535     2.6758     0.1147   -85.1295    20.4278    13.8117
 3928.5000    66.9539    -2.6237     9.6111     0.0685     2.6682     0.1292   -85.3402    12.7614    11.5326
 3929.0000    71.7845   -17.6162     9.6114     0.0730     2.6607     0.1641   -85.5494    10.0173     9.6377
 3929.5000    75.4103   -17.6162     9.6118     0.0776     2.6494     0.1806   -85.5829     8.3684     7.9953
 3930.0000    73.6145   -17.1175     9.6271     0.0805     2.6329     0.1857   -85.4785     7.9731     7.6701
 3930.5000    71.2190    79.8351     9.6274     0.0775     2.6306     0.1694   -85.5342     9.4797     8.9314
 3931.0000    71.8327   117.3163     9.6277     0.0715     2.6344     0.1625   -85.6749    10.8628    10.9162
 3931.5000    73.0489    64.8426     9.6431     0.0652     2.6457     0.1610   -85.8187    12.5045    12.2789
 3932.0000    72.7590   -34.0113     9.6584     0.0549     2.6394     0.1658   -85.9569    13.5881    13.4347
 3932.5000    73.0744   -70.0900     9.6737     0.0684     2.5885     0.1712   -85.8617    13.8740    13.9077
 3933.0000    74.8930  -100.0750     9.7192     0.0954     2.4503     0.1772   -85.4104    12.0428    12.7994
 3933.5000    76.4103  -107.5712     9.7495     0.1974     2.3669     0.2066   -84.9429     9.8176    10.5449
 3934.0000    79.4337   -15.8121     9.7949     0.3624     2.2723     0.2307   -84.9700     8.0888     7.6701
 3934.5000    84.5684    19.8651     9.8854     0.2934     2.3195     0.2315   -85.1488     7.3424     6.9619
 3935.0000    86.9894    49.8501     9.5700     0.1554     2.4923     0.2042   -85.3308     7.1920     7.2113
 3935.5000    87.6003    64.8426     9.2996     0.0653     2.5592     0.1793   -85.5117     9.2274    10.5449
 3936.0000    80.0843    32.6712     9.1194     0.0428     2.6291     0.1570   -85.6922    13.2245    14.6993
 3936.5000    68.3515   -25.1124     9.1197     0.0308     2.6358     0.1570   -85.8588    16.8497    16.8811
 3937.0000    66.5556   -32.6087     9.1200     0.0173     2.5855     0.1570   -85.9303    16.7346    16.0220
 3937.5000    70.4826    -2.6237     9.1354     0.0518     2.5637     0.1598   -86.0044    13.8838    12.7994
 3938.0000    77.4217   -10.1199     9.1507     0.0953     2.5434     0.1675   -86.0306    11.9240    10.7661
 3938.5000    87.0744   -17.6162     9.1510     0.0757     2.5817     0.1729   -86.0014    10.2408     9.9082
 3939.0000    88.2877    -2.6237     9.1664     0.0325     2.6072     0.1662   -85.9724    10.3126    10.3438
 3939.5000    82.2778     4.8726     9.1666    -0.0038     2.6186     0.1573   -85.9433    11.5529    12.1942
 3940.0000    76.2651     4.8726     9.1669     0.0067     2.6260     0.1521   -85.9141    13.7928    13.1587
 3940.5000    80.4961     4.8726     9.1673     0.0322     2.6275     0.1668   -85.8852    12.7827    12.1504
 3941.0000    92.5556    -2.6237     9.1676     0.0337     2.6260     0.2007   -85.8556    10.9783     9.7720
 3941.5000    99.1935    -2.6237     9.1678     0.0216     2.6237     0.2272   -85.9135     9.1589     9.0558
