~VERSION INFORMATION
 VERS.                2.0:   CWLS LOG ASCII STANDARD - VERSION 2.0
 WRAP.                 NO:   ONE LINE PER DEPTH STEP
~WELL INFORMATION
#MNEM.UNIT      DATA TYPE    INFORMATION
#----------   ------------   ------------------------------
 STRT.F          297.0000:   START DEPTH
 STOP.F         2946.0000:   STOP DEPTH
 STEP.F            0.5000:   STEP LENGTH
 NULL.          -999.2500:   NO VALUE
 COMP.    FENIX & SCISSON:   COMPANY
 WELL. FENIX & SCISSON SH "X" #17-10:   WELL
 FLD .             NPR #3:   FIELD
 LOC .      S10 T38N R78W:   LOCATION
 CNTY.            NATRONA:   COUNTY
 STAT.            WYOMING:   STATE
 CTRY. UNITED STATES OF AMERICA:   COUNTRY
 SRVC.       SCHLUMBERGER:   SERVICE COMPANY
 DATE.        05-APR-1977:   LOGDATE
 API .     49025103310000:   API NUMBER
~CURVE INFORMATION
#MNEM.UNIT       API CODE    CURVE DESCRIPTION
#----------   ------------   ------------------------------
 DEPT.F                  :   
 SPR .MV     07 010 01 00:   SPONTANEOUS POTENTIAL
 ILD .OHMM   07 120 46 00:   DEEP INDUCTION RESISTIVITY
 ILM .OHMM   07 120 44 00:   INDUCTION LOG MEDIUM RESISTIVITY
 LL8 .OHMM   07 220 08 00:   LATEROLOG-8 RES.
 CALD.IN     45 280 60 00:   CALIPER FROM DENSITY LOG
 GRD .GAPI   45 310 01 00:   GAMMA RAY FROM DENSITY LOG
 CORR.G/C3   45 356 01 00:   DENSITY CORRECTION
 RHOB.G/C3   45 350 01 00:   BULK DENSITY
~PARAMETER INFORMATION
#MNEM.UNIT          VALUE    DESCRIPTION
#----------   ------------   ------------------------------
 EKB .F         5270.0000:   Kelly bushing
 EGL .F         5260.0000:   Ground level
 TD  .F         2950.0000:   Total depth
 CLNT.            A2DTECH:   Client Code
 SL  . 205' FWL & 1115' FSL:   Surface Location
 DATE.        05-APR-1977:   Date Logged [DD-MMM-YYYY]
 DD  .F              2950:   Depth driller
 DL  .F              2948:   Depth logger
 BLI .F              2946:   Bottom log interval
 TLI .F               310:   Top log interval
 CS1 .              10.75:   Casing size
 CBD1.      10.75" @ 300':   Casing driller 1
 CBL1.IN              310:   Casing logger 1
 BS1 .IN            8.625:   Bit size
 BSD1.F              2950:   Depth drilled with bit1
 DFT .                KCL:   Type fluid in hole
 DFD .                9.0:   Density
 DFV .                 33:   Viscosity
 DFL .                  9:   Fluid loss
 MSS .            MUD PIT:   Source of sample
 RMS .OHMM          0.153:   Rm
 MST .F                60:   Rm Meas. temp.
 RMF .OHMM          0.130:   Rmf
 MFST.F                60:   Rmf Meas. temp.
 MFSS.               MEAS:   Source Rmf.
 RMC .OHMM          0.229:   Rmc
 MCST.F                60:   Rmc Meas. temp.
 MCSS.               CALC:   Source Rmc.
 RMB .OHMM           0.08:   Rm. at BHT
 BHT .F               115:   BHT.
 TCS .HRS               6:   Time Circ. stopped
 MRT .F               115:   Maximum recorded temp.
 LUN .               7689:   Logging unit number
 LUL .               CODY:   Logging unit location
 ENGI.             RASMUS:   Recorded By
 WITN.              LYONS:   Witnessed by
 ORIG.         2.5" PRINT:   Origin of data
 UWI .     49025103310000:   Unique Well ID
 DICO. A2D TECHNOLOGIES, INC.:   Digitizing Company
 PD  .                 GL:   Permanent Datum
 EPD .               5260:   Elevation Permanent Datum
 LMF .                 KB:   Log Measured From
 DMF .                 KB:   Drilling Measured From
 DAPD.                 10:   Feet Above Permanent Datum
~OTHER INFORMATION
~A   DEPT      SPR        ILD        ILM        LL8       CALD        GRD       CORR       RHOB   
# ...
 2038.5000   -52.8500     4.1693     4.6543     7.9354    11.0305   100.2054     0.0481     2.5769
 2039.0000   -52.8412     4.1140     4.6562     8.0557    11.0311    99.3333     0.0304     2.5607
 2039.5000   -52.8323     4.1154     4.7222     8.3929    11.0317    99.9317     0.0186     2.5504
 2040.0000   -52.8218     4.1168     4.7241     8.7410    11.0324   101.7066     0.0260     2.5445
 2040.5000   -52.8130     4.0621     4.7261     8.4877    11.0330   102.8932     0.0335     2.5416
 2041.0000   -52.8042     4.0636     4.7281     8.1543    11.0247   105.5504     0.0424     2.5567
 2041.5000   -52.7955     4.0097     4.7300     8.0549    10.9980   107.0312     0.0468     2.5669
 2042.0000   -53.0808     4.0111     4.7319     8.0701    10.9759   107.0414     0.0469     2.5741
 2042.5000   -53.0720     4.0125     4.7485     8.1697    10.9765   106.4633     0.0409     2.5674
 2043.0000   -53.0633     4.0138     4.8009     8.1714    10.9771   106.4735     0.0334     2.5543
 2043.5000   -53.0545     4.0152     4.8202     8.1553    10.9484   106.4839     0.0291     2.5503
 2044.0000   -53.0457     4.0166     4.8710     8.0632    10.9364   106.1529     0.0278     2.5509
 2044.5000   -53.0369     4.0733     4.8730     8.0650    10.9071   104.3776     0.0312     2.5564
 2045.0000   -53.0282     4.1308     4.8750     8.0667    10.8915   102.6618     0.0386     2.5680
 2045.5000   -53.0194     4.1340     4.8995     8.1798    10.8920   102.0769     0.0428     2.5762
 2046.0000   -53.0106     4.1906     4.9462     8.1815    10.8927   103.8530     0.0471     2.5802
 2046.5000   -53.0019     4.1920     4.9482     8.2963    10.8933   107.4280     0.0453     2.5778
 2047.0000   -52.9931     4.1979     4.9502     8.4127    10.8939   106.6227     0.0463     2.5733
 2047.5000   -53.2784     4.2528     4.9522     8.5307    10.8945   105.0945     0.0556     2.5699
 2048.0000   -53.2697     4.3128     4.9542     8.6504    10.8950   105.6941     0.0605     2.5685
 2048.5000   -53.2609     4.3143     4.9562     8.6522    10.8957   105.3328     0.0628     2.5719
 2049.0000   -53.2521     4.3158     4.8910     8.6540    10.8963   104.8309     0.0650     2.5787
 2049.5000   -53.2433     4.2584     4.8930     8.6558    10.8969   107.7635     0.0597     2.5811
 2050.0000   -53.2346     4.2503     4.8950     8.5007    10.8975   109.2650     0.0532     2.5855
 2050.5000   -53.2258     4.2034     4.8970     8.2707    10.8980   110.1573     0.0567     2.5952
 2051.0000   -53.2170     4.2050     4.8633     8.0863    10.8986   110.1676     0.0542     2.5739
 2051.5000   -53.2082     4.2064     4.8346     8.0883    10.8992   109.7652     0.0478     2.5655
 2052.0000   -53.1995     4.2079     4.7709     8.0899    10.8998   108.5923     0.0358     2.5569
 2052.5000   -53.1907     4.1519     4.7728     8.0916    10.8709   108.9634     0.0210     2.5480
 2053.0000   -53.1819     4.0969     4.7752     8.0933    10.8716   111.2151     0.0164     2.5392
 2053.5000   -53.1732     4.0833     4.7771     8.0949    10.8429   111.8398     0.0143     2.5358
 2054.0000   -53.1644     4.0439     4.7790     8.0966    10.8435   110.5116     0.0172     2.5437
 2054.5000   -52.8615     4.0623     4.7810     8.0983    10.8147   110.1052     0.0180     2.5496
 2055.0000   -52.9926     4.1026     4.7829     8.1521    10.7860   110.7107     0.0195     2.5541
 2055.5000   -53.1383     4.1040     4.7849     8.2136    10.7865   111.3162     0.0417     2.5585
 2056.0000   -53.1293     4.1054     4.7868     8.2153    10.7578   112.0373     0.0492     2.5630
 2056.5000   -53.1205     4.1273     4.7885     8.2170    10.7291   111.7533     0.0493     2.5632
 2057.0000   -53.1117     4.1649     4.7905     8.3322    10.7296   110.2929     0.0300     2.5571
 2057.5000   -53.1030     4.2237     4.8584     8.3340    10.7009   107.9501     0.0241     2.5512
 2058.0000   -53.3883     4.2252     4.8603     8.3987    10.6721   105.6074     0.0271     2.5601
 2058.5000   -53.3795     4.2849     4.8623     8.6358    10.6727   104.4411     0.0419     2.5618
 2059.0000   -53.6649     4.2863     4.8752     8.6217    10.6733   107.0983     0.0167     2.5557
 2059.5000   -53.6559     4.3469     4.9333     8.4561    10.6446   107.6967     0.0206     2.5631
 2060.0000   -53.9415     4.3764     4.9353     8.4582    10.6451   106.8245     0.0421     2.5912
 2060.5000   -53.9324     4.4098     5.0052     8.8156    10.6457   104.1877     0.0451     2.5896
 2061.0000   -53.9235     4.4113     5.0073     8.8174    10.6463   103.9029     0.0465     2.5760
 2061.5000   -53.9147     4.4128     5.0094     8.9411    10.6176   104.2080     0.0402     2.5610
 2062.0000   -53.9059     4.4143     5.0115     8.9429    10.6181   104.8064     0.0360     2.5470
 2062.5000   -53.8970     4.4158     5.0336     8.7025    10.6187   105.4048     0.0385     2.5732
 2063.0000   -53.8480     4.4512     5.1062     8.5856    10.5900   106.8856     0.0474     2.5878
 2063.5000   -53.5853     4.4798     5.2511     8.7061    10.5612   105.1311     0.0544     2.5943
 2064.0000   -53.5765     4.4813     5.3746     8.9502    10.5552   101.0236     0.0585     2.5819
 2064.5000   -53.5676     4.4831     5.3768     9.7205    10.5259    96.3279     0.0483     2.5795
 2065.0000   -53.5588     4.4846     5.2784    10.4132    10.5043   100.3000     0.0282     2.5833
 2065.5000   -53.5500     4.4862     5.0672    10.5593    10.5050   105.4999     0.0292     2.5896
 2066.0000   -53.8362     4.4877     4.9596     9.5939    10.5349   106.7235     0.0355     2.5861
 2066.5000   -53.8264     4.4279     4.8653     9.2087    10.5451   108.1948     0.0433     2.5841
 2067.0000   -53.8177     4.3695     4.8299     8.8390    10.5654   109.3950     0.0528     2.5945
 2067.5000   -53.8088     4.3116     4.8319     8.8408    10.5660   110.5515     0.0533     2.5974
 2068.0000   -53.8000     4.2544     4.8339     8.8426    10.5779   111.4000     0.0593     2.5912
 2068.5000   -53.4970     4.1980     4.8358     8.7237    10.5965   110.8270     0.0623     2.5787
 2069.0000   -53.4068     4.1423     4.8378     8.7257    10.5970   108.2852     0.0660     2.5724
 2069.5000   -53.1853     4.1437     4.8398     8.7275    10.5976   106.8757     0.0705     2.5767
 2070.0000   -53.1765     4.0886     4.8418     8.7292    10.5982   105.4019     0.0737     2.5843
 2070.5000   -53.1676     4.0902     4.9104     8.8517    10.5846   104.3912     0.0665     2.5932
 2071.0000   -53.1588     4.0916     4.9128     8.7328    10.5701   104.7711     0.0515     2.5938
 2071.5000   -53.1500     4.0930     4.9148     8.7346    10.5414   109.4191     0.0546     2.5885
 2072.0000   -53.1412     4.0944     4.8497     8.4998    10.5259   111.4823     0.0613     2.5852
 2072.5000   -53.1323     4.0958     4.7862     8.2713    10.4839   110.4975     0.0657     2.5917
 2073.0000   -53.1236     4.0971     4.7882     8.0490    10.4552   110.4460     0.0679     2.5932
 2073.5000   -53.1147     4.0985     4.7248     8.0506    10.4264   110.6309     0.0709     2.5947
 2074.0000   -52.8118     4.0999     4.7270     8.0523    10.4271   110.6412     0.0754     2.6006
 2074.5000   -52.8029     4.1013     4.7940     8.1652    10.3983   110.3573     0.0651     2.5874
 2075.0000   -52.9166     4.1593     4.7959     8.1669    10.3989   109.3382     0.0562     2.5667
 2075.5000   -53.0794     4.1609     4.8639     8.2831    10.3995   105.9243     0.0651     2.5665
 2076.0000   -53.0706     4.1623     4.8659     8.5137    10.4001   103.8903     0.0622     2.5874
 2076.5000   -53.0618     4.1637     4.9348     8.6332    10.4007   103.2133     0.0519     2.5580
 2077.0000   -53.0530     4.2225     5.0048     8.7543    10.4012   104.5815     0.0430     2.5432
 2077.5000   -53.0441     4.2240     5.0068     8.7562    10.3725   105.4211     0.0342     2.5270
 2078.0000   -53.0353     4.2836     5.0778     8.7580    10.3437   105.7254     0.0224     2.5226
 2078.5000   -53.0265     4.2851     5.0798     8.7597    10.3150   105.7355     0.0328     2.5300
