~VERSION INFORMATION
 VERS.                2.0:   CWLS LOG ASCII STANDARD - VERSION 2.0
 WRAP.                 NO:   ONE LINE PER DEPTH STEP
~WELL INFORMATION
#MNEM.UNIT      DATA TYPE    INFORMATION
#----------   ------------   ------------------------------
 STRT.F            0.5000:   START DEPTH
 STOP.F         1380.0000:   STOP DEPTH
 STEP.F            0.5000:   STEP LENGTH
 NULL.          -999.2500:   NO VALUE
 COMP.       FLUOR DANIEL:   COMPANY
 WELL. FLUOR 84 "X" #1-14:   WELL
 FLD .          N.P.R. #3:   FIELD
 LOC .      S14 T38N R78W:   LOCATION
 CNTY.            NATRONA:   COUNTY
 STAT.            WYOMING:   STATE
 CTRY. UNITED STATES OF AMERICA:   COUNTRY
 SRVC.     ATLAS WIRELINE:   SERVICE COMPANY
 DATE.        24-AUG-1994:   LOGDATE
 API .     49025226370000:   API NUMBER
~CURVE INFORMATION
#MNEM.UNIT       API CODE    CURVE DESCRIPTION
#----------   ------------   ------------------------------
 DEPT.F                  :   
 GRR .GAPI   07 310 01 00:   GAMMA RAY FROM RESISTIVITY
 RILD.OHMM   07 120 46 00:   INDUCTION LOG DEEP RESISTIVITY
 RILM.OHMM   07 120 44 00:   INDUCTION LOG MEDIUM RESISTIVITY
 TENR.LBS    07 635 01 00:   TENSION FROM RESISTIVITY
~PARAMETER INFORMATION
#MNEM.UNIT          VALUE    DESCRIPTION
#----------   ------------   ------------------------------
 EKB .F         5326.0000:   Kelly bushing
 EGL .F         5316.0000:   Ground level
 EDF .F         5325.0000:   Drilling floor
 TD  .F         1368.0000:   Total depth
 CLNT.            A2DTECH:   Client Code
 PD  .                 GL:   Permanent Datum
 EPD .F              5316:   Elevation Permanent Datum
 LMF .                 KB:   Log Measured From
 DMF .                 KB:   Drilling Measured From
 DAPD.F                10:   Feet Above Permanent Datum
 DATE.        24-AUG-1994:   Date Logged [DD-MMM-YYYY]
 DD  .F              1368:   Depth driller
 DL  .F              1364:   Depth logger
 BLI .F              1356:   Bottom log interval
 TLI .F                 0:   Top log interval
 CS1 .IN            9.625:   Casing size
 CBD1.       9.625" @ 56':   Casing driller 1
 CBL1.F                56:   Casing logger 1
 BS1 .IN             8.75:   Bit size
 BSD1.F              1368:   Depth drilled with bit1
 DFT .                AIR:   Type fluid in hole
 LUN .            HL 6530:   Logging unit number
 LUL .             CASPER:   Logging unit location
 WITN.        GARY STRONG:   Witnessed by
 ORIG.         2.5" PRINT:   Origin of data
 UWI .     49025226370000:   Unique Well ID
 DICO. A2D TECHNOLOGIES, INC.:   Digitizing Company
 SL  . 2551' FNL & 575' FEL:   Surface Location
~OTHER INFORMATION
~A    DEPT      GRR      RILD       RILM       TENR   
# ...
  730.5000   116.6535     4.8233     5.1623   -53.2738
  731.0000   128.3595     3.9850     4.7550   -52.9762
  731.5000   142.7342     4.1692     4.5761   -52.6786
  732.0000   150.2994     4.4185     4.5856   -52.3809
  732.5000   136.0284     4.6377     4.7266   -52.0833
  733.0000   124.5308     4.6377     5.0808   -51.7857
  733.5000   119.8084     4.8952     5.7748   -51.4881
  734.0000   110.1715     5.8655     6.5442   -51.1905
  734.5000   106.5231     6.7413     7.2858   -50.8929
  735.0000   102.2155     7.5374     7.9199   -41.6667
  735.5000   104.7725     8.0505     8.4527   -41.6667
  736.0000   107.1856     8.2755     8.7711   -41.6667
  736.5000   102.9282     8.5506     8.8943   -41.6667
  737.0000   101.1976     8.7925     9.0949   -41.6667
  737.5000   106.7856     8.9893     9.2195   -41.6667
  738.0000   114.9701     9.2406     9.3460   -41.6667
  738.5000   112.6188     9.4292     9.6056   -41.6667
  739.0000   109.6128     9.6959     9.8724   -41.6667
  739.5000   105.3653     9.8337    10.0079   -41.6667
  740.0000    99.9201     9.9001    10.0065   -26.7857
  740.5000    99.2036    10.0376    10.0051   -26.7857
  741.0000   102.2393    10.0376    10.0038   -26.7857
  741.5000   105.9880    10.0376    10.0021   -26.7857
  742.0000   105.3892    10.0813    10.1394   -26.7857
  742.5000   105.3892    10.2163    10.1380   -26.7857
  743.0000   105.9880    10.3365    10.2774   -26.7857
  743.5000   108.3832    10.4615    10.4184   -26.7857
  744.0000   113.7725    10.6067    10.5612   -26.7857
  744.5000   112.5749    10.6888    10.7063   -26.7857
  745.0000   110.7784    10.8342    10.8531   -26.7857
  745.5000   108.3832    10.9631    11.0020   -26.7857
  746.0000   106.5868    11.0546    11.0005   -26.7857
  746.5000   105.3892    11.1486    11.0629   -26.7857
  747.0000   104.7904    11.3637    11.3045   -26.7857
  747.5000   107.1856    11.5215    11.3030   -26.7857
  748.0000   110.1796    11.5215    11.6170   -26.7857
  748.5000   110.1796    11.8436    11.6154   -26.7857
  749.0000   110.1796    12.0081    11.7748   -26.7857
  749.5000   109.5808    12.1748    11.9364   -26.7857
  750.0000   107.1856    12.1748    12.2680   -41.6667
  750.5000   110.1937    12.1767    12.4403   -41.6667
  751.0000   111.4052    12.3518    12.6151   -41.6667
  751.5000   111.9760    12.5274    12.7924   -41.6667
  752.0000   108.2714    12.8651    12.9721   -41.6667
  752.5000   104.5112    13.2248    13.3153   -41.6667
  753.0000   101.7126    13.6210    13.5241   -41.6667
  753.5000   101.9920    14.0063    13.7141   -41.6667
  754.0000   104.7904    14.4404    14.0996   -41.6667
  754.5000   103.4671    15.3146    14.7841   -41.6667
  755.0000   102.1157    16.5967    15.7986   -41.6667
  755.5000   100.2913    17.9751    17.8420   -55.4896
  756.0000    97.8684    18.4120    20.2620   -55.3412
  756.5000    95.2636    18.6677    20.6637   -55.1929
  757.0000    90.6385    18.9268    20.5682   -55.0160
  757.5000    87.4251    18.9268    19.6334   -54.8700
  758.0000    91.5367    18.2936    18.4738   -54.7239
  758.5000    97.1199    16.6777    17.3184   -54.5779
  759.0000   100.0000    15.4261    16.3778   -54.4318
  759.5000   101.1976    14.5890    15.1852   -54.2857
  760.0000   103.2335    13.8854    14.1595   -54.1397
  760.5000   103.3112    13.5033    13.2908   -53.9936
  761.0000    99.3696    13.1318    12.8326   -53.8476
  761.5000    96.6846    12.8651    12.5706   -53.7015
  762.0000    99.8807    12.8651    12.5689   -38.7187
  762.5000   104.3910    12.8651    12.5671   -53.4094
  763.0000   109.5808    11.8436    12.2238   -82.9370
  763.5000   110.7784    10.6067    11.4091   -82.7893
  764.0000   114.3713     9.6309     9.8045   -67.0130
  764.5000   119.1617     8.8662     8.5423   -52.8190
  765.0000   124.5509     7.9402     7.8639   -37.8338
  765.5000   129.3413     7.2097     7.2395   -39.8859
  766.0000   136.5269     6.7294     6.6646   -52.3870
  766.5000   141.9162     6.4567     6.3941   -67.0778
  767.0000   146.7066     6.1951     6.0506   -81.7685
  767.5000   150.8982     6.0266     5.7257   -81.6024
  768.0000   146.7066     5.9441     5.8043   -81.4540
  768.5000   138.3233     5.8627     5.8035   -76.2865
  769.0000   131.7365     5.8627     5.8027   -45.9948
  769.5000   131.1377     5.7824     5.8019   -21.6617
  770.0000   131.7365     5.7824     5.8011   -15.0827
  770.5000   136.5269     5.7032     5.7210    -6.5282
  771.0000   136.5389     5.7032     5.7202   -21.2166
  771.5000   136.5269     5.7824     5.7194   -21.0682
  772.0000   137.1577     5.7824     5.7186   -29.2288
  772.5000   139.5508     5.7824     5.7218   -44.3860
  773.0000   140.7625     5.7824     5.7964   -50.2967
  773.5000   140.6026     5.7902     5.7955   -64.9600
  774.0000   138.1799     5.8724     5.8044   -64.8139
  774.5000   135.6708     5.9441     5.8859   -49.8311
  775.0000   132.1357     5.9578     5.9549   -49.6850
  775.5000   129.9401     6.0266     5.9697   -49.5390
  776.0000   131.2654     6.0266     6.0358   -49.3929
  776.5000   134.0998     6.0266     5.9524   -49.2468
  777.0000   135.9281     6.0266     5.8493   -63.9376
  777.5000   135.5889     6.0032     5.7891   -78.6350
  778.0000   133.3493     5.9191     5.7883   -78.4823
  778.5000   132.1377     5.7563     5.7876   -78.3362
  779.0000   131.1377     5.6756     5.7868   -63.3531
  779.5000   132.7864     5.5961     5.7860   -48.3680
  780.0000   135.6889     5.5481     5.7852   -48.2196
  780.5000   139.0838     5.6251     5.7844   -48.0712
  781.0000   141.3174     5.7386     5.7836   -47.9228
  781.5000   138.0779     5.8627     5.7828   -47.7745
  782.0000   133.2453     5.8627     5.7820   -47.6261
  782.5000   133.2633     5.8627     5.9033   -47.4777
  783.0000   135.0539     5.8627     5.9418   -47.3294
  783.5000   133.4571     5.8627     5.9873   -47.1810
  784.0000   130.0838     5.8627     6.0225   -47.0326
  784.5000   127.5449     5.9441     6.1051   -61.7467
  785.0000   132.3353     6.1103     6.1043   -61.5727
  785.5000   134.7305     6.1103     6.1879   -61.4243
  786.0000   134.9222     6.1951     6.2730   -61.2760
  786.5000   132.3353     6.2811     6.3590   -61.1276
  787.0000   132.1717     6.3683     6.5355   -60.9792
  787.5000   135.9281     6.5464     6.6254   -60.8309
  788.0000   134.7305     6.6372     6.7162   -45.8457
  788.5000   131.1377     6.8228     6.7153   -45.6685
  789.0000   128.7425     6.8228     6.8075   -45.5224
  789.5000   128.7425     6.8228     6.7134   -45.3764
  790.0000   132.9341     6.8228     6.6207   -45.2303
  790.5000   133.5329     6.8228     6.4400   -45.0842
  791.0000   131.7365     6.6372     6.2643   -44.9382
  791.5000   131.1377     6.5464     6.0933   -59.6290
  792.0000   131.1377     6.3683     6.0092   -59.4829
  792.5000   131.1377     6.2811     6.0084   -74.1840
  793.0000   131.1377     6.2811     6.0076   -74.0276
  793.5000   131.1197     6.2785     6.0092   -73.8815
  794.0000   129.9401     6.1951     6.2638   -58.8987
  794.5000   129.2955     6.1951     6.5291   -58.7526
  795.0000   128.6826     6.1951     6.6117   -43.7685
  795.5000   126.0516     6.1951     6.6108   -43.6202
  796.0000   122.5788     6.2811     6.5195   -42.2835
  796.5000   122.1557     6.2811     6.4665   -28.4866
  797.0000   124.4153     6.2811     6.3407   -28.3383
  797.5000   129.0019     6.2811     6.2531   -30.7878
  798.0000   132.6228     6.2811     6.2523   -42.8934
  798.5000   134.8882     6.2811     6.1659   -42.7300
  799.0000   134.5589     6.2811     6.1651   -42.5816
  799.5000   131.1797     6.2544     6.1642   -42.4332
  800.0000   125.7485     6.1052     6.1588   -41.5933
  800.5000   131.7365     6.0746     6.1302   -41.1531
  801.0000   130.5389     6.0439     6.1015   -55.6548
  801.5000   128.1437     6.0191     6.0741   -55.1537
  802.0000   126.9461     6.0166     6.0724   -54.7135
  802.5000   127.5449     6.0545     6.0707   -54.2733
  803.0000   130.5389     6.0951     6.0691   -53.8331
