~VERSION INFORMATION
 VERS.                2.0:   CWLS LOG ASCII STANDARD - VERSION 2.0
 WRAP.                 NO:   ONE LINE PER DEPTH STEP
~WELL INFORMATION
#MNEM.UNIT      DATA TYPE    INFORMATION
#----------   ------------   ------------------------------
 STRT.F          200.0000:   START DEPTH
 STOP.F         3150.0000:   STOP DEPTH
 STEP.F            0.5000:   STEP LENGTH
 NULL.          -999.2500:   NO VALUE
 COMP.  FENIX AND SCISSON:   COMPANY
 WELL.  FENIX "AX" #88-10:   WELL
 FLD .              NPR 3:   FIELD
 LOC .      S10 T38N R78W:   LOCATION
 CNTY.            NATRONA:   COUNTY
 STAT.            WYOMING:   STATE
 CTRY. UNITED STATES OF AMERICA:   COUNTRY
 SRVC.              WELEX:   SERVICE COMPANY
 DATE.        13-JUN-1977:   LOGDATE
 API .     49025103780000:   API NUMBER
~CURVE INFORMATION
#MNEM.UNIT       API CODE    CURVE DESCRIPTION
#----------   ------------   ------------------------------
 DEPT.F                  :   
 CALD.IN     45 280 60 00:   CALIPER FROM DENSITY LOG
 GRD .GAPI   45 310 01 00:   GAMMA RAY FROM DENSITY LOG
 RHOB.G/C3   45 350 01 00:   BULK DENSITY
 CORR.G/C3   45 356 01 00:   DENSITY CORRECTION
 SPR .MV     07 010 01 00:   SPONTANEOUS POTENTIAL
 GURD.OHMM   07 220 05 00:   GUARD LOG RESISTIVITY
 ILD .OHMM   07 120 46 00:   INDUCTION LOG DEEP RESISTIVITY
 ILM .OHMM   07 120 44 00:   INDUCTION LOG MEDIUM RESISTIVITY
~PARAMETER INFORMATION
#MNEM.UNIT          VALUE    DESCRIPTION
#----------   ------------   ------------------------------
 EKB .F         5264.0000:   Kelly bushing
 EGL .F         5254.0000:   Ground level
 EDF .F            0.0000:   Drilling floor
 TD  .F         3160.0000:   Total depth
 DATE.        13-JUN-1977:   Date logged
 CLNT.            A2DTECH:   Client Code
 SL  . 430' FSL & 330' FEL:   Surface Location
 PD  .                 GL:   Permanent Datum
 EPD .F              5254:   Elevation Permanent Datum
 LMF .                 KB:   Log Measured From
 DMF .                 KB:   Drilling Measured From
 DAPD.F                10:   Feet Above Permanent Datum
 DD  .F              3160:   Depth driller
 DL  .F              3151:   Depth logger
 BLI .F              3149:   Bottom log interval
 CS1 .IN            8.625:   Casing size
 CBD1.      8.625" @ 208':   Casing driller 1
 BS1 .IN            7.875:   Bit size
 BSD1.F              3160:   Depth drilled with bit1
 DFT .            KCL MUD:   Type fluid in hole
 DFD .                9.1:   Density
 DFV .                 31:   Viscosity
 DFPH.                7.5:   pH
 DFL .                 20:   Fluid loss
 MSS .           FLOWLINE:   Source of sample
 RMS .OHMM            .90:   Rm
 MST .F                60:   Rm Meas. temp.
 RMF .OHMM            .53:   Rmf
 MFST.F                60:   Rmf Meas. temp.
 RMC .OHMM           1.47:   Rmc
 MCST.F                60:   Rmc Meas. temp.
 MFSS.               MEAS:   Source Rmf.
 MCSS.               MEAS:   Source Rmc.
 RMB .OHMM            .46:   Rm. at BHT
 BHT .F               116:   BHT.
 TCS .HRS               8:   Time Circ. stopped
 MRT .F               116:   Maximum recorded temp.
 LUN .               8611:   Logging unit number
 LUL .             CASPER:   Logging unit location
 ENGI.            C. DOAK:   Recorded By
 WITN.         D. RHOADES:   Witnessed by
 ORIG.           5" PRINT:   Origin of data
 UWI .     49025103780000:   Unique Well ID
 DICO. A2D TECHNOLOGIES, INC.:   Digitizing Company
~OTHER INFORMATION
~A   DEPT       CALD       GRD      RHOB       CORR        SPR       GURD        ILD        ILM   
# ...
 2549.0000    11.6539   109.5137     2.1944    -0.0082   -53.5049    10.5148     6.6407     8.5146
 2549.5000    11.3705   111.0951     2.3879     0.0057   -53.7009    10.4193     7.0182     8.0575
 2550.0000    11.0596   110.3010     2.3948     0.0018   -53.6995    10.2301     7.3493     7.9841
 2550.5000    11.0199   107.9228     2.4684    -0.0102   -53.8955    10.6139     7.4863     8.7546
 2551.0000    11.0000   104.7526     2.4873    -0.0142   -53.8941    11.4244     7.7675     9.1676
 2551.5000    10.9999   103.1665     2.5450    -0.0003   -53.8926    13.8577     8.0594     9.4249
 2552.0000    10.9800   103.9565     2.5709     0.0057   -54.0886    15.1926     8.1346     9.4255
 2552.5000    10.9601   105.9351     2.5768     0.0037   -54.0872    11.9642     7.9867     8.6766
 2553.0000    10.9600   113.0613     2.5619     0.0037   -54.0858     9.9559     7.6984     8.3633
 2553.5000    10.9599   118.2082     2.5450     0.0017   -54.0843     9.5972     7.5044     7.8420
 2554.0000    10.9598   120.9784     2.5400     0.0116   -54.0829     9.5100     7.0874     7.6993
 2554.5000    10.9597   118.6002     2.5440     0.0037   -54.0815     9.5984     7.0227     7.6293
 2555.0000    10.9596   117.8062     2.5400     0.0037   -54.0801     9.5990     7.0229     7.6297
 2555.5000    10.9595   114.6359     2.5430     0.0096   -54.0786     9.5997     6.8953     7.9164
 2556.0000    10.9594   113.0498     2.5480     0.0096   -54.2744     9.1691     6.7701     7.9168
 2556.5000    11.0187   114.6319     2.5340     0.0096   -54.2730     9.5131     6.7084     7.7730
 2557.0000    11.0186   115.4220     2.5221     0.0096   -54.2715     9.0863     6.6473     7.5618
 2557.5000    11.0581   117.0041     2.5151    -0.0003   -54.2701     8.7589     6.5870     7.2221
 2558.0000    11.0581   114.2299     2.5161    -0.0004   -54.2687     8.5999     6.5872     7.2735
 2558.5000    11.0615   114.2279     2.5201    -0.0004   -54.2672     8.8409     6.4675     7.1436
 2559.0000    11.0649   114.6220     2.5271    -0.0004   -54.2658     8.9231     6.4086     7.0797
 2559.5000    11.0683   115.0160     2.5320    -0.0004   -54.4619     8.9237     6.3504     7.0165
 2560.0000    11.0717   115.0140     2.5370     0.0007   -54.4604     8.9243     6.3508     7.0169
 2560.5000    11.0752   117.7843     2.5360     0.0019   -54.4590     8.8432     6.4098     7.0809
 2561.0000    11.0786   118.5743     2.5340     0.0030   -54.2601     9.0910     6.5899     7.2764
 2561.5000    11.0820   119.3644     2.5310     0.0041   -54.2587     9.1756     6.6512     7.2929
 2562.0000    11.0854   118.1743     2.5290     0.0055   -54.2572     9.1762     6.6516     7.2263
 2562.5000    11.0888   117.7763     2.5280     0.0073   -54.2558     8.8455     6.6521     7.0949
 2563.0000    11.0922   117.7743     2.5310     0.0075   -54.2544     8.9277     6.6523     7.0303
 2563.5000    11.0957   116.9803     2.5310     0.0055   -54.2530     9.0108     6.6528     7.0307
 2564.0000    11.0991   116.5822     2.5270     0.0035   -54.2515     8.6861     6.5319     6.8395
 2564.5000    11.1025   115.3921     2.5290     0.0035   -54.2501     9.0120     6.6539     6.8401
 2565.0000    11.1059   115.3902     2.5231     0.0035   -54.2487     8.8484     6.6542     6.8405
 2565.5000    11.1093   114.9921     2.5181     0.0015   -54.2473     8.8490     6.6545     6.9043
 2566.0000    11.1127   114.1981     2.5081    -0.0025   -54.2458     9.4377     6.7163     7.0329
 2566.5000    11.1158   113.8001     2.5051    -0.0064   -54.0469     9.7919     6.7791     7.2304
 2567.0000    11.1157   114.1941     2.5022    -0.0084   -54.2430     9.6141     6.7794     7.4334
 2567.5000    11.1156   114.1921     2.4982    -0.0124   -54.2415     9.1827     6.8424     8.3792
 2568.0000    11.1022   113.7941     2.4912    -0.0124   -54.2401     9.0994     6.8431     8.2268
 2568.5000    11.0887   113.0000     2.4872    -0.0144   -54.2387     9.1000     6.8435     7.7138
 2569.0000    11.0753   112.9980     2.4852    -0.0164   -54.0397     9.1846     6.8439     7.5735
 2569.5000    11.0619   113.7885     2.4813    -0.0184   -54.2358     9.6172     6.8443     7.5046
 2570.0000    11.0484   113.7865     2.4733    -0.0184   -54.2344     9.7962     6.8447     7.3008
 2570.5000    11.0350   117.7449     2.4803    -0.0184   -54.2330     9.2712     6.8451     7.2340
 2571.0000    11.0216   118.1389     2.4912    -0.0184   -54.2313     8.9371     6.8457     7.1682
 2571.5000    11.0081   118.5330     2.4952    -0.0125   -54.4273     8.0780     6.8461     7.0379
 2572.0000    10.9958   117.3429     2.4972    -0.0045   -54.4259     7.3015     6.3023     6.7839
 2572.5000    10.9958   114.5686     2.5001    -0.0065   -54.4245     8.3817     6.2447     6.5390
 2573.0000    10.9957   114.1706     2.5001    -0.0065   -54.4231     9.1893     6.1312     6.4201
 2573.5000    11.0352   114.9607     2.4981    -0.0085   -54.4216     9.1102     6.0752     6.3034
 2574.0000    11.0480   118.9190     2.4932    -0.0165   -54.6177     8.5421     5.9649     6.3036
 2574.5000    11.0608   120.8972     2.4802    -0.0205   -54.6163     7.4405     5.8564     6.2463
 2575.0000    11.0736   122.4794     2.4802    -0.0165   -54.6149     7.4410     5.6450     6.4811
 2575.5000    11.0864   123.2694     2.4792    -0.0185   -54.6135     8.0845     5.6454     6.6020
 2576.0000    11.0992   125.6436     2.4812    -0.0185   -54.6121     8.2353     5.6457     6.4820
 2576.5000    11.1120   126.0377     2.4922    -0.0205   -54.6106     8.0113     5.6461     6.2479
 2577.0000    11.1248   124.4516     2.4981    -0.0205   -54.6092     6.8510     5.6984     6.3061
 2577.5000    11.1377   121.6773     2.5001    -0.0205   -54.6078     6.6037     5.7517     6.4832
 2578.0000    11.1530   119.6952     2.5031    -0.0225   -54.6064     8.3905     5.8590     6.8519
 2578.5000    11.1530   114.5448     2.5061    -0.0205   -54.6049     9.0325     5.9135     7.1094
 2579.0000    11.1529   112.9586     2.5160    -0.0186   -54.6035     9.0331     6.0239     7.0447
 2579.5000    11.1528   113.3527     2.5240    -0.0106   -54.6021     8.4699     6.0799     6.9806
 2580.0000    11.1527   113.7467     2.5260    -0.0066   -54.6007     8.3928     6.1934     6.7908
 2580.5000    11.1526   112.9527     2.5299    -0.0047   -54.5992     8.7887     6.3089     6.7290
 2581.0000    11.1525   112.1586     2.5339    -0.0007   -54.5978     9.2885     6.4266     6.7292
 2581.5000    11.1326   112.5526     2.5359     0.0013   -54.5964     9.9077     6.4864     6.9183
 2582.0000    11.1325   113.3427     2.5349    -0.0007   -54.5950     9.2898     6.6074     7.1783
 2582.5000    11.1324   114.1328     2.5259    -0.0007   -54.5935     8.9544     6.6688     7.2452
 2583.0000    11.1917   114.9229     2.5150    -0.0007   -54.5921     8.0924     6.7934     7.3128
 2583.5000    11.2114   117.2971     2.5041    -0.0027   -54.5907     8.7116     6.7938     7.3131
 2584.0000    11.2113   117.6911     2.4981    -0.0067   -54.5892     8.9562     6.7941     7.2467
 2584.5000    11.2508   117.2931     2.4981    -0.0087   -54.5878     8.9567     6.7947     7.3142
 2585.0000    11.2705   116.1030     2.5021    -0.0087   -54.5864     9.2082     6.7327     7.3146
 2585.5000    11.2704   115.7050     2.5050    -0.0087   -54.5850     9.2089     6.7332     7.3151
 2586.0000    11.2703   116.4951     2.5050     0.0072   -54.5833     9.2092     6.7337     7.3156
 2586.5000    11.3098   114.9089     2.5031    -0.0028   -54.5818     8.9591     6.8594     7.3160
 2587.0000    11.3097   114.1149     2.5011    -0.0048   -54.5804     8.7961     6.8596     7.3842
 2587.5000    11.3294   112.9248     2.5011    -0.0048   -54.5790     8.4009     6.8599     7.4530
 2588.0000    11.3293   110.9426     2.5011    -0.0028   -54.5776     8.5576     6.8605     7.5920
 2588.5000    11.3293   108.5645     2.5040     0.0012   -54.5761     9.2125     6.8610     7.9503
 2589.0000    11.3291   109.3545     2.5020     0.0012   -54.5747     9.4712     6.9249     8.1735
