~VERSION INFORMATION
 VERS.                2.0:   CWLS LOG ASCII STANDARD - VERSION 2.0
 WRAP.                 NO:   ONE LINE PER DEPTH STEP
~WELL INFORMATION
#MNEM.UNIT      DATA TYPE    INFORMATION
#----------   ------------   ------------------------------
 STRT.F           13.0000:   START DEPTH
 STOP.F         2858.0000:   STOP DEPTH
 STEP.F            0.5000:   STEP LENGTH
 NULL.          -999.2500:   NO VALUE
 COMP.    FENIX & SCISSON:   COMPANY
 WELL. FENIX & SCISSON "AX" #16-21:   WELL
 FLD .  TEAPOT DOME NRP-3:   FIELD
 LOC .      S21 T39N R78W:   LOCATION
 CNTY.            NATRONA:   COUNTY
 STAT.            WYOMING:   STATE
 CTRY. UNITED STATES OF AMERICA:   COUNTRY
 SRVC.           BIRDWELL:   SERVICE COMPANY
 DATE.        17-JUL-1978:   LOGDATE
 API .     49025106590000:   API NUMBER
~CURVE INFORMATION
#MNEM.UNIT       API CODE    CURVE DESCRIPTION
#----------   ------------   ------------------------------
 DEPT.F                  :   
 GRD .GAPI   45 310 01 00:   GAMMA RAY FROM DENSITY LOG
 CALD.IN     45 280 60 00:   CALIPER FROM DENSITY LOG
 CORR.G/C3   45 356 01 00:   DENSITY CORRECTION
 RHOB.G/C3   45 350 01 00:   BULK DENSITY
 SPR .MV     05 010 01 00:   SPONTANEOUS POTENTIAL FROM RES.
 ILD .OHMM   05 120 46 00:   INDUCTION LOG DEEP
 SN  .OHMM   05 041 16 00:   SHORT NORMAL 16"
~PARAMETER INFORMATION
#MNEM.UNIT          VALUE    DESCRIPTION
#----------   ------------   ------------------------------
 EKB .F         5003.0000:   Kelly bushing
 EGL .F         4993.0000:   Ground level
 EDF .F            0.0000:   Drilling floor
 EPD .F         4993.0000:   Permanent datum
 TD  .F         2858.0000:   Total depth
 CLNT.            A2DTECH:   Client Code
 SL  . 1420' FSL & 200' FWL:   Surface Location
 DATE.        17-JUL-1978:   Date Logged [DD-MMM-YYYY]
 DD  .F              2855:   Depth driller
 DL  .F              2858:   Depth logger
 BLI .F              2858:   Bottom log interval
 TLI .F                20:   Top log interval
 CS1 .              8.625:   Casing size
 CBD1.      8.625" @ 200':   Casing driller 1
 CBL1.IN              228:   Casing logger 1
 BS1 .IN            7.875:   Bit size
 BSD1.F              2855:   Depth drilled with bit1
 DFT .            MUD GEL:   Type fluid in hole
 DFD .                9.9:   Density
 DFV .                 32:   Viscosity
 DFPH.               10.5:   pH
 DFL .                7.2:   Fluid loss
 MSS .           FLOWLINE:   Source of sample
 RMS .OHMM            1.3:   Rm
 MST .F                80:   Rm Meas. temp.
 RMF .OHMM           0.77:   Rmf
 MFST.F                74:   Rmf Meas. temp.
 MFSS.               MEAS:   Source Rmf.
 RMC .OHMM            1.5:   Rmc
 MCST.F                73:   Rmc Meas. temp.
 MCSS.               MEAS:   Source Rmc.
 TCS .HRS               1:   Time Circ. stopped
 MRT .F               118:   Maximum recorded temp.
 LUN .               2958:   Logging unit number
 LUL .               CASP:   Logging unit location
 ENGI.              HONEA:   Recorded By
 WITN.           MCGINLEY:   Witnessed by
 ORIG.        2" 5" PRINT:   Origin of data
 UWI .     49025106590000:   Unique Well ID
 DICO. A2D TECHNOLOGIES, INC.:   Digitizing Company
 PD  .                 GL:   Permanent Datum
 DAPD.                 10:   Feet Above Permanent Datum
~OTHER INFORMATION
~A   DEPT       GRD      CALD       CORR       RHOB        SPR        ILD         SN   
# ...
 1105.0000    83.9728    10.0047     0.0095     2.5160   -31.3615     6.9349     7.1337
 1105.5000    85.1902     9.9925     0.0067     2.5264   -31.4924     6.9185     7.1356
 1106.0000    84.4673     9.9660    -0.0006     2.5369   -31.7600     6.9709     7.1375
 1106.5000    85.8339     9.9687    -0.0020     2.5184   -31.8850     6.9766     7.1394
 1107.0000    86.1558     9.9714     0.0117     2.5058   -31.8617     6.9813     7.0912
 1107.5000    84.3881     9.9889     0.0221     2.4992   -31.9868     6.9860     7.0458
 1108.0000    80.0478    10.0064     0.0207     2.5231   -31.9635     6.9907     7.0478
 1108.5000    80.7546    10.0091     0.0149     2.5335   -31.9401     6.9954     7.0501
 1109.0000    80.2849    10.0118     0.0076     2.5292   -32.0653     6.9512     7.0520
 1109.5000    78.2188    10.0144    -0.0101     2.5247   -32.0416     6.9084     7.0539
 1110.0000    79.2869    10.0171    -0.0040     2.5196   -32.0178     6.8658     7.0558
 1110.5000    79.9073    10.0198     0.0050     2.5026   -31.9894     6.7769     7.0577
 1111.0000    79.7755    10.0075     0.0067     2.5049   -31.9661     6.6446     7.0596
 1111.5000    82.6406     9.9959     0.0053     2.5251   -31.9428     6.5585     7.0615
 1112.0000    83.8521     9.9986     0.0100     2.5340   -31.6228     6.5181     7.0634
 1112.5000    77.1649    10.0013     0.0145     2.5200   -31.4511     6.5226     7.1140
 1113.0000    75.2480    10.0039     0.0161     2.5245   -31.2794     6.5271     7.1160
 1113.5000    76.8803    10.0066     0.0163     2.5305   -31.2561     6.5324     7.1179
 1114.0000    85.9974    10.0092     0.0149     2.5261   -31.3870     6.5368     7.1198
 1114.5000    82.7866    10.0119     0.0150     2.5263   -31.3578     6.5412     7.0730
 1115.0000    80.7204    10.0146     0.0136     2.5300   -31.3345     6.5456     7.0754
 1115.5000    80.2902    10.0172     0.0123     2.5331   -31.3112     6.5501     7.0773
 1116.0000    78.8268    10.0200     0.0125     2.5376   -31.2878     6.5545     7.0792
 1116.5000    79.7457    10.0530     0.0170     2.5057   -31.2641     6.5593     7.0811
 1117.0000    80.8139    10.0705     0.0172     2.5124   -31.3897     6.6084     7.0830
 1117.5000    81.4342    10.0880     0.0176     2.5214   -31.3605     6.6129     7.0849
 1118.0000    85.4875    10.1205     0.0190     2.5118   -31.4914     6.5719     7.0868
 1118.5000    86.5843    10.1529     0.0161     2.5141   -31.6165     6.5766     7.0887
 1119.0000    82.2267    10.1555     0.0132     2.5165   -31.7415     6.5810     7.0906
 1119.5000    76.1219    10.1582     0.0119     2.4994   -31.7124     6.5855     7.0440
 1120.0000    75.5809    10.1757     0.0135     2.5065   -31.6891     6.5449     7.0459
 1120.5000    75.0073    10.1784     0.0196     2.5085   -31.6658     6.5954     7.0478
 1121.0000    80.4096    10.1810     0.0257     2.5063   -31.6424     6.5999     7.0497
 1121.5000    87.8957    10.1837     0.0318     2.5175   -31.6191     6.6043     7.0517
 1122.0000    88.3668    10.1715     0.0363     2.5303   -31.5958     6.6088     7.0540
 1122.5000    83.9125    10.1748     0.0300     2.5452   -31.5725     6.6132     7.0559
 1123.0000    79.3090    10.1775     0.0173     2.5512   -31.5490     6.6177     7.1064
 1123.5000    79.0328    10.1801     0.0070     2.5557   -31.5252     6.6221     7.1084
 1124.0000    79.0573    10.1828     0.0087     2.5357   -31.4967     6.6266     7.1103
 1124.5000    79.2299    10.1854     0.0147     2.5150   -31.6276     6.6311     7.1612
 1125.0000    79.5523    10.1881     0.0089     2.5194   -31.5985     6.6355     7.1631
 1125.5000    79.0770    10.1752    -0.0029     2.5337   -31.5752     6.6400     7.1156
 1126.0000    77.6640    10.1488     0.0211     2.5011   -31.5519     6.6445     7.1180
 1126.5000    77.5323    10.1217     0.0212     2.4982   -31.5286     6.6490     7.0711
 1127.0000    78.1585    10.0797     0.0216     2.5250   -31.6594     6.6535     7.0731
 1127.5000    79.9729    10.0675     0.0341     2.5295   -31.6303     6.6581     7.0750
 1128.0000    85.6679    10.0708     0.0439     2.5356   -31.7612     6.6635     7.0769
 1128.5000    94.9450    10.0883     0.0262     2.5542   -31.8813     6.7139     7.0789
 1129.0000    90.3415    10.0910     0.0070     2.5640   -31.8571     6.7184     7.0812
 1129.5000    81.1112    10.0781     0.0176     2.5469   -31.8338     6.7229     7.0831
 1130.0000    81.4330    10.0368     0.0191     2.5282   -31.8101     6.7274     7.0850
 1130.5000    87.0201    10.0239     0.0104     2.5448   -31.7864     6.7320     7.0869
 1131.0000    86.7465     9.9826     0.0180     2.5405   -31.9122     6.7365     7.0888
 1131.5000    82.1060     9.9852     0.0270     2.5286   -31.8831     6.6939     7.0907
 1132.0000    80.9295     9.9729     0.0271     2.5317   -31.8598     6.6995     7.0926
 1132.5000    83.6452     9.9757     0.0243     2.5399   -31.8365     6.6582     7.0946
 1133.0000    87.4000     9.9783     0.0214     2.5452   -31.8132     6.6627     7.0965
 1133.5000    88.7666     9.9811     0.0112     2.5371   -31.7898     6.6672     7.0984
 1134.0000    87.5959     9.9843     0.0054     2.5245   -31.7665     6.6262     7.1003
 1134.5000    82.8373     9.9721     0.0159     2.5142   -31.7432     6.5853     7.1022
 1135.0000    83.3143     9.9747     0.0175     2.5120   -31.7199     6.5448     7.0977
 1135.5000    82.8899     9.9476     0.0177     2.5257   -31.6966     6.5044     7.0574
 1136.0000    80.6591     9.9503     0.0178     2.5263   -31.6733     6.4644     7.0598
 1136.5000    79.8023     9.9374     0.0179     2.5152   -31.6499     6.4698     7.0617
 1137.0000    81.6226     9.9252     0.0211     2.5138   -31.6261     6.4742     7.1118
 1137.5000    83.5862     9.9135     0.0227     2.5205   -31.6023     6.4785     7.0650
 1138.0000    84.5051     9.9014     0.0213     2.5325   -31.7284     6.4829     7.0674
 1138.5000    83.6271     9.9041     0.0199     2.5229   -31.6993     6.4873     7.0693
 1139.0000    80.5220     9.9068     0.0216     2.5207   -31.6760     6.4916     7.0712
 1139.5000    83.2261     9.8945     0.0232     2.5335   -31.8068     6.4960     7.0731
 1140.0000    82.5032     9.8978     0.0218     2.5328   -31.7777     6.4559     7.0750
 1140.5000    84.3234     9.9005     0.0160     2.5381   -31.9086     6.4603     7.0769
 1141.0000    84.6453     9.9031     0.0013     2.5404   -32.0278     6.4648     7.0789
 1141.5000    85.1164     9.8902     0.0014     2.5286   -32.0045     6.4692     7.1296
 1142.0000    87.6061     9.8936     0.0078     2.5093   -31.9812     6.5190     7.1316
 1142.5000    88.2975     9.8962     0.0139     2.5116   -31.9579     6.5683     7.1339
 1143.0000    81.3118     9.8989     0.0152     2.5184   -31.9346     6.5727     7.1358
 1143.5000    79.6875     9.8866     0.0154     2.5303   -31.9109     6.5771     7.1377
 1144.0000    79.5616     9.8893     0.0140     2.5348   -31.8872     6.5816     7.1397
 1144.5000    80.1878     9.9069     0.0171     2.5297   -31.8588     6.6313     7.1416
 1145.0000    80.0619     9.9096     0.0262     2.5268   -31.8355     6.6358     7.1435
 1145.5000    79.3332     9.9128     0.0307     2.5261   -31.8122     6.6402     7.1455
 1146.0000    81.0042     9.9155     0.0190     2.5371   -31.7889     6.6447     7.1474
 1146.5000    82.0723     9.9026     0.0028     2.5471   -31.7656     6.6492     7.1493
 1147.0000    81.7972     9.9059     0.0134     2.5308   -31.7422     6.6537     7.1512
 1147.5000    82.2774     9.8930     0.0194     2.5212   -31.7189     6.6581     7.1532
 1148.0000    83.2319     9.8659     0.0210     2.5317   -31.6956     6.6627     7.1551
 1148.5000    83.5149     9.8388     0.0212     2.5370   -31.6723     6.6672     7.1571
 1149.0000    83.2339     9.8422     0.0079     2.5400   -31.5006     6.6727     7.1594
 1149.5000    83.5616     9.8298     0.0036     2.5334   -31.4773     6.6305     7.1614
 1150.0000    85.2268     9.8028     0.0230     2.5119   -31.6024     6.5897     7.1757
