~VERSION INFORMATION
 VERS.                2.0:   CWLS LOG ASCII STANDARD - VERSION 2.0
 WRAP.                 NO:   ONE LINE PER DEPTH STEP
~WELL INFORMATION
#MNEM.UNIT      DATA TYPE    INFORMATION
#----------   ------------   ------------------------------
 STRT.F           60.0000:   START DEPTH
 STOP.F         3758.0000:   STOP DEPTH
 STEP.F            0.5000:   STEP LENGTH
 NULL.          -999.2500:   NO VALUE
 COMP. LAWRENCE ALLISON & ASSOCIATES:   COMPANY
 WELL. LAWRENCE "MX" #72-10:   WELL
 FLD .            N P R 3:   FIELD
 LOC .      S10 T38N R78W:   LOCATION
 CNTY.            NATRONA:   COUNTY
 STAT.            WYOMING:   STATE
 CTRY. UNITED STATES OF AMERICA:   COUNTRY
 SRVC.       SCHLUMBERGER:   SERVICE COMPANY
 DATE.        03-JUL-1982:   LOGDATE
 API .     49025108910000:   API NUMBER
~CURVE INFORMATION
#MNEM.UNIT       API CODE    CURVE DESCRIPTION
#----------   ------------   ------------------------------
 DEPT.F                  :   
 GRD .GAPI   45 310 01 00:   GAMMA RAY FROM DENSITY LOG
 NPHI.DEC    42 890 03 00:   NEUTRON POROSITY SANDSTONE
 CALD.IN     45 280 60 00:   CALIPER FROM DENSITY LOG
 RHOB.G/C3   45 350 01 00:   BULK DENSITY
 DRHO.G/C3   45 356 01 00:   DENSITY CORRECTION
 TEND.LBS    45 635 01 00:   TENSION FROM DENSITY LOG
 SPR .MV     07 010 01 00:   SPONTANEOUS POTENTIAL
 SFL .OHMM   07 220 01 00:   SHALLOW FOCUSED LOG RESISTIVITY
 ILD .OHMM   07 120 46 00:   DEEP INDUCTION RESISTIVITY
 ILM .OHMM   07 120 44 00:   INDUCTION LOG MEDIUM RESISTIVITY
 TENR.LBS    07 635 01 00:   TENSION FROM RESISTIVITY
~PARAMETER INFORMATION
#MNEM.UNIT          VALUE    DESCRIPTION
#----------   ------------   ------------------------------
 EKB .F         5182.0000:   Kelly bushing
 EGL .F         5172.0000:   Ground level
 EDF .F            0.0000:   Drilling floor
 EPD .F            0.0000:   Permanent datum
 TD  .F         3770.0000:   Total depth
 DATE.        03-JUL-1982:   Date logged
 CLNT.            A2DTECH:   Client Code
 SL  . 1119' FNL & 21' FEL:   Surface Location
 PD  .                 GL:   Permanent Datum
 DD  .F              3770:   Depth driller
 DL  .F              3750:   Depth logger
 BLI .F              3744:   Bottom log interval
 CS1 .IN            9.625:   Casing size
 CBD1.      9.625" @ 473':   Casing driller 1
 CBL1.F               482:   Casing logger 1
 BS1 .IN            7.875:   Bit size
 DFT .                GEL:   Type fluid in hole
 DFD .                9.1:   Density
 DFV .                 34:   Viscosity
 DFPH.               10.5:   pH
 DFL .                 12:   Fluid loss
 MSS .            MUD PIT:   Source of sample
 RMS .OHMM           1.50:   Rm
 MST .F                84:   Rm Meas. temp.
 RMF .OHMM           1.37:   Rmf
 MFST.F                83:   Rmf Meas. temp.
 RMC .OHMM           1.20:   Rmc
 MCST.F                83:   Rmc Meas. temp.
 MFSS.               MEAS:   Source Rmf.
 RMB .OHMM              1:   Rm. at BHT
 BHT .F               130:   BHT.
 TCS .HRS            1500:   Time Circ. stopped
 MRT .F               130:   Maximum recorded temp.
 LUN .               8039:   Logging unit number
 LUL .               CSPR:   Logging unit location
 ENGI. CONOSCENTI/PIRAKIS:   Recorded By
 WITN.             STRONG:   Witnessed by
 ORIG.       2.5"5" PRINT:   Origin of data
 UWI .     49025108910000:   Unique Well ID
 DICO. A2D TECHNOLOGIES, INC.:   Digitizing Company
 DAPD.                 10:   Feet Above Permanent Datum
 BSD1.               3770:   Depth drilled with bit1
 MCSS.               CALC:   Source Rmc.
 TLI .                482:   Top log interval
 TLAB.HR             1800:   Time logger at bottom
~OTHER INFORMATION
~A   DEPT      GRD       NPHI       CALD       RHOB       DRHO       TEND        SPR        SFL        ILD        ILM       TENR   
# ...
 1341.0000    91.9180     0.3240    13.9550     2.5020     0.0500  1165.9810   -66.3160     8.7430     8.4880     7.6060  1080.8250
 1341.5000    91.9380     0.3280    13.9470     2.5130     0.0540  1166.1720   -66.2310     8.5980     8.4580     7.5590  1081.0250
 1342.0000    91.6640     0.3350    13.9360     2.5210     0.0530  1166.3640   -66.1470     8.4780     8.4280     7.5120  1081.2250
 1342.5000    91.3940     0.3320    13.8400     2.5280     0.0340  1166.5551   -66.0630     8.4300     8.3970     7.4850  1081.4260
 1343.0000    91.1350     0.3250    13.7360     2.5510     0.0610  1166.7469   -65.9790     8.3820     8.3670     7.4850  1081.6260
 1343.5000    90.8790     0.3180    13.6140     2.5790     0.1240  1166.9380   -65.9110     8.3330     8.3340     7.4850  1081.8260
 1344.0000    90.6090     0.3110    13.5550     2.6040     0.1590  1167.1300   -65.9130     8.2850     8.2890     7.4850  1082.0270
 1344.5000    90.3200     0.3080    13.6060     2.5540     0.1900  1167.3220   -65.9140     8.2360     8.2450     7.4490  1082.2271
 1345.0000    90.4210     0.3110    13.6450     2.5000     0.1310  1167.5129   -65.9140     8.1880     8.2000     7.3920  1082.4270
 1345.5000    93.2080     0.3110    13.6670     2.4450     0.0720  1167.7050   -65.9140     8.1400     8.1550     7.3350  1082.6270
 1346.0000    95.0360     0.3110    13.6390     2.4810     0.0560  1167.8960   -65.9140     8.0910     8.1110     7.2780  1082.8280
 1346.5000    95.1130     0.3110    13.6180     2.5410     0.0950  1168.0880   -65.9140     8.0430     8.0660     7.2130  1083.0280
 1347.0000    95.1340     0.3190    13.5890     2.5530     0.1460  1168.2791   -65.9140     7.9940     8.0220     7.2980  1083.2280
 1347.5000    95.1270     0.3160    13.5740     2.5350     0.1480  1168.4709   -65.9140     7.9460     7.9770     7.4250  1083.4290
 1348.0000    94.8570     0.3080    13.4930     2.5160     0.1450  1168.6630   -65.9140     7.9110     7.9320     7.5520  1083.6290
 1348.5000    92.0720     0.2980    13.2910     2.5510     0.2120  1168.8540   -65.9140     8.6290     7.8880     7.6950  1083.8290
 1349.0000    89.6710     0.2880    13.0660     2.5870     0.2450  1169.0460   -65.9140     9.1920     7.8430     7.5440  1084.0300
 1349.5000    87.4170     0.2780    13.0970     2.5560     0.2400  1169.2371   -65.9140     9.3400     7.8380     7.2340  1084.2300
 1350.0000    88.8780     0.3160    13.1800     2.4790     0.2460  1169.4290   -65.9140     8.5260     7.8620     7.0160  1084.4301
 1350.5000    90.5610     0.3270    13.2550     2.4360     0.1490  1169.6210   -65.9140     7.8380     7.8830     7.0480  1084.6310
 1351.0000    92.3250     0.3230    13.3320     2.4580     0.1210  1169.8120   -65.9140     7.7660     7.9050     7.1100  1084.8311
 1351.5000    94.0110     0.3160    13.4140     2.4940     0.1260  1170.0040   -65.9140     7.8940     7.9110     7.1720  1085.0310
 1352.0000    95.7430     0.3100    13.4360     2.4960     0.1120  1170.1949   -65.9140     8.0580     7.9110     7.2130  1085.2321
 1352.5000    97.4390     0.3040    13.1070     2.5010     0.0930  1170.3870   -65.9140     8.2840     7.9110     7.1560  1085.4320
 1353.0000    98.6980     0.3070    12.8980     2.5150     0.1030  1170.5780   -65.9140     8.1990     7.9110     7.1040  1085.6320
 1353.5000    99.7580     0.3120    12.9260     2.5270     0.1150  1170.7700   -65.9140     8.0420     7.9110     7.0820  1085.8330
 1354.0000   100.0060     0.3170    12.9630     2.5190     0.1120  1170.9620   -65.9140     7.9110     7.9110     7.0820  1086.0330
 1354.5000    99.7070     0.3230    12.9940     2.5130     0.1000  1171.1530   -65.9140     7.9590     7.9110     7.0820  1086.2330
 1355.0000    99.5220     0.3280    12.9380     2.5070     0.0830  1171.3450   -65.9140     8.0210     7.9110     7.0820  1086.4340
 1355.5000    99.2350     0.3260    12.8790     2.5150     0.1100  1171.5360   -65.9130     8.0840     7.9110     7.0160  1086.6340
 1356.0000    99.3320     0.3240    12.8110     2.5390     0.1460  1171.7280   -65.9140     8.1460     7.9110     7.0390  1086.8340
 1356.5000    99.9930     0.3260    12.7930     2.5470     0.1850  1171.9189   -65.9380     8.2080     7.9110     7.0770  1087.0350
 1357.0000   100.8710     0.3320    12.7620     2.5490     0.1990  1172.1110   -65.9630     8.1140     7.9110     7.1150  1087.2350
 1357.5000   101.3890     0.3400    12.7330     2.5340     0.1870  1172.3030   -65.9890     8.0210     7.9110     7.1540  1087.4351
 1358.0000   103.6100     0.3240    12.7040     2.5180     0.1370  1172.4940   -66.0140     7.9110     7.9110     7.1920  1087.6360
 1358.5000   103.8540     0.3230    12.6620     2.5060     0.0880  1172.6860   -66.0400     8.2080     7.9110     7.2130  1087.8361
 1359.0000   103.4020     0.3250    12.6100     2.4960     0.0480  1172.8770   -66.0650     8.1630     7.9110     7.0910  1088.0360
 1359.5000   103.0600     0.3290    12.5470     2.5310     0.0730  1173.0690   -66.0900     8.0590     7.9110     6.9520  1088.2360
 1360.0000   102.7040     0.3340    12.5860     2.5620     0.1070  1173.2600   -66.1160     7.9550     7.9110     6.9520  1088.4370
 1360.5000   102.3620     0.3310    12.7290     2.5820     0.1460  1173.4520   -66.1410     7.8520     7.9110     7.0650  1088.6370
 1361.0000   101.3670     0.3250    12.7150     2.5500     0.1380  1173.6440   -66.1660     7.9840     7.9110     7.1540  1088.8370
 1361.5000    98.8130     0.3200    12.6040     2.5280     0.0960  1173.8350   -66.1920     8.1520     7.9100     7.2440  1089.0380
 1362.0000    96.4660     0.3110    12.5120     2.5110     0.0540  1174.0270   -66.2170     8.3200     7.9100     7.3330  1089.2380
 1362.5000    93.6550     0.3020    12.4110     2.5250     0.0250  1174.2180   -66.2420     8.4880     7.9990     7.4230  1089.4380
 1363.0000    92.0880     0.2970    12.3140     2.5370     0.0290  1174.4100   -66.2670     8.6550     8.0980     7.4850  1089.6390
 1363.5000    94.0580     0.2890    12.2230     2.5510     0.0500  1174.6021   -66.2920     8.8370     8.1960     7.4850  1089.8390
 1364.0000    97.6780     0.2850    12.2200     2.5600     0.0670  1174.7930   -66.2670     8.7460     8.2950     7.4850  1090.0389
 1364.5000    98.3930     0.3000    12.2240     2.5500     0.0840  1174.9850   -66.1840     8.6460     8.3610     7.4620  1090.2400
 1365.0000    98.6710     0.3140    12.2300     2.5410     0.0950  1175.1760   -66.1000     8.5460     8.3160     7.4300  1090.4399
 1365.5000    96.2010     0.3200    12.2330     2.5300     0.0810  1175.3680   -66.0160     8.4460     8.2680     7.4160  1090.6400
 1366.0000    94.9620     0.3090    12.2380     2.5240     0.0630  1175.5590   -65.9330     8.3610     8.2200     7.4330  1090.8409
 1366.5000    94.6240     0.3020    12.2420     2.5300     0.0420  1175.7510   -65.8490     8.3610     8.1710     7.4650  1091.0410
 1367.0000    94.3840     0.2950    12.2470     2.5360     0.0300  1175.9430   -65.7650     8.5380     8.1230     7.5540  1091.2410
 1367.5000    92.8990     0.2880    12.2510     2.5420     0.0260  1176.1340   -65.6810     8.7690     8.0750     7.5450  1091.4420
 1368.0000    90.2340     0.2840    12.2570     2.5600     0.0490  1176.3260   -65.5980     9.0020     8.0260     7.5200  1091.6420
 1368.5000    87.8090     0.2970    12.2780     2.5850     0.0920  1176.5170   -65.5140     8.6970     7.9780     7.4950  1091.8420
 1369.0000    85.2150     0.2970    12.2980     2.6030     0.1450  1176.7090   -65.4300     8.3880     7.9110     7.4160  1092.0430
 1369.5000    83.3830     0.2980    12.3190     2.5640     0.1380  1176.9000   -65.3430     8.0800     7.9340     7.4210  1092.2430
 1370.0000    84.4120     0.2980    12.3240     2.5310     0.0950  1177.0920   -65.3730     7.8380     7.9910     7.4450  1092.4430
 1370.5000    85.4530     0.2900    12.2400     2.4970     0.0480  1177.2841   -65.4380     8.0520     8.0580     7.4690  1092.6440
 1371.0000    87.6970     0.2870    12.1680     2.4920     0.0130  1177.4750   -65.5040     8.2620     8.0000     7.4930  1092.8440
