~VERSION INFORMATION
 VERS.                2.0:   CWLS LOG ASCII STANDARD - VERSION 2.0
 WRAP.                 NO:   ONE LINE PER DEPTH STEP
~WELL INFORMATION
#MNEM.UNIT      DATA TYPE    INFORMATION
#----------   ------------   ------------------------------
 STRT.F           53.0000:   START DEPTH
 STOP.F         3110.0000:   STOP DEPTH
 STEP.F            0.5000:   STEP LENGTH
 NULL.          -999.2500:   NO VALUE
 COMP. LAWRENCE ALLISON & ASSOCIATES W:   COMPANY
 WELL. LAWRENCE NPR 3 "AX" #31-34:   WELL
 FLD .      NPR - WILDCAT:   FIELD
 LOC .      S34 T39N R78W:   LOCATION
 CNTY.            NATRONA:   COUNTY
 STAT.            WYOMING:   STATE
 CTRY. UNITED STATES OF AMERICA:   COUNTRY
 SRVC.      DRESSER ATLAS:   SERVICE COMPANY
 DATE.        11-JUL-1986:   LOGDATE
 API .     49025111020000:   API NUMBER
~CURVE INFORMATION
#MNEM.UNIT       API CODE    CURVE DESCRIPTION
#----------   ------------   ------------------------------
 DEPT.F                  :   
 DEN .G/C3   45 350 01 00:   BULK DENSITY
 TEND.LBS    45 635 01 00:   TENSION FROM DENSITY LOG
 CORR.G/C3   45 356 01 00:   DENSITY CORRECTION
 NPHI.DEC    42 890 03 00:   NEUTRON POROSITY SANDSTONE
 SPR .MV     07 010 01 00:   SPONTANEOUS POTENTIAL
 RILM.OHMM   07 120 44 00:   INDUCTION LOG MEDIUM RESISTIVITY
 RILD.OHMM   07 120 46 00:   DEEP INDUCTION RESISTIVITY
 RFOC.OHMM   07 220 04 00:   RESISTIVITY FOCUSED LOG RES.
 TENR.LBS    07 635 01 00:   TENSION FROM RESISTIVITY
 GRR .GAPI   07 310 01 00:   GAMMA RAY FROM RESISTIVITY
 CALR.IN     07 280 01 00:   CALIPER FROM RESISTIVITY
~PARAMETER INFORMATION
#MNEM.UNIT          VALUE    DESCRIPTION
#----------   ------------   ------------------------------
 EKB .F          5074.800:   Kelly bushing
 EGL .F          5063.000:   Ground level
 EDF .F            0.0000:   Drilling floor
 EPD .F            0.0000:   Permanent datum
 TD  .F         3108.0000:   Total depth
 DATE.        11-JUL-1986:   Date logged
 CLNT.            A2DTECH:   Client Code
 SL  . 1796' FWL & 318' FNL:   Surface Location
 PD  .                 GL:   Permanent Datum
 DAPD.F                11:   Feet Above Permanent Datum
 DD  .F              3103:   Depth driller
 DL  .F              3108:   Depth logger
 BLI .F              3106:   Bottom log interval
 CS1 .IN            8.625:   Casing size
 CBD1.      8.625" @ 602':   Casing driller 1
 CBL1.F               596:   Casing logger 1
 BS1 .IN            7.875:   Bit size
 BSD1.F              3103:   Depth drilled with bit1
 DFT .            KCL/GEL:   Type fluid in hole
 DFD .                  9:   Density
 DFV .                 42:   Viscosity
 MSS .           MUD/TANK:   Source of sample
 RMS .OHMM           .352:   Rm
 MST .F                82:   Rm Meas. temp.
 RMF .OHMM           .264:   Rmf
 MFST.F                82:   Rmf Meas. temp.
 RMC .OHMM            .44:   Rmc
 MCST.F                82:   Rmc Meas. temp.
 MFSS.               CALC:   Source Rmf.
 MCSS.               CALC:   Source Rmc.
 RMB .OHMM            .23:   Rm. at BHT
 BHT .F               115:   BHT.
 TCS .HRS               3:   Time Circ. stopped
 MRT .F               115:   Maximum recorded temp.
 LUN .            HL-6264:   Logging unit number
 LUL .           GILLETTE:   Logging unit location
 ENGI.     P. M. FASHSING:   Recorded By
 WITN.             STRONG:   Witnessed by
 ORIG.           5" PRINT:   Origin of data
 UWI .     49025111020000:   Unique Well ID
 DICO. A2D TECHNOLOGIES, INC.:   Digitizing Company
~OTHER INFORMATION
~A   DEPT      DEN       TEND       CORR       NPHI        SPR       RILM       RILD       RFOC       TENR         GRR      CALR   
# ...
 2584.5000     2.3830   -62.5330     0.0200     0.2480   -67.3380     9.9310    10.6850    11.0860   -91.6720    93.8210    10.1250
 2585.0000     2.3710   -63.1930    -0.0050     0.2480   -67.3730     9.8340    10.7270    10.9550   -92.2970    94.4520    10.1340
 2585.5000     2.3770   -63.8520    -0.0040     0.2330   -67.5740     9.8740    10.7720    10.8170   -92.9210    93.9520    10.1420
 2586.0000     2.3840   -64.5120    -0.0020     0.2180   -67.7840     9.9140    10.8170    10.6790   -93.5460    94.4760    10.1510
 2586.5000     2.3900   -65.1720     0.0160     0.2030   -67.9940     9.9540    10.8620    10.5870   -94.1710    96.4340    10.1590
 2587.0000     2.3970   -65.8310     0.0320     0.1970   -68.2040     9.9940    10.9070    10.6860   -94.7960    98.4830    10.1690
 2587.5000     2.4210   -66.4910     0.0380     0.1940   -68.4140    10.0170    10.9510    11.2540   -95.4210    99.7810    10.1590
 2588.0000     2.4460   -67.1510     0.0450     0.2080   -68.6230     9.9170    10.9960    11.9590   -96.0460   100.4110    10.1450
 2588.5000     2.4760   -67.8100     0.0800     0.2200   -68.8330     9.8210    11.0410    12.9670   -96.6710   100.5290    10.1310
 2589.0000     2.4990   -68.4700     0.0680     0.2300   -69.0410     9.7150    11.0860    12.6910   -97.2950   100.4280    10.1160
 2589.5000     2.4940   -69.1300     0.0500     0.2290   -69.2030     9.5650    10.8080    12.2090   -97.9200   100.3230    10.1110
 2590.0000     2.4870   -69.6250     0.0480     0.2300   -69.3560     9.4150    10.5300    11.7260   -98.5450   100.2180    10.1120
 2590.5000     2.4820   -69.7400     0.0650     0.2340   -69.5110     9.2640    10.2520    11.2430   -98.5530   100.1140    10.1130
 2591.0000     2.4830   -70.1370     0.0650     0.2350   -69.6650     9.1140     9.9740    10.7610   -98.3130   100.0080    10.1150
 2591.5000     2.4790   -70.5340     0.0490     0.2340   -69.8200     8.9640     9.6950    10.3480   -98.0730    99.9000    10.1160
 2592.0000     2.4730   -70.9320     0.0350     0.2350   -69.9730     8.8040     9.3910    10.1590   -97.8340    99.8210    10.1180
 2592.5000     2.4710   -71.3290     0.0480     0.2360   -70.1310     9.0370     9.5260     9.9250   -97.5940   100.4220    10.1190
 2593.0000     2.4840   -71.7260     0.0500     0.2320   -70.0370     9.2490     9.6750    10.0810   -97.3550   100.9940    10.1200
 2593.5000     2.5000   -72.1230     0.0700     0.2280   -69.8230     9.4620     9.8250    10.2850   -97.1150   101.0030    10.1220
 2594.0000     2.5170   -72.5200     0.0920     0.2240   -69.6070     9.6540     9.9740    10.4890   -96.8750   101.0010    10.1230
 2594.5000     2.5220   -72.9180     0.0970     0.2180   -69.3900     9.6540    10.0170    10.5870   -96.6360   101.0020    10.1240
 2595.0000     2.5060   -73.3150     0.0890     0.2200   -69.1740     9.4510    10.0170    10.5870   -96.3960   101.0030    10.1260
 2595.5000     2.4900   -73.7120     0.0550     0.2260   -68.9580     9.2990    10.0390    10.7860   -96.1560   100.8770    10.1270
 2596.0000     2.4730   -74.1090     0.0480     0.2370   -68.7410     9.2190    10.0760    11.2500   -95.9170    99.7410    10.1290
 2596.5000     2.4580   -74.5060     0.0440     0.2410   -68.5250     9.4220    10.1120    11.8250   -95.6770    99.1830    10.1300
 2597.0000     2.4500   -74.9030     0.0450     0.2410   -68.3090     9.6070    10.1480    11.6410   -95.4380    99.6970    10.1230
 2597.5000     2.4420   -75.3010     0.0460     0.2350   -68.0920     9.7930    10.1850    11.4890   -95.1980   100.1770    10.1160
 2598.0000     2.4400   -75.6980     0.0450     0.2300   -67.8760     9.9250    10.2030    11.4340   -94.9580   100.5840    10.1090
 2598.5000     2.4400   -76.0950     0.0460     0.2240   -67.6590     9.7320    10.1450    11.3790   -94.7190   100.3660    10.1020
 2599.0000     2.4400   -76.4920     0.0530     0.2220   -67.5190     9.5560    10.1060    11.3240   -94.4790   100.4380    10.0940
 2599.5000     2.4330   -76.8890     0.0570     0.2210   -67.4320     9.3790    10.0670    11.1820   -94.2400   101.7580    10.0870
 2600.0000     2.4210   -77.2870     0.0350     0.2200   -67.4470     9.2030    10.0280    10.9250   -94.0000   104.3350    10.0800
 2600.5000     2.4080   -77.6840    -0.0130     0.2190   -67.7830     9.0510     9.8970    10.6670   -93.7600   107.0310    10.0730
 2601.0000     2.4130   -78.0810    -0.0250     0.2220   -68.1050     9.0920     9.7280    10.4100   -93.5210   106.6200    10.0650
 2601.5000     2.4300   -78.4780    -0.0160     0.2310   -68.4260     9.1470     9.5590    10.1100   -93.2810   106.2900    10.0500
 2602.0000     2.4430   -78.8750     0.0190     0.2350   -68.7470     9.2190     9.3910    10.3680   -93.0420   104.9160    10.0350
 2602.5000     2.4440   -79.2720     0.0320     0.2340   -69.0150     9.1500     9.2840    10.6240   -92.8020   103.3500    10.0210
 2603.0000     2.4350   -78.6740     0.0200     0.2320   -69.1580     9.0480     9.2430    10.8810   -92.5620   102.9070    10.0060
 2603.5000     2.4260   -77.7300     0.0070     0.2320   -69.2990     8.9460     9.2020    11.1890   -92.3230   103.4670     9.9910
 2604.0000     2.4230   -76.7860     0.0040     0.2320   -69.4400     8.8440     9.1600    10.9670   -92.0830   104.3980     9.9770
 2604.5000     2.4260   -75.8420     0.0350     0.2320   -69.5810     8.7420     9.1190    10.6910   -91.8430   105.7920     9.9620
 2605.0000     2.4320   -74.8970     0.0380     0.2340   -69.7210     8.6390     9.0780    10.3930   -91.6040   106.0800     9.9470
 2605.5000     2.4450   -73.9530     0.0400     0.2360   -69.8690     8.5370     9.0470    10.3590   -91.3640   105.9860     9.9330
 2606.0000     2.4570   -73.0090     0.0420     0.2190   -70.1370     8.4350     9.0360    10.3230   -91.1250   104.8400     9.9180
 2606.5000     2.4660   -72.0640     0.0380     0.2110   -70.1130     8.3330     9.0250    10.2860   -90.8850   103.7280     9.9030
 2607.0000     2.4730   -71.1200     0.0320     0.2100   -70.0160     8.2310     9.0140    10.2490   -90.6450   103.6020     9.8890
 2607.5000     2.4810   -70.1760     0.0280     0.2120   -69.9230     8.1030     9.0030    10.2030   -90.4060   103.3840     9.8740
 2608.0000     2.4890   -72.5230     0.0280     0.2130   -69.8300     8.2210     8.9910    10.2040   -90.1660   101.1430     9.8590
 2608.5000     2.4960   -79.4770     0.0340     0.2140   -69.7380     8.4350     8.9800    10.2030   -89.9270   100.3640     9.8470
 2609.0000     2.4970   -86.4300     0.0400     0.2150   -69.6450     8.6500     8.9680    10.2030   -89.6870   100.8580     9.8390
 2609.5000     2.4930   -93.3840     0.0400     0.2130   -69.5530     8.9680     9.2170    10.4870   -89.4470   101.3510     9.8310
 2610.0000     2.4900   -98.8750     0.0380     0.2080   -69.4600     8.9570     9.5050    10.9100   -89.2080   100.8860     9.8230
 2610.5000     2.4870   -70.0040     0.0370     0.2050   -69.3680     8.9420     9.7520    11.5020   -88.9640   100.2900     9.8150
 2611.0000     2.4920   -50.1250     0.0350     0.2050   -69.2750     8.9280     9.8010    11.4480   -85.7400    99.9280     9.8070
 2611.5000     2.4990   -51.2930     0.0340     0.2130   -69.1830     8.9130     9.8500    11.3570   -82.4600   100.6720     9.7990
 2612.0000     2.5050   -52.5670     0.0400     0.2220   -69.0900     8.8980     9.8990    11.2920   -79.1790   103.1340     9.7910
 2612.5000     2.5100   -53.8420     0.0680     0.2240   -68.9980     8.8850     9.9480    11.5220   -75.8980   102.9960     9.7830
 2613.0000     2.5090   -55.1170     0.0750     0.2220   -68.9050     8.8520     9.9970    11.8250   -72.6180   101.8230     9.7750
 2613.5000     2.5060   -56.3920     0.0660     0.2210   -68.8130     8.8070    10.0450    11.5210   -69.4440   100.3100     9.7690
 2614.0000     2.5020   -57.6670     0.0450     0.2200   -68.6640     8.7630    10.1100    11.1420   -71.5880    99.3990     9.7670
 2614.5000     2.5110   -58.9410     0.0510     0.2230   -68.4790     8.7190    10.0680    10.5870   -73.6630    99.6640     9.7650
