~VERSION INFORMATION
 VERS.                2.0:   CWLS LOG ASCII STANDARD - VERSION 2.0
 WRAP.                 NO:   ONE LINE PER DEPTH STEP
~WELL INFORMATION
#MNEM.UNIT      DATA TYPE    INFORMATION
#----------   ------------   ------------------------------
 STRT.F          220.0000:   START DEPTH
 STOP.F         3284.5000:   STOP DEPTH
 STEP.F            0.5000:   STEP LENGTH
 NULL.          -999.2500:   NO VALUE
 COMP.    FENIX & SCISSON:   COMPANY
 WELL. FENIX HARPEL "A" #85-28:   WELL
 FLD .              NPR-3:   FIELD
 LOC .      S28 T39N R78W:   LOCATION
 CNTY.            NATRONA:   COUNTY
 STAT.            WYOMING:   STATE
 CTRY. UNITED STATES OF AMERICA:   COUNTRY
 SRVC.      DRESSER ATLAS:   SERVICE COMPANY
 DATE.        07-AUG-1977:   LOGDATE
 API .     49025104040000:   API NUMBER
~CURVE INFORMATION
#MNEM.UNIT       API CODE    CURVE DESCRIPTION
#----------   ------------   ------------------------------
 DEPT.F                  :   
 GRD .GAPI   45 310 01 00:   GAMMA RAY FROM DENSITY LOG
 CALD.IN     45 280 60 00:   CALIPER FROM DENSITY LOG
 CORR.G/C3   45 356 01 00:   DENSITY CORRECTION
 RHOB.G/C3   45 350 01 00:   BULK DENSITY
 TEND.LBS    45 635 01 00:   TENSION FORM DENSITY LOG
 NPHI.DEC    42 890 03 00:   NEUTRON POROSITY SANDSTONE
 SPR .MV     11 010 01 00:   SPONTANEOUS POTENTIAL FROM RES.
 TENR.LBS    11 635 01 00:   TENSION FROM RES.
 LLD .OHMM   11 220 10 00:   LATEROLOG LOG DEEP
 LLS .OHMM   11 220 09 00:   LATEROLOG SHALLOW
 RXO .OHMM   11 270 04 00:   FLUSHED ZONE RESISTIVITY
~PARAMETER INFORMATION
#MNEM.UNIT          VALUE    DESCRIPTION
#----------   ------------   ------------------------------
 EKB .F         5059.0000:   Kelly bushing
 EGL .F         5049.0000:   Ground level
 EDF .F            0.0000:   Drilling floor
 EPD .F            0.0000:   Permanent datum
 TD  .F         3240.0000:   Total depth
 CLNT.            A2DTECH:   Client Code
 SL  . 2310' FSL & 330' FEL:   Surface Location
 PD  .                 GL:   Permanent Datum
 DAPD.F                10:   Feet Above Permanent Datum
 DATE.        07-AUG-1977:   Date Logged [DD-MMM-YYYY]
 DD  .F              3240:   Depth driller
 DL  .F              3267:   Depth logger
 BLI .F              3265:   Bottom log interval
 TLI .F               224:   Top log interval
 CS1 .IN            8.625:   Casing size
 CBD1.      8.625" @ 254':   Casing driller 1
 CBL1.F               224:   Casing logger 1
 BS1 .IN            7.875:   Bit size
 BSD1.F              3240:   Depth drilled with bit1
 DFT .                KCL:   Type fluid in hole
 DFD .                8.8:   Density
 DFV .                 36:   Viscosity
 DFPH.               10.5:   pH
 DFL .                9.6:   Fluid loss
 MSS .         CIRCULATED:   Source of sample
 RMS .OHMM           0.22:   Rm
 MST .F                78:   Rm Meas. temp.
 RMF .OHMM           0.16:   Rmf
 MFST.F                78:   Rmf Meas. temp.
 MFSS.               MEAS:   Source Rmf.
 RMC .OHMM           0.28:   Rmc
 MCST.F                78:   Rmc Meas. temp.
 MCSS.               MEAS:   Source Rmc.
 RMB .OHMM           0.14:   Rm. at BHT
 BHT .F               125:   BHT.
 TCS .HRS               7:   Time Circ. stopped
 MRT .F               125:   Maximum recorded temp.
 LUN .               6134:   Logging unit number
 LUL .              GLTTE:   Logging unit location
 ENGI.              GOULD:   Recorded By
 WITN.         HARRINGTON:   Witnessed by
 ORIG.      2.5" 5" PRINT:   Origin of data
 UWI .     49025104040000:   Unique Well ID
 DICO. A2D TECHNOLOGIES, INC.:   Digitizing Company
~OTHER INFORMATION
~A   DEPT      GRD       CALD       CORR       RHOB       TEND         NPHI      SPR       TENR        LLD        LLS        RXO   
# ...
 2019.5000    64.6971     8.3657     0.0217     2.4471  1015.0605     0.3314   -78.0120   692.0422    14.7476    12.3650    10.0225
 2020.0000    61.4338     8.3666     0.0218     2.4380  1013.1692     0.3332   -78.0239   692.7711    14.7400    10.9979    10.2365
 2020.5000    59.5138     8.3678     0.0205     2.4397  1011.2779     0.3283   -78.0359   693.5240    21.9052    11.4564    11.1172
 2021.0000    58.4893     8.3687     0.0206     2.4482   994.7546     0.3268   -78.0500   694.2770    24.0626    14.2807    11.4248
 2021.5000    61.7403     8.3698     0.0208     2.4593  1007.8110     0.3292   -78.0612   695.0302    24.8720    16.8541    11.2362
 2022.0000    64.6544     8.3708     0.0210     2.4653   945.6561     0.3276   -78.0724   695.7831    24.6623    18.4542    10.5875
 2022.5000    64.8206     8.3571     0.0212     2.4632   989.0806     0.3240   -78.0838   696.5361    19.6427    19.5849    10.1669
 2023.0000    62.0101     8.3580     0.0213     2.4618   971.7693     0.3287   -78.0958   697.3326    13.9012    16.1028     9.9376
 2023.5000    62.6274     8.3592     0.0199     2.4559   999.7734     0.3374   -78.1078   698.0422    12.2703    10.2196     9.0184
 2024.0000    60.7074     8.3601     0.0217     2.4447   997.8821     0.3485   -78.1198   698.7952    12.0958     9.5323    10.0685
 2024.5000    59.2351     8.3611     0.0233     2.4478   981.0430     0.3502   -77.8323   699.5481    12.7968     9.9297    10.3472
 2025.0000    57.9121     8.3621     0.0280     2.4576  1023.9952     0.3421   -77.8457   700.3011    15.0693    11.0830     9.8902
 2025.5000    57.7781     8.3482     0.0358     2.4780   976.7881     0.3360   -77.8569   701.0543    19.2445    14.8065     9.3874
 2026.0000    57.5050     8.3469     0.0405     2.5028   900.6310     0.3312   -77.8683   701.9177    21.8523    16.8157     9.4320
 2026.5000    54.8232     8.3355     0.0422     2.5030  1197.2212     0.3285   -77.8802   702.6230    21.5415    16.4548     9.7117
 2027.0000    52.4709     8.3215     0.0378     2.4992  1240.6456     0.3248   -77.8922   703.3284    17.9925    15.0497    10.3288
 2027.5000    53.3918     8.3228     0.0349     2.4956  1103.7524     0.3239   -77.9042   734.1868    17.4628    13.7792    10.3254
 2028.0000    52.8151     8.3386     0.0336     2.4911  1027.1227     0.3106   -77.9184   734.9398    17.1181    13.0312    10.1806
 2028.5000    51.6362     8.3396     0.0322     2.4818  1009.3695     0.3019   -77.9296   735.6927    16.1264    12.6688     9.7443
 2029.0000    54.6467     8.3407     0.0324     2.4704  1038.2881     0.3054   -77.9408   736.4457    15.5194    12.3162     9.4949
 2029.5000    58.3983     8.3567     0.0326     2.4614  1019.0363     0.3105   -77.9521   737.3286    16.5149    12.3530     9.7696
 2030.0000    62.0007     8.3577     0.0328     2.4525   974.2421     0.3075   -77.9641   737.9518    18.4344    13.0380    10.1666
 2030.5000    63.6628     8.3737     0.0329     2.4459   972.3512     0.3023   -77.9760   738.7396    18.4249    14.0426    10.0232
 2031.0000    64.3124     8.3896     0.0313     2.4391   985.4075     0.3053   -77.9880   740.5565    19.6909    14.9044     9.4815
 2031.5000    65.4995     8.3906     0.0302     2.4355   998.4639     0.3059   -78.0023   770.3312    22.1027    15.3128     9.4496
 2032.0000    65.6639     8.3917     0.0293     2.4340   951.7299     0.3041   -77.9321   771.0844    22.3198    15.5169    10.0135
 2032.5000    63.6664     8.3927     0.0260     2.4356   964.7863     0.2992   -78.0247   758.5359    19.3614    15.0036     9.8706
 2033.0000    58.6913     8.3938     0.0246     2.4395  1067.5635     0.2985   -78.3353   742.4698    16.9118    13.3674     9.3394
 2033.5000    62.5972     8.3948     0.0233     2.4463  1020.7772     0.3051   -78.3473   743.3246    17.1389    12.4601    10.1407
 2034.0000    61.4235     8.3959     0.0204     2.4554  1003.8865     0.3081   -78.3593   713.8554    16.6627    12.3283     9.8618
 2034.5000    59.0557     8.3969     0.0176     2.4630  1010.3771     0.3062   -78.3713   699.8228    15.5196    12.7484     9.8286
 2035.0000    57.2849     8.3979     0.0162     2.4533  1015.1208     0.3104   -78.0862   685.1997    15.3220    12.5662     9.8556
 2035.5000    55.8517     8.3990     0.0194     2.4609  1012.7572     0.3088   -78.0973   685.9939    18.9919    14.2209     9.8602
 2036.0000    57.6240     8.4002     0.0242     2.4723  1010.8659     0.3013   -78.1085   686.7470    19.8953    15.0197     9.9861
 2036.5000    59.4353     8.4010     0.0273     2.4844  1008.9745     0.3055   -78.1198   687.5000    16.6155    14.1897     9.9823
 2037.0000    54.9831     8.4022     0.0305     2.4965  1007.1747     0.3147   -78.1317   688.3741    15.4990    12.4129     9.5792
 2037.5000    53.2123     8.4031     0.0322     2.5056  1020.2975     0.3135   -78.1437   719.2000    15.2786    11.9372     8.2214
 2038.0000    52.9290     8.4042     0.0339     2.5026  1063.2491     0.3113   -77.8563   719.9053    14.7177    11.5235     9.3064
 2038.5000    52.3523     8.4053     0.0341     2.5005  1060.8856     0.3173   -77.8706   720.6325    12.5374    10.4557     9.4329
 2039.0000    51.1836     8.4063     0.0373     2.5066  1044.0466     0.3127   -77.8818   691.1957    12.4010    10.4383     9.4168
 2039.5000    50.3033     8.4073     0.0374     2.4909  1057.1029     0.3058   -77.8930   692.0180    14.5779    11.2480     9.0438
 2040.0000    45.8477     8.4083     0.0383     2.4887  1085.1075     0.3100   -77.9042   692.7711    17.4913    13.1991    10.1435
 2040.5000    50.0522     8.4094     0.0393     2.4956  1098.2061     0.3166   -77.9162   693.6646    18.2217    14.2084     9.8900
 2041.0000    54.2516     8.4104     0.0394     2.5024  1066.0677     0.3145   -77.9281   694.3699    20.3395    15.3373     9.9513
 2041.5000    57.5554     8.4116     0.0396     2.5032  1113.1396     0.3170   -78.2395   695.0301    19.1644    13.1723     9.9475
 2042.0000    61.6056     8.4126     0.0382     2.4988  1122.3856     0.3267   -78.2515   695.7832    17.6979    13.7215     9.9443
 2042.5000    58.4915     8.4136     0.0354     2.4853  1060.2308     0.3294   -78.2651   696.5361    18.2772    14.3139     9.9410
 2043.0000    59.7109     8.4100     0.0320     2.4733  1028.4442     0.3279   -78.2763   697.2891    18.0389    13.3103     9.9126
 2043.5000    62.1193     8.4007     0.0281     2.4651  1026.5529     0.3352   -78.2875   698.0421    14.9684    12.2042     9.6205
 2044.0000    60.3485     8.4018     0.0253     2.4667  1024.6620     0.3401   -78.2994   698.7952    15.8102    11.9240     9.3971
 2044.5000    61.8613     8.3879     0.0224     2.4736  1022.7707     0.3377   -78.3114   699.6605    16.4707    12.4989     9.2645
 2045.0000    61.2846     8.3740     0.0210     2.4767  1020.8793     0.3347   -78.3233   700.3659    15.9949    12.7253     9.5208
 2045.5000    59.5138     8.3751     0.0197     2.4615  1018.9838     0.3354   -78.3353   701.0712    15.5204    12.4031     9.6502
 2046.0000    57.0502     8.3763     0.0169     2.4624  1017.0403     0.3403   -78.3490   701.8071    15.7195    12.3959     9.2512
 2046.5000    55.3753     8.3622     0.0170     2.4709  1030.1534     0.3420   -78.3602   732.6807    16.6683    13.0995     9.0002
 2047.0000    57.4902     8.3635     0.0172     2.4627  1027.7894     0.3384   -78.3713   733.4337    16.8169    13.6381     9.1227
 2047.5000    56.6150     8.3645     0.0204     2.4642  1010.9509     0.3345   -78.3832   734.1866    15.3202    12.2721     9.1191
 2048.0000    54.2472     8.3655     0.0221     2.4779  1009.0596     0.3276   -78.3952   734.9396    15.2985    11.8638     9.2427
 2048.5000    52.1729     8.3665     0.0237     2.4810  1022.5886     0.3234   -78.4072   724.2286    15.9517    11.8550     9.2391
 2049.0000    58.4669     8.3676     0.0239     2.4878  1020.2250     0.3247   -78.4192   706.3253    15.5411    12.0128     9.2361
 2049.5000    61.7708     8.3686     0.0241     2.4826  1003.3856     0.3301   -78.4311   707.0784    13.3618    12.1733     9.1065
