~VERSION INFORMATION
 VERS.                2.0:   CWLS LOG ASCII STANDARD - VERSION 2.0
 WRAP.                 NO:   ONE LINE PER DEPTH STEP
~WELL INFORMATION
#MNEM.UNIT      DATA TYPE    INFORMATION
#----------   ------------   ------------------------------
 STRT.F          211.0000:   START DEPTH
 STOP.F         3244.0000:   STOP DEPTH
 STEP.F            0.5000:   STEP LENGTH
 NULL.          -999.2500:   NO VALUE
 COMP.    FENIX & SCISSON:   COMPANY
 WELL.  FENIX "AX" #84-15:   WELL
 FLD .  TEAPOT DOME NPR-3:   FIELD
 LOC .      S15 T38N R78W:   LOCATION
 CNTY.            NATRONA:   COUNTY
 STAT.            WYOMING:   STATE
 CTRY. UNITED STATES OF AMERICA:   COUNTRY
 SRVC.           BIRDWELL:   SERVICE COMPANY
 DATE.        17-MAR-1978:   LOGDATE
 API .     49025106050000:   API NUMBER
~CURVE INFORMATION
#MNEM.UNIT       API CODE    CURVE DESCRIPTION
#----------   ------------   ------------------------------
 DEPT.F                  :   
 SPR .MV     05 010 01 00:   SPONTANEOUS POTENTIAL
 SN  .OHMM   05 040 16 00:   SHORT NORMAL
 ILD .OHMM   05 120 46 00:   INDUCTION LOG DEEP
 CALD.IN     45 280 60 00:   CALIPER FROM DENSITY LOG
 GRD .GAPI   45 310 01 00:   GAMMA RAY FROM DENSITY LOG
 RHOB.G/C3   45 350 01 00:   BULK DENSITY
 CORR.G/C3   45 356 01 00:   DENSITY CORRECTION
~PARAMETER INFORMATION
#MNEM.UNIT          VALUE    DESCRIPTION
#----------   ------------   ------------------------------
 EKB .F         5251.0000:   Kelly bushing
 EGL .F         5241.0000:   Ground level
 TD  .F         3250.0000:   Total depth
 CLNT.            A2DTECH:   Client Code
 SL  . 359' FEL & 2310' FNL:   Surface Location
 PD  .                 GL:   Permanent Datum
 LMF .                 KB:   Log Measured From
 DMF .                 KB:   Drilling Measured From
 DATE.        17-MAR-1978:   Date Logged [DD-MMM-YYYY]
 DD  .F              3250:   Depth driller
 DL  .F              3250:   Depth logger
 BLI .F              3244:   Bottom log interval
 TLI .F               224:   Top log interval
 CS1 .IN            8.625:   Casing size
 CBD1.             8.625":   Casing driller 1
 CBL1.F               224:   Casing logger 1
 BS1 .IN            7.875:   Bit size
 BSD1.F              3250:   Depth drilled with bit1
 MSS .           FLOWLINE:   Source of sample
 RMS .OHMM            1.3:   Rm
 MST .F                70:   Rm Meas. temp.
 RMF .OHMM            1.1:   Rmf
 MFST.F                70:   Rmf Meas. temp.
 MFSS.               MEAS:   Source Rmf.
 RMC .OHMM            1.4:   Rmc
 MCST.F                70:   Rmc Meas. temp.
 RMB .OHMM           0.77:   Rm. at BHT
 BHT .F               118:   BHT.
 TCS .HRS               6:   Time Circ. stopped
 MRT .F               118:   Maximum recorded temp.
 LUN .               2958:   Logging unit number
 LUL .               CASP:   Logging unit location
 ENGI.             MILLER:   Recorded By
 WITN.           MCGINLEY:   Witnessed by
 ORIG.           5" PRINT:   Origin of data
 UWI .     49025106050000:   Unique Well ID
 DICO. A2D TECHNOLOGIES, INC.:   Digitizing Company
~OTHER INFORMATION
~A   DEPT      SPR         SN        ILD       CALD         GRD      RHOB       CORR   
# ...
 2213.0000   -32.1842    11.7077     9.7397     8.4581   103.9909     2.4637     0.0016
 2213.5000   -32.1693    11.8020     9.7436     8.4587   103.6909     2.4582    -0.0014
 2214.0000   -32.3053    11.8827     9.7857     8.4593   103.3910     2.4583    -0.0044
 2214.5000   -32.4449    11.8898     9.8594     8.4599   103.5388     2.4478    -0.0075
 2215.0000   -32.4264    11.8959     9.7963     8.4605   106.8209     2.4297    -0.0103
 2215.5000   -32.5641    11.8180     9.8017     8.4611   116.4400     2.4252    -0.0102
 2216.0000   -32.6998    11.7436     9.8072     8.4617   116.6687     2.4260    -0.0087
 2216.5000   -32.6848    11.6683     9.8126     8.4623   117.2639     2.4253    -0.0025
 2217.0000   -32.6686    11.4333     9.8191     8.4629   118.6058     2.4321     0.0036
 2217.5000   -32.6537    11.2812     9.8245     8.4635   119.7983     2.4494     0.0082
 2218.0000   -32.6395    11.2870     9.8299     8.4641   118.6029     2.4555     0.0098
 2218.5000   -32.6240    11.2980     9.8352     8.4647   116.9596     2.4501     0.0083
 2219.0000   -32.6091    11.4569     9.7047     8.4653   116.7862     2.4456     0.0084
 2219.5000   -32.5943    11.4640     9.3130     8.4659   117.8522     2.4450     0.0054
 2220.0000   -32.8811    11.3890     9.0612     8.4665   118.0000     2.4466     0.0055
 2220.5000   -33.0171    11.1611     9.0673     8.4671   117.8229     2.4504     0.0040
 2221.0000   -33.0015    11.0126     9.0723     8.4677   116.9520     2.4632     0.0041
 2221.5000   -32.9836    10.8661     9.0773     8.4683   115.1595     2.4647     0.0056
 2222.0000   -32.8205    10.8717     9.0822     8.4689   109.1879     2.4618     0.0057
 2222.5000   -32.5014    10.8772     9.0886     8.4694   102.7685     2.4671     0.0073
 2223.0000   -32.4866    10.8828     9.1558     8.4700   101.1253     2.4724     0.0089
 2223.5000   -32.3209    11.1178     9.1619     8.4706    98.2880     2.4769     0.0089
 2224.0000   -32.1552    11.2792     9.2309     8.4712    94.7045     2.4770     0.0059
 2224.5000   -32.1418    11.4435     9.3004     8.4718    91.8420     2.4730     0.0030
 2225.0000   -32.1267    11.5288     9.5680     8.4724    91.7165     2.4608    -0.0015
 2225.5000   -32.1106    11.4547     9.7752     8.4730    97.5356     2.4529    -0.0060
 2226.0000   -32.0965    11.2255     9.7805     8.4736   107.8326     2.4500    -0.0090
 2226.5000   -32.0814    11.1402     9.7167     8.4742   117.2341     2.4409    -0.0105
 2227.0000   -32.0660    11.0050     9.5225     8.4748   120.2178     2.4334    -0.0086
 2227.5000   -32.0512    10.9330     9.4616     8.4754   121.7089     2.4312    -0.0057
 2228.0000   -32.1870    10.9400     9.3358     8.4760   120.5134     2.4471    -0.0042
 2228.5000   -32.3228    10.9456     9.2121     8.4766   115.5865     2.4546    -0.0026
 2229.0000   -32.3077    10.9512     9.1532     8.4772   114.2280     2.4549    -0.0025
 2229.5000   -32.4405    10.9568     9.1237     8.4778   113.1722     2.4479    -0.0025
 2230.0000   -32.4256    10.9624     9.0366     8.4784   111.5520     2.4442    -0.0004
 2230.5000   -32.5653    10.8165     8.9801     8.4790   110.0580     2.4502     0.0037
 2231.0000   -32.5490    10.7471     8.9215     8.4796   107.2207     2.4472     0.0068
 2231.5000   -32.5319    10.6782     8.9276     8.4802   107.0704     2.4488     0.0099
 2232.0000   -32.5170    10.7584     8.9325     8.4808   110.9492     2.4533     0.0115
 2232.5000   -32.5022    10.8401     8.9373     8.4814   115.4253     2.4549     0.0146
 2233.0000   -32.4068    10.9213     8.9422     8.4820   116.9275     2.4466     0.0178
 2233.5000   -32.1719    11.0031     9.0096     8.4826   116.1630     2.4459     0.0253
 2234.0000   -32.1559    11.1628     9.0774     8.4832   114.7584     2.4474     0.0359
 2234.5000   -32.1411    11.1686     9.2096     8.4838   112.5833     2.4505     0.0466
 2235.0000   -32.1267    11.1743     9.2790     8.4844   108.1042     2.4671     0.0558
 2235.5000   -32.0650    11.0256     9.3489     8.4849   101.5356     2.4734     0.0589
 2236.0000   -31.9456    10.9535     9.2206     8.4855   100.1913     2.4732     0.0589
 2236.5000   -31.9306    10.7343     9.0305     8.4862   103.4730     2.4837     0.0514
 2237.0000   -31.9155    10.5915     8.8573     8.4867   107.0537     2.4679     0.0136
 2237.5000   -31.9005    10.5205     8.8007     8.4873   113.3209     2.4574     0.0061
 2238.0000   -31.8850    10.4559     8.8682     8.4879   114.8120     2.4831     0.0092
 2238.5000   -32.0211    10.4626     8.8730     8.4885   112.9379     2.4846     0.0107
 2239.0000   -32.0060    10.4680     8.8779     8.4891   110.1818     2.4779     0.0031
 2239.5000   -31.9887    10.4733     8.8827     8.4897   107.9416     2.4711     0.0018
 2240.0000   -32.1267    10.5518     8.8876     8.4903   106.4476     2.4689     0.0018
 2240.5000   -32.1116    10.5378     8.8924     8.4909   105.9984     2.4802     0.0019
 2241.0000   -32.2495    10.4881     8.8973     8.4915   105.5491     2.4787     0.0019
 2241.5000   -32.2323    10.3486     8.7183     8.4921   104.3537     2.4780     0.0005
 2242.0000   -32.3669    10.2109     8.5429     8.4927   102.4119     2.4841    -0.0010
 2242.5000   -32.5066    10.0761     8.3687     8.4933   100.7687     2.4764     0.0006
 2243.0000   -32.4880     9.9422     8.2026     8.4939   100.7860     2.4768     0.0037
 2243.5000   -32.4732     9.8101     8.0937     8.4945   102.4072     2.4902     0.0113
 2244.0000   -32.3075     9.7471     8.0420     8.4951   106.1371     2.5045     0.0175
 2244.5000   -32.1406     9.6845     7.9906     8.4957   107.1804     2.5023     0.0130
 2245.0000   -31.8201     9.6907     7.9961     8.4963   106.7312     2.4933     0.0053
 2245.5000   -31.5083     9.5606     8.0005     8.4969   106.2820     2.4850     0.0025
 2246.0000   -31.1916     9.4992     8.0048     8.4975   105.8328     2.4813     0.0071
 2246.5000   -31.0228     9.5053     8.0088     8.4981   104.1895     2.4836     0.0117
 2247.0000   -30.8571     9.5102     8.0136     8.4987   103.7403     2.4799     0.0118
 2247.5000   -31.1439     9.5150     8.0183     8.4993   104.0374     2.4783     0.0118
 2248.0000   -31.8832     9.5863     8.0222     8.5000   103.5878     2.4792     0.0119
 2248.5000   -32.0229     9.6082     8.0679     8.5154   102.9893     2.4814     0.0180
 2249.0000   -32.0044     9.7305     8.1436     8.5309   102.8386     2.4831     0.0196
 2249.5000   -31.9895     9.7354     8.1482     8.5464   103.1357     2.4845     0.0211
 2250.0000   -31.9746     9.8084     8.2669     8.5618   103.5367     2.4883     0.0182
 2250.5000   -31.9059     9.9176     8.3301     8.5625   104.1756     2.4914     0.0092
 2251.0000   -31.6433    10.0268     8.5105     8.5631   104.7644     2.4726     0.0061
 2251.5000   -31.6284    10.1360     8.6344     8.5338   102.9660     2.4666     0.0062
 2252.0000   -31.6135    10.1783     8.7602     8.5046   100.5721     2.4621     0.0154
 2252.5000   -31.4478    10.1120     8.7649     8.5053    99.0737     2.4749     0.0230
 2253.0000   -31.4330    10.1186     8.7697     8.5059   100.7096     2.4758     0.0322
 2253.5000   -32.0343    10.1244     8.7745     8.5214   103.6888     2.4591     0.0459
 2254.0000   -32.4806    10.1299     8.7793     8.5369   105.9218     2.4516     0.0732
 2254.5000   -32.7459    10.1355     8.7841     8.5673   106.9607     2.4615     0.1248
 2255.0000   -32.4256    10.1411     8.7889     8.6683   105.4623     2.5112     0.1627
 2255.5000   -32.1091    10.2176     8.9169     8.8069   105.0101     2.5437     0.1037
 2256.0000   -31.7926    10.2242     8.9842     8.6883   105.8983     2.5113     0.0189
 2256.5000   -31.7777    10.2298     9.0519     8.5100   105.5940     2.4653     0.0099
 2257.0000   -31.7629    10.3142     9.1211     8.4957   103.0276     2.4639     0.0069
 2257.5000   -31.7480    10.3837     9.1345     8.5112    97.2046     2.4549     0.0100
 2258.0000   -31.7332    10.4187     9.1949     8.5267    92.1435     2.4489     0.0131
