~VERSION INFORMATION
 VERS.                2.0:   CWLS LOG ASCII STANDARD - VERSION 2.0
 WRAP.                 NO:   ONE LINE PER DEPTH STEP
~WELL INFORMATION
#MNEM.UNIT      DATA TYPE    INFORMATION
#----------   ------------   ------------------------------
 STRT.F          590.0000:   START DEPTH
 STOP.F         3428.0000:   STOP DEPTH
 STEP.F            0.5000:   STEP LENGTH
 NULL.          -999.2500:   NO VALUE
 COMP.    FENIX & SCISSON:   COMPANY
 WELL. FENIX NPR 3 "AX" #25-27:   WELL
 FLD .                NPR:   FIELD
 LOC .      S27 T39N R78W:   LOCATION
 CNTY.            NATRONA:   COUNTY
 STAT.            WYOMING:   STATE
 CTRY. UNITED STATES OF AMERICA:   COUNTRY
 SRVC.       SCHLUMBERGER:   SERVICE COMPANY
 DATE.        13-AUG-1981:   LOGDATE
 API .     49025108780000:   API NUMBER
~CURVE INFORMATION
#MNEM.UNIT       API CODE    CURVE DESCRIPTION
#----------   ------------   ------------------------------
 DEPT.F                  :   
 CALD.IN     45 280 60 00:   CALIPER FROM DENSITY LOG
 GRD .GAPI   45 310 01 00:   GAMMA RAY FROM DENSITY LOG
 CORR.G/C3   45 356 01 00:   DENSITY CORRECTION
 RHOB.G/C3   45 350 01 00:   BULK DENSITY
 NPHI.DEC    42 890 03 00:   NEUTRON POROSITY SANDSTONE
 TENR.LBS    07 635 01 00:   TENSION
 SPR .MV     07 010 01 00:   SPONTANEOUS POTENTIAL
 ILD .OHMM   07 120 46 00:   INDUCTION LOG DEEP RESISTIVITY
 ILM .OHMM   07 120 44 00:   INDUCTION LOG MEDIUM RESISTIVITY
 SFL .OHMM   07 220 01 00:   SHALLOW FOCUSED LOG RESISTIVITY
 TEND.LBS    45 635 01 00:   TENSION FROM DENSITY LOG
~PARAMETER INFORMATION
#MNEM.UNIT          VALUE    DESCRIPTION
#----------   ------------   ------------------------------
 EKB .F         5057.0000:   Kelly bushing
 EGL .F         5047.0000:   Ground level
 EDF .F            0.0000:   Drilling floor
 TD  .F         3415.0000:   Total depth
 DATE.        13-AUG-1981:   Date logged
 CLNT.            A2DTECH:   Client Code
 SL  . 2100' FSL & 1050' FWL:   Surface Location
 PD  .                 GL:   Permanent Datum
 EPD .F              5047:   Elevation Permanent Datum
 LMF .                 KB:   Log Measured From
 DMF .                 KB:   Drilling Measured From
 DAPD.F                10:   Feet Above Permanent Datum
 DD  .F              3400:   Depth driller
 DL  .F              3415:   Depth logger
 BLI .F              3409:   Bottom log interval
 TLI .F               603:   Top log interval
 CS1 .IN            9.625:   Casing size
 CBD1.      9.625" @ 607':   Casing driller 1
 CBL1.F               603:   Casing logger 1
 BS1 .IN            7.875:   Bit size
 BSD1.F              3400:   Depth drilled with bit1
 DFT .                FGM:   Type fluid in hole
 DFD .                8.7:   Density
 DFV .                 36:   Viscosity
 DFPH.                  9:   pH
 DFL .                 13:   Fluid loss
 MSS .           MUD/TANK:   Source of sample
 RMS .OHMM           1.69:   Rm
 MST .F                75:   Rm Meas. temp.
 RMF .OHMM           1.34:   Rmf
 MFST.F                75:   Rmf Meas. temp.
 MFSS.               MEAS:   Source Rmf.
 RMB .OHMM           1.09:   Rm. at BHT
 BHT .F               120:   BHT.
 TCS .HRS            2145:   Time Circ. stopped
 TLAB.HRS            0200:   Time logger at bottom
 MRT .F               120:   Maximum recorded temp.
 LUN .               8039:   Logging unit number
 LUL .               CSPR:   Logging unit location
 ENGI.            PURPICH:   Recorded By
 WITN.              FIVAS:   Witnessed by
 ORIG.           5" PRINT:   Origin of data
 UWI .     49025108780000:   Unique Well ID
 DICO. A2D TECHNOLOGIES, INC.:   Digitizing Company
~OTHER INFORMATION
~A   DEPT     CALD         GRD      CORR       RHOB         NPHI     TENR        SPR        ILD        ILM        SFL       TEND   
  590.0000  -999.2500    72.3110  -999.2500  -999.2500     0.4120  -999.2500  -999.2500  -999.2500  -999.2500  -999.2500  -999.2500
  590.5000  -999.2500    72.3110  -999.2500  -999.2500     0.4120  -999.2500  -999.2500  -999.2500  -999.2500  -999.2500  -999.2500
  591.0000  -999.2500    71.1160  -999.2500  -999.2500     0.4290  -999.2500  -999.2500  -999.2500  -999.2500  -999.2500  -999.2500
  591.5000  -999.2500    70.9690  -999.2500  -999.2500     0.4610  -999.2500  -999.2500  -999.2500  -999.2500  -999.2500  -999.2500
  592.0000  -999.2500    72.0830  -999.2500     2.3420     0.4830  -999.2500  -999.2500  -999.2500  -999.2500  -999.2500  -999.2500
  592.5000  -999.2500    73.5710  -999.2500     2.3420     0.4820  -999.2500  -999.2500  -999.2500  -999.2500  -999.2500  -999.2500
  593.0000  -999.2500    75.0450  -999.2500     2.3420     0.4720  -999.2500  -999.2500  -999.2500  -999.2500  -999.2500  -999.2500
  593.5000  -999.2500    75.8830  -999.2500     2.3460     0.4610  -999.2500  -999.2500  -999.2500  -999.2500  -999.2500  -999.2500
  594.0000  -999.2500    76.6020  -999.2500     2.3360     0.4510  -999.2500  -999.2500  -999.2500  -999.2500  -999.2500  -999.2500
  594.5000  -999.2500    77.0520  -999.2500     2.3390     0.4410  -999.2500  -999.2500  -999.2500  -999.2500  -999.2500  -999.2500
  595.0000  -999.2500    75.1720  -999.2500     2.3310     0.4420  -999.2500  -999.2500  -999.2500  -999.2500  -999.2500  -999.2500
  595.5000  -999.2500    73.0730  -999.2500     2.3270     0.4460  -999.2500  -999.2500  -999.2500  -999.2500  -999.2500  -999.2500
  596.0000  -999.2500    70.9760  -999.2500     2.3180     0.4570  -999.2500  -999.2500  -999.2500  -999.2500  -999.2500  -999.2500
  596.5000  -999.2500    68.8910  -999.2500     2.3140     0.4690  -999.2500  -999.2500  -999.2500  -999.2500  -999.2500  -999.2500
  597.0000  -999.2500    67.5860  -999.2500     2.3720     0.4710  -999.2500  -999.2500  -999.2500  -999.2500  -999.2500  -999.2500
  597.5000  -999.2500    68.1750  -999.2500     2.3960     0.4610  -999.2500  -999.2500  -999.2500  -999.2500  -999.2500  -999.2500
  598.0000  -999.2500    68.3230  -999.2500     2.3840     0.4520  -999.2500  -999.2500  -999.2500  -999.2500  -999.2500  -999.2500
  598.5000  -999.2500    67.9980  -999.2500     2.3580     0.4470  -999.2500  -999.2500  -999.2500  -999.2500  -999.2500  -999.2500
  599.0000  -999.2500    67.6120  -999.2500     2.3640     0.4470  -999.2500  -999.2500  -999.2500  -999.2500  -999.2500  -999.2500
  599.5000  -999.2500    67.7410  -999.2500     2.3700     0.4430  -999.2500  -999.2500  -999.2500  -999.2500  -999.2500  -999.2500
  600.0000  -999.2500    69.1820  -999.2500     2.3670     0.4320   569.8710  -999.2500  1381.8950    11.8870     0.2140  -999.2500
  600.5000  -999.2500    70.6390  -999.2500     2.3570     0.4210   569.8710  -999.2500  1381.8950    11.8870     0.2140  -999.2500
  601.0000  -999.2500    72.2350  -999.2500     2.3520     0.4170   569.8710  -999.2500  1381.8950    11.8870     0.2140  -999.2500
  601.5000  -999.2500    71.8220  -999.2500     2.3250     0.4210   569.8710  -999.2500  1396.3500    10.8480     0.2140  -999.2500
  602.0000  -999.2500    70.6510  -999.2500     2.3430     0.4260   569.8710   -47.4210  1381.8950    10.8870     0.2140   600.2190
  602.5000  -999.2500    69.4470  -999.2500     2.4530     0.4220   569.8710   -60.5880  1381.8950     8.8860     0.2140   600.3240
  603.0000     9.6410    68.2590  -999.2500     2.5570     0.4150   569.8710   -75.3970  1382.0861     7.8830     0.2140   600.4290
  603.5000     9.9490    67.1010     0.2290     2.5620     0.4050   569.8710   -96.6410  1382.4351     7.7400     1.1590   600.5350
  604.0000    10.2580    69.2460     0.1330     2.4840     0.4190   568.8180  -107.3360  1381.8950   588.3960     4.4550   600.6140
  604.5000    10.4880    76.9110     0.1410     2.4110     0.4360   567.8480  -112.4570  1381.8950  1704.7250     7.7510   600.7200
  605.0000    10.7980    84.5060     0.1630     2.4300     0.4420   566.8780  -111.7470  1228.6639  1569.3920    10.3660   600.8250
  605.5000    11.1070    91.7460     0.1540     2.4420     0.4180   565.9090  -105.7490     2.2160  1288.0129     9.5140   600.9300
  606.0000    11.6410    93.9510     0.1340     2.4360     0.3850   564.9390   -99.4490     2.3410   242.2000     8.7250   601.0360
  606.5000    12.3450    93.8980     0.1310     2.4510     0.3880   563.9690   -97.2130    11.9220     7.7380     7.9360   601.1410
  607.0000    12.5970    93.4630     0.2020     2.4830     0.3930   563.0000   -93.9910    20.1830     7.1990     7.1470   601.2470
  607.5000    12.8570    93.0430     0.2510     2.4900     0.3970   562.0300   -92.7330   568.0520     7.0650     5.9400   601.3520
  608.0000    13.5170    92.5260     0.2470     2.4230     0.3950   561.0600   -92.7500  1002.1440     6.7200     6.0120   601.4580
  608.5000    14.2730    89.9220     0.2470     2.3000     0.4040   560.0910   -92.9970   476.7260     6.3780     6.2170   601.5630
  609.0000    15.3310    85.5880     0.2480     2.1680     0.4130   559.6460   -93.1410     6.1960     5.8520     6.0410   601.6690
  609.5000    16.5740    80.9090     0.2470     2.0350     0.4210   559.2820   -92.6520     6.1160     5.2990     5.3120   601.7740
  610.0000    17.7810    79.8820     0.1860     1.8520     0.4080   558.9180   -92.0900     5.3770     4.7450     4.2820   601.8800
  610.5000    19.1770    80.2170     0.1240     1.6320     0.4140   558.5550   -91.5280     4.5320     4.1910     3.2530   601.9850
  611.0000    20.3200    80.0490     0.0850     1.5380     0.4260   558.1910   -90.9710     3.6870     3.6380     2.7830   602.0910
  611.5000    21.5480    78.5670     0.0460     1.4370     0.4490   557.8270   -90.5840     2.8880     3.0840     2.4060   602.1960
  612.0000    21.7270    77.1330     0.0310     1.3480     0.4930   557.4640   -90.6620     2.5310     2.5300     2.0280   602.3020
  612.5000    21.8970    77.4430     0.0250     1.4460     0.5280   557.1000   -90.7270     2.2780     1.9900     1.6400   602.4070
  613.0000    21.1490    76.7140     0.0320     1.5470     0.5730   556.7360   -90.7590     2.2160     2.0010     1.6990   602.5130
  613.5000    17.6560    74.9070     0.0460     1.9520     0.6170   556.3730   -90.6980     2.2370     2.1170     1.8320   602.6180
  614.0000    15.2650    73.1180     0.0820     2.0100     0.6560   556.0090   -90.6350     2.4450     2.4620     1.9330   602.7230
  614.5000    14.3990    71.2600     0.1450     2.2170     0.6350   555.6460   -90.5850     2.6360     2.8100     3.3670   602.8290
  615.0000    14.0010    70.9880     0.2520     2.4110     0.5800   555.2820   -91.3840     3.1630     3.3830     4.6850   602.9340
  615.5000    14.0740    72.4580     0.2510     2.4240     0.5250   554.9180   -92.3250     3.6680     3.9330     5.1230   603.0400
  616.0000    14.1410    74.4680     0.2140     2.3710     0.4610   554.5550   -93.0320     4.1730     4.4830     5.5600   603.1450
  616.5000    13.7900    76.2660     0.1740     2.2950     0.3990   554.1910   -93.5280     4.6780     5.0530     6.1030   603.2510
  617.0000    13.4420    76.3330     0.1370     2.1960     0.4040   553.8270   -93.3790     5.1840     5.6880     6.6270   603.3560
  617.5000    13.1200    77.4760     0.1020     2.0350     0.4250   553.4640   -93.2470     5.6630     6.1050     6.7900   603.4620
  618.0000    12.0250    81.8030     0.0670     1.8000     0.4480   553.1000   -93.1470     6.1090     6.1050     6.9470   603.5670
  618.5000    10.9090    85.9840     0.0390     1.8000     0.4690   552.7360   -93.3970     6.5550     6.0900     7.1040   603.6730
  619.0000    10.2540    90.1640     0.0180     1.9560     0.4630   552.3730   -93.7380     6.9370     6.0650     7.2310   603.7780
  619.5000     9.9480    94.3680     0.0620     2.0020     0.4330   552.0090   -94.0820     7.0030     6.0410     7.3910   603.8840
  620.0000     9.7040    98.4930     0.1040     2.1160     0.3910   551.6450   -94.4240     7.0830     6.0170     7.5510   603.9890
