~VERSION INFORMATION
 VERS.                2.0:   CWLS LOG ASCII STANDARD - VERSION 2.0
 WRAP.                 NO:   ONE LINE PER DEPTH STEP
~WELL INFORMATION
#MNEM.UNIT      DATA TYPE    INFORMATION
#----------   ------------   ------------------------------
 STRT.F          196.5000:   START DEPTH
 STOP.F         3219.0000:   STOP DEPTH
 STEP.F            0.5000:   STEP LENGTH
 NULL.          -999.2500:   NO VALUE
 COMP.    FENIX & SCISSON:   COMPANY
 WELL.  FENIX "AX" #73-15:   WELL
 FLD .              NPR 3:   FIELD
 LOC .      S15 T38N R78W:   LOCATION
 CNTY.            NATRONA:   COUNTY
 STAT.            WYOMING:   STATE
 CTRY. UNITED STATES OF AMERICA:   COUNTRY
 SRVC.       SCHLUMBERGER:   SERVICE COMPANY
 DATE.        30-AUG-1977:   LOGDATE
 API .     49025104270000:   API NUMBER
~CURVE INFORMATION
#MNEM.UNIT       API CODE    CURVE DESCRIPTION
#----------   ------------   ------------------------------
 DEPT.F                  :   
 NPHI.DEC    42 890 03 00:   NEUTRON POROSITY SANDSTONE
 CALD.IN     45 280 60 00:   CALIPER FROM DENSITY LOG
 GRD .GAPI   45 310 01 00:   GAMMA RAY FROM DENSITY LOG
 CORR.G/C3   45 356 01 00:   DENSITY CORRECTION
 RHOB.G/C3   45 350 01 00:   BULK DENSITY
 SPR .MV     07 010 01 00:   SPONTANEOUS POTENTIAL
 RILD.OHMM   07 120 46 00:   DEEP INDUCTION RESISTIVITY
 RILM.OHMM   07 120 44 00:   INDUCTION LOG MEDIUM RESISTIVITY
 LL8 .OHMM   07 220 08 00:   LATEROLOG-8 RES.
~PARAMETER INFORMATION
#MNEM.UNIT          VALUE    DESCRIPTION
#----------   ------------   ------------------------------
 EKB .F         5263.0000:   Kelly bushing
 EGL .F         5253.0000:   Ground level
 TD  .F         3220.0000:   Total depth
 CLNT.            A2DTECH:   Client Code
 SL  . 1650' FNL & 875' FEL:   Surface Location
 PD  .                 GL:   Permanent Datum
 EPD .F              5253:   Elevation Permanent Datum
 LMF .                 KB:   Log Measured From
 DMF .                 KB:   Drilling Measured From
 DAPD.F                10:   Feet Above Permanent Datum
 DATE.        30-AUG-1977:   Date Logged [DD-MMM-YYYY]
 DD  .F              3220:   Depth driller
 DL  .F              3219:   Depth logger
 BLI .F              3209:   Bottom log interval
 TLI .F               216:   Top log interval
 CS1 .IN            8.625:   Casing size
 CBL1.F               216:   Casing logger 1
 BS1 .IN            7.875:   Bit size
 BSD1.F              3220:   Depth drilled with bit1
 DFT .                FGM:   Type fluid in hole
 DFD .                8.9:   Density
 DFPH.                 11:   pH
 MSS .            MUDTANK:   Source of sample
 RMS .OHMM           0.40:   Rm
 MST .F                82:   Rm Meas. temp.
 RMF .OHMM           0.25:   Rmf
 MFST.F                72:   Rmf Meas. temp.
 MFSS.               MEAS:   Source Rmf.
 RMC .OHMM           0.60:   Rmc
 MCST.F                82:   Rmc Meas. temp.
 MCSS.               CALC:   Source Rmc.
 RMB .OHMM           0.27:   Rm. at BHT
 BHT .F               120:   BHT.
 MRT .F               120:   Maximum recorded temp.
 LUN .               5642:   Logging unit number
 LUL .               CSPR:   Logging unit location
 ENGI.                FIX:   Recorded By
 WITN.         RETTINGILL:   Witnessed by
 ORIG.           5" PRINT:   Origin of data
 UWI .     49025104270000:   Unique Well ID
 DICO. A2D TECHNOLOGIES, INC.:   Digitizing Company
 DFV .                 35:   Viscosity
 DFL .                8.4:   Fluid loss
 CBD1.      8.625" @ 216':   Casing driller 1
~OTHER INFORMATION
~A   DEPT       NPHI     CALD        GRD       CORR       RHOB        SPR       RILD       RILM        LL8   
# ...
 1985.0000     0.4152     9.0922   220.3489     0.0149     2.4260   -57.3406    11.7966    11.9080    14.9251
 1985.5000     0.4032     9.0940   210.4783     0.0067     2.4127   -57.0208    11.8833    12.1344    14.2251
 1986.0000     0.3840     9.0925   198.8218     0.0031     2.4013   -56.7009    11.9707    12.2257    13.5580
 1986.5000     0.3743     9.0823   189.9487     0.0084     2.3867   -56.2170    12.0587    12.3189    15.2632
 1987.0000     0.3707     9.0846   185.0816     0.0048     2.3857   -55.7583    12.0636    12.2410    16.2545
 1987.5000     0.3668     9.0864   179.5468     0.0102     2.4062   -55.2837    12.0685    12.2488    16.9393
 1988.0000     0.3577     9.0878   173.7894     0.0163     2.4191   -55.1149    11.9901    12.1717    16.1449
 1988.5000     0.3511     9.0899   174.0410     0.0209     2.4158   -54.7950    11.8299    12.0928    16.1532
 1989.0000     0.3493     9.0769   175.4053     0.0184     2.4123   -54.6262    11.6946    11.9358    16.1598
 1989.5000     0.3495     9.0638   178.3275     0.0111     2.4191   -54.4574    11.5166    11.7806    15.6166
 1990.0000     0.3516     9.0564   180.8046     0.0077     2.4282   -54.4396    11.3640    11.7046    10.3850
 1990.5000     0.3510     9.0373   179.2757     0.0201     2.4410   -54.4219    11.3687    11.6309    12.0155
 1991.0000     0.3464     9.0243   177.0792     0.0268     2.4546   -54.4041    11.3733    11.6398    13.7094
 1991.5000     0.3479     9.0112   172.0257     0.0183     2.4404   -54.6884    11.4569    11.7279    15.2150
 1992.0000     0.3515     9.0131   158.2643     0.0126     2.4285   -54.9728    11.4611    11.7351    15.9767
 1992.5000     0.3455     9.0000   149.0316     0.0180     2.4436   -55.2572    11.4662    11.8240    14.9146
 1993.0000     0.3391     9.0018   140.9193     0.0241     2.4714   -55.5415    11.4709    11.9135    13.4496
 1993.5000     0.3379     9.0036   134.2717     0.0272     2.4737   -55.5193    11.5552    12.0037    12.5475
 1994.0000     0.3391     9.0053   132.5203     0.0251     2.4743   -55.5016    11.6402    12.0946    11.9667
 1994.5000     0.3389     9.0071   130.9914     0.0192     2.4597   -55.4838    11.9757    12.2709    11.9728
 1995.0000     0.3299     8.9941   128.7949     0.0200     2.4598   -55.7726    12.5828    12.4498    12.5722
 1995.5000     0.3114     8.9959   122.8150     0.0254     2.4741   -56.0570    12.8413    12.7225    14.4441
 1996.0000     0.2870     8.9977   114.3870     0.0267     2.4704   -56.3413    12.4096    13.3897    16.2539
 1996.5000     0.2894     9.0143   112.8509     0.0113     2.4608   -56.6257    11.6651    13.2436    17.1861
 1997.0000     0.2987     9.0161   113.7774     0.0122     2.4744   -56.6035    11.3512    12.5691    16.2672
 1997.5000     0.3109     9.0327   121.5957     0.0206     2.4805   -56.7368    11.1986    12.0646    13.2231
 1998.0000     0.3331     9.0345   139.8740     0.0154     2.4783   -56.8701    10.9730    11.7419    11.5987
 1998.5000     0.3463     9.0660   146.3570     0.0215     2.4769   -57.1544    10.6789    11.3490    11.4428
 1999.0000     0.3616     9.0826   149.5017     0.0239     2.4972   -57.4632    10.3915    10.9692    11.9339
 1999.5000     0.3780     9.0992   151.1203     0.0338     2.5025   -57.8698    10.1120    10.6758    11.6935
 2000.0000     0.3894     9.1307   155.3437     0.0188     2.4869   -58.1643     9.8399    10.3167    11.4579
 2000.5000     0.3894     9.1491   152.2569     0.0091     2.4707   -58.2338     9.6157     9.7909    11.0728
 2001.0000     0.3876     9.1762   150.7281     0.0070     2.4594   -58.5716     9.4967     9.2403    10.6745
 2001.5000     0.3879     9.2032   150.0822     0.0176     2.4632   -59.1624     9.3777     9.2069     9.9208
 2002.0000     0.3900     9.2296   147.8918     0.0192     2.4746   -59.4422     9.2610     9.3096    11.0868
 2002.5000     0.3869     9.2156   142.1342     0.0328     2.4874   -59.4243     9.1384     9.4433    11.4027
 2003.0000     0.3779     9.2050   135.9315     0.0164     2.4792   -59.4065     9.0791     9.5766    11.3287
 2003.5000     0.3616     9.2076   132.6220     0.0232     2.4831   -59.6952     8.9465     9.5028    11.1005
 2004.0000     0.3643     9.2101   133.5409     0.0293     2.4967   -59.8248     8.8375     9.2560    11.0215
 2004.5000     0.3706     9.1976   137.5756     0.0264     2.4983   -59.9577     8.7811     9.1311    10.8813
 2005.0000     0.3750     9.2008   138.5238     0.0348     2.4969   -60.2417     8.7232     9.0699    10.7361
 2005.5000     0.3783     9.1884   136.2978     0.0311     2.4925   -60.3746     8.6077     8.9481    10.7416
 2006.0000     0.3822     9.1905   138.5520     0.0237     2.4828   -60.5078     8.6113     8.8887    10.5253
 2006.5000     0.3834     9.1935   139.4741     0.0198     2.4747   -60.4894     8.4955     8.7688    10.3132
 2007.0000     0.3791     9.1960   140.1766     0.0344     2.4875   -60.4713     8.4404     8.7100    10.2453
 2007.5000     0.3842     9.1830   141.3391     0.0383     2.4989   -60.4497     8.3856     8.6522    10.1798
 2008.0000     0.3893     9.1713   138.1394     0.0293     2.4840   -60.4319     8.3899     8.5948    10.1840
 2008.5000     0.3914     9.1738   138.3316     0.0196     2.4721   -60.4140     8.4517     8.7177    10.1169
 2009.0000     0.3919     9.1467   139.8383     0.0137     2.4617   -60.3962     8.5730     8.7807    10.2631
 2009.5000     0.3904     9.1492   137.8546     0.0055     2.4520   -60.3783     8.6960     8.9676    11.1563
 2010.0000     0.3754     9.1517   127.6615     0.0004     2.4446   -60.5160     8.8820     9.2223    11.2384
 2010.5000     0.3745     9.1690   118.3431    -0.0011     2.4448   -60.4937     9.0127     9.4275    11.0120
 2011.0000     0.3729     9.1787   115.0336     0.0029     2.4577   -60.4758     9.2088     9.6866    10.4232
 2011.5000     0.3696     9.1886   113.0593     0.0443     2.4796   -60.4579     9.3993     9.7566     9.2063
 2012.0000     0.3669     9.1914   111.5302     0.0557     2.4847   -60.5956     9.4040     9.6919     8.3597
 2012.5000     0.3750     9.2089   114.2296     0.0618     2.4841   -60.5733     9.2776     9.4294     8.4796
 2013.0000     0.3829     9.2258   120.0447     0.0303     2.4642   -60.7070     9.0289     9.1741     9.3602
 2013.5000     0.3869     9.2434   124.3019     0.0192     2.4566   -60.6886     8.8471     8.9878    10.1823
 2014.0000     0.3773     9.2459   128.5591     0.0305     2.4859   -60.8218     8.6688     8.8053    10.9921
 2014.5000     0.3751     9.2631   129.2555     0.0194     2.4659   -60.8036     8.5262     8.6264    10.8974
 2015.0000     0.3748     9.2658   129.7293     0.0134     2.4556   -60.7855     8.3231     8.5100    10.4585
 2015.5000     0.3820     9.2829   130.2032     0.0075     2.4487   -60.7638     8.1555     8.4536    10.1070
 2016.0000     0.3985     9.2855   124.0005     0.0196     2.4953   -60.8970     7.9912     8.3395     9.9034
 2016.5000     0.4005     9.2881   127.1450     0.0370     2.5006   -61.0302     7.8666     8.2841     9.9074
 2017.0000     0.3996     9.2906   130.5120     0.0258     2.5022   -61.0168     7.7604     8.1723     9.9537
 2017.5000     0.3942     9.2930   132.0986     0.0222     2.4828   -61.3010     7.6822     8.0620     9.9844
 2018.0000     0.3845     9.2955   129.6792     0.0373     2.4874   -61.4298     7.5732     7.9538     9.9885
 2018.5000     0.3812     9.2982   127.2599     0.0269     2.4815   -61.4119     7.5762     7.9004     9.9926
 2019.0000     0.3851     9.3007   126.3913     0.0172     2.4764   -61.3940     7.5271     7.8480     9.8583
 2019.5000     0.3800     9.3032   126.6497     0.0218     2.4952   -61.3762     7.5303     7.7426     9.5279
 2020.0000     0.3751     9.2908   127.7912     0.0348     2.4893   -61.3583     7.5333     7.7986     9.7993
 2020.5000     0.3718     9.2934   130.9357     0.0243     2.4849   -61.3405     7.5888     7.8550    10.0785
 2021.0000     0.3694     9.2810   128.9615     0.0161     2.4730   -61.1716     7.6500     7.9118    10.0826
