~VERSION INFORMATION
 VERS.                2.0:   CWLS LOG ASCII STANDARD - VERSION 2.0
 WRAP.                 NO:   ONE LINE PER DEPTH STEP
~WELL INFORMATION
#MNEM.UNIT      DATA TYPE    INFORMATION
#----------   ------------   ------------------------------
 STRT.F          330.0000:   START DEPTH
 STOP.F         2880.0000:   STOP DEPTH
 STEP.F            0.5000:   STEP LENGTH
 NULL.          -999.2500:   NO VALUE
 COMP.   TESORO PETROLEUM:   COMPANY
 WELL. TESORO NPR "AX" #3-21:   WELL
 FLD .        TEAPOT DOME:   FIELD
 LOC .      S21 T39N R78W:   LOCATION
 CNTY.            NATRONA:   COUNTY
 STAT.            WYOMING:   STATE
 CTRY. UNITED STATES OF AMERICA:   COUNTRY
 SRVC.       SCHLUMBERGER:   SERVICE COMPANY
 DATE.        17-AUG-1972:   LOGDATE
 API .     49025102150000:   API NUMBER
~CURVE INFORMATION
#MNEM.UNIT       API CODE    CURVE DESCRIPTION
#----------   ------------   ------------------------------
 DEPT.F                  :   
 GRD .GAPI   45 310 01 00:   GAMMA RAY FROM DENSITY LOG
 CALD.IN     45 280 60 00:   CALIPER FROM DENSITY LOG
 CORR.G/C3   45 356 01 00:   DENSITY CORRECTION
 RHOB.G/C3   45 350 01 00:   BULK DENSITY
 SPR .MV     05 010 01 00:   SPONTANEOUS POTENTIAL FROM RES.
 ILD .OHMM   05 120 46 00:   INDUCTION LOG DEEP
 ASN .OHMM   05 041 16 00:   AMPLIFIED SHORT NORMAL 16"
~PARAMETER INFORMATION
#MNEM.UNIT          VALUE    DESCRIPTION
#----------   ------------   ------------------------------
 EKB .F         4985.0000:   Kelly bushing
 EGL .F         4975.0000:   Ground level
 EDF .F            0.0000:   Drilling floor
 EPD .F         4975.0000:   Permanent datum
 TD  .F         2880.0000:   Total depth
 CLNT.            A2DTECH:   Client Code
 DATE.        17-AUG-1972:   Date Logged [DD-MMM-YYYY]
 DD  .F              2875:   Depth driller
 DL  .F              2880:   Depth logger
 BLI .F              2879:   Bottom log interval
 TLI .F               330:   Top log interval
 CS1 .              10.75:   Casing size
 CBD1.       10.75" @ 327:   Casing driller 1
 CBL1.IN              330:   Casing logger 1
 BS1 .IN                9:   Bit size
 BSD1.F              2875:   Depth drilled with bit1
 DFT .           CHEM-GEL:   Type fluid in hole
 DFD .                9.3:   Density
 DFV .                 61:   Viscosity
 DFPH.                9.0:   pH
 DFL .                 66:   Fluid loss
 MSS .           FLOWLINE:   Source of sample
 RMS .OHMM           1.86:   Rm
 MST .F                76:   Rm Meas. temp.
 RMF .OHMM           1.58:   Rmf
 MFST.F                76:   Rmf Meas. temp.
 MFSS.               MEAS:   Source Rmf.
 RMB .OHMM           1.25:   Rm. at BHT
 BHT .F               113:   BHT.
 TCS .HRS               3:   Time Circ. stopped
 MRT .F               113:   Maximum recorded temp.
 LUN .               7037:   Logging unit number
 LUL .               CSPR:   Logging unit location
 ENGI.              GOLAS:   Recorded By
 WITN.                MAY:   Witnessed by
 ORIG.      1" 2.5" PRINT:   Origin of data
 UWI .     49025102150000:   Unique Well ID
 DICO. A2D TECHNOLOGIES, INC.:   Digitizing Company
~OTHER INFORMATION
~A   DEPT      GRD       CALD       CORR       RHOB        SPR          ILD        ASN 
# ...
 1740.5000   129.7048     9.3400     0.0053     2.4603   -19.9984     7.3614     9.5733
 1741.0000   131.5623     9.3404     0.0038     2.4617   -19.9969     7.3651     9.8793
 1741.5000   133.4198     9.3409     0.0073     2.4638   -19.9953     7.3688    10.0356
 1742.0000   135.7388     9.3414     0.0116     2.4701   -19.9938     7.5226    10.0372
 1742.5000   137.1348     9.3418     0.0039     2.4668   -19.9922     7.5263    10.0387
 1743.0000   133.8924     9.3423    -0.0068     2.4445   -19.9904     7.6802    10.0403
 1743.5000   130.1929     9.3427     0.0043     2.4434   -19.9889     7.6908    10.1966
 1744.0000   127.9380     9.3432     0.0138     2.4588   -19.9874     7.8499    10.1981
 1744.5000   128.0030     9.3436     0.0064     2.4512   -19.9859     7.9917    10.1997
 1745.0000   129.3462     9.3132     0.0028     2.4434   -19.9844     7.9955    10.3560
 1745.5000   129.8193     9.3137     0.0193     2.4616   -19.9828     7.9993    10.5124
 1746.0000   129.8307     9.3142     0.0189     2.4928   -19.9813     8.1531    10.5139
 1746.5000   130.4215     9.3147     0.0071     2.4854   -19.9798     8.1951    10.5155
 1747.0000   132.1017     9.3152    -0.0030     2.4682   -19.9783     8.3108    10.4448
 1747.5000   133.5558     9.3156    -0.0064     2.4729   -20.2864     8.1638    10.2864
 1748.0000   131.0953     9.3161     0.0029     2.4564   -20.2848     8.1681    10.2105
 1748.5000   131.8201     9.3165     0.0107     2.4560   -20.2833     8.0210    10.0573
 1749.0000   135.1107     9.3170     0.0153     2.4622   -20.2817     8.0255     9.9040
 1749.5000   136.1908     9.3174     0.0123     2.4776   -20.2802     7.8093     9.7508
 1750.0000   132.6927     9.2871     0.0046     2.4823   -20.2787     7.6576     9.4887
 1750.5000   130.8254     9.2875     0.0000     2.4777   -20.2771     7.4362     9.1919
 1751.0000   129.9462     9.2880    -0.0061     2.4608   -20.2002     7.4399     9.1964
 1751.5000   128.5753     9.2885    -0.0077     2.4500   -19.9644     7.2935     9.2008
 1752.0000   129.9713     9.2890     0.0048     2.4516   -19.9628     7.2980     9.2052
 1752.5000   135.9826     9.2894     0.0157     2.4901   -19.9613     7.4518     9.3603
 1753.0000   138.7632     9.2899     0.0089     2.4778   -19.6502     7.4555     9.6659
 1753.5000   139.2361     9.2903     0.0003     2.4671   -19.6486     7.4592     9.6704
 1754.0000   139.2474     9.2908     0.0148     2.4637   -19.6471     7.6130     9.8254
 1754.5000   133.7203     9.2913     0.0158     2.4980   -19.6455     7.7669     9.8298
 1755.0000   132.8085     9.2860     0.0055     2.4982   -19.6440     7.9207     9.8344
 1755.5000   131.8968     9.2922     0.0020     2.4872   -19.6424     8.0745     9.8389
 1756.0000   130.9851     9.2926     0.0129     2.4873   -19.6406     8.2284     9.9939
 1756.5000   130.0733     9.2931     0.0191     2.4873   -19.6391     8.3822    10.0201
 1757.0000   133.3154     9.2935     0.0082     2.4862   -19.6375     8.5361    10.3042
 1757.5000   135.6697     9.2940    -0.0053     2.4470   -19.6360     8.6899    10.4594
 1758.0000   138.0093     9.2944    -0.0062     2.4264   -19.6345     8.6937    10.5020
 1758.5000   139.3938     9.2949    -0.0038     2.4165   -19.6330     8.8476    10.6190
 1759.0000   140.2839     9.2954    -0.0005     2.4227   -19.6315     9.0015    10.6235
 1759.5000   138.2978     9.2958     0.0086     2.4346   -19.6300     9.1554    10.6827
 1760.0000   136.8925     9.3271     0.0195     2.4502   -19.6284     9.0086    10.7831
 1760.5000   135.7025     9.3276     0.0041     2.4567   -19.6269     8.8622    10.7877
 1761.0000   136.0896     9.3281    -0.0021     2.4501   -19.6254     8.7157    10.7921
 1761.5000   138.4570     9.3285    -0.0051     2.4429   -19.6239     8.7200    10.7199
 1762.0000   140.3538     9.3291    -0.0020     2.4586   -19.6223     8.7237    10.6506
 1762.5000   139.9017     9.3295     0.0150     2.4630   -19.6207     8.7275    10.5045
 1763.0000   140.1047     9.3300     0.0367     2.4747   -19.6192     8.5811    10.3593
 1763.5000   141.4659     9.3304     0.0599     2.5060   -19.6176     8.5848    10.2131
 1764.0000   145.6984     9.3309     0.0599     2.5255   -19.6161     8.4385    10.3682
 1764.5000   143.1532     9.3313     0.0302     2.5112   -19.6146     8.3648    10.5232
 1765.0000   137.0080     9.3457     0.0122     2.4920   -19.6130     8.2958    10.6782
 1765.5000   131.0469     9.3631     0.0184     2.4771   -19.6115     8.2996    10.9839
 1766.0000   129.3692     9.3636     0.0130     2.4750   -19.6099     8.4542    10.9883
 1766.5000   130.3058     9.3640     0.0062     2.4818   -19.6084     8.4578    10.9927
 1767.0000   131.7018     9.3645     0.0282     2.4880   -19.6068     8.6117    10.5454
 1767.5000   131.2516     9.3651     0.0371     2.5019   -19.6052     8.6154    10.5498
 1768.0000   132.6475     9.3655     0.0325     2.5065   -19.6037     8.7692    10.5542
 1768.5000   136.8127     9.3660     0.0310     2.5065   -19.1115     8.7729    10.5588
 1769.0000   136.3625     9.3664     0.0307     2.5066   -18.9811     8.7766    10.5723
 1769.5000   134.9892     9.3669     0.0191     2.5051   -18.9796     8.7803    10.7184
 1770.0000   133.6160     9.3673     0.0049     2.4897   -18.9781     8.7840    10.8735
 1770.5000   132.2427     9.3987     0.0044     2.4743   -18.9766     8.7877    10.8780
 1771.0000   130.8694     9.3682     0.0130     2.4605   -19.5943     8.7913    10.8826
 1771.5000   129.4938     9.3687     0.0143     2.4542   -20.2119     8.9452    10.8870
 1772.0000   128.5844     9.3692     0.0098     2.4636   -20.5200     8.9549    10.8915
 1772.5000   128.5961     9.3696    -0.0010     2.4512   -21.1377     9.1140    10.8484
 1773.0000   128.6077     9.3701     0.0006     2.4450   -21.4459     9.2568    10.7492
 1773.5000   128.1569     9.3705     0.0145     2.4406   -21.7538     9.2822    10.6031
 1774.0000   127.7067     9.4024     0.0238     2.4568   -22.0619     9.4144    10.3935
 1774.5000   127.2565     9.4640     0.0378     2.4710   -22.0463     9.4182    10.0914
 1775.0000   126.8063     9.4259     0.0427     2.4889   -21.7492     9.4595    10.0151
 1775.5000   126.0945     9.2763     0.0239     2.4654   -21.4381     9.5758    10.0196
 1776.0000   124.8369     9.2848     0.0364     2.4577   -21.4366     9.5796    10.0241
 1776.5000   125.3240     9.3479     0.0395     2.4573   -21.1254     9.4325    10.0295
 1777.0000   127.3938     9.3737     0.0143     2.4538   -21.0505     9.3784    10.0339
 1777.5000   129.2996     9.3668     0.0103     2.4606   -20.8127     9.0128    10.0384
 1778.0000   130.3200     9.3438     0.0309     2.4877   -20.7141     8.7748    10.1934
 1778.5000   133.5639     9.3443     0.0266     2.5027   -20.5000     8.5488    10.0467
 1779.0000   136.6201     9.3448     0.0119     2.5059   -20.1889     8.3213    10.0517
 1779.5000   136.8645     9.3452     0.0182     2.4895   -20.1873     8.1697     9.9055
 1780.0000   137.7230     9.3580     0.0172     2.4764   -20.0412     7.9587     9.7593
 1780.5000   136.1674     9.3770     0.0061     2.4841   -19.7183     7.8115     9.6132
 1781.0000   136.0247     9.3775    -0.0011     2.4779   -19.5635     7.6658     9.6176
 1781.5000   138.0363     9.3779     0.0080     2.4704   -19.3819     7.6695     9.4713
 1782.0000   138.5092     9.3784     0.0138     2.4670   -19.2505     7.8233     9.4779
 1782.5000   138.5205     9.3480     0.0155     2.4720   -18.9394     7.8270     9.6386
 1783.0000   140.3780     9.3666     0.0216     2.4731   -18.9379     7.9808     9.9368
 1783.5000   141.8447     9.3799     0.0031     2.4679   -18.9363     7.9845    10.0919
 1784.0000   137.6315     9.3803     0.0155     2.4751   -18.9348     8.1384    10.0964
 1784.5000   134.8736     9.3808     0.0155     2.4813   -18.9333     8.1420    10.1009
 1785.0000   132.5772     9.3812     0.0094     2.4701   -18.9318     8.2959    10.1054
 1785.5000   131.2039     9.3817    -0.0013     2.4642   -18.6207     8.2996    10.1099
