~VERSION INFORMATION
 VERS.                2.0:   CWLS LOG ASCII STANDARD - VERSION 2.0
 WRAP.                 NO:   ONE LINE PER DEPTH STEP
~WELL INFORMATION
#MNEM.UNIT      DATA TYPE    INFORMATION
#----------   ------------   ------------------------------
 STRT.F          545.0000:   START DEPTH
 STOP.F         3193.0000:   STOP DEPTH
 STEP.F            0.5000:   STEP LENGTH
 NULL.          -999.2500:   NO VALUE
 COMP. FENIX & SCISSON-U.S. NAVY:   COMPANY
 WELL.   FENIX "A" #47-34:   WELL
 FLD .          N.P.R. #3:   FIELD
 LOC .      S34 T39N R78W:   LOCATION
 CNTY.            NATRONA:   COUNTY
 STAT.            WYOMING:   STATE
 CTRY. UNITED STATES OF AMERICA:   COUNTRY
 SRVC.       SCHLUMBERGER:   SERVICE COMPANY
 DATE.        26-MAR-1977:   LOGDATE
 API .     49025103260000:   API NUMBER
~CURVE INFORMATION
#MNEM.UNIT       API CODE    CURVE DESCRIPTION
#----------   ------------   ------------------------------
 DEPT.F                  :   
 SPR .MV     07 010 01 00:   SPONTANEOUS POTENTIAL FROM RES.
 ILM .OHMM   07 120 44 00:   INDUCTION LOG MEDIUM RESISTIVITY
 ILD .OHMM   07 120 46 00:   DEEP INDUCTION RESISTIVITY
 LL8 .OHMM   07 220 08 00:   LATEROLOG-8 RES.
 CALD.IN     45 280 60 00:   CALIPER FROM DENSITY LOG
 GRD .GAPI   45 310 01 00:   GAMMA RAY FROM DENSITY LOG
 RHOB.G/C3   45 350 01 00:   BULK DENSITY
 CORR.G/C3   45 356 01 00:   DENSITY CORRECTION
~PARAMETER INFORMATION
#MNEM.UNIT          VALUE    DESCRIPTION
#----------   ------------   ------------------------------
 EKB .F         5144.0000:   Kelly bushing
 EGL .F         5132.0000:   Ground level
 TD  .F         3194.0000:   Total depth
 CLNT.            A2DTECH:   Client Code
 SL  . 2310' FWL & 990' FSL:   Surface Location
 PD  .                 GL:   Permanent Datum
 EPD .F              5132:   Elevation Permanent Datum
 LMF .                 KB:   Log Measured From
 DMF .                 KB:   Drilling Measured From
 DAPD.F                12:   Feet Above Permanent Datum
 DATE.        26-MAR-1977:   Date Logged [DD-MMM-YYYY]
 DD  .F              3188:   Depth driller
 DL  .F              3194:   Depth logger
 BLI .F              3188:   Bottom log interval
 TLI .F               564:   Top log interval
 CS1 .IN            8.625:   Casing size
 CBD1.      8.625" @ 570':   Casing driller 1
 CBL1.F               564:   Casing logger 1
 BS1 .IN            7.875:   Bit size
 BSD1.F              3188:   Depth drilled with bit1
 DFT .                KCL:   Type fluid in hole
 DFD .                9.2:   Density
 DFV .                 30:   Viscosity
 DFL .                9.2:   Fluid loss
 MSS .                PIT:   Source of sample
 RMS .OHMM          0.354:   Rm
 MST .F                70:   Rm Meas. temp.
 RMF .OHMM          0.326:   Rmf
 MFST.F                70:   Rmf Meas. temp.
 MFSS.               MEAS:   Source Rmf.
 RMC .OHMM          0.531:   Rmc
 MCST.F                70:   Rmc Meas. temp.
 MCSS.               CALC:   Source Rmc.
 RMB .OHMM          0.205:   Rm. at BHT
 BHT .F               121:   BHT.
 TLAB.HRS            1900:   Time logger at bottom
 MRT .F               121:   Maximum recorded temp.
 LUN .               5642:   Logging unit number
 LUL .               CSPR:   Logging unit location
 ENGI.             MARTIN:   Recorded By
 WITN.         PETTINGILL:   Witnessed by
 ORIG.           5" PRINT:   Origin of data
 UWI .     49025103260000:   Unique Well ID
 DICO. A2D TECHNOLOGIES, INC.:   Digitizing Company
~OTHER INFORMATION
~A   DEPT      SPR        ILM        ILD        LL8       CALD         GRD      RHOB       CORR   
# ...
 1071.5000   -55.9508     9.8721     8.8826    12.1294     8.2233   116.7275     2.5352     0.0204
 1072.0000   -56.1565     9.8776     8.8284    12.8285     8.2233   114.2234     2.5436     0.0213
 1072.5000   -56.2045     9.8845     8.7744    11.9803     8.2228   114.3373     2.5640     0.0361
 1073.0000   -56.3313     9.8920     8.7225    11.6546     8.2220   119.3343     2.5483     0.0447
 1073.5000   -56.3041     9.8987     8.7292    12.2486     8.2212   123.3663     2.5379     0.0463
 1074.0000   -56.4364     9.9053     8.7359    12.0052     8.2204   124.5727     2.5680     0.0448
 1074.5000   -56.4092     9.8436     8.7427    11.9283     8.2196   123.1216     2.5637     0.0348
 1075.0000   -56.3875     9.8504     8.7494    12.0206     8.2188   120.6253     2.5443     0.0256
 1075.5000   -56.5198     9.8570     8.8169    12.1116     8.2180   119.7546     2.5399     0.0319
 1076.0000   -56.4926     9.7957     8.8237    12.2033     8.2172   119.7871     2.5483     0.0373
 1076.5000   -56.3223     9.7365     8.8306    12.2111     8.2163   119.9615     2.5551     0.0312
 1077.0000   -56.1516     9.6759     8.7769    12.2189     8.2155   120.1365     2.5620     0.0344
 1077.5000   -55.9807     9.6825     8.7839    12.0591     8.2147   120.3168     2.5501     0.0461
 1078.0000   -56.1084     9.6890     8.7251    11.9741     8.2139   121.0846     2.5247     0.0252
 1078.5000   -56.5270     9.4966     8.6768    11.8289     8.2131   121.7041     2.5113     0.0191
 1079.0000   -56.5053     9.4375     8.7454    11.5919     8.2123   122.0269     2.5144     0.0130
 1079.5000   -56.6321     9.4439     8.7521    11.4403     8.2115   122.7947     2.5228     0.0084
 1080.0000   -56.7590     9.4504     8.8196    11.2147     8.2107   124.3044     2.5311     0.0255
 1080.5000   -56.5886     9.4569     8.8264    11.7776     8.2099   124.1820     2.5117     0.0240
 1081.0000   -56.4183     9.4646     8.8332    12.2836     8.2090   121.0923     2.5231     0.0249
 1081.5000   -56.3965     9.4710     8.8400    12.2914     8.2082   119.3379     2.5352     0.0366
 1082.0000   -56.3744     9.4773     8.8469    12.1305     8.2074   119.6617     2.5444     0.0358
 1082.5000   -56.3522     9.4837     8.8538    11.8077     8.2066   119.3965     2.5340     0.0305
 1083.0000   -56.7716     9.4901     8.8622    11.6532     8.2058   118.3839     2.5206     0.0282
 1083.5000   -57.0471     9.4965     8.8691    11.9066     8.2050   116.4811     2.5259     0.0229
 1084.0000   -57.0253     9.5029     8.8797    11.9949     8.2042   115.0235     2.5140     0.0121
 1084.5000   -57.0036     9.5752     8.8231    11.8380     8.2044   114.1593     2.5059     0.0005
 1085.0000   -56.8333     9.5819     8.7698    12.5202     8.2089   113.1467     2.5060     0.0192
 1085.5000   -56.8115     9.5221     8.7153    13.2397     8.2132   115.3982     2.5345     0.0278
 1086.0000   -56.7898     9.5301     8.7213    12.1948     8.2175   121.0720     2.5640     0.0459
 1086.5000   -56.6194     9.4708     8.7285    12.2026     8.2218   122.1455     2.5409     0.0504
 1087.0000   -56.5923     9.4104     8.6673    12.1263     8.2261   123.4946     2.5087     0.0366
 1087.5000   -56.4018     9.3519     8.6196    11.7158     8.2304   126.0429     2.5066     0.0304
 1088.0000   -56.2516     9.2937     8.5662    11.4103     8.2347   129.7781     2.5217     0.0406
 1088.5000   -56.2298     9.3016     8.5123    11.4195     8.2390   130.2427     2.5338     0.0476
 1089.0000   -56.2081     9.2437     8.5194    11.5857     8.2430   126.5660     2.5512     0.0353
 1089.5000   -56.1863     9.2500     8.4664    11.7543     8.2431   123.3280     2.5663     0.0454
 1090.0000   -56.1646     9.1291     8.4140    11.9253     8.2431   119.7932     2.5589     0.0385
 1090.5000   -56.1429     9.0724     8.3619    12.0156     8.2431   117.5936     2.5385     0.0389
 1091.0000   -56.4183     8.9554     8.3098    12.1066     8.2431   118.8547     2.5591     0.0456
 1091.5000   -56.5453     8.8982     8.3168    11.9480     8.2431   122.2516     2.5525     0.0325
 1092.0000   -56.6720     8.8429     8.2637    11.5502     8.2431   124.7998     2.5256     0.0256
 1092.5000   -56.7988     8.8504     8.2707    11.3901     8.2431   121.2650     2.5159     0.0203
 1093.0000   -57.0688     8.8563     8.2179    11.1725     8.2431   117.5818     2.5243     0.0196
 1093.5000   -57.0471     8.8623     8.2248    11.2589     8.2431   116.8595     2.5221     0.0235
 1094.0000   -57.0109     8.8072     8.2303    11.9884     8.2431   118.3757     2.5455     0.0352
 1094.5000   -56.8550     8.8133     8.1792    12.2452     8.2431   120.6272     2.5389     0.0415
 1095.0000   -56.6847     8.8205     8.1284    11.5964     8.2431   121.9886     2.5315     0.0315
 1095.5000   -56.3657     8.7053     8.1352    11.0564     8.2431   120.5014     2.5413     0.0440
 1096.0000   -56.3440     8.6512     8.0291    10.8995     8.2431   118.1830     2.5595     0.0556
 1096.5000   -56.3223     8.6570     8.0345    10.9943     8.2431   121.0345     2.5206     0.0270
 1097.0000   -56.1516     8.6629     7.9833    11.0777     8.2431   121.8024     2.5350     0.0310
 1097.5000   -55.9807     8.6076     7.9900    11.1617     8.2431   121.6735     2.5418     0.0341
 1098.0000   -56.1084     8.6148     7.9402    11.2478     8.2431   123.0414     2.5284     0.0125
 1098.5000   -56.2353     8.6206     7.9457    11.1757     8.2431   124.2543     2.5301    -0.0014
 1099.0000   -56.2081     8.6264     7.8929    11.1060     8.2431   122.9450     2.5489     0.0162
 1099.5000   -56.3404     8.5152     7.7411    10.9607     8.2431   122.2292     2.5730     0.0360
 1100.0000   -56.6158     8.4622     7.7463    10.6706     8.2431   127.3017     2.5881     0.0285
 1100.5000   -56.7427     8.4679     7.7515    10.3849     8.2431   128.2103     2.5504     0.0160
 1101.0000   -56.7155     8.4153     7.7021    10.4652     8.2431   126.9055     2.5006     0.0052
 1101.5000   -56.5451     8.3630     7.6555    10.9905     8.2431   125.5694     2.5090    -0.0001
 1102.0000   -56.3744     8.3096     7.5938    11.2341     8.2431   124.7288     2.5226     0.0023
 1102.5000   -56.2036     8.2591     7.5606    11.0063     8.2431   128.7653     2.5331     0.0055
 1103.0000   -56.1773     8.2079     7.5658    10.7133     8.2431   132.9440     2.5265     0.0087
 1103.5000   -56.4582     8.1008     7.5113    10.4262     8.2414   135.4907     2.5297     0.0142
 1104.0000   -56.2824     8.0518     7.4208    10.1504     8.2357   136.9988     2.5260     0.0181
 1104.5000   -55.8211     8.0572     7.3747    10.0160     8.2300   138.6553     2.5292     0.0066
 1105.0000   -55.0571     8.0626     7.3809    10.1634     8.2243   140.0150     2.5277     0.0191
 1105.5000   -54.8927     8.0680     7.4370    10.6001     8.2187   136.8382     2.5331     0.0215
 1106.0000   -55.1688     8.1858     7.4419    10.9040     8.2130   133.8385     2.5376     0.0231
 1106.5000   -55.1424     8.3053     7.5584    10.6138     8.2074   131.9342     2.5520     0.0356
 1107.0000   -54.9727     8.4850     7.6828    10.4665     8.2017   130.1782     2.5633     0.0341
 1107.5000   -54.6545     8.7286     7.8886    10.3379     8.1960   129.4608     2.5545     0.0271
 1108.0000   -54.3358     9.0416     8.1716    10.3463     8.1904   130.2271     2.5431     0.0157
 1108.5000   -54.3152     9.3108     8.4064    10.4969     8.1847   130.3059     2.5359     0.0251
 1109.0000   -54.5912     9.8380     8.7081    10.8726     8.1791   127.4517     2.5503     0.0353
 1109.5000   -54.8621    10.1907     8.9330    12.0667     8.1734   123.9687     2.5601     0.0369
 1110.0000   -55.1382    10.7029     9.2174    14.0551     8.1678   120.9837     2.5422     0.0160
 1110.5000   -55.2710    11.1634     9.4824    14.8628     8.1640   119.0794     2.5266     0.0076
 1111.0000   -55.5470    11.4840     9.6878    14.8724     8.1640   117.3234     2.5274     0.0125
 1111.5000   -55.6746    11.6516     9.7804    14.7796     8.1643   116.1547     2.5306     0.0210
