~VERSION INFORMATION
 VERS.                2.0:   CWLS LOG ASCII STANDARD - VERSION 2.0
 WRAP.                 NO:   ONE LINE PER DEPTH STEP
~WELL INFORMATION
#MNEM.UNIT      DATA TYPE    INFORMATION
#----------   ------------   ------------------------------
 STRT.F            0.5000:   START DEPTH
 STOP.F         5758.0000:   STOP DEPTH
 STEP.F            0.5000:   STEP LENGTH
 NULL.          -999.2500:   NO VALUE
 COMP.   LAWRENCE ALLISON:   COMPANY
 WELL. LAWRENCE "X" #51-10:   WELL
 FLD .          NPR NO. 3:   FIELD
 LOC .      S10 T38N R78W:   LOCATION
 CNTY.            NATRONA:   COUNTY
 STAT.            WYOMING:   STATE
 CTRY. UNITED STATES OF AMERICA:   COUNTRY
 SRVC.      DRESSER ATLAS:   SERVICE COMPANY
 DATE.        31-JAN-1987:   LOGDATE
 API .     49025111230000:   API NUMBER
~CURVE INFORMATION
#MNEM.UNIT       API CODE    CURVE DESCRIPTION
#----------   ------------   ------------------------------
 DEPT.F                  :   
 GRR .GAPI   07 310 01 00:   GAMMA RAY FROM RESISTIVITY
 TENR.LBS    07 635 01 00:   TENSION FROM RESISTIVITY
 SPR .MV     07 010 01 00:   SPONTANEOUS POTENTIAL
 RD  .OHMM   11 220 10 00:   RESISTIVITY DEEP
 RS  .OHMM   11 220 09 00:   RESISTIVITY SHALLOW
 CNC .DEC    42 890 03 00:   NEUTRON POROSITY
 CALD.IN     45 280 60 00:   CALIPER FROM DENSITY LOG
 DEN .G/C3   45 350 01 00:   BULK DENSITY
 CORR.G/C3   45 356 01 00:   DENSITY CORRECTION
 TEND.LBS    45 635 01 00:   TENSION FORM DENSITY LOG
~PARAMETER INFORMATION
#MNEM.UNIT          VALUE    DESCRIPTION
#----------   ------------   ------------------------------
 EKB .F         5227.0000:   Kelly bushing
 EGL .F         5215.0000:   Ground level
 EDF .F            0.0000:   Drilling floor
 TD  .F         5750.0000:   Total depth
 CLNT.            A2DTECH:   Client Code
 SL  . 2356' FEL & 170' FNL:   Surface Location
 PD  .                 GL:   Permanent Datum
 EPD .F              5215:   Elevation Permanent Datum
 LMF .                 KB:   Log Measured From
 DMF .                 KB:   Drilling Measured From
 DAPD.F                12:   Feet Above Permanent Datum
 DATE.        31-JAN-1987:   Date Logged [DD-MMM-YYYY]
 DD  .F              5747:   Depth driller
 DL  .F              5750:   Depth logger
 BLI .F              5748:   Bottom log interval
 CS1 .IN            9.625:   Casing size
 CBD1.      9.625" @ 511':   Casing driller 1
 CBL1.F               512:   Casing logger 1
 BS1 .IN             8.75:   Bit size
 BSD1.F              5747:   Depth drilled with bit1
 DFT .        KCL POLYMER:   Type fluid in hole
 DFD .                9.3:   Density
 DFV .                 43:   Viscosity
 DFPH.                9.5:   pH
 MSS .           FLOWLINE:   Source of sample
 RMS .OHMM          0.247:   Rm
 MST .F                74:   Rm Meas. temp.
 RMF .OHMM          0.162:   Rmf
 MFST.F                74:   Rmf Meas. temp.
 MFSS.               MEAS:   Source Rmf.
 RMC .OHMM          0.310:   Rmc
 MCST.F                74:   Rmc Meas. temp.
 MCSS.               CALC:   Source Rmc.
 RMB .OHMM          0.109:   Rm. at BHT
 BHT .F               167:   BHT.
 TCS .HRS               5:   Time Circ. stopped
 MRT .F               167:   Maximum recorded temp.
 LUN .            HL-6274:   Logging unit number
 LUL .           GILLETTE:   Logging unit location
 ORIG.        2" 5" PRINT:   Origin of data
 UWI .     49025111230000:   Unique Well ID
 DICO. A2D TECHNOLOGIES, INC.:   Digitizing Company
 ENGI.             RAUTIO:   Recorded By
 WITN.             STRONG:   Witnessed by
 DFL .                7.8:   Fluid loss
~OTHER INFORMATION
~A  DEPTH      GRR       TENR        SPR         RD         RS        CNC       CALD        DEN       CORR       TEND
# ...
 4657.0000   105.2022   -32.4345   -89.9000    20.8024    18.0300     0.1962    11.8159     2.5910     0.1344    -9.3985
 4657.5000    95.3942   -28.8276   -90.0383    20.8091    19.4670     0.1880    11.8154     2.5956     0.1192   -16.9173
 4658.0000    87.3857   -25.2207   -90.1800    22.7738    21.9542     0.1804    11.8148     2.6008     0.1057   -16.9173
 4658.5000    83.7116   -21.6138   -90.3216    26.5242    25.1805     0.1816    11.7991     2.6046     0.1012   -16.9173
 4659.0000    81.2760   -18.0069   -90.6148    30.0520    26.6252     0.1857    11.7985     2.6069     0.0997    -9.3985
 4659.5000    80.3882   -15.6960   -91.0693    31.7717    27.1926     0.1986    11.8130     2.6076     0.1103    -1.8797
 4660.0000    82.6068   -19.8800   -91.3725    32.6707    25.7306     0.2158    11.8447     2.6119     0.1254    -1.8797
 4660.5000    86.9823   -24.0640   -91.5041    28.2665    20.1879     0.2334    11.8572     2.6129     0.1329    -1.8797
 4661.0000    93.8345   -28.2480   -91.6457    24.1202    17.5759     0.2643    11.8867     2.6015     0.1420    -9.3985
 4661.5000   103.9445   -32.4320   -91.6293    19.3386    14.9866     0.2797    11.9014     2.5939     0.1677   -31.9549
 4662.0000   119.9331   -34.5073   -91.7709    14.6706    13.1385     0.2782    11.8856     2.5885     0.1798   -54.5113
 4662.5000   127.4045   -33.2317   -92.0641    11.2066    10.8215     0.2724    11.8699     2.5862     0.1586   -69.5489
 4663.0000   126.5168   -31.9561   -92.2090    10.4613    10.0985     0.2688    11.7936     2.5946     0.1299   -62.0301
 4663.5000   123.1523   -30.6805   -92.1926    10.4655     9.5556     0.2678    11.7325     2.6036     0.1178   -54.5113
 4664.0000   121.6557   -29.4049   -92.3342    10.6147     9.3610     0.2675    11.6696     2.6066     0.1012   -39.4737
 4664.5000   123.2448   -28.1293   -92.3178    11.0680    10.1359     0.2675    11.5648     2.5960     0.0816   -31.9549
 4665.0000   124.8338   -26.8537   -92.3046    11.3880    10.9119     0.2690    11.4734     2.5861     0.0453   -31.9549
 4665.5000   127.0421   -25.5780   -92.2915    11.6254    11.0673     0.2714    11.4123     2.5808     0.0272   -31.9549
 4666.0000   128.6316   -26.4880   -92.2783    11.7099    10.9936     0.2748    11.3512     2.6012     0.0411   -31.9549
 4666.5000   126.8249   -30.6720   -92.4200    11.7137    10.6927     0.2772    11.2901     2.6187     0.0574   -31.9549
 4667.0000   121.2933   -34.8560   -92.4035    11.3979    10.3340     0.2793    11.2442     2.6262     0.0695   -31.9549
 4667.5000   117.9288   -39.0400   -92.2356    11.0915    10.0537     0.2796    11.2133     2.6330     0.0801   -31.9549
 4668.0000   117.0402   -43.2240   -92.2224    10.7924     9.6461     0.2771    11.1673     2.6329     0.0574   -46.9925
 4668.5000   119.6909   -47.4080   -91.7446    10.6468     9.3845     0.2802    11.1363     2.6315     0.0166   -62.0301
 4669.0000   124.8734   -51.5920   -91.1092    10.6512     9.3220     0.2826    11.1055     2.6436     0.0106   -69.5489
 4669.5000   126.7721   -55.7760   -90.6317    10.7295     9.3900     0.2795    11.0595     2.6526     0.0393   -84.5865
 4670.0000   126.1940   -59.9600   -90.3089    10.9579     9.6569     0.2568    10.9984     2.6519     0.0574   -84.5865
 4670.5000   120.6421   -64.1440   -89.9861    11.7463    10.4258     0.2319    10.9676     2.6435     0.0589   -84.5865
 4671.0000   110.1874   -64.9942   -89.5053    12.8553    12.0263     0.1801    10.9216     2.6366     0.0483   -77.0677
 4671.5000    88.8662   -64.9997   -89.0278    15.3095    15.4946     0.1643    10.8756     2.6290     0.0332   -69.5489
 4672.0000    78.3810   -64.9766   -88.8599    20.7304    19.7604     0.1613    10.8145     2.6344     0.0196   -69.5489
 4672.5000    75.0165   -65.0086   -88.8467    25.1671    24.0055     0.1785    10.7684     2.6437     0.0393   -77.0677
 4673.0000    77.3744   -71.7624   -88.8328    27.7343    24.5170     0.1955    10.7527     2.6517     0.0483   -92.1053
 4673.5000    88.4216   -78.7559   -88.8171    26.5128    20.9065     0.2028    10.7521     2.6494     0.0468  -108.4162
 4674.0000   100.5370   -84.5598   -88.8039    22.3997    18.7140     0.1922    10.7515     2.6403     0.0393  -117.3793
 4674.5000   103.0549   -80.0050   -88.9456    21.2012    17.8312     0.1743    10.7509     2.6236     0.0242   -92.1053
 4675.0000   101.5480   -75.4411   -88.7744    21.0603    18.8542     0.1542    10.7201     2.6168     0.0274   -92.1053
 4675.5000    88.5962   -70.8978   -88.4516    25.1344    24.3826     0.1451    10.7044     2.6152     0.0332   -84.5865
 4676.0000    79.3494   -66.3391   -88.1289    33.0380    30.0347     0.1424    10.6887     2.6137     0.0378   -77.0677
 4676.5000    71.0313   -65.0000   -88.1157    37.6888    34.0405     0.1400    10.6879     2.6105     0.0363   -77.0677
 4677.0000    67.9765   -64.1570   -88.0848    40.9629    36.7508     0.1387    10.6571     2.6068     0.0211   -77.0677
 4677.5000    67.3687   -63.0323   -87.9313    43.6073    39.1326     0.1399    10.6262     2.6030     0.0015   -84.5865
 4678.0000    68.6881   -61.9075   -87.7633    46.4262    40.5251     0.1399    10.6105     2.5992    -0.0151   -84.5865
 4678.5000    69.9676   -60.7828   -87.7502    47.7438    40.8180     0.1387    10.6099     2.5946    -0.0166   -92.1053
 4679.0000    69.0799   -59.6581   -87.7368    48.7605    41.2370     0.1368    10.6245     2.6044    -0.0008   -92.1053
 4679.5000    67.8825   -58.5333   -87.4110    49.7987    41.8054     0.1353    10.6239     2.6135     0.0257   -92.1053
 4680.0000    67.0051   -57.4086   -87.3978    50.5128    42.3913     0.1435    10.6233     2.6203     0.0272   -92.1053
 4680.5000    67.3558   -56.2839   -87.3847    50.8799    43.4976     0.1520    10.6226     2.6226     0.0242   -92.1053
 4681.0000    68.3257   -55.1591   -87.3715    47.8257    44.4244     0.1689    10.6220     2.6279     0.0257   -92.1053
 4681.5000    69.9148   -54.0344   -87.6680    43.1279    44.0988     0.2001    10.6214     2.6316     0.0287   -84.5865
 4682.0000    72.8959   -52.9097   -87.8096    38.7647    32.9809     0.2247    10.6361     2.6369     0.0332   -69.5489
 4682.5000    83.3199   -51.7849   -87.7932    32.9579    24.8193     0.2392    10.6807     2.6414     0.0272   -69.5489
 4683.0000    98.2216   -50.6602   -87.9350    23.0115    20.1592     0.2368    10.6802     2.6460     0.0242   -77.0677
 4683.5000   113.7426   -49.5355   -87.9184    18.7067    15.9258     0.2374    10.7250     2.6497     0.0276   -77.0677
 4684.0000   115.0332   -48.4108   -87.9052    16.5005    14.9663     0.2468    10.7546     2.6527     0.0423   -77.0677
 4684.5000   113.8248   -47.2775   -87.8921    15.2134    14.4596     0.2589    10.7539     2.6550     0.0514   -69.5489
 4685.0000   117.5913   -46.1239   -87.8789    14.3994    13.4936     0.2619    10.7079     2.6550     0.0446   -69.5489
 4685.5000   122.8955   -45.0112   -87.7105    13.3491    12.7681     0.2446    10.6166     2.6489     0.0347   -69.5489
 4686.0000   128.8190   -53.7645   -87.5397    12.2024    12.0707     0.2270    10.4949     2.6428     0.0091   -77.0677
 4686.5000   128.8601   -62.8957   -87.2170    11.4737    12.0012     0.1737    10.3885     2.6390     0.0227   -77.0677
 4687.0000   111.8836   -71.9913   -87.0490    11.7994    13.9857     0.1600    10.3727     2.6367     0.0332   -77.0677
 4687.5000    98.3023   -81.0870   -86.5712    13.5538    18.4659     0.1542    10.3570     2.6336     0.0453   -77.0677
 4688.0000    86.8883   -85.0000   -86.0906    17.2706    23.2904     0.1518    10.3564     2.6313     0.0423   -84.5865
 4688.5000    80.1183   -85.0000   -85.7679    25.4480    27.8273     0.1521    10.3558     2.6282     0.0438   -84.5865
 4689.0000    77.3730   -85.0000   -85.2903    31.5419    31.1039     0.1517    10.3551     2.6242     0.0498   -84.5865
 4689.5000    77.1044   -85.0000   -84.9630    34.7594    31.7666     0.1478    10.3698     2.6184     0.0378   -84.5865
 4690.0000    77.1558   -85.0000   -84.6416    34.5311    29.8508     0.1439    10.3843     2.6161     0.0091   -92.1053
