~VERSION INFORMATION
 VERS.                2.0:   CWLS LOG ASCII STANDARD - VERSION 2.0
 WRAP.                 NO:   ONE LINE PER DEPTH STEP
~WELL INFORMATION
#MNEM.UNIT      DATA TYPE    INFORMATION
#----------   ------------   ------------------------------
 STRT.F          200.0000:   START DEPTH
 STOP.F         3000.0000:   STOP DEPTH
 STEP.F            0.5000:   STEP LENGTH
 NULL.          -999.2500:   NO VALUE
 COMP.    FENIX & SCISSON:   COMPANY
 WELL.   FENIX "A" #65-28:   WELL
 FLD .              NPR 3:   FIELD
 LOC .      S28 T39N R78W:   LOCATION
 CNTY.            NATRONA:   COUNTY
 STAT.            WYOMING:   STATE
 CTRY. UNITED STATES OF AMERICA:   COUNTRY
 SRVC.              WELEX:   SERVICE COMPANY
 DATE.        25-JUL-1977:   LOGDATE
 API .     49025104010000:   API NUMBER
~CURVE INFORMATION
#MNEM.UNIT       API CODE    CURVE DESCRIPTION
#----------   ------------   ------------------------------
 DEPT.F                  :   
 GRD .GAPI   45 310 01 00:   GAMMA RAY FROM DENSITY LOG
 CALD.IN     45 280 60 00:   CALIPER FROM DENSITY LOG
 RHOB.G/C3   45 350 01 00:   BULK DENSITY
 DCOR.G/C3   45 356 01 00:   DENSITY CORRECTION
 SPR .MV     07 010 01 00:   SPONTANEOUS POTENTIAL
 RILM.OHMM   07 120 44 00:   INDUCTION LOG MEDIUM RESISTIVITY
 RILD.OHMM   07 120 46 00:   DEEP INDUCTION RESISTIVITY
 SGRD.OHMM   07 220 05 00:   SHALLOW GUARD
~PARAMETER INFORMATION
#MNEM.UNIT          VALUE    DESCRIPTION
#----------   ------------   ------------------------------
 EKB .F         5069.0000:   Kelly bushing
 EGL .F         5059.0000:   Ground level
 EDF .F            0.0000:   Drilling floor
 TD  .F         3006.0000:   Total depth
 DATE.        25-JUL-1977:   Date logged
 CLNT.            A2DTECH:   Client Code
 SL  . 2310' FSL & 1650' FEL:   Surface Location
 PD  .                 GL:   Permanent Datum
 EPD .F              5059:   Elevation Permanent Datum
 LMF .                 KB:   Log Measured From
 DMF .                 KB:   Drilling Measured From
 DAPD.F                10:   Feet Above Permanent Datum
 DD  .F              3006:   Depth driller
 DL  .F              3006:   Depth logger
 BLI .F              3004:   Bottom log interval
 TLI .F               200:   Top log interval
 CS1 .IN            8.625:   Casing size
 CBD1.      8.625" @ 205':   Casing driller 1
 CBL1.F               220:   Casing logger 1
 BS1 .IN            7.875:   Bit size
 BSD1.F              3006:   Depth drilled with bit1
 DFT .            KCL MUD:   Type fluid in hole
 DFD .                8.9:   Density
 DFV .                 39:   Viscosity
 DFPH.                7.5:   pH
 DFL .                7.2:   Fluid loss
 MSS .           FLOWLINE:   Source of sample
 RMS .OHMM           0.29:   Rm
 MST .F                78:   Rm Meas. temp.
 RMF .OHMM           0.19:   Rmf
 MFST.F                78:   Rmf Meas. temp.
 RMC .OHMM           0.80:   Rmc
 MCST.F                78:   Rmc Meas. temp.
 MFSS.               FANN:   Source Rmf.
 MCSS.                KIT:   Source Rmc.
 RMB .OHMM           0.20:   Rm. at BHT
 BHT .F               113:   BHT.
 TCS .HRS               3:   Time Circ. stopped
 MRT .F               113:   Maximum recorded temp.
 LUN .               8766:   Logging unit number
 LUL .             CASPER:   Logging unit location
 ENGI.         G. BENTSEN:   Recorded By
 WITN.      B. HARRINGTON:   Witnessed by
 ORIG.           5" PRINT:   Origin of data
 UWI .     49025104010000:   Unique Well ID
 DICO. A2D TECHNOLOGIES, INC.:   Digitizing Company
~OTHER INFORMATION
~A   DEPT       GRD        CALD       RHOB      DCOR       SPR       RILM         RILD       SGRD 
# ...
 1131.5000    85.5200    10.7530     2.4890     0.0560   -39.0330     8.8280     8.4820    11.3890
 1132.0000    83.6360    10.7430     2.4830     0.0620   -39.0320     9.1000     8.7710    11.6000
 1132.5000    83.9300    10.7540     2.4680     0.0690   -39.0560     9.3730     8.8950    11.3580
 1133.0000    87.2240    10.7640     2.4530     0.0730   -39.1230     9.6460     8.7690    11.1090
 1133.5000    88.9860    10.7750     2.4370     0.0790   -39.1900     9.9280     8.4990    10.8610
 1134.0000    85.6680    10.7780     2.4190     0.0870   -39.2560     9.8820     8.2300    10.6120
 1134.5000    88.3730    10.7750     2.3930     0.0950   -39.3230     9.8350     7.8970    10.3630
 1135.0000    86.2690    10.7710     2.3670     0.0990   -39.3890     9.7880     7.9520    10.2040
 1135.5000    87.5120    10.7680     2.3400     0.1010   -39.4560     9.7480     8.0240    10.2980
 1136.0000    86.1990    10.7650     2.3140     0.1040   -39.5230     9.8020     8.0970    10.2040
 1136.5000    85.4480    10.7620     2.2900     0.1070   -39.5890     9.8480     8.1690    10.2040
 1137.0000    87.2630    10.7590     2.2800     0.1060   -39.6560     9.8950     8.2420    10.2040
 1137.5000    87.1280    10.7560     2.2720     0.0760   -39.7230     9.9410     8.3140    10.2980
 1138.0000    87.3270    10.7530     2.3430     0.0390   -39.7890     9.9880     8.4190    10.6820
 1138.5000    88.7420    10.7490     2.4370     0.0120   -39.8560    10.0340     8.3740    10.9800
 1139.0000    90.1680    10.7460     2.5020     0.0420   -39.9220    10.0810     8.2900    11.1830
 1139.5000    88.9970    10.7430     2.5110     0.0430   -39.9890    10.1110     8.2060    10.2980
 1140.0000    86.0810    10.7410     2.4960     0.0360   -40.0440     9.8680     8.1170    10.3380
 1140.5000    84.9540    10.7180     2.4840     0.0300   -40.0900     9.6860     8.1790    10.4110
 1141.0000    86.4140    10.6910     2.4920     0.0280   -40.1360     9.5050     8.2450    10.4880
 1141.5000    87.8790    10.6650     2.5020     0.0320   -40.1820     9.3120     8.3430    10.7810
 1142.0000    87.0780    10.6380     2.5000     0.0360   -40.2280     9.2770     8.2870    10.4880
 1142.5000    85.2320    10.6120     2.4960     0.0340   -40.2740     9.2400     8.1830    10.1110
 1143.0000    84.3560    10.5850     2.5080     0.0370   -40.3200     9.2030     8.0790     9.9280
 1143.5000    85.2940    10.5590     2.5020     0.0400   -40.3660     9.1660     7.9750     9.7480
 1144.0000    85.9640    10.5360     2.5070     0.0390   -40.4120     9.1280     7.8710     9.7480
 1144.5000    84.8720    10.5260     2.5130     0.0440   -40.4570     9.0910     7.7670     9.5710
 1145.0000    87.3640    10.5150     2.5160     0.0440   -40.5030     9.0540     7.6130     9.5930
 1145.5000    89.2530    10.5040     2.5180     0.0450   -40.5490     9.0170     7.6460     9.7740
 1146.0000    88.0500    10.4940     2.5210     0.0490   -40.5950     8.9800     7.7110     9.9560
 1146.5000    88.8550    10.4830     2.5190     0.0460   -40.6410     8.9430     7.7750    10.1370
 1147.0000    90.9190    10.4720     2.5160     0.0450   -40.6870     8.8950     7.8390    10.2980
 1147.5000    92.2430    10.4610     2.5160     0.0450   -40.7330     8.9570     7.8970    10.1760
 1148.0000    89.3410    10.4510     2.5170     0.0450   -40.7780     9.0430     7.8460    10.0670
 1148.5000    87.2070    10.4400     2.5190     0.0390   -40.8110     9.1300     7.8000     9.9570
 1149.0000    87.9360    10.4410     2.5120     0.0350   -40.8100     9.2160     7.7550     9.8370
 1149.5000    89.5320    10.4440     2.5060     0.0320   -40.8100     9.3120     7.7090     9.9460
 1150.0000    91.1130    10.4460     2.4990     0.0350   -40.8100     9.1880     7.6630    10.0670
 1150.5000    92.3990    10.4490     2.4950     0.0330   -40.8100     9.0130     7.6130    10.1880
 1151.0000    92.3650    10.4510     2.4900     0.0290   -40.8100     8.8370     7.6760    10.3080
 1151.5000    91.5610    10.4540     2.4860     0.0250   -40.8100     8.5750     7.7460    10.4290
 1152.0000    91.0460    10.4570     2.4810     0.0230   -40.8100     8.7140     7.8160    10.5850
 1152.5000    90.7790    10.4570     2.4840     0.0210   -40.8100     8.9890     7.8860    10.5310
 1153.0000    91.2070    10.4230     2.4910     0.0180   -40.8100     9.2640     7.9570    10.4560
 1153.5000    91.8080    10.3890     2.4970     0.0210   -40.8100     9.5390     8.0270    10.3800
 1154.0000    92.4220    10.3560     2.5040     0.0240   -40.8210     9.8140     8.1170    10.2980
 1154.5000    93.0420    10.3390     2.5090     0.0280   -40.8350    10.1110     8.1080    10.4310
 1155.0000    93.5030    10.3390     2.5060     0.0310   -40.8500    10.0580     8.0970    10.5760
 1155.5000    91.8940    10.3390     2.5030     0.0350   -40.8640     9.8790     8.0850    10.7210
 1156.0000    90.2930    10.3370     2.5000     0.0390   -40.8790     9.4410     8.0740    10.8660
 1156.5000    88.6980    10.2940     2.4970     0.0380   -40.8930     9.0450     8.0620    11.0110
 1157.0000    87.1370    10.2510     2.4940     0.0360   -40.9080     8.9330     8.0500    11.1550
 1157.5000    86.6870    10.2090     2.4980     0.0380   -40.9220     8.8140     8.0430    11.3000
 1158.0000    89.9960    10.1760     2.5040     0.0420   -40.9370     8.8990     8.1740    11.4450
 1158.5000    93.5000    10.1710     2.5110     0.0510   -40.9510     9.0160     8.2730    11.6000
 1159.0000    91.9210    10.1650     2.5150     0.0560   -40.9660     9.1330     8.3720    11.6370
 1159.5000    91.6310    10.1600     2.5180     0.0580   -40.9800     9.2500     8.4710    11.6760
 1160.0000    93.3840    10.1540     2.5130     0.0560   -40.9950     9.3670     8.5700    11.7150
 1160.5000    89.9990    10.1480     2.5090     0.0520   -41.0060     9.4840     8.6690    11.7550
 1161.0000    92.3170    10.1430     2.5050     0.0430   -40.9670     9.6010     8.7340    11.7940
 1161.5000    94.6320    10.1370     2.4970     0.0370   -40.9280     9.7480     8.6680    11.8340
 1162.0000    92.4570    10.1310     2.4920     0.0320   -40.8900     9.6580     8.6200    11.8730
 1162.5000    90.1060    10.1260     2.4870     0.0310   -40.8520     9.5380     8.5710    11.9120
 1163.0000    91.6590    10.1200     2.4840     0.0290   -40.8110     9.4180     8.5230    11.9520
 1163.5000    94.1400    10.1140     2.4890     0.0280   -40.8450     9.2980     8.4740    11.9920
 1164.0000    95.4090    10.1090     2.4960     0.0300   -40.8840     9.1780     8.4260    12.0320
 1164.5000    90.8080    10.1030     2.5020     0.0330   -40.9230     9.0580     8.3770    11.9090
 1165.0000    92.2250    10.0970     2.5060     0.0350   -40.9610     8.9380     8.3290    11.7800
 1165.5000    94.4310    10.0920     2.5090     0.0370   -41.0000     8.8140     8.2800    11.6510
 1166.0000    94.8200    10.0860     2.5130     0.0390   -41.0390     8.9140     8.2320    11.5220
 1166.5000    92.8200    10.0800     2.5160     0.0420   -41.0780     9.0180     8.1840    11.3930
 1167.0000    94.1570    10.0750     2.5190     0.0440   -41.1160     9.1220     8.1390    11.2860
 1167.5000    95.7870    10.0690     2.5200     0.0490   -41.1550     9.2250     8.0950    11.3540
 1168.0000    97.8610    10.0630     2.5200     0.0530   -41.1970     9.3120     8.0500    11.4120
 1168.5000    95.4390    10.0580     2.5180     0.0520   -41.1270     9.1330     8.0050    11.4710
 1169.0000    91.9930    10.0520     2.5170     0.0490   -41.0190     8.9810     7.9600    11.5300
 1169.5000    93.4480    10.0460     2.5140     0.0460   -40.9090     8.8280     7.8970    11.5880
 1170.0000    95.0620    10.0410     2.5090     0.0420   -40.7990     8.7340     7.9140    11.6470
 1170.5000    92.3290    10.0350     2.5040     0.0340   -40.6910     8.7990     7.9430    11.7060
 1171.0000    92.1880    10.0290     2.5010     0.0300   -40.6250     8.8470     7.9720    11.5720
 1171.5000    90.8460    10.0240     2.5000     0.0350   -40.6820     8.8950     8.0010    11.4360
