~VERSION INFORMATION
 VERS.                2.0:   CWLS LOG ASCII STANDARD - VERSION 2.0
 WRAP.                 NO:   ONE LINE PER DEPTH STEP
~WELL INFORMATION
#MNEM.UNIT      DATA TYPE    INFORMATION
#----------   ------------   ------------------------------
 STRT.F          172.0000:   START DEPTH
 STOP.F         3376.0000:   STOP DEPTH
 STEP.F            0.5000:   STEP LENGTH
 NULL.          -999.2500:   NO VALUE
 COMP.    FENIX & SCISSON:   COMPANY
 WELL. FENIX NPR 3 "AX" #23-2:   WELL
 FLD .                NPR:   FIELD
 LOC .       S2 T38N R78W:   LOCATION
 CNTY.            NATRONA:   COUNTY
 STAT.            WYOMING:   STATE
 CTRY. UNITED STATES OF AMERICA:   COUNTRY
 SRVC.              WELEX:   SERVICE COMPANY
 DATE.        02-DEC-1980:   LOGDATE
 API .     49025108740000:   API NUMBER
~CURVE INFORMATION
#MNEM.UNIT       API CODE    CURVE DESCRIPTION
#----------   ------------   ------------------------------
 DEPT.F                  :   
 CALD.IN     45 280 60 00:   CALIPER FROM DENSITY LOG
 CORR.G/C3   45 356 01 00:   DENSITY CORRECTION
 GRD .GAPI   45 310 01 00:   GAMMA RAY FROM DENSITY LOG
 RHOB.G/C3   45 350 01 00:   BULK DENSITY
 TENR.LBS    07 635 01 00:   TENSION
 SPR .MV     07 010 01 00:   SPONTANEOUS POTENTIAL
 SGRD.OHMM   07 220 05 00:   SHALLOW GUARD
 ILD .OHMM   07 120 46 00:   INDUCTION LOG DEEP RESISTIVITY
 ILM .OHMM   07 120 44 00:   INDUCTION LOG MEDIUM RESISTIVITY
~PARAMETER INFORMATION
#MNEM.UNIT          VALUE    DESCRIPTION
#----------   ------------   ------------------------------
 EKB .F         5133.0000:   Kelly bushing
 EGL .F         5123.0000:   Ground level
 EDF .F            0.0000:   Drilling floor
 TD  .F         3375.0000:   Total depth
 DATE.        02-DEC-1980:   Date logged
 CLNT.            A2DTECH:   Client Code
 SL  . 3800' FSL & 827' FWL:   Surface Location
 PD  .                 GL:   Permanent Datum
 EPD .F              5123:   Elevation Permanent Datum
 LMF .                 KB:   Log Measured From
 DMF .                 KB:   Drilling Measured From
 DAPD.F                10:   Feet Above Permanent Datum
 DD  .F              3375:   Depth driller
 DL  .F              3373:   Depth logger
 BLI .F              3371:   Bottom log interval
 TLI .F               181:   Top log interval
 CS1 .IN            8.625:   Casing size
 CBD1.      8.625" @ 181':   Casing driller 1
 CBL1.F               181:   Casing logger 1
 BS1 .IN            7.875:   Bit size
 BSD1.F              3375:   Depth drilled with bit1
 DFT .           CHEM/GEL:   Type fluid in hole
 DFD .                8.8:   Density
 DFV .                 45:   Viscosity
 DFPH.                  9:   pH
 DFL .                 16:   Fluid loss
 MSS .           FLOWLINE:   Source of sample
 RMS .OHMM           1.25:   Rm
 MST .F                64:   Rm Meas. temp.
 RMF .OHMM           1.17:   Rmf
 MFST.F                64:   Rmf Meas. temp.
 RMC .OHMM            1.1:   Rmc
 MCST.F                64:   Rmc Meas. temp.
 MFSS.               MEAS:   Source Rmf.
 MCSS.               MEAS:   Source Rmc.
 RMB .OHMM            .67:   Rm. at BHT
 BHT .F               120:   BHT.
 TCS .HRS               2:   Time Circ. stopped
 MRT .F               120:   Maximum recorded temp.
 LUN .               1892:   Logging unit number
 LUL .             CASPER:   Logging unit location
 ENGI.  PFRIMMER/MONNAHAN:   Recorded By
 WITN.              FIVAS:   Witnessed by
 ORIG.           5" PRINT:   Origin of data
 UWI .     49025108740000:   Unique Well ID
 DICO. A2D TECHNOLOGIES, INC.:   Digitizing Company
~OTHER INFORMATION
~A   DEPT     CALD       CORR         GRD      RHOB       TENR        SPR       SGRD        ILD        ILM   
# ...
 2727.0000    10.2640     0.0430   151.4440     2.5880   540.2650   -17.1980     9.8410     7.5360     7.8180
 2727.5000    10.2750     0.0430   153.2160     2.5830   553.1760   -17.0690     9.4290     7.5160     7.7980
 2728.0000    10.2860     0.0430   154.9950     2.5740   566.0870   -16.9430     8.8910     7.4960     7.7760
 2728.5000    10.2890     0.0410   156.5040     2.5640   578.9970   -16.8150     8.3530     7.4760     7.7500
 2729.0000    10.2910     0.0390   154.4700     2.5500   591.9080   -16.6770     7.8890     7.3860     7.8090
 2729.5000    10.2930     0.0370   152.3770     2.5350   604.8190   -16.5960     8.1850     7.2350     7.9550
 2730.0000    10.2950     0.0360   150.8110     2.5280   617.7300   -16.6860     9.1420     7.0860     8.0920
 2730.5000    10.2970     0.0340   149.7040     2.5230   630.6410   -16.7730     8.6440     6.9360     8.1850
 2731.0000    10.2990     0.0330   149.3830     2.5380   643.5520   -16.8650     8.2010     6.7870     8.1850
 2731.5000    10.3010     0.0330   152.3330     2.5340   652.6100   -16.9530     7.8890     6.6380     7.7450
 2732.0000    10.3030     0.0340   155.6080     2.5270   652.6100   -17.0470     8.0390     6.5620     7.3290
 2732.5000    10.3050     0.0340   157.5420     2.5280   652.6100   -17.1330     8.3430     6.4270     8.3370
 2733.0000    10.3070     0.0350   159.4630     2.5310   652.6100   -17.2200     8.6480     6.3250     7.9650
 2733.5000    10.3090     0.0350   161.3450     2.5330   652.6100   -17.3350     8.9520     6.3250     7.5010
 2734.0000    10.3110     0.0350   161.2380     2.5400   644.4250   -17.3500     9.2570     6.3860     7.0640
 2734.5000    10.3130     0.0360   160.9370     2.5470   634.9400   -17.7600     9.4850     6.5210     7.9040
 2735.0000    10.3160     0.0370   157.3010     2.5550   625.4540   -17.9860     9.2670     6.6560     8.7000
 2735.5000    10.3180     0.0380   151.8720     2.5710   615.9690   -18.1010     8.7740     6.7910     9.4960
 2736.0000    10.3200     0.0390   146.7680     2.5830   606.4830   -18.4400     8.4920     6.9250    10.2920
 2736.5000    10.3220     0.0400   141.8470     2.5920   596.9980   -18.2890     8.7540     7.0600    10.6710
 2737.0000    10.3240     0.0380   138.7270     2.5870   587.5120   -17.6230     9.1760     7.1950    10.7970
 2737.5000    10.3260     0.0350   138.1940     2.5820   578.0260   -17.0420     9.5980     7.3290    10.9220
 2738.0000    10.3270     0.0320   139.0830     2.5750   568.5410   -16.4370    10.0240     7.4650    11.0480
 2738.5000    10.3140     0.0300   140.1300     2.5660   559.0550   -16.1920     9.8410     7.5080    11.1730
 2739.0000    10.3000     0.0270   141.1780     2.5570   549.5700   -16.3910     9.3120     7.5510    11.2990
 2739.5000    10.2860     0.0240   142.2250     2.5470   540.0840   -16.5310     8.9750     7.5940    11.4030
 2740.0000    10.2730     0.0210   143.2700     2.5420   530.5990   -16.6860     9.4820     7.6420    11.4030
 2740.5000    10.2590     0.0180   144.2950     2.5390   521.1130   -16.8400     9.9150     7.6920    11.3790
 2741.0000    10.2460     0.0160   145.1630     2.5390   511.6270   -16.9910    10.0240     7.7450    11.3360
 2741.5000    10.2320     0.0130   146.0270     2.5340   502.1420   -17.1440     9.8410     7.7450    11.2930
 2742.0000    10.2190     0.0140   146.5990     2.5270   491.9680   -17.2970     9.6370     7.7450    11.2500
 2742.5000    10.2050     0.0140   145.8100     2.5200   496.0920   -17.4490     9.4580     7.7450    11.1950
 2743.0000    10.1910     0.0110   144.9570     2.5140   500.5380   -17.6020     9.2790     7.7450    11.2110
 2743.5000    10.1780     0.0090   144.6380     2.5150   504.9840   -17.7550     8.9750     7.7450    11.2600
 2744.0000    10.1640     0.0080   145.4900     2.5200   509.4310   -17.9050     9.0090     7.7450    11.3100
 2744.5000    10.1510     0.0150   148.1270     2.5270   513.8770   -18.0610     9.1220     7.7450    11.3600
 2745.0000    10.1370     0.0170   147.7480     2.5340   518.3230   -18.2120     9.2350     7.7450    11.4090
 2745.5000    10.1240     0.0190   147.2270     2.5410   522.7700   -18.3580     9.3480     7.7450    11.4570
 2746.0000    10.1100     0.0200   146.8120     2.5480   527.2160   -18.5420     9.4610     7.7450    11.5050
 2746.5000    10.0970     0.0220   140.8640     2.5540   531.6620   -18.4090     9.5740     7.7450    11.5530
 2747.0000    10.0830     0.0230   139.1820     2.5610   536.1090   -17.9180     9.6870     7.7450    11.6230
 2747.5000    10.0680     0.0250   138.4000     2.5680   540.5550   -17.4590     9.8000     7.7450    11.6080
 2748.0000    10.0520     0.0260   137.5840     2.5720   545.0010   -17.0020     9.8410     7.7450    11.3320
 2748.5000    10.0370     0.0270   136.7910     2.5660   549.4480   -16.5370     9.6420     7.7460    11.2320
 2749.0000    10.0220     0.0260   136.5390     2.5570   553.8940   -16.0490     9.4040     7.7450    11.1360
 2749.5000    10.0070     0.0260   138.0500     2.5500   558.3410   -15.7900     9.1650     7.7450    11.0350
 2750.0000     9.9750     0.0260   140.8790     2.5430   562.7870   -16.0280     8.9260     7.6710    10.9330
 2750.5000     9.9360     0.0250   143.8860     2.5490   567.2330   -16.2320     8.6870     7.5980    10.8320
 2751.0000     9.8970     0.0250   146.9060     2.5510   571.6800   -16.4510     8.4920     7.5240    10.7900
 2751.5000     9.8580     0.0250   149.9710     2.5440   576.1260   -16.6690     8.5850     7.4510    10.7900
 2752.0000     9.8190     0.0240   151.0580     2.5370   580.5720   -16.8830     8.6500     7.3770    10.5930
 2752.5000     9.7800     0.0240   151.7750     2.5380   585.0190   -17.1000     8.5540     7.3040    10.5460
 2753.0000     9.7410     0.0240   150.8920     2.5430   589.4650   -17.3180     8.4720     7.2300    10.5100
 2753.5000     9.7020     0.0230   149.4320     2.5490   592.3690   -17.5300     8.3890     7.1570    10.4680
 2754.0000     9.6970     0.0220   145.9550     2.5480   612.4500   -17.7500     8.3070     7.0830    10.4260
 2754.5000     9.6980     0.0210   144.3170     2.5400   621.8880   -17.7630     8.1850     6.9350    10.3850
 2755.0000     9.6990     0.0200   143.2690     2.5320   630.1870   -17.6430     8.2860     6.8890    10.3440
 2755.5000     9.7000     0.0190   142.2530     2.5270   638.4870   -17.5300     8.4780     6.8410    10.3040
 2756.0000     9.7020     0.0200   141.2490     2.5370   646.7870   -17.4170     8.6500     6.7920    10.2640
 2756.5000     9.7030     0.0240   140.9770     2.5470   652.6100   -17.3030     8.6500     6.7430    10.2230
 2757.0000     9.7040     0.0240   142.2110     2.5430   652.6100   -17.1890     8.6500     6.6940    10.1830
 2757.5000     9.7050     0.0230   143.1270     2.5340   652.6100   -17.0750     8.4630     6.6450    10.1430
 2758.0000     9.7060     0.0230   143.4370     2.5250   652.6100   -16.9610     8.2920     6.5960    10.1020
 2758.5000     9.7080     0.0230   143.7730     2.5160   652.6100   -16.8490     8.1200     6.5470    10.0620
 2759.0000     9.7090     0.0230   145.3990     2.5180   652.6100   -16.7310     7.8890     6.4980    10.0240
 2759.5000     9.7100     0.0230   146.7570     2.5220   655.8630   -16.6220     8.1450     6.4420     9.6410
 2760.0000     9.7110     0.0230   144.8190     2.5260   660.8430   -16.5110     8.5370     6.4420     9.5630
 2760.5000     9.7120     0.0240   142.8380     2.5270   665.8230   -16.3730     8.9290     6.4110     9.4840
 2761.0000     9.7130     0.0260   140.8700     2.5270   670.8030   -16.3250     9.3120     6.3630     9.4050
 2761.5000     9.7150     0.0270   138.8980     2.5260   665.8190   -15.8330     8.8730     6.3250     9.3120
 2762.0000     9.7160     0.0280   136.9060     2.5300   654.7520   -16.1430     8.4080     6.3250     9.6510
 2762.5000     9.7160     0.0290   136.8320     2.5350   643.6860   -16.4830     8.0360     6.3250    10.0670
 2763.0000     9.6940     0.0300   135.5460     2.5370   632.5300   -16.7550     7.8890     6.9840    10.4840
