~VERSION INFORMATION
 VERS.                2.0:   CWLS LOG ASCII STANDARD - VERSION 2.0
 WRAP.                 NO:   ONE LINE PER DEPTH STEP
~WELL INFORMATION
#MNEM.UNIT      DATA TYPE    INFORMATION
#----------   ------------   ------------------------------
 STRT.F            0.0000:   START DEPTH
 STOP.F         2775.5000:   STOP DEPTH
 STEP.F            0.5000:   STEP LENGTH
 NULL.          -999.2500:   NO VALUE
 COMP.          U.S. NAVY:   COMPANY
 WELL.   U.S. "A" #107-29:   WELL
 FLD .        TEAPOT DOME:   FIELD
 LOC .      S29 T39N R78W:   LOCATION
 CNTY.            NATRONA:   COUNTY
 STAT.            WYOMING:   STATE
 CTRY. UNITED STATES OF AMERICA:   COUNTRY
 SRVC.         MCCULLOUGH:   SERVICE COMPANY
 DATE.        07-SEP-1966:   LOGDATE
 API .     49025095920000:   API NUMBER
~CURVE INFORMATION
#MNEM.UNIT       API CODE    CURVE DESCRIPTION
#----------   ------------   ------------------------------
 DEPT.F                  :   
 GR  .GAPI   30 310 01 00:   GAMMA RAY
 CALI.IN     70 280 01 00:   CALIPER
~PARAMETER INFORMATION
#MNEM.UNIT          VALUE    DESCRIPTION
#----------   ------------   ------------------------------
 EKB .F            0.0000:   Kelly bushing
 EGL .F            0.0000:   Ground level
 EDF .F            0.0000:   Drilling floor
 EPD .F            0.0000:   Permanent datum
 TD  .F         2777.5000:   Total depth
 DATE.        07-SEP-1966:   Date logged
 CLNT.            A2DTECH:   Client Code
 PD  .                 GL:   Permanent Datum
 LMF .                 GL:   Log Measured From
 DMF .                 GL:   Drilling Measured From
 DL  .F            2777.5:   Depth logger
 BLI .F              2776:   Bottom log interval
 TLI .F              2200:   Top log interval
 CS1 .IN                5:   Casing size
 CBD1.         5" @ 2722':   Casing driller 1
 DFT .              WATER:   Type fluid in hole
 RMB .OHMM           .053:   Rm. at BHT
 TCS .HRS             1.5:   Time Circ. stopped
 LUN .               1460:   Logging unit number
 ENGI.        FITZSIMMONS:   Recorded By
 WITN.             TUTTLE:   Witnessed by
 ORIG.           5" PRINT:   Origin of data
 UWI .     49025095920000:   Unique Well ID
 DICO. A2D TECHNOLOGIES, INC.:   Digitizing Company
~OTHER INFORMATION
~A    DEPT      GR         CALI 
# ...
  121.5000  -999.2500     7.4260
  122.0000  -999.2500     7.4270
  122.5000  -999.2500     7.4280
  123.0000  -999.2500     7.4340
  123.5000  -999.2500     7.4450
  124.0000  -999.2500     7.4570
  124.5000  -999.2500     7.4560
  125.0000  -999.2500     7.4540
  125.5000  -999.2500     7.4520
  126.0000  -999.2500     7.4500
  126.5000  -999.2500     7.4490
  127.0000  -999.2500     7.4390
  127.5000  -999.2500     7.4200
  128.0000  -999.2500     7.4010
  128.5000  -999.2500     7.3910
  129.0000  -999.2500     7.3820
  129.5000  -999.2500     7.3740
  130.0000  -999.2500     7.3690
  130.5000  -999.2500     7.3690
  131.0000  -999.2500     7.3690
  131.5000  -999.2500     7.3690
  132.0000  -999.2500     7.3740
  132.5000  -999.2500     7.3840
  133.0000  -999.2500     7.4120
  133.5000  -999.2500     7.4150
  134.0000  -999.2500     7.4120
  134.5000  -999.2500     7.4090
  135.0000  -999.2500     7.4050
  135.5000  -999.2500     7.4020
  136.0000  -999.2500     7.3980
  136.5000  -999.2500     7.4010
  137.0000  -999.2500     7.4050
  137.5000  -999.2500     7.4080
  138.0000  -999.2500     7.4110
  138.5000  -999.2500     7.4150
  139.0000  -999.2500     7.4180
  139.5000  -999.2500     7.4210
  140.0000  -999.2500     7.4250
  140.5000  -999.2500     7.4280
  141.0000  -999.2500     7.4330
  141.5000  -999.2500     7.4410
  142.0000  -999.2500     7.4480
  142.5000  -999.2500     7.4570
  143.0000  -999.2500     7.4390
  143.5000  -999.2500     7.4180
  144.0000  -999.2500     7.3960
  144.5000  -999.2500     7.3740
  145.0000  -999.2500     7.3510
  145.5000  -999.2500     7.3300
  146.0000  -999.2500     7.3290
  146.5000  -999.2500     7.3190
  147.0000  -999.2500     7.3060
  147.5000  -999.2500     7.2950
  148.0000  -999.2500     7.3180
  148.5000  -999.2500     7.2990
  149.0000  -999.2500     7.2770
  149.5000  -999.2500     7.2550
  150.0000  -999.2500     7.2400
  150.5000  -999.2500     7.2390
  151.0000  -999.2500     7.2380
  151.5000  -999.2500     7.2380
  152.0000  -999.2500     7.2370
  152.5000  -999.2500     7.2360
  153.0000  -999.2500     7.2350
  153.5000  -999.2500     7.2350
  154.0000  -999.2500     7.2340
  154.5000  -999.2500     7.2330
  155.0000  -999.2500     7.2320
  155.5000  -999.2500     7.2320
  156.0000  -999.2500     7.2310
  156.5000  -999.2500     7.2290
  157.0000  -999.2500     7.2260
  157.5000  -999.2500     7.2220
  158.0000  -999.2500     7.2190
  158.5000  -999.2500     7.2150
  159.0000  -999.2500     7.2110
  159.5000  -999.2500     7.2120
  160.0000  -999.2500     7.2150
  160.5000  -999.2500     7.2180
  161.0000  -999.2500     7.2210
  161.5000  -999.2500     7.2230
  162.0000  -999.2500     7.2260
  162.5000  -999.2500     7.2290
  163.0000  -999.2500     7.2290
  163.5000  -999.2500     7.2250
  164.0000  -999.2500     7.2220
  164.5000  -999.2500     7.2180
  165.0000  -999.2500     7.2150
  165.5000  -999.2500     7.2110
  166.0000  -999.2500     7.2080
  166.5000  -999.2500     7.2040
  167.0000  -999.2500     7.2010
  167.5000  -999.2500     7.2040
  168.0000  -999.2500     7.2070
  168.5000  -999.2500     7.2100
  169.0000  -999.2500     7.2130
  169.5000  -999.2500     7.2170
  170.0000  -999.2500     7.2190
  170.5000  -999.2500     7.2370
  171.0000  -999.2500     7.2560
  171.5000  -999.2500     7.2670
  172.0000  -999.2500     7.2760
  172.5000  -999.2500     7.2840
  173.0000  -999.2500     7.2900
  173.5000  -999.2500     7.2920
  174.0000  -999.2500     7.2940
  174.5000  -999.2500     7.2960
  175.0000  -999.2500     7.2980
  175.5000  -999.2500     7.2820
  176.0000  -999.2500     7.2600
  176.5000  -999.2500     7.2660
  177.0000  -999.2500     7.2640
  177.5000  -999.2500     7.2480
  178.0000  -999.2500     7.2320
  178.5000  -999.2500     7.2160
  179.0000  -999.2500     7.2010
  179.5000  -999.2500     7.2010
  180.0000  -999.2500     7.2020
  180.5000  -999.2500     7.2020
  181.0000  -999.2500     7.2030
  181.5000  -999.2500     7.2040
  182.0000  -999.2500     7.2040
  182.5000  -999.2500     7.2050
  183.0000  -999.2500     7.2060
  183.5000  -999.2500     7.2060
  184.0000  -999.2500     7.2070
  184.5000  -999.2500     7.2080
  185.0000  -999.2500     7.2080
  185.5000  -999.2500     7.2090
  186.0000  -999.2500     7.2090
  186.5000  -999.2500     7.2100
  187.0000  -999.2500     7.2120
  187.5000  -999.2500     7.2170
  188.0000  -999.2500     7.2210
  188.5000  -999.2500     7.2260
  189.0000  -999.2500     7.2300
  189.5000  -999.2500     7.2350
  190.0000  -999.2500     7.2390
  190.5000  -999.2500     7.2440
  191.0000  -999.2500     7.2480
  191.5000  -999.2500     7.2530
  192.0000  -999.2500     7.2570
  192.5000  -999.2500     7.2620
  193.0000  -999.2500     7.2670
  193.5000  -999.2500     7.2710
  194.0000  -999.2500     7.2760
  194.5000  -999.2500     7.2790
  195.0000  -999.2500     7.2750
  195.5000  -999.2500     7.2710
  196.0000  -999.2500     7.2660
  196.5000  -999.2500     7.2620
  197.0000  -999.2500     7.2580
  197.5000  -999.2500     7.2530
  198.0000  -999.2500     7.2490
  198.5000  -999.2500     7.2450
  199.0000  -999.2500     7.2400
  199.5000  -999.2500     7.2430
  200.0000  -999.2500     7.2450
  200.5000  -999.2500     7.2480
  201.0000  -999.2500     7.2510
  201.5000  -999.2500     7.2540
  202.0000  -999.2500     7.2570
  202.5000  -999.2500     7.2590
  203.0000  -999.2500     7.2620
  203.5000  -999.2500     7.2650
  204.0000  -999.2500     7.2680
  204.5000  -999.2500     7.2680
  205.0000  -999.2500     7.2590
  205.5000  -999.2500     7.2560
  206.0000  -999.2500     7.2530
  206.5000  -999.2500     7.2500
  207.0000  -999.2500     7.2470
  207.5000  -999.2500     7.2440
  208.0000  -999.2500     7.2410
  208.5000  -999.2500     7.2380
  209.0000  -999.2500     7.2350
  209.5000  -999.2500     7.2320
  210.0000  -999.2500     7.2280
  210.5000  -999.2500     7.2250
  211.0000  -999.2500     7.2220
  211.5000  -999.2500     7.2210
  212.0000  -999.2500     7.2220
  212.5000  -999.2500     7.2240
  213.0000  -999.2500     7.2250
  213.5000  -999.2500     7.2270
  214.0000  -999.2500     7.2280
  214.5000  -999.2500     7.2300
  215.0000  -999.2500     7.2360
  215.5000  -999.2500     7.2470
  216.0000  -999.2500     7.2840
  216.5000  -999.2500     7.3420
  217.0000  -999.2500     7.3570
  217.5000  -999.2500     7.3490
  218.0000  -999.2500     7.3420
  218.5000  -999.2500     7.3340
  219.0000  -999.2500     7.3140
  219.5000  -999.2500     7.2650
  220.0000  -999.2500     7.2500
  220.5000  -999.2500     7.2520
  221.0000  -999.2500     7.2530
  221.5000  -999.2500     7.2550
  222.0000  -999.2500     7.2570
  222.5000  -999.2500     7.2590
  223.0000  -999.2500     7.2600
  223.5000  -999.2500     7.2620
  224.0000  -999.2500     7.2640
  224.5000  -999.2500     7.2650
  225.0000  -999.2500     7.2670
  225.5000  -999.2500     7.2690
  226.0000  -999.2500     7.2700
  226.5000  -999.2500     7.2720
  227.0000  -999.2500     7.2740
  227.5000  -999.2500     7.2760
  228.0000  -999.2500     7.2770
  228.5000  -999.2500     7.2790
  229.0000  -999.2500     7.2780
  229.5000  -999.2500     7.2760
  230.0000  -999.2500     7.2740
  230.5000  -999.2500     7.2720
  231.0000  -999.2500     7.2700
  231.5000  -999.2500     7.2680
  232.0000  -999.2500     7.2660
  232.5000  -999.2500     7.2640
  233.0000  -999.2500     7.2620
  233.5000  -999.2500     7.2600
  234.0000  -999.2500     7.2580
  234.5000  -999.2500     7.2560
  235.0000  -999.2500     7.2540
  235.5000  -999.2500     7.2520
  236.0000  -999.2500     7.2500
  236.5000  -999.2500     7.2550
  237.0000  -999.2500     7.2590
  237.5000  -999.2500     7.2640
  238.0000  -999.2500     7.2680
  238.5000  -999.2500     7.2730
  239.0000  -999.2500     7.2770
  239.5000  -999.2500     7.2760
  240.0000  -999.2500     7.2690
  240.5000  -999.2500     7.2610
  241.0000  -999.2500     7.2540
  241.5000  -999.2500     7.2460
  242.0000  -999.2500     7.2390
  242.5000  -999.2500     7.2310
