~VERSION INFORMATION
 VERS.                2.0:   CWLS LOG ASCII STANDARD - VERSION 2.0
 WRAP.                 NO:   ONE LINE PER DEPTH STEP
~WELL INFORMATION
#MNEM.UNIT      DATA TYPE    INFORMATION
#----------   ------------   ------------------------------
 STRT.F           90.0000:   START DEPTH
 STOP.F         3342.0000:   STOP DEPTH
 STEP.F            0.5000:   STEP LENGTH
 NULL.          -999.2500:   NO VALUE
 COMP. LAWRENCE ALLISON AND ASSOCIATES:   COMPANY
 WELL. LAWERNCE "X" #83-3:   WELL
 FLD .             NPR #3:   FIELD
 LOC .       S3 T38N R78W:   LOCATION
 CNTY.            NATRONA:   COUNTY
 STAT.            WYOMING:   STATE
 CTRY. UNITED STATES OF AMERICA:   COUNTRY
 SRVC.      DRESSER ATLAS:   SERVICE COMPANY
 DATE.        23-APR-1985:   LOGDATE
 API .     49025110210000:   API NUMBER
~CURVE INFORMATION
#MNEM.UNIT       API CODE    CURVE DESCRIPTION
#----------   ------------   ------------------------------
 DEPT.F                  :   
 TENR.LBS    07 635 01 00:   TENSION FROM RESISTIVITY
 CALR.IN     07 280 01 00:   CALIPER FROM RESISTIVITY
 SPR .MV     07 010 01 00:   SPONTANEOUS POTENTIAL
 GRR .GAPI   07 310 01 00:   GAMMA RAY FROM RESISTIVITY
 RFOC.OHMM   07 220 04 00:   RESISTIVITY FOCUSED LOG RES.
 RILD.OHMM   07 120 46 00:   DEEP INDUCTION RESISTIVITY
 RILM.OHMM   07 120 44 00:   INDUCTION LOG MEDIUM RESISTIVITY
 NPHI.DEC    42 890 03 00:   NEUTRON POROSITY SANDSTONE
 RHOB.G/C3   45 350 01 00:   BULK DENSITY
 TEND.LBS    45 635 01 00:   TENSION FROM DENSITY LOG
 CORR.G/C3   45 356 01 00:   DENSITY CORRECTION
~PARAMETER INFORMATION
#MNEM.UNIT          VALUE    DESCRIPTION
#----------   ------------   ------------------------------
 EKB .F         5125.0000:   Kelly bushing
 EGL .F         5112.0000:   Ground level
 EDF .F            0.0000:   Drilling floor
 TD  .F         3330.0000:   Total depth
 DATE.        23-APR-1985:   Date logged
 CLNT.            A2DTECH:   Client Code
 SL  . 1745' FNL & 612' FEL:   Surface Location
 PD  .                 GL:   Permanent Datum
 DD  .F              3330:   Depth driller
 DL  .F              3328:   Depth logger
 BLI .F              3326:   Bottom log interval
 CS1 .IN            8.625:   Casing size
 CBD1.      8.625" @ 526':   Casing driller 1
 CBL1.F               528:   Casing logger 1
 BS1 .IN            7.875:   Bit size
 DFT .            KCL-GEL:   Type fluid in hole
 DFD .                9.1:   Density
 DFV .                 43:   Viscosity
 DFPH.                  8:   pH
 DFL .                  8:   Fluid loss
 MSS .           FLOWLINE:   Source of sample
 RMS .OHMM          0.445:   Rm
 MST .F                72:   Rm Meas. temp.
 RMF .OHMM           0.36:   Rmf
 MFST.F                70:   Rmf Meas. temp.
 RMC .OHMM           0.55:   Rmc
 MCST.F                72:   Rmc Meas. temp.
 MFSS.               MEAS:   Source Rmf.
 RMB .OHMM          0.286:   Rm. at BHT
 BHT .F               116:   BHT.
 TCS .HRS               3:   Time Circ. stopped
 MRT .F               116:   Maximum recorded temp.
 LUN .               6274:   Logging unit number
 LUL .               GLTE:   Logging unit location
 ENGI.             RAUTIO:   Recorded By
 WITN.             STRONG:   Witnessed by
 ORIG.           5" PRINT:   Origin of data
 UWI .     49025110210000:   Unique Well ID
 DICO. A2D TECHNOLOGIES, INC.:   Digitizing Company
 DAPD.                 13:   Feet Above Permanent Datum
 BSD1.               3330:   Depth drilled with bit1
 MCSS.               CALC:   Source Rmc.
 EPD .               5112:   Elevation Permanent Datum
 LMF .                 KB:   Log Measured From
 DMF .                 KB:   Drilling Measured From
~OTHER INFORMATION
~A   DEPT     TENR       CALR        SPR         GRR      RFOC       RILD       RILM       NPHI       RHOB       TEND       CORR   
# ...
 1462.5000   -55.5830    10.6720   -63.5470   100.2330     7.1880     7.2830     7.4880  -999.2500  -999.2500  -999.2500  -999.2500
 1463.0000   -55.5830    10.6800   -63.5040    98.1440     7.1450     7.2510     7.4460  -999.2500  -999.2500  -999.2500  -999.2500
 1463.5000   -55.5830    10.6890   -63.6960    95.4160     7.1030     7.2160     7.3650  -999.2500  -999.2500  -999.2500  -999.2500
 1464.0000   -55.5830    10.6930   -63.8870    93.0810     7.0600     7.1800     7.2840  -999.2500  -999.2500  -999.2500  -999.2500
 1464.5000   -55.5830    10.6910   -64.0780    97.4630     7.0180     7.1440     7.2040  -999.2500  -999.2500  -999.2500  -999.2500
 1465.0000   -45.6130    10.6890   -64.2690   104.2140     6.9760     7.1080     7.1230  -999.2500  -999.2500  -999.2500  -999.2500
 1465.5000   -43.2500    10.6870   -64.4600   110.9240     6.9330     7.0720     7.0860  -999.2500  -999.2500  -999.2500  -999.2500
 1466.0000   -40.7380    10.6850   -64.6500   115.9520     6.8910     7.0370     7.1490  -999.2500  -999.2500  -999.2500  -999.2500
 1466.5000   -38.2250    10.6830   -64.8430   113.6000     6.8480     7.0210     7.2170  -999.2500  -999.2500  -999.2500  -999.2500
 1467.0000   -35.6430    10.6810   -65.0450   111.0480     6.7680     7.0210     7.2020  -999.2500  -999.2500  -999.2500  -999.2500
 1467.5000   -35.6430    10.6790   -64.8710   108.3710     6.7840     7.0210     7.1830  -999.2500  -999.2500  -999.2500  -999.2500
 1468.0000   -35.6430    10.6770   -64.6240   104.6080     6.8130     7.0860     7.1630  -999.2500  -999.2500  -999.2500  -999.2500
 1468.5000   -35.6430    10.6750   -64.5200   101.1290     6.8300     7.0450     7.1440  -999.2500  -999.2500  -999.2500  -999.2500
 1469.0000   -35.6430    10.6730   -64.7540   101.0870     6.8270     7.0100     7.1240  -999.2500  -999.2500  -999.2500  -999.2500
 1469.5000   -35.6430    10.6710   -64.9770   104.0980     6.8120     6.9750     7.1050  -999.2500  -999.2500  -999.2500  -999.2500
 1470.0000   -35.6430    10.6690   -65.2040   105.9890     6.7970     6.9410     7.0860  -999.2500  -999.2500  -999.2500  -999.2500
 1470.5000   -35.6430    10.6670   -65.1990   107.1460     6.7820     6.8940     7.0910  -999.2500  -999.2500  -999.2500  -999.2500
 1471.0000   -35.6430    10.6650   -65.1390   109.7800     6.7680     6.8980     7.0980  -999.2500  -999.2500  -999.2500  -999.2500
 1471.5000   -35.6430    10.6630   -65.0770   113.5390     6.7680     6.9060     7.1040  -999.2500  -999.2500  -999.2500  -999.2500
 1472.0000   -35.6430    10.6610   -65.0150   114.0570     6.7930     6.9130     7.1110  -999.2500  -999.2500  -999.2500  -999.2500
 1472.5000   -35.6430    10.6590   -64.9540   110.4270     6.8300     6.9210     7.1170  -999.2500  -999.2500  -999.2500  -999.2500
 1473.0000   -35.6430    10.6560   -64.8930   107.8740     6.8300     6.9280     7.1240  -999.2500  -999.2500  -999.2500  -999.2500
 1473.5000   -35.6430    10.6540   -64.8310   106.3350     6.8240     6.9360     7.1310  -999.2500  -999.2500  -999.2500  -999.2500
 1474.0000   -35.6430    10.6650   -64.7700   103.2640     6.8140     6.9440     7.1370  -999.2500  -999.2500  -999.2500  -999.2500
 1474.5000   -35.6430    10.6770   -64.7180   101.0080     6.8050     6.9510     7.1440  -999.2500  -999.2500  -999.2500  -999.2500
 1475.0000   -35.6430    10.6900   -64.6480    99.6500     6.7950     6.9570     7.1510  -999.2500  -999.2500  -999.2500  -999.2500
 1475.5000   -35.6430    10.6880   -64.0720   100.3880     6.7860     6.9570     7.1510  -999.2500  -999.2500  -999.2500  -999.2500
 1476.0000   -35.6430    10.6810   -64.0940   102.1810     6.7760     6.9570     7.1510  -999.2500  -999.2500  -999.2500  -999.2500
 1476.5000   -35.6430    10.6730   -64.1140   102.4560     6.7680     6.9570     7.1510  -999.2500  -999.2500  -999.2500  -999.2500
 1477.0000   -45.6130    10.6660   -64.1410    98.4910     6.7680     6.9560     7.1520  -999.2500  -999.2500  -999.2500  -999.2500
 1477.5000   -45.6130    10.6580   -64.1680    96.2430     6.7770     6.9570     7.1510  -999.2500  -999.2500  -999.2500  -999.2500
 1478.0000   -45.6130    10.6510   -64.1940    99.2290     6.8440     6.9570     7.2170  -999.2500  -999.2500  -999.2500  -999.2500
 1478.5000   -45.6130    10.6430   -64.2210   108.7420     6.9100     7.0210     7.2840  -999.2500  -999.2500  -999.2500  -999.2500
 1479.0000   -45.6130    10.6360   -64.2460   110.4260     6.9770     7.1530     7.2170  -999.2500  -999.2500  -999.2500  -999.2500
 1479.5000   -45.6130    10.6280   -64.2540   105.0210     7.0430     7.2910     7.5090  -999.2500  -999.2500  -999.2500  -999.2500
 1480.0000   -45.6130    10.6200   -64.2700   101.1550     7.1100     7.4870     7.9500  -999.2500  -999.2500  -999.2500  -999.2500
 1480.5000   -45.6130    10.6140   -64.6730   102.1960     7.2170     7.4400     7.8780  -999.2500  -999.2500  -999.2500  -999.2500
 1481.0000   -45.6130    10.6150   -65.0840   103.9930     7.1600     7.3200     7.6020  -999.2500  -999.2500  -999.2500  -999.2500
 1481.5000   -45.6130    10.6150   -65.4950   105.4770     7.0640     7.1990     7.2200  -999.2500  -999.2500  -999.2500  -999.2500
 1482.0000   -45.6130    10.6150   -65.9250    99.3510     6.9680     7.0860     7.2330  -999.2500  -999.2500  -999.2500  -999.2500
 1482.5000   -45.6130    10.6150   -65.7650    88.9180     6.8930     7.0860     7.2590  -999.2500  -999.2500  -999.2500  -999.2500
 1483.0000   -45.6130    10.6150   -65.3710    88.6770     6.9310     7.0860     7.2840  -999.2500  -999.2500  -999.2500  -999.2500
 1483.5000   -45.6130    10.6150   -64.9700    95.8580     6.9690     7.0860     7.3270  -999.2500  -999.2500  -999.2500  -999.2500
 1484.0000   -45.6130    10.6150   -64.5570   101.5490     7.0060     7.1550     7.4590  -999.2500  -999.2500  -999.2500  -999.2500
 1484.5000   -45.6130    10.6150   -64.4580   107.2890     7.0430     7.2220     7.7050  -999.2500  -999.2500  -999.2500  -999.2500
 1485.0000   -45.6130    10.6150   -64.4540   109.4500     7.0810     7.2880     7.8390  -999.2500  -999.2500  -999.2500  -999.2500
 1485.5000   -45.6130    10.6150   -64.4550   106.7970     7.1510     7.3510     7.6890  -999.2500  -999.2500  -999.2500  -999.2500
 1486.0000   -45.6130    10.6150   -64.4550   102.4390     7.1510     7.4190     7.6260  -999.2500  -999.2500  -999.2500  -999.2500
 1486.5000   -45.6130    10.6150   -64.4550    99.5030     7.1510     7.3920     7.5230  -999.2500  -999.2500  -999.2500  -999.2500
 1487.0000   -40.0550    10.6150   -64.4550   101.7400     7.1510     7.3350     7.4740  -999.2500  -999.2500  -999.2500  -999.2500
 1487.5000   -33.7740    10.6150   -64.4560   104.4890     7.1510     7.2790     7.4250  -999.2500  -999.2500  -999.2500  -999.2500
 1488.0000   -27.4930    10.6150   -64.4550   104.0680     7.1510     7.2230     7.3760  -999.2500  -999.2500  -999.2500  -999.2500
 1488.5000   -28.6470    10.6150   -64.4500   101.6460     7.0810     7.1660     7.3270  -999.2500  -999.2500  -999.2500  -999.2500
 1489.0000   -32.8350    10.6150   -64.6220   102.0750     7.0030     7.1100     7.2780  -999.2500  -999.2500  -999.2500  -999.2500
 1489.5000   -37.0220    10.6150   -64.8210   104.0630     6.9260     7.0530     7.2330  -999.2500  -999.2500  -999.2500  -999.2500
 1490.0000   -41.2100    10.6150   -65.0230   106.0570     6.8490     6.9970     7.1870  -999.2500  -999.2500  -999.2500  -999.2500
 1490.5000   -45.3970    10.6150   -64.9750   106.0260     6.7710     6.9410     7.1420  -999.2500  -999.2500  -999.2500  -999.2500
 1491.0000   -49.5850    10.6150   -64.8650   105.6490     6.7060     6.8930     7.0860  -999.2500  -999.2500  -999.2500  -999.2500
 1491.5000   -53.7720    10.6150   -64.8510   105.7910     6.7370     6.9570     7.1890  -999.2500  -999.2500  -999.2500  -999.2500
 1492.0000   -57.9590    10.6150   -64.8510   106.1370     6.8240     7.0700     7.3720  -999.2500  -999.2500  -999.2500  -999.2500
 1492.5000   -62.1470    10.6150   -64.8510   103.6390     6.9110     7.1880     7.4800  -999.2500  -999.2500  -999.2500  -999.2500
