~VERSION INFORMATION
 VERS.                2.0:   CWLS LOG ASCII STANDARD - VERSION 2.0
 WRAP.                 NO:   ONE LINE PER DEPTH STEP
~WELL INFORMATION
#MNEM.UNIT      DATA TYPE    INFORMATION
#----------   ------------   ------------------------------
 STRT.F           10.0000:   START DEPTH
 STOP.F         5812.0000:   STOP DEPTH
 STEP.F            0.5000:   STEP LENGTH
 NULL.          -999.2500:   NO VALUE
 COMP. LAWRENCE - ALLSISON:   COMPANY
 WELL. LAWRENCE "X" #11-11:   WELL
 FLD .              NPR 3:   FIELD
 LOC .      S11 T38N R78W:   LOCATION
 CNTY.            NATRONA:   COUNTY
 STAT.            WYOMING:   STATE
 CTRY. UNITED STATES OF AMERICA:   COUNTRY
 SRVC.      DRESSER ATLAS:   SERVICE COMPANY
 DATE.        12-NOV-1982:   LOGDATE
 API .     49025109160000:   API NUMBER
~CURVE INFORMATION
#MNEM.UNIT       API CODE    CURVE DESCRIPTION
#----------   ------------   ------------------------------
 DEPT.F                  :   
 TEND.LBS    45 635 01 00:   TENSION FROM DENSITY LOG
 CALD.IN     45 280 60 00:   CALIPER FROM DENSITY LOG
 CORR.G/C3   45 356 01 00:   DENSITY CORRECTION
 RHOB.G/C3   45 350 01 00:   BULK DENSITY
 CN  .DEC    42 890 03 00:   COMPENSATED NEUTRON POROSITY SANDSTONE
 AC  .US/F   60 520 00 00:   ACOUSTIC
 TENS.LBS    60 635 01 00:   TENSION FROM SONIC
 GRR .GAPI   11 310 01 00:   GAMMA RAY FROM RESISTIVITY
 RD  .OHMM   11 220 10 00:   RESISTIVITY DEEP
 RMLL.OHMM   11 270 04 00:   RESISTIVITY MICROLATEROLOG
 RS  .OHMM   11 220 09 00:   RESISTIVITY SHALLOW
 SPR .MV     11 010 01 00:   SPONTANEOUS POTENTIAL FROM RESISTIVITY
 TENR.LBS    11 635 01 00:   TENSION FROM RESISTIVITY
~PARAMETER INFORMATION
#MNEM.UNIT          VALUE    DESCRIPTION
#----------   ------------   ------------------------------
 EKB .F         5160.0000:   Kelly bushing
 EGL .F         5150.0000:   Ground level
 EDF .F            0.0000:   Drilling floor
 TD  .F         5800.0000:   Total depth
 CLNT.            A2DTECH:   Client Code
 SL  . 660' FNL & 660' FWL:   Surface Location
 PD  .                 GL:   Permanent Datum
 EPD .F              5150:   Elevation Permanent Datum
 LMF .                 KB:   Log Measured From
 DMF .                 KB:   Drilling Measured From
 DAPD.F                10:   Feet Above Permanent Datum
 DATE.        12-NOV-1982:   Date Logged [DD-MMM-YYYY]
 DD  .F              5800:   Depth driller
 DL  .F              5795:   Depth logger
 BLI .F              5702:   Bottom log interval
 TLI .F                 0:   Top log interval
 CS1 .IN            9.625:   Casing size
 CBD1.      9.625" @ 664':   Casing driller 1
 CBL1.F               660:   Casing logger 1
 BS1 .IN             8.75:   Bit size
 BSD1.F              5800:   Depth drilled with bit1
 DFT .                KCL:   Type fluid in hole
 DFD .                8.6:   Density
 DFV .                 45:   Viscosity
 DFPH.                8.5:   pH
 DFL .                7.8:   Fluid loss
 MSS .           FLOWLINE:   Source of sample
 RMS .OHMM           0.32:   Rm
 MST .F                92:   Rm Meas. temp.
 RMF .OHMM           0.26:   Rmf
 MFST.F                90:   Rmf Meas. temp.
 MFSS.               MEAS:   Source Rmf.
 RMB .OHMM           0.19:   Rm. at BHT
 BHT .F               160:   BHT.
 TCS .HRS               3:   Time Circ. stopped
 MRT .F               160:   Maximum recorded temp.
 LUN .               6270:   Logging unit number
 LUL .              WLSTN:   Logging unit location
 ENGI.            QUICKEL:   Recorded By
 WITN.             STRONG:   Witnessed by
 ORIG.        2" 5" PRINT:   Origin of data
 UWI .     49025109160000:   Unique Well ID
 DICO. A2D TECHNIOLOGIES,INC.:   Digitizing Company
 RMC .OHMM           0.40:   Rmc
 MCST.F                92:   Rmc Meas. temp.
 MCSS.               CALC:   Source Rmc.
~OTHER INFORMATION
~A  DEPTH     TEND       CALD       CORR       RHOB         CN         AC       TENS        GRR         RD       RMLL         RS        SPR       TENR
# ...
 1674.0000   -40.1049    11.5333     0.0502     2.4974     0.2642    87.7327   -63.8889    89.6917     8.6326     6.9512     7.8978   -58.9150   -55.1282
 1674.5000   -43.8531    11.5577     0.0727     2.4929     0.2618    88.3441   -63.5698    91.7672     8.3888     6.8497     7.6743   -59.3758   -55.4676
 1675.0000   -43.8531    11.5726     0.0633     2.4951     0.2624    88.8069   -66.9460    96.8457     8.2661     6.9398     7.5618   -59.5363   -60.2062
 1675.5000   -43.8531    11.5875     0.0349     2.5101     0.2672    89.1020   -66.6855    97.4789     8.0887     6.9824     7.4477   -59.5466   -63.7521
 1676.0000   -43.8531    11.5874     0.0499     2.5214     0.2843    89.2579   -66.3664    94.9908     7.9152     6.8740     7.2905   -59.4042   -60.3154
 1676.5000   -47.6012    11.5873     0.0875     2.5244     0.3037    89.0370   -66.0111    95.5648     7.8539     6.5475     7.1745   -59.2643   -53.1081
 1677.0000   -43.8531    11.5873     0.0694     2.5260     0.3201    88.8914   -65.6994    97.7417     7.8474     6.6336     7.0770   -58.9769   -42.1299
 1677.5000   -47.6012    11.5901     0.0422     2.5379     0.3063    88.9720   -61.6340   101.3261     7.7866     6.7676     7.0220   -58.6870   -34.9225
 1678.0000   -51.3493    11.6021     0.0416     2.5484     0.2956    89.2032   -61.3223   102.3921     7.7802     6.8106     7.0163   -58.3970   -31.4023
 1678.5000   -55.0975    11.6020     0.0801     2.5461     0.2894    89.4345   -57.2569    95.7523     7.7200     6.6173     7.0105   -58.1070   -43.1321
 1679.0000   -58.8456    11.6169     0.1052     2.5385     0.2894    89.3643   -56.9444    90.3203     7.7135     6.2548     7.0047   -57.8170   -54.7784
 1679.5000   -58.8456    11.6168     0.1097     2.5167     0.2926    89.0681   -56.6253    88.7989     7.7071     6.0365     6.9989   -57.6772   -58.8833
 1680.0000   -55.0975    11.6168     0.1006     2.5001     0.3084    88.6211   -56.2440    90.2672     7.6994     6.0748     6.9932   -57.3872   -66.7588
 1680.5000   -47.6012    11.6167     0.0870     2.5017     0.3093    88.2495   -59.7410    90.5475     7.8025     6.1547     6.9874   -57.2268   -67.0929
 1681.0000   -36.2589    11.6166     0.0659     2.5151     0.2948    87.9522   -59.4219    90.8147     7.9053     6.4098     6.9816   -57.1076   -67.4270
 1681.5000   -32.6087    11.6165     0.0237     2.5256     0.2876    87.5760   -59.1028    90.1875     8.0095     6.7234     6.9759   -57.1205   -63.9894
 1682.0000   -32.6087    11.6165     0.0085     2.5399     0.2864    87.3499   -54.9973    89.2600     8.0571     6.8119     6.9701   -57.2809   -60.3562
 1682.5000   -32.6087    11.6164    -0.0035     2.5542     0.2828    87.4426   -54.6857    89.8341     8.0505     6.5741     6.9644   -57.4414   -57.1169
 1683.0000   -36.3271    11.6013     0.0160     2.5662     0.2728    87.8246   -50.6202    91.0087     8.0439     6.5232     7.0073   -57.4517   -58.1462
 1683.5000   -42.4933    11.6013     0.0355     2.5729     0.2755    88.4326   -46.5548    93.6918     7.9816     6.5633     7.0015   -57.6122   -61.6394
 1684.0000   -47.6012    11.6162     0.0685     2.5722     0.2948    88.9653   -50.0000    94.5592     7.9198     6.5566     7.0447   -57.6225   -61.9735
 1684.5000   -51.3493    11.6161     0.0850     2.5706     0.3074    89.0459   -49.6810    93.5817     7.8584     6.5512     7.0387   -57.6328   -62.3075
 1685.0000   -58.8456    11.6160     0.0684     2.5721     0.2869    88.9744   -49.3736    92.6976     7.7975     6.4110     7.0317   -57.7933   -62.6416
 1685.5000   -55.0975    11.6159     0.0563     2.5811     0.2665    89.1316   -52.8156    91.7701     7.7371     6.1872     6.8814   -57.8036   -66.7464
 1686.0000   -58.8456    11.6159     0.0502     2.5976     0.2653    89.2121   -52.4260    91.1430     7.6239     6.2265     6.7805   -57.9641   -67.0805
 1686.5000   -58.8456    11.6158     0.0742     2.6051     0.2716    88.9159   -55.9461    91.1164     7.5123     6.0920     6.7278   -57.8243   -63.5603
 1687.0000   -55.0975    11.6157     0.1103     2.6051     0.2896    88.2429   -55.5931    91.0899     7.3510     5.7184     6.7694   -57.8348   -60.2072
 1687.5000   -51.3493    11.6156     0.1283     2.5996     0.3146    87.6452   -55.2740    90.1624     7.5510     4.9387     6.8188   -57.5446   -60.5412
 1688.0000   -40.1049    11.6156     0.1313     2.5712     0.3125    87.2736   -54.9331    87.7334     7.8118     5.1445     6.9965   -57.4048   -57.0890
 1688.5000   -28.8606    11.6305     0.1071     2.5509     0.2806    87.2788   -58.4532    86.8060     8.0257     5.5098     7.0904   -57.2650   -53.6576
 1689.0000   -17.6162    11.6304     0.0830     2.5381     0.2595    87.1239   -58.0636    86.4857     8.1314     5.9834     7.2834   -57.2779   -57.7727
 1689.5000   -21.3643    11.6486     0.0552     2.5298     0.2598    86.8383   -57.7327    87.3543     8.1815     6.4978     7.4832   -57.4383   -61.8928
 1690.0000   -25.1124    11.6751     0.0332     2.5253     0.2592    86.6914   -53.6787    87.3269     8.2318     7.0564     7.5836   -57.5988   -65.9880
 1690.5000   -28.8606    11.6900     0.0166     2.5230     0.2499    86.8486   -53.2969    86.3985     8.2251     7.1491     7.6838   -57.7593   -66.3273
 1691.0000   -21.3643    11.7049     0.0045     2.5230     0.2435    87.1553   -53.0406    86.9951     8.2774     7.2564     7.6758   -57.9197   -59.1926
 1691.5000   -13.8681    11.7206    -0.0016     2.5305     0.2456    87.3111   -52.7215    88.1481     8.2689     7.8098     7.6695   -58.0802   -59.5267
 1692.0000   -13.8681    11.7369     0.0149     2.5342     0.2460    87.4671   -52.3619    87.2140     8.2621     8.0247     7.6100   -58.2407   -63.6315
 1692.5000   -13.8681    11.7496     0.0555     2.5297     0.2414    87.3969   -52.0502    87.4877     8.2554     7.3759     7.5509   -58.2510   -63.9655
 1693.0000   -13.8681    11.7495     0.0704     2.5266     0.2345    87.4774   -51.7385    88.3621     8.2485     7.0203     7.3885   -58.2613   -64.2996
 1693.5000   -13.8681    11.7644     0.0613     2.5281     0.2303    87.8594   -51.4452    90.4376     8.2417     6.6819     7.2296   -58.2718   -60.8629
 1694.0000   -13.8681    11.7644     0.0222     2.5311     0.2330    88.4674   -51.1152    91.0183     8.1777     6.4487     7.1734   -58.4505   -61.1970
 1694.5000   -13.8681    11.7793    -0.0140     2.5326     0.2722    88.8494   -50.8035    91.2920     8.1696     6.6248     7.1675   -58.8955   -61.5311
 1695.0000   -17.6162    11.7792    -0.0366     2.5356     0.2736    89.0053   -50.4880    91.8594     8.0501     6.8532     7.1615   -59.3562   -65.6359
 1695.5000   -25.1124    11.8091    -0.0126     2.5370     0.2730    88.9351   -50.1690    93.3344     7.9324     6.8967     7.0995   -59.8170   -69.7407
 1696.0000   -25.1124    11.8090     0.0325     2.5385     0.2766    88.8650   -49.8499    94.5090     7.6549     6.7010     7.0015   -60.1276   -70.0748
 1696.5000   -25.1124    11.8239     0.0248     2.5445     0.3000    88.7063   -49.4790    93.8818     7.5956     6.5516     6.9946   -60.7386   -70.4089
 1697.0000   -25.1124    11.8238     0.0188     2.5610     0.3076    88.4998   -49.1673    93.2547     7.6957     7.2208     6.9888   -61.0492   -70.7429
 1697.5000   -25.1124    11.8237     0.0157     2.5836     0.2994    88.2790   -48.8556    92.9278     7.9064     7.1649     6.9831   -61.3598   -67.3063
 1698.0000   -25.1124    11.8236     0.0367     2.5903     0.2868    87.9074   -48.5440    92.9009     8.0122     6.5808     7.0276   -61.6704   -67.6471
 1698.5000   -25.1124    11.8386     0.0773     2.5865     0.2910    87.3850   -48.2323    92.2363     8.1178     5.9971     7.0203   -62.2813   -64.2037
 1699.0000   -24.7135    11.8385     0.0968     2.5820     0.2922    86.9381   -51.7523    90.1388     8.1663     5.3389     7.1131   -62.4418   -60.7670
 1699.5000   -17.6162    11.8534     0.1043     2.5714     0.2886    86.4911   -55.1238    90.4192     8.2737     5.6001     7.3593   -62.6023   -57.4139
