~VERSION INFORMATION
 VERS.                2.0:   CWLS LOG ASCII STANDARD - VERSION 2.0
 WRAP.                 NO:   ONE LINE PER DEPTH STEP
~WELL INFORMATION
#MNEM.UNIT      DATA TYPE    INFORMATION
#----------   ------------   ------------------------------
 STRT.F          502.0000:   START DEPTH
 STOP.F         4210.0000:   STOP DEPTH
 STEP.F            0.5000:   STEP LENGTH
 NULL.          -999.2500:   NO VALUE
 COMP.   FENIX & SCISSION:   COMPANY
 WELL. FENIX NPR 3 "JX" #43-34:   WELL
 FLD .              N P R:   FIELD
 LOC .      S34 T39N R78W:   LOCATION
 CNTY.            NATRONA:   COUNTY
 STAT.            WYOMING:   STATE
 CTRY. UNITED STATES OF AMERICA:   COUNTRY
 SRVC.              WELEX:   SERVICE COMPANY
 DATE.        05-FEB-1979:   LOGDATE
 API .     49025107690000:   API NUMBER
~CURVE INFORMATION
#MNEM.UNIT       API CODE    CURVE DESCRIPTION
#----------   ------------   ------------------------------
 DEPT.F                  :   
 TENR.LBS    07 635 01 00:   TENSION FROM RESISTIVITY
 SPR .MV     07 010 01 00:   SPONTANEOUS POTENTIAL
 SFL .OHMM   07 220 01 00:   SHALLOW FOCUSED LOG RESISTIVITY
 ILD .OHMM   07 120 46 00:   DEEP INDUCTION RESISTIVITY
 ILM .OHMM   07 120 44 00:   INDUCTION LOG MEDIUM RESISTIVITY
 TEND.LBS    45 635 01 00:   TENSION FROM DENSITY LOG
 CALD.IN     45 280 60 00:   CALIPER FROM DENSITY LOG
 GRD .GAPI   45 310 01 00:   GAMMA RAY FROM DENSITY LOG
 CORR.G/C3   45 356 01 00:   DENSITY CORRECTION
 NPHI.DEC    42 890 03 00:   NEUTRON POROSITY SANDSTONE
 RHOB.G/C3   45 350 01 00:   BULK DENSITY
~PARAMETER INFORMATION
#MNEM.UNIT          VALUE    DESCRIPTION
#----------   ------------   ------------------------------
 EKB .F         5108.0000:   Kelly bushing
 EGL .F         5098.0000:   Ground level
 TD  .F         4204.0000:   Total depth
 DATE.        05-FEB-1979:   Date logged
 CLNT.            A2DTECH:   Client Code
 SL  . 1627' FNL & 2110' FWL:   Surface Location
 PD  .                 GL:   Permanent Datum
 DD  .F              4200:   Depth driller
 DL  .F              4204:   Depth logger
 BLI .F              4202:   Bottom log interval
 CS1 .IN            8.625:   Casing size
 CBD1.      8.625" @ 506':   Casing driller 1
 CBL1.F               506:   Casing logger 1
 BS1 .IN            7.875:   Bit size
 DFT .           CHEM/GEL:   Type fluid in hole
 DFD .                9.2:   Density
 DFV .                 55:   Viscosity
 DFPH.                9.5:   pH
 DFL .                5.7:   Fluid loss
 MSS .            MUD/PIT:   Source of sample
 RMS .OHMM            1.1:   Rm
 MST .F                52:   Rm Meas. temp.
 RMF .OHMM            .45:   Rmf
 MFST.F                52:   Rmf Meas. temp.
 RMC .OHMM            1.8:   Rmc
 MCST.F                52:   Rmc Meas. temp.
 MFSS.               MEAS:   Source Rmf.
 RMB .OHMM           5.06:   Rm. at BHT
 BHT .F               128:   BHT.
 TCS .HRS               8:   Time Circ. stopped
 MRT .F               128:   Maximum recorded temp.
 LUN .               9685:   Logging unit number
 LUL .             CASPER:   Logging unit location
 ENGI.        KEIN/JOINER:   Recorded By
 WITN.        J. DINSMORE:   Witnessed by
 ORIG.           5" PRINT:   Origin of data
 UWI .     49025107690000:   Unique Well ID
 DICO. A2D TECHNOLOGIES, INC.:   Digitizing Company
 DAPD.F                10:   Feet Above Permanent Datum
 BSD1.F              4200:   Depth drilled with bit1
 MCSS.               MEAS:   Source Rmc.
 EPD .F              5098:   Elevation Permanent Datum
 LMF .                 KB:   Log Measured From
 DMF .                 KB:   Drilling Measured From
 TLI .F               500:   Top log interval
~OTHER INFORMATION
~A   DEPT     TENR        SPR        SFL        ILD        ILM        TEND        CALD       GRD        CORR       NPHI       RHOB 
# ...
 1478.0000   969.6690   -58.3670     6.2090     4.7220     4.1400  1036.4320     9.2660   138.2150     0.0060     0.3060     2.4680
 1478.5000   969.7670   -58.3670     6.2950     4.7280     4.1400  1036.5430     9.2510   138.8610     0.0100     0.3070     2.4760
 1479.0000   969.8650   -58.3670     6.5090     4.7350     4.1400  1036.6541     9.2220   138.0630     0.0100     0.3070     2.4770
 1479.5000   969.9630   -58.3670     6.8080     4.7410     4.1400  1036.7650     9.2350   136.6480     0.0070     0.3060     2.4710
 1480.0000   970.0610   -58.3670     6.6280     4.7470     4.1440  1036.8760     9.2520   135.6780     0.0070     0.3060     2.4630
 1480.5000   970.1590   -58.3670     6.3290     4.7540     4.1480  1036.9860     9.2710   136.4230     0.0060     0.3060     2.4550
 1481.0000   970.2580   -58.3670     6.2090     4.7600     4.1520  1037.0970     9.2900   136.7000     0.0040     0.3050     2.4520
 1481.5000   970.3560   -58.3670     6.1770     4.7670     4.1560  1037.2080     9.2970   137.0860     0.0030     0.3050     2.4530
 1482.0000   970.4540   -58.3670     6.1360     4.7740     4.1600  1037.3190     9.2860   137.2130     0.0000     0.3030     2.4600
 1482.5000   970.5520   -58.3670     6.0960     4.7800     4.1640  1037.4301     9.2770   137.1880     0.0010     0.3010     2.4500
 1483.0000   970.6500   -58.3670     6.3410     4.7860     4.1680  1037.5410     9.2680   137.1910     0.0070     0.2990     2.4590
 1483.5000   970.7480   -58.3670     6.6840     4.7940     4.1720  1037.6520     9.2580   136.7320     0.0130     0.2920     2.4900
 1484.0000   970.8470   -58.3670     6.5620     4.8010     4.1760  1037.7629     9.2490   136.1040     0.0190     0.2950     2.4980
 1484.5000   970.9450   -58.3670     6.6230     4.8560     4.1800  1037.8740     9.2390   135.5470     0.0230     0.3000     2.4980
 1485.0000   971.0430   -58.3670     6.8080     4.9050     4.1840  1037.9850     9.2300   134.8430     0.0230     0.2990     2.4970
 1485.5000   971.1410   -58.3670     6.6850     4.9530     4.1880  1038.0959     9.2210   134.8060     0.0190     0.2980     2.4790
 1486.0000   971.2390   -58.3670     6.5620     5.0020     4.1920  1038.2061     9.2200   134.9050     0.0180     0.3040     2.4740
 1486.5000   971.3370   -58.3670     7.0640     5.0700     4.1960  1038.3170     9.2200   136.0090     0.0160     0.3090     2.4680
 1487.0000   971.4360   -58.3670     7.0310     5.0400     4.2000  1038.4280     9.2200   137.0760     0.0170     0.3110     2.4690
 1487.5000   971.5340   -58.3670     6.9780     4.9890     4.2040  1038.5389     9.2200   137.2140     0.0210     0.3140     2.4710
 1488.0000   971.6320   -58.3670     6.9350     4.9380     4.2090  1038.6500     9.2200   137.2050     0.0230     0.3170     2.4640
 1488.5000   971.7300   -58.3670     6.7060     4.8870     4.2120  1038.7610     9.2200   137.0940     0.0230     0.3120     2.4540
 1489.0000   971.8280   -58.3670     6.5150     4.9380     4.2170  1038.8719     9.2240   135.6380     0.0230     0.3120     2.4460
 1489.5000   971.9260   -58.3670     6.3250     4.9890     4.2170  1038.9830     9.2330   134.1260     0.0210     0.3110     2.4550
 1490.0000   972.0250   -58.3670     6.7060     5.0700     4.2170  1039.0940     9.2420   132.4210     0.0180     0.3070     2.4710
 1490.5000   972.1230   -58.3670     6.9350     5.0520     4.2170  1039.2050     9.2500   131.5350     0.0160     0.3020     2.4670
 1491.0000   972.2210   -58.3670     6.9350     5.0060     4.2170  1039.3160     9.2580   131.6330     0.0130     0.3000     2.4630
 1491.5000   972.3190   -58.3670     6.9350     4.9600     4.2170  1039.4270     9.2670   132.1090     0.0090     0.2990     2.4530
 1492.0000   972.4170   -58.3670     6.9350     4.8870     4.2170  1039.5370     9.2750   132.8520     0.0050     0.2970     2.4430
 1492.5000   972.5150   -58.3660     6.6390     4.8970     4.2170  1039.6479     9.2840   132.8930     0.0010     0.2960     2.4470
 1493.0000   972.6140   -58.3670     6.4420     4.9220     4.2170  1039.7590     9.2910   131.7230    -0.0010     0.2950     2.4470
 1493.5000   972.7120   -58.3670     6.6490     4.9470     4.2170  1039.8700     9.2970   130.8320     0.0000     0.2930     2.4610
 1494.0000   972.8100   -58.3660     6.9080     4.9780     4.2170  1039.9810     9.2460   130.2550     0.0030     0.2920     2.4780
 1494.5000   972.9080   -58.3680     7.0640     4.9530     4.2170  1040.0920     9.2180   133.1420     0.0100     0.2910     2.4880
 1495.0000   973.0060   -58.3510     6.7500     4.8930     4.2170  1040.2030     9.2200   135.7600     0.0170     0.2950     2.4930
 1495.5000   973.1040   -58.3210     6.5620     4.8320     4.2170  1040.3140     9.2200   137.3490     0.0190     0.2990     2.4850
 1496.0000   973.2030   -58.2940     6.5620     4.7710     4.2170  1040.4250     9.2210   137.1470     0.0200     0.3030     2.4830
 1496.5000   973.3010   -58.2660     6.3270     4.7100     4.2000  1040.5360     9.2240   136.6690     0.0310     0.3070     2.5010
 1497.0000   973.3990   -58.2390     6.2090     4.6850     4.1800  1040.6470     9.2260   136.0220     0.0350     0.3110     2.4880
 1497.5000   973.4970   -58.2110     6.2090     4.6600     4.1590  1040.7570     9.2280   135.3080     0.0280     0.3140     2.4740
 1498.0000   973.5950   -58.1840     6.2090     4.6350     4.1380  1040.8680     9.2310   134.6850     0.0220     0.3180     2.4610
 1498.5000   973.6930   -58.1560     6.2090     4.6100     4.1180  1040.9790     9.2330   134.0690     0.0200     0.3190     2.4490
 1499.0000   973.7920   -58.1280     6.2090     4.5850     4.0970  1041.0900     9.2350   134.6030     0.0220     0.3180     2.4400
 1499.5000   973.8900   -58.1010     6.1840     4.5600     4.0760  1041.2010     9.2380   135.1660     0.0240     0.3170     2.4370
 1500.0000   973.9880   -58.0730     6.1200     4.5390     4.0550  1041.3120     9.2400   135.7830     0.0260     0.3180     2.4360
 1500.5000   974.0860   -58.0460     6.0550     4.5170     4.0350  1041.4230     9.2420   136.3570     0.0280     0.3190     2.4400
 1501.0000   974.1840   -58.0180     5.9910     4.4990     4.0140  1041.5341     9.2450   136.9560     0.0290     0.3160     2.4510
 1501.5000   974.2820   -57.9900     5.9270     4.4800     3.9930  1041.6450     9.2470   137.5610     0.0310     0.3170     2.4580
 1502.0000   974.3810   -57.9670     5.8750     4.4620     3.9720  1041.7560     9.2490   137.8600     0.0380     0.3210     2.4660
 1502.5000   974.4790   -57.9530     5.9460     4.4430     3.9510  1041.8669     9.2520   137.3150     0.0460     0.3240     2.4710
 1503.0000   974.5770   -57.9400     5.9850     4.4250     3.9310  1041.9780     9.2540   136.7730     0.0510     0.3200     2.4570
 1503.5000   974.6750   -57.9280     5.7810     4.4060     3.9080  1042.0880     9.2560   136.2340     0.0470     0.3200     2.4280
 1504.0000   974.7730   -57.9150     5.4580     4.3870     3.8830  1042.1990     9.2590   135.6420     0.0430     0.3200     2.4320
 1504.5000   974.8710   -57.9020     5.5850     4.3400     3.8570  1042.3101     9.2590   135.6180     0.0410     0.3170     2.4380
 1505.0000   974.9700   -57.8890     5.8750     4.2430     3.8390  1042.4210     9.2560   135.5600     0.0360     0.3160     2.4380
 1505.5000   975.0680   -57.8770     5.6430     4.1470     3.8250  1042.5320     9.2530   135.9520     0.0320     0.3170     2.4270
 1506.0000   975.1660   -57.8640     5.4420     4.0650     3.8120  1042.6429     9.2510   136.8480     0.0280     0.3150     2.4240
 1506.5000   975.2640   -57.8510     5.2420     4.1310     3.7980  1042.7540     9.2480   137.0930     0.0230     0.3140     2.4360
 1507.0000   975.3620   -57.8390     5.0700     4.1890     3.7760  1042.8650     9.2460   136.7170     0.0190     0.3120     2.4490
 1507.5000   975.4600   -57.8260     5.3680     4.2460     3.7850  1042.9760     9.2430   136.4260     0.0150     0.3120     2.4470
 1508.0000   975.5590   -57.8130     5.7690     4.2960     3.8120  1043.0870     9.2400   136.1280     0.0110     0.3100     2.4530
