~VERSION INFORMATION
 VERS.                2.0:   CWLS LOG ASCII STANDARD - VERSION 2.0
 WRAP.                 NO:   ONE LINE PER DEPTH STEP
~WELL INFORMATION
#MNEM.UNIT      DATA TYPE    INFORMATION
#----------   ------------   ------------------------------
 STRT.F           11.0000:   START DEPTH
 STOP.F         4154.0000:   STOP DEPTH
 STEP.F            0.5000:   STEP LENGTH
 NULL.          -999.2500:   NO VALUE
 COMP.   LAWRENCE ALLISON:   COMPANY
 WELL. ALLISON NPR 3 "LX" #14-22:   WELL
 FLD .                NPR:   FIELD
 LOC .      S22 T38N R78W:   LOCATION
 CNTY.            NATRONA:   COUNTY
 STAT.            WYOMING:   STATE
 CTRY. UNITED STATES OF AMERICA:   COUNTRY
 SRVC.       DRESER ATLAS:   SERVICE COMPANY
 DATE.        14-APR-1985:   LOGDATE
 API .     49025110230000:   API NUMBER
~CURVE INFORMATION
#MNEM.UNIT       API CODE    CURVE DESCRIPTION
#----------   ------------   ------------------------------
 DEPT.F                  :   
 TEND.LBS    45 635 01 00:   TENSION FROM DENSITY LOG
 RHOB.G/C3   45 350 01 00:   BULK DENSITY
 DRHO.G/C3   45 356 01 00:   DENSITY CORRECTION
 CALD.IN     45 280 60 00:   CALIPER FROM DENSITY LOG
 NPHI.DEC    42 890 03 00:   NEUTRON POROSITY SANDSTONE
 TENR.LBS    07 635 01 00:   TENSION FROM RESISTIVITY
 SPR .MV     07 010 01 00:   SPONTANEOUS POTENTIAL
 GRR .GAPI   07 310 01 00:   GAMMA RAY FROM RESISTIVITY
 RFOC.OHMM   07 220 01 00:   RESISTIVITY FOCUSED LOG RES.
 RILD.OHMM   07 120 46 00:   DEEP INDUCTION RESISTIVITY
 RILM.OHMM   07 120 44 00:   INDUCTION LOG MEDIUM RESISTIVITY
~PARAMETER INFORMATION
#MNEM.UNIT          VALUE    DESCRIPTION
#----------   ------------   ------------------------------
 EKB .F         5230.4000:   Kelly bushing
 EGL .F         5220.4000:   Ground level
 EDF .F            0.0000:   Drilling floor
 TD  .F         4150.0000:   Total depth
 DATE.        14-APR-1985:   Date logged
 CLNT.            A2DTECH:   Client Code
 SL  . 905' FNL & 824' FWL:   Surface Location
 PD  .                 GL:   Permanent Datum
 EPD .F            5220.4:   Elevation Permanent Datum
 LMF .                 KB:   Log Measured From
 DMF .                 KB:   Drilling Measured From
 DAPD.F                10:   Feet Above Permanent Datum
 DD  .F              4150:   Depth driller
 DL  .F              4140:   Depth logger
 BLI .F              4138:   Bottom log interval
 CS1 .IN            8.625:   Casing size
 CBD1.      8.625" @ 738':   Casing driller 1
 CBL1.F               738:   Casing logger 1
 BS1 .IN            7.875:   Bit size
 BSD1.F              4150:   Depth drilled with bit1
 DFT .            KCL/GEL:   Type fluid in hole
 DFD .                9.1:   Density
 DFV .                 48:   Viscosity
 DFPH.                8.5:   pH
 DFL .                 10:   Fluid loss
 MSS .           FLOWLINE:   Source of sample
 RMS .OHMM            .35:   Rm
 MST .F                62:   Rm Meas. temp.
 RMF .OHMM            .26:   Rmf
 MFST.F                62:   Rmf Meas. temp.
 RMC .OHMM            .43:   Rmc
 MCST.F                62:   Rmc Meas. temp.
 MFSS.               CALC:   Source Rmf.
 MCSS.               CALC:   Source Rmc.
 RMB .OHMM            .16:   Rm. at BHT
 BHT .F               140:   BHT.
 TCS .HRS               6:   Time Circ. stopped
 MRT .F               140:   Maximum recorded temp.
 LUN .               6274:   Logging unit number
 LUL .               GLTE:   Logging unit location
 ENGI.               MACK:   Recorded By
 WITN.             STRONG:   Witnessed by
 ORIG.           5" PRINT:   Origin of data
 UWI .     49025110230000:   Unique Well ID
 DICO. A2D TECHNOLOGIES, INC.:   Digitizing Company
~OTHER INFORMATION
~A   DEPT     TEND       RHOB       DRHO       CALD       NPHI       TENR        SPR        GRR       RFOC       RILD       RILM   
# ...
 2542.5000  -999.2500  -999.2500  -999.2500  -999.2500  -999.2500   -24.7750   -66.1390   109.1150     5.6980     6.1360     5.9770
 2543.0000  -999.2500  -999.2500  -999.2500  -999.2500  -999.2500   -24.7750   -66.2690   107.1270     5.6420     6.1410     6.0200
 2543.5000  -999.2500  -999.2500  -999.2500  -999.2500  -999.2500   -24.7240   -66.0890   106.7890     5.5590     6.1450     6.0780
 2544.0000  -999.2500  -999.2500  -999.2500  -999.2500  -999.2500   -24.4220   -65.9460   107.8670     5.6080     6.2710     6.1350
 2544.5000  -999.2500  -999.2500  -999.2500  -999.2500  -999.2500   -24.1200   -65.7980   108.3390     5.7580     6.3760     6.1920
 2545.0000  -999.2500  -999.2500  -999.2500  -999.2500  -999.2500   -23.8180   -65.6450   106.8590     5.9070     6.4580     6.2490
 2545.5000  -999.2500  -999.2500  -999.2500  -999.2500  -999.2500   -23.5160   -65.4970   106.5930     6.0560     6.5990     6.3070
 2546.0000  -999.2500  -999.2500  -999.2500  -999.2500  -999.2500   -23.2140   -65.1690   107.4740     6.2020     6.7380     6.3170
 2546.5000  -999.2500  -999.2500  -999.2500  -999.2500  -999.2500   -22.9120   -64.9190   110.0820     6.2020     6.6990     6.3550
 2547.0000  -999.2500  -999.2500  -999.2500  -999.2500  -999.2500   -22.6100   -64.6570   112.4490     6.2020     6.6770     6.3930
 2547.5000  -999.2500  -999.2500  -999.2500  -999.2500  -999.2500   -22.3080   -64.3920   110.5430     6.2020     6.6770     6.4300
 2548.0000  -999.2500  -999.2500  -999.2500  -999.2500  -999.2500   -22.0060   -64.2470   104.8980     6.2020     6.6770     6.4670
 2548.5000  -999.2500  -999.2500  -999.2500  -999.2500  -999.2500   -21.7040   -64.3310    99.2900     6.2020     6.6770     6.4940
 2549.0000  -999.2500  -999.2500  -999.2500  -999.2500  -999.2500   -21.4020   -64.4190    98.8960     6.2020     6.6770     6.2910
 2549.5000  -999.2500  -999.2500  -999.2500  -999.2500  -999.2500   -21.1000   -64.4380   102.9330     6.0020     6.3760     6.1450
 2550.0000  -999.2500  -999.2500  -999.2500  -999.2500  -999.2500   -20.7980   -64.3420   106.1500     5.7080     6.4750     6.2650
 2550.5000  -999.2500  -999.2500  -999.2500  -999.2500  -999.2500   -20.4960   -64.2450   107.1200     5.8890     6.6750     6.5090
 2551.0000  -999.2500  -999.2500  -999.2500  -999.2500  -999.2500   -20.1940   -64.2460   103.1750     6.3000     6.8750     6.7520
 2551.5000  -999.2500  -999.2500  -999.2500  -999.2500  -999.2500   -19.8920   -64.5440   100.1730     6.7110     6.9270     6.8640
 2552.0000  -999.2500  -999.2500  -999.2500  -999.2500  -999.2500   -19.5900   -64.8690    98.1890     7.0560     6.7460     6.7250
 2552.5000  -999.2500  -999.2500  -999.2500  -999.2500  -999.2500   -19.2880   -65.1930    99.0230     6.8340     6.5050     6.5800
 2553.0000  -999.2500  -999.2500  -999.2500  -999.2500  -999.2500   -18.9860   -65.5190   101.2740     6.5450     6.2630     6.4340
 2553.5000  -999.2500  -999.2500  -999.2500  -999.2500  -999.2500   -18.6840   -65.8300   102.8510     6.2550     6.0220     6.2880
 2554.0000  -999.2500  -999.2500  -999.2500  -999.2500  -999.2500   -18.3830   -65.7950   103.5000     6.1430     5.8520     6.1420
 2554.5000  -999.2500  -999.2500  -999.2500  -999.2500  -999.2500   -18.0810   -65.7240   106.3610     6.1350     5.8150     6.0220
 2555.0000  -999.2500  -999.2500  -999.2500  -999.2500  -999.2500   -17.7790   -65.6540   110.3920     6.1270     5.7780     5.9790
 2555.5000  -999.2500  -999.2500  -999.2500  -999.2500  -999.2500   -17.4770   -65.5840   114.6100     6.1190     5.7410     5.9360
 2556.0000  -999.2500  -999.2500  -999.2500  -999.2500  -999.2500   -17.1750   -65.5140   114.3170     6.1110     5.7040     5.8930
 2556.5000  -999.2500  -999.2500  -999.2500  -999.2500  -999.2500   -16.8730   -65.4410   112.3660     6.1030     5.6660     5.8500
 2557.0000  -999.2500  -999.2500  -999.2500  -999.2500  -999.2500   -16.5710   -65.4380   111.1700     6.0950     5.5940     5.8070
 2557.5000  -999.2500  -999.2500  -999.2500  -999.2500  -999.2500   -16.2690   -65.4380   112.0070     6.0390     5.5010     5.7610
 2558.0000  -999.2500  -999.2500  -999.2500  -999.2500  -999.2500   -15.9670   -65.4380   112.0060     6.0520     5.5530     5.7970
 2558.5000  -999.2500  -999.2500  -999.2500  -999.2500  -999.2500   -15.6650   -65.4380   110.1270     6.0780     5.6090     5.8450
 2559.0000  -999.2500  -999.2500  -999.2500  -999.2500  -999.2500   -15.3630   -65.4380   108.3380     6.1040     5.6640     5.8930
 2559.5000  -999.2500  -999.2500  -999.2500  -999.2500  -999.2500   -15.0610   -65.4380   106.5490     6.1450     5.7080     5.9220
 2560.0000  -999.2500  -999.2500  -999.2500  -999.2500  -999.2500   -14.7650   -65.4340   104.7620     6.0460     5.5620     5.7570
 2560.5000  -999.2500  -999.2500  -999.2500  -999.2500  -999.2500   -13.7800   -65.5810   103.1180     5.8080     5.4410     5.6180
 2561.0000  -999.2500  -999.2500  -999.2500  -999.2500  -999.2500   -12.5840   -65.7430   102.2660     5.5690     5.3200     5.4800
 2561.5000  -999.2500  -999.2500  -999.2500  -999.2500  -999.2500   -11.3870   -66.0190   103.6660     5.3300     5.1980     5.3420
 2562.0000  -999.2500  -999.2500  -999.2500  -999.2500  -999.2500   -10.1910   -65.8450   104.9640     5.1580     5.0770     5.2040
 2562.5000  -999.2500  -999.2500  -999.2500  -999.2500  -999.2500    -8.9940   -65.6900   105.5800     5.1360     4.9680     5.0660
 2563.0000  -999.2500  -999.2500  -999.2500  -999.2500  -999.2500    -7.7980   -65.5410   106.3780     5.1100     4.8600     4.9280
 2563.5000  -999.2500  -999.2500  -999.2500  -999.2500  -999.2500    -6.6010   -65.4730   108.1400     5.1020     4.7520     4.7900
 2564.0000  -999.2500  -999.2500  -999.2500  -999.2500  -999.2500    -5.4050   -65.7510   108.7710     5.0790     4.6440     4.6520
 2564.5000  -999.2500  -999.2500  -999.2500  -999.2500  -999.2500    -4.2080   -66.0260   109.0710     5.0550     4.4970     4.6170
 2565.0000  -999.2500  -999.2500  -999.2500  -999.2500  -999.2500    -3.0120   -66.0400   109.3600     5.0310     4.2800     4.4440
 2565.5000  -999.2500  -999.2500  -999.2500  -999.2500  -999.2500    -1.8150   -66.0580   109.6390     4.9280     4.0620     4.2650
 2566.0000  -999.2500  -999.2500  -999.2500  -999.2500  -999.2500    -0.6190   -65.7000   110.9650     4.5030     3.8450     4.0850
 2566.5000  -999.2500  -999.2500  -999.2500  -999.2500  -999.2500     0.5780   -65.4780   114.2540     4.0990     3.6840     3.9060
 2567.0000  -999.2500  -999.2500  -999.2500  -999.2500  -999.2500     1.7740   -65.4420   118.4880     3.6950     3.5760     3.7350
 2567.5000  -999.2500  -999.2500  -999.2500  -999.2500  -999.2500     2.9710   -65.5410   118.3620     3.6000     3.5210     3.6770
 2568.0000  -999.2500  -999.2500  -999.2500  -999.2500  -999.2500     4.1670   -65.6450   116.3890     3.6670     3.4670     3.5340
 2568.5000  -999.2500  -999.2500  -999.2500  -999.2500  -999.2500     5.2550   -65.7600   114.3750     3.8930     3.4060     3.6020
 2569.0000  -999.2500  -999.2500  -999.2500  -999.2500  -999.2500     6.5160   -65.9620   113.9520     4.1030     3.4800     3.7420
 2569.5000  -999.2500  -999.2500  -999.2500  -999.2500  -999.2500     7.6710   -65.7380   113.7610     4.3290     3.6270     3.8820
 2570.0000  -999.2500  -999.2500  -999.2500  -999.2500  -999.2500     8.8270   -65.5720   114.7620     4.2890     3.8050     4.0220
 2570.5000  -999.2500  -999.2500  -999.2500  -999.2500  -999.2500     9.9830   -65.4330   115.9330     4.2110     4.0210     4.1520
 2571.0000  -999.2500  -999.2500  -999.2500  -999.2500  -999.2500    11.1380   -65.4540   114.5750     4.3080     4.0300     4.2050
 2571.5000  -999.2500  -999.2500  -999.2500  -999.2500  -999.2500    12.2940   -65.4820   112.5930     4.4820     4.0420     4.2570
 2572.0000  -999.2500  -999.2500  -999.2500  -999.2500  -999.2500    13.4500   -65.5100   111.1720     4.6550     4.0540     4.2920
 2572.5000  -999.2500  -999.2500  -999.2500  -999.2500  -999.2500    14.6060   -65.5380   112.6550     4.8350     4.0790     4.3050
