~VERSION INFORMATION
 VERS.                2.0:   CWLS LOG ASCII STANDARD - VERSION 2.0
 WRAP.                 NO:   ONE LINE PER DEPTH STEP
~WELL INFORMATION
#MNEM.UNIT      DATA TYPE    INFORMATION
#----------   ------------   ------------------------------
 STRT.F          218.0000:   START DEPTH
 STOP.F         2860.0000:   STOP DEPTH
 STEP.F            0.5000:   STEP LENGTH
 NULL.          -999.2500:   NO VALUE
 COMP.    FENIX & SCISSON:   COMPANY
 WELL.  FENIX "AX" #76-20:   WELL
 FLD . TEAPOT DOME NPR -3:   FIELD
 LOC .      S20 T39N R78W:   LOCATION
 CNTY.            NATRONA:   COUNTY
 STAT.            WYOMING:   STATE
 CTRY. UNITED STATES OF AMERICA:   COUNTRY
 SRVC.           BIRDWELL:   SERVICE COMPANY
 DATE.        21-AUG-1978:   LOGDATE
 API .     49025106920000:   API NUMBER
~CURVE INFORMATION
#MNEM.UNIT       API CODE    CURVE DESCRIPTION
#----------   ------------   ------------------------------
 DEPT.F                  :   
 SPR .MV     05 010 01 00:   SPONTANEOUS POTENTIAL FROM RES.
 ILD .OHMM   05 120 46 00:   INDUCTION LOG DEEP
 SN  .OHMM   05 040 16 00:   SHORT NORMAL 16"
 RHOB.G/C3   45 350 01 00:   BULK DENSITY
 CALD.IN     45 280 60 00:   CALIPER FROM DENSITY LOG
 DCOR.G/C3   45 356 01 00:   DENSITY CORRECTION
 GRD .GAPI   45 310 01 00:   GAMMA RAY FROM DENSITY LOG
~PARAMETER INFORMATION
#MNEM.UNIT          VALUE    DESCRIPTION
#----------   ------------   ------------------------------
 EKB .F         5062.0000:   Kelly bushing
 EGL .F         5052.0000:   Ground level
 EDF .F            0.0000:   Drilling floor
 EPD .F            0.0000:   Permanent datum
 TD  .F         2854.0000:   Total depth
 DATE.        21-AUG-1978:   Date logged
 CLNT.            A2DTECH:   Client Code
 SL  . 1500' FNL & 1200' FEL:   Surface Location
 PD  .                 GL:   Permanent Datum
 DD  .F              2850:   Depth driller
 DL  .F              2854:   Depth logger
 BLI .F              2848:   Bottom log interval
 CS1 .IN            8.625:   Casing size
 CBD1.      8.625" @ 200':   Casing driller 1
 CBL1.F               235:   Casing logger 1
 BS1 .IN            7.875:   Bit size
 DFT .                KCL:   Type fluid in hole
 DFD .                9.2:   Density
 DFV .                 30:   Viscosity
 DFL .                8.4:   Fluid loss
 MSS .           FLOWLINE:   Source of sample
 RMS .OHMM            1.2:   Rm
 MST .F                86:   Rm Meas. temp.
 RMF .OHMM            0.8:   Rmf
 MFST.F                68:   Rmf Meas. temp.
 RMC .OHMM            1.6:   Rmc
 MCST.F                70:   Rmc Meas. temp.
 MFSS.              PRESS:   Source Rmf.
 BHT .F               102:   BHT.
 TCS .HRS               3:   Time Circ. stopped
 MRT .F               102:   Maximum recorded temp.
 LUN .               2968:   Logging unit number
 LUL .             CASPER:   Logging unit location
 ENGI.           REYNOLDS:   Recorded By
 ORIG.           5" PRINT:   Origin of data
 UWI .     49025106920000:   Unique Well ID
 DICO. A2D TECHNOLOGIES, INC.:   Digitizing Company
 DAPD.                 12:   Feet Above Permanent Datum
 BSD1.               2850:   Depth drilled with bit1
 MCSS.               MEAS:   Source Rmc.
 TLI .                230:   Top log interval
~OTHER INFORMATION
~A   DEPT      SPR        ILD         SN       RHOB       CALD       DCOR          GRD 
# ...
 1765.0000   -76.0040     8.0050    10.4220     2.5030     7.5590     0.0420   151.7180
 1765.5000   -76.0040     7.9980    10.4220     2.5120     7.5600     0.0390   148.8960
 1766.0000   -76.0040     7.9900    10.4220     2.5220     7.5620     0.0350   146.4710
 1766.5000   -76.0040     7.9830    10.4220     2.5310     7.5630     0.0340   147.7920
 1767.0000   -76.0050     7.9760    10.4220     2.5370     7.5640     0.0380   149.9420
 1767.5000   -76.0210     7.9690    10.4220     2.5370     7.5660     0.0390   151.6150
 1768.0000   -76.0910     7.9610    10.4220     2.5300     7.5670     0.0360   149.0750
 1768.5000   -76.1610     7.9540    10.4220     2.5210     7.5690     0.0340   144.3140
 1769.0000   -76.2290     7.9470    10.4220     2.5190     7.5700     0.0340   143.1310
 1769.5000   -76.2980     7.9390    10.4220     2.5220     7.5720     0.0340   142.1000
 1770.0000   -76.3670     7.9320    10.4220     2.5230     7.5730     0.0290   137.2290
 1770.5000   -76.4360     7.9250    10.4220     2.5160     7.5740     0.0300   140.4690
 1771.0000   -76.5050     7.9170    10.4220     2.5100     7.5760     0.0350   140.5050
 1771.5000   -76.5740     7.9100    10.4220     2.5030     7.5770     0.0400   142.8010
 1772.0000   -76.6430     7.9030    10.4220     2.5070     7.5790     0.0370   146.3090
 1772.5000   -76.7120     7.8950    10.4220     2.5150     7.5790     0.0300   144.8650
 1773.0000   -76.7810     7.8880    10.4220     2.5240     7.5790     0.0230   145.0860
 1773.5000   -76.8500     7.8810    10.4220     2.5190     7.5790     0.0240   147.4020
 1774.0000   -76.9190     7.8730    10.4220     2.5100     7.5790     0.0290   149.8190
 1774.5000   -76.9950     7.8660    10.4220     2.5010     7.5830     0.0320   144.4740
 1775.0000   -76.8070     7.8660    10.4220     2.4920     7.5920     0.0300   137.8580
 1775.5000   -76.7740     7.8640    10.4220     2.4850     7.6020     0.0270   132.7270
 1776.0000   -76.7100     7.8640    10.4220     2.4900     7.6120     0.0250   142.2920
 1776.5000   -76.6450     7.8590    10.4200     2.4950     7.6210     0.0290   143.5760
 1777.0000   -76.5790     7.9400    10.4180     2.5000     7.6310     0.0280   145.7640
 1777.5000   -76.5140     8.0770    10.4100     2.4980     7.6390     0.0260   148.5460
 1778.0000   -76.4490     8.3150    10.5270     2.4950     7.6390     0.0280   152.3060
 1778.5000   -76.3830     8.4790    10.5200     2.4920     7.6360     0.0360   155.9670
 1779.0000   -76.3180     8.4790    10.6310     2.4890     7.6340     0.0380   163.0820
 1779.5000   -76.2530     8.4790    10.6480     2.4860     7.6320     0.0380   170.2610
 1780.0000   -76.2040     8.4790    10.6660     2.4850     7.6300     0.0370   177.6420
 1780.5000   -76.2070     8.4790    10.6830     2.4850     7.6280     0.0370   178.9020
 1781.0000   -76.2500     8.4790    10.7000     2.4850     7.6260     0.0370   177.7270
 1781.5000   -76.2940     8.4780    10.7190     2.4770     7.6240     0.0360   176.5740
 1782.0000   -76.3370     8.4780    10.8520     2.4810     7.6220     0.0360   176.1640
 1782.5000   -76.3810     8.4780    11.1070     2.4880     7.6200     0.0360   174.4880
 1783.0000   -76.4240     8.4790    11.3620     2.4870     7.6180     0.0340   168.0740
 1783.5000   -76.4680     8.2840    11.6630     2.4810     7.6160     0.0340   162.1470
 1784.0000   -76.5110     8.1520    11.5210     2.4760     7.6140     0.0330   161.8600
 1784.5000   -76.5550     8.0150    11.3470     2.4790     7.6120     0.0300   162.0070
 1785.0000   -76.5980     8.1890    11.1740     2.4770     7.6100     0.0280   167.9050
 1785.5000   -76.5810     8.3700    11.0000     2.4680     7.6080     0.0280   161.3410
 1786.0000   -76.4460     8.5500    10.8260     2.4600     7.6060     0.0380   154.0930
 1786.5000   -76.3120     8.7200    10.6530     2.4660     7.6040     0.0440   150.7630
 1787.0000   -76.1790     8.8000    10.5200     2.4730     7.6020     0.0440   150.1410
 1787.5000   -76.0510     8.8930    10.6190     2.4800     7.6010     0.0440   146.7100
 1788.0000   -76.1660     9.0940    11.3660     2.4870     7.5990     0.0550   141.2830
 1788.5000   -76.2830     9.8000    12.1200     2.4940     7.5970     0.0510   135.7560
 1789.0000   -76.3660    10.5200    12.8740     2.4960     7.5950     0.0430   130.3200
 1789.5000   -76.4500    10.4930    13.6280     2.4960     7.5930     0.0350   126.9210
 1790.0000   -76.5350    10.4390    14.3360     2.4900     7.5910     0.0270   128.2940
 1790.5000   -76.6200    10.3860    14.3990     2.4790     7.5890     0.0260   129.4720
 1791.0000   -76.7050    10.3320    14.4580     2.4680     7.5870     0.0290   130.6640
 1791.5000   -76.7900    10.2790    14.5170     2.4690     7.5850     0.0320   131.9000
 1792.0000   -76.8750    10.2250    14.5760     2.4610     7.5830     0.0350   139.0610
 1792.5000   -76.9620    10.1720    14.6360     2.4540     7.5810     0.0370   146.8980
 1793.0000   -77.0630    10.1180    14.6950     2.4490     7.5790     0.0350   154.7430
 1793.5000   -77.3120    10.0640    14.7540     2.4540     7.5830     0.0340   162.5730
 1794.0000   -77.5570    10.0110    14.8130     2.4610     7.5880     0.0380   170.3590
 1794.5000   -77.8010     9.9570    14.8840     2.4670     7.5930     0.0450   178.1440
 1795.0000   -78.0450     9.9040    14.7500     2.4730     7.5980     0.0450   182.8440
 1795.5000   -78.2200     9.8500    14.5240     2.4800     7.6030     0.0410   174.0850
 1796.0000   -77.9880     9.7970    14.2990     2.4750     7.6080     0.0360   164.0260
 1796.5000   -77.6760     9.7590    14.0740     2.4680     7.6130     0.0300   153.8520
 1797.0000   -77.3640     9.7590    13.8490     2.4610     7.6170     0.0240   143.6800
 1797.5000   -77.0510     9.8340    13.6790     2.4540     7.6290     0.0210   133.5310
 1798.0000   -76.7350     9.9040    13.5510     2.4480     7.6230     0.0220   123.3300
 1798.5000   -76.6090     9.9730    13.5790     2.4450     7.6190     0.0260   119.1220
 1799.0000   -76.6060    10.0430    13.7220     2.4420     7.6190     0.0290   119.7860
 1799.5000   -76.5370    10.1320    13.8660     2.4390     7.6180     0.0330   118.9150
 1800.0000   -76.4640    10.0540    14.0090     2.4390     7.6050     0.0370   114.3480
 1800.5000   -76.3910     9.9020    14.1530     2.4460     7.5980     0.0410   110.0400
 1801.0000   -76.3180     9.7500    14.2960     2.4460     7.5950     0.0440   114.4910
 1801.5000   -76.2440     9.6680    14.4400     2.4450     7.5930     0.0430   124.8420
 1802.0000   -76.1710     9.6680    14.6070     2.4590     7.5900     0.0420   135.1470
 1802.5000   -76.0980     9.6680    14.2380     2.4570     7.5870     0.0400   148.5790
 1803.0000   -76.0250     9.6680    13.6510     2.4550     7.5840     0.0380   145.9040
 1803.5000   -75.9520     9.6680    13.0650     2.4540     7.5810     0.0370   138.6250
 1804.0000   -75.8780     9.6680    12.2230     2.4560     7.5790     0.0330   137.7840
 1804.5000   -75.8060     9.6680    12.3480     2.4570     7.5760     0.0360   139.6450
 1805.0000   -75.8040     9.6680    12.5680     2.4580     7.5730     0.0370   130.3770
 1805.5000   -75.8610     9.6680    12.7890     2.4590     7.5700     0.0380   121.8980
 1806.0000   -75.9210     9.6680    13.0100     2.4700     7.5680     0.0350   118.0330
 1806.5000   -75.9810     9.6680    13.3000     2.4810     7.5650     0.0290   132.6750
 1807.0000   -76.0410     9.6680    13.2820     2.4790     7.5620     0.0240   138.1090
 1807.5000   -76.1010     9.6680    13.2570     2.4750     7.5590     0.0210   134.0100
 1808.0000   -76.1600     9.6680    13.2310     2.4720     7.5590     0.0210   128.0660
 1808.5000   -76.2060     9.6680    13.2050     2.4680     7.5580     0.0240   122.2600
 1809.0000   -76.2050     9.6680    13.1800     2.4650     7.5580     0.0270   118.9610
 1809.5000   -76.1770     9.6680    13.1540     2.4610     7.5580     0.0290   115.8070
 1810.0000   -76.1340     9.6680    13.1290     2.4730     7.5590     0.0320   113.6900
