~VERSION INFORMATION
 VERS.                2.0:   CWLS LOG ASCII STANDARD - VERSION 2.0
 WRAP.                 NO:   ONE LINE PER DEPTH STEP
~WELL INFORMATION
#MNEM.UNIT      DATA TYPE    INFORMATION
#----------   ------------   ------------------------------
 STRT.F          199.0000:   START DEPTH
 STOP.F         2951.0000:   STOP DEPTH
 STEP.F            0.5000:   STEP LENGTH
 NULL.          -999.2500:   NO VALUE
 COMP.    FENIX & SCISSON:   COMPANY
 WELL. FENIX & SCISSON "A" #3-21:   WELL
 FLD .              XPR-3:   FIELD
 LOC .      S21 T39N R78W:   LOCATION
 CNTY.            NATRONA:   COUNTY
 STAT.            WYOMING:   STATE
 CTRY. UNITED STATES OF AMERICA:   COUNTRY
 SRVC.              WELEX:   SERVICE COMPANY
 DATE.        27-JUN-1977:   LOGDATE
 API .     49025103880000:   API NUMBER
~CURVE INFORMATION
#MNEM.UNIT       API CODE    CURVE DESCRIPTION
#----------   ------------   ------------------------------
 DEPT.F                  :   
 CALD.IN     45 280 60 00:   CALIPER FROM DENSITY LOG
 GRD .GAPI   45 310 01 00:   GAMMA RAY FROM DENSITY LOG
 CORR.G/C3   45 356 01 00:   DENSITY CORRECTION
 RHOB.G/C3   45 350 01 00:   BULK DENSITY
 SPR .MV     07 010 01 00:   SPONTANEOUS POTENTIAL
 ILD .OHMM   07 120 46 00:   DEEP INDUCTION RESISTIVITY
 ILM .OHMM   07 120 44 00:   INDUCTION LOG MEDIUM RESISTIVITY
 SGRD.OHMM   07 220 05 00:   SHALLOW SHORT GUARD RESISTIVITY
~PARAMETER INFORMATION
#MNEM.UNIT          VALUE    DESCRIPTION
#----------   ------------   ------------------------------
 EKB .F         4981.0000:   Kelly bushing
 EGL .F         4971.0000:   Ground level
 TD  .F         2953.0000:   Total depth
 CLNT.            A2DTECH:   Client Code
 SL  . 330' FSL & 1650' FWL:   Surface Location
 DATE.        27-JUN-1977:   Date Logged [DD-MMM-YYYY]
 DD  .F              2930:   Depth driller
 DL  .F              2953:   Depth logger
 BLI .F              2951:   Bottom log interval
 TLI .F               200:   Top log interval
 CS1 .              8.625:   Casing size
 CBD1.      8.625" @ 217':   Casing driller 1
 BS1 .IN            7.875:   Bit size
 BSD1.F              2930:   Depth drilled with bit1
 DFT .            KCL MUD:   Type fluid in hole
 DFD .                9.4:   Density
 DFV .                 37:   Viscosity
 DFPH.                9.0:   pH
 DFL .               16.0:   Fluid loss
 MSS .           FLOWLINE:   Source of sample
 RMS .OHMM           1.10:   Rm
 MST .F                92:   Rm Meas. temp.
 RMF .OHMM           0.85:   Rmf
 MFST.F                92:   Rmf Meas. temp.
 MFSS.           FANN KIT:   Source Rmf.
 RMC .OHMM           1.44:   Rmc
 MCST.F                92:   Rmc Meas. temp.
 MCSS.           FANN KIT:   Source Rmc.
 RMB .OHMM           0.93:   Rm. at BHT
 BHT .F               109:   BHT.
 TCS .HRS            0230:   Time Circ. stopped
 MRT .F               109:   Maximum recorded temp.
 LUN .               8611:   Logging unit number
 LUL .             CASPER:   Logging unit location
 ENGI.         G. BENTSEN:   Recorded By
 WITN.  MR. W. PETTINGILL:   Witnessed by
 ORIG.      2.5" 5" PRINT:   Origin of data
 UWI .     49025103880000:   Unique Well ID
 DICO. A2D TECHNOLOGIES, INC.:   Digitizing Company
 PD  .                 GL:   Permanent Datum
 EPD .               4971:   Elevation Permanent Datum
 LMF .                 KB:   Log Measured From
 DMF .                 KB:   Drilling Measured From
 DAPD.                 10:   Feet Above Permanent Datum
~OTHER INFORMATION
~A   DEPT       CALD       GRD       CORR        RHOB      SPR        ILD        ILM       SGRD   
# ...
 2750.5000     8.5380   102.4461     0.0031     2.5421   -33.5658     4.9220     5.7966     7.0826
 2751.0000     8.5374   101.8153    -0.0032     2.5270   -33.4044     4.9819     5.8801     7.3327
 2751.5000     8.5368   101.8000    -0.0033     2.5145   -33.6903     5.0872     6.0061     7.7503
 2752.0000     8.5362   101.7846    -0.0064     2.5055   -33.6737     5.1591     6.0509     8.0240
 2752.5000     8.5356   101.8000    -0.0065     2.5052   -33.6605     5.1962     6.1382     8.1368
 2753.0000     8.5350   103.0220    -0.0034     2.5120   -33.6472     5.2697     6.1840     7.5440
 2753.5000     8.5343   104.2429    -0.0034     2.5175   -33.6340     5.3075     6.2301     7.0913
 2754.0000     8.5028   106.1287    -0.0035     2.5206   -33.6207     5.3826     6.2766     7.0439
 2754.5000     8.4712   108.5325    -0.0004     2.5146   -33.3116     5.4587     6.2800     7.7599
 2755.0000     8.4706   110.3688    -0.0005     2.5075   -33.1504     5.4602     6.2834     8.4314
 2755.5000     8.4390   108.7910     0.0026     2.5028   -33.1372     5.4242     6.2869     8.6691
 2756.0000     8.4074   103.7543     0.0057     2.5013   -33.1240     5.3515     6.2903     8.9753
 2756.5000     8.4068    98.9439     0.0087     2.5036   -33.1107     5.3162     6.1229     8.8541
 2757.0000     8.4062    96.5360     0.0121     2.5043   -33.0975     5.1733     6.0010     7.9853
 2757.5000     8.4056    96.0781     0.0180     2.5043   -33.0842     5.0337     5.7218     7.3018
 2758.0000     8.4050   100.0495     0.0211     2.5043   -32.9230     4.8949     5.3441     6.9589
 2758.5000     8.4044   104.3596     0.0214     2.4965   -32.9098     4.6335     5.0254     6.5405
 2759.0000     8.4037   107.9443     0.0246     2.4872   -32.7485     4.3851     4.8242     6.3184
 2759.5000     8.4031   111.1361     0.0303     2.4748   -32.4393     4.0902     4.6614     6.1926
 2760.0000     8.4025   114.8297     0.0333     2.4501   -32.2781     3.7103     4.4742     6.1090
 2760.5000     8.4019   118.5262     0.0333     2.4289   -31.8210     3.1279     4.2918     5.9760
 2761.0000     8.4013   121.7417     0.0364     2.4036   -31.3482     2.8221     3.9610     5.9387
 2761.5000     8.4062   125.5858     0.0394     2.3787   -30.8879     2.6784     3.5255     5.6263
 2762.0000     8.4310   131.6048     0.0402     2.3644   -30.4061     2.5182     2.8496     3.1571
 2762.5000     8.4368   138.5392     0.0375     2.3428   -29.9926     2.3839     2.4674     2.5876
 2763.0000     8.4608   147.0341     0.0208     2.3320   -29.9793     2.2259     2.2266     2.2878
 2763.5000     8.4911   157.3625     0.0071     2.3353   -30.2592     2.0640     2.0937     2.0367
 2764.0000     8.5214   162.9560    -0.0024     2.3609   -30.9856     2.4023     2.9356     2.4892
 2764.5000     8.5207   148.4066    -0.0045     2.4399   -31.4161     2.7577     3.4887     6.4019
 2765.0000     8.5113   132.8308    -0.0002     2.4787   -31.5541     2.9754     3.7394     9.1046
 2765.5000     8.4885   113.0851     0.0048     2.5042   -31.5376     3.2999     3.9533     9.2368
 2766.0000     8.4570    98.3264     0.0079     2.4943   -31.6756     3.6599     4.9644     8.6311
 2766.5000     8.4563    93.5468     0.0078     2.4672   -32.1061     3.9489     5.1411     7.8985
 2767.0000     8.4557    91.8834     0.0078     2.4480   -32.5333     4.2607     5.2152     7.1785
 2767.5000     8.4662    92.2925     0.0092     2.4324   -32.6713     4.4722     5.1816     6.7064
 2768.0000     8.4856    93.1202     0.0123     2.4206   -32.6548     4.5354     5.1142     6.3522
 2768.5000     8.4848    94.1200     0.0186     2.4108   -32.4936     4.3832     4.8429     6.0168
 2769.0000     8.4842    95.5751     0.0248     2.3974   -32.4804     4.0647     4.6495     5.8582
 2769.5000     8.4836    96.8031     0.0310     2.3644   -32.3192     3.7953     4.4638     5.8228
 2770.0000     8.4964    99.0154     0.0324     2.3290   -32.1580     3.6178     4.2561     5.8683
 2770.5000     8.5133   100.4888     0.0323     2.2920   -31.8489     3.4014     4.0862     5.6521
 2771.0000     8.5127   104.0801     0.0323     2.2477   -31.3919     3.2646     3.8961     5.0873
 2771.5000     8.5269   109.2777     0.0322     2.2034   -30.7869     3.1988     3.6640     4.7527
 2772.0000     8.5425   113.4769     0.0322     2.1585   -30.6257     3.0491     3.2837     4.4401
 2772.5000     8.5418   109.8925     0.0290     2.0986   -30.3166     3.0081     3.1963     3.9528
 2773.0000     8.5411   105.8272     0.0134     2.1094   -30.1554     3.0299     3.2201     3.4234
 2773.5000     8.5405   102.7168    -0.0178     2.1696   -29.9943     3.0940     3.3809     3.0476
 2774.0000     8.5399   100.2218    -0.0396     2.4015   -29.9810     3.0948     3.7250     4.2456
 2774.5000     8.5393    97.7137    -0.0334     2.4865   -30.4116     3.0956     3.9926     4.9106
 2775.0000     8.5516    97.6923    -0.0179     2.5220   -31.2859     3.2494     4.0224     5.2654
 2775.5000     8.5380    99.2275    -0.0086     2.4942   -32.0123     3.3873     4.1086     5.8034
 2776.0000     8.5064   101.3662    -0.0056     2.4864   -32.4428     3.5555     4.2548     6.0119
 2776.5000     8.5058   103.2034    -0.0056     2.4833   -32.7287     3.6557     4.4062     6.0587
 2777.0000     8.5052   105.0398    -0.0056     2.4910   -32.8634     3.8638     4.5317     5.9796
 2777.5000     8.5045   106.5995    -0.0057     2.5003   -32.8469     4.0278     4.6288     5.9437
 2778.0000     8.5039   108.7140    -0.0026     2.5095   -32.9849     4.1414     4.7280     5.9500
 2778.5000     8.5033   110.5506     0.0036     2.5172   -33.1168     4.1999     4.8293     6.2925
 2779.0000     8.5027   110.8000     0.0066     2.5234   -33.2515     4.3184     4.9327     6.7007
 2779.5000     8.5021   111.1476     0.0097     2.5342   -33.2377     4.3208     5.0039     7.0378
 2780.0000     8.5015   113.2277     0.0159     2.5465   -33.2244     4.3826     5.0412     7.0925
 2780.5000     8.5009   114.4432     0.0190     2.5542   -33.3595     4.4426     5.0439     6.8582
 2781.0000     8.5002   115.6586     0.0189     2.5495   -33.4941     4.4745     5.0988     6.8155
 2781.5000     8.4996   116.8741     0.0189     2.5432   -33.4805     4.5066     5.1358     6.8228
 2782.0000     8.4990   118.7049     0.0126     2.5370   -33.4673     4.5390     5.2089     6.8759
 2782.5000     8.4984   120.5358     0.0093     2.5290   -33.6021     4.5717     5.3194     6.9288
 2783.0000     8.4978   120.7320     0.0062     2.5181   -33.5887     4.6366     5.2847     6.4725
 2783.5000     8.4972   116.8129     0.0031     2.5068   -33.7234     4.7021     5.2142     6.8890
 2784.0000     8.4965   113.1052    -0.0003     2.4951   -34.0060     4.8015     5.3617     7.3825
 2784.5000     8.4959   111.2438    -0.0035     2.4971   -33.9926     4.7696     5.5134     7.6432
 2785.0000     8.4953   111.2285    -0.0064     2.5004   -34.1370     4.7057     5.5153     7.7510
 2785.5000     8.4637   111.8286    -0.0064     2.5067   -34.2621     4.6747     5.5554     7.8603
 2786.0000     8.4631   113.6594    -0.0065     2.5116   -34.2485     4.6120     5.5191     8.0259
 2786.5000     8.4625   115.4902    -0.0060     2.5191   -34.2352     4.5505     5.4831     7.7558
 2787.0000     8.4309   117.9365     0.0003     2.5237   -34.2219     4.4587     5.3728     7.0432
 2787.5000     8.4303   120.9981     0.0058     2.5276   -34.2085     4.4290     5.3011     6.0526
 2788.0000     8.4297   122.8289     0.0058     2.5171   -34.1953     4.3400     5.1583     5.8080
 2788.5000     8.4291   125.2752     0.0058     2.5077   -34.1793     4.3111     5.0541     6.0551
 2789.0000     8.3975   125.8769     0.0057     2.4968   -34.0181     4.2827     4.9519     6.4000
 2789.5000     8.3659   123.3984     0.0057     2.4894   -34.0049     4.2545     4.8872     6.8585
 2790.0000     8.3653   122.1523     0.0056     2.4858   -33.9917     4.2265     4.8220     7.0030
 2790.5000     8.3632   122.1370     0.0056     2.4842   -33.9784     4.2279     4.8236     6.2296
