~VERSION INFORMATION
 VERS.                2.0:   CWLS LOG ASCII STANDARD - VERSION 2.0
 WRAP.                 NO:   ONE LINE PER DEPTH STEP
~WELL INFORMATION
#MNEM.UNIT      DATA TYPE    INFORMATION
#----------   ------------   ------------------------------
 STRT.F          200.0000:   START DEPTH
 STOP.F         3142.0000:   STOP DEPTH
 STEP.F            0.5000:   STEP LENGTH
 NULL.          -999.2500:   NO VALUE
 COMP.    FENIX & SCISSON:   COMPANY
 WELL.  FENIX "AX" #37-10:   WELL
 FLD .              NPR-3:   FIELD
 LOC .      S10 T38N R78W:   LOCATION
 CNTY.            NATRONA:   COUNTY
 STAT.            WYOMING:   STATE
 CTRY. UNITED STATES OF AMERICA:   COUNTRY
 SRVC.              WELEX:   SERVICE COMPANY
 DATE.        19-SEP-1977:   LOGDATE
 API .     49025104190000:   API NUMBER
~CURVE INFORMATION
#MNEM.UNIT       API CODE    CURVE DESCRIPTION
#----------   ------------   ------------------------------
 DEPT.F                  :   
 CALD.IN     45 280 60 00:   CALIPER FROM DENSITY LOG
 GRD .GAPI   45 310 01 00:   GAMMA RAY FROM DENSITY LOG
 RHOB.G/C3   45 350 01 00:   BULK DENSITY
 CORR.G/C3   45 356 01 00:   DENSITY CORRECTION
 NPHI.DEC    42 890 03 00:   NEUTRON POROSITY SANDSTONE
 SPR .MV     07 010 01 00:   SPONTANEOUS POTENTIAL
 SGRD.OHMM   07 220 05 00:   SHALLOW GUARD RESISTIVITY
 ILD .OHMM   07 120 46 00:   INDUCTION LOG DEEP RESISTIVITY
 ILM .OHMM   07 120 44 00:   INDUCTION LOG MEDIUM RESISTIVITY
 TENR.LBS    07 635 01 00:   TENSION FROM RESISTIVITY
~PARAMETER INFORMATION
#MNEM.UNIT          VALUE    DESCRIPTION
#----------   ------------   ------------------------------
 EKB .F         5221.0000:   Kelly bushing
 EGL .F         5211.0000:   Ground level
 EDF .F            0.0000:   Drilling floor
 TD  .F         3150.0000:   Total depth
 DATE.        19-SEP-1977:   Date logged
 CLNT.            A2DTECH:   Client Code
 SL  . 1190' FSL & 1750' FWL:   Surface Location
 PD  .                 GL:   Permanent Datum
 DD  .F              3150:   Depth driller
 DL  .F              3146:   Depth logger
 BLI .F              3144:   Bottom log interval
 CS1 .IN            8.625:   Casing size
 CBD1.      8.625" @ 215':   Casing driller 1
 BS1 .IN            7.875:   Bit size
 DFT .            KCL/MUD:   Type fluid in hole
 DFD .                8.9:   Density
 TCS .HRS               2:   Time Circ. stopped
 MRT .F               116:   Maximum recorded temp.
 ENGI.            C. DOAK:   Recorded By
 WITN.      B. HARRINGTON:   Witnessed by
 ORIG.           5" PRINT:   Origin of data
 UWI .     49025104190000:   Unique Well ID
 DICO. A2D TECHNOLOGIES, INC.:   Digitizing Company
 DAPD.F                10:   Feet Above Permanent Datum
 BSD1.F              3150:   Depth drilled with bit1
 EPD .F              5211:   Elevation Permanent Datum
 LMF .                 KB:   Log Measured From
 DMF .                 KB:   Drilling Measured From
 TLI .F               200:   Top log interval
 CBL1.                213:   Casing logger 1
 DFV .                 37:   Viscosity
 DFPH.                 11:   pH
 DFL .                5.8:   Fluid loss
 MSS .           MEASURED:   Source of sample
 RMS .               2.82:   Rm
 MST .                 94:   Rm Meas. temp.
 RMF .               1.61:   Rmf
 MFST.                 94:   Rmf Meas. temp.
 MFSS.               MEAS:   Source Rmf.
 RMC .               3.12:   Rmc
 MCST.                 94:   Rmc Meas. temp.
 MCSS.               MEAS:   Source Rmc.
 RMB .               2.28:   Rm. at BHT
 BHT .                116:   BHT.
 LUN .               8611:   Logging unit number
 LUL .             CASPER:   Logging unit location
~OTHER INFORMATION
~A   DEPT       CALD       GRD        RHOB      CORR      NPHI        SPR       SGRD        ILD        ILM       TENR   
# ...
 2143.0000     9.4989    60.0193     2.4899     0.0060     0.2428   -71.1020    12.0555     7.3374     9.2337  1637.1803
 2143.5000     9.5391    58.8317     2.4999     0.0060     0.2400   -71.3028    11.9440     7.3367     8.9816  1677.3789
 2144.0000     9.5594    56.8496     2.4939     0.0061     0.2364   -71.3048    11.9429     7.3360     8.8172  1677.5789
 2144.5000     9.5003    55.2649     2.4840     0.0061     0.2324   -71.3067    12.3895     7.2681     8.8978  1677.7789
 2145.0000     9.4809    52.4891     2.4800     0.0062     0.2316   -71.1103    12.5028     7.4708     8.1903  1677.9789
 2145.5000     9.4814    52.0950     2.4781     0.0063     0.2312   -71.1123    12.3872     7.5394     8.0404  1678.1790
 2146.0000     9.5017    51.9008     2.4781     0.0043     0.2292   -71.5111    12.6159     7.6785     8.2646  1678.3789
 2146.5000     9.5022    51.7066     2.4781     0.0004     0.2264   -71.3147    13.5777     7.6075     8.6560  1658.5796
 2147.0000     9.5225    51.5125     2.4782     0.0004     0.2344   -71.9118    13.7019     7.5371     8.3421  1658.7795
 2147.5000     9.5230    51.5161     2.4842     0.0005     0.2421   -71.9138    14.0838     7.4674     8.1140  1658.9796
 2148.0000     9.5234    51.5205     2.4882     0.0005     0.2457   -72.1142    14.7451     7.3986     8.4956  1639.1803
 2148.5000     9.5239    51.5250     2.4962     0.0006     0.2385   -72.1162    15.7239     7.3300     8.9775  1659.3795
 2149.0000     9.5045    51.5295     2.5022     0.0006     0.2320   -72.3166    15.2947     7.2622     9.1440  1679.5789
 2149.5000     9.5248    51.5340     2.5172     0.0007     0.2377   -72.5170    14.3399     7.1949     9.2273  1699.7781
 2150.0000     9.5051    51.1412     2.5242     0.0007     0.2401   -72.5189    13.9485     6.9985     9.1419  1679.9788
 2150.5000     9.5098    49.9539     2.5182    -0.0052     0.2335   -72.6949    13.4631     6.9979     8.4956  1698.5408
 2151.0000     9.5145    48.9662     2.5142    -0.0091     0.2272   -72.7175    12.8371     6.9324     8.3323  1720.4111
 2151.5000     9.5192    48.5735     2.5057    -0.0071     0.2175   -72.7175    12.6014     6.6197     8.2548  1720.6290
 2152.0000     9.5239    48.7780     2.4972    -0.0090     0.2058   -73.1143    12.2567     6.8041     8.2536  1700.8470
 2152.5000     9.5285    49.1788     2.4886    -0.0129     0.1973   -72.9159    12.1428     6.5574     8.3286  1721.0649
 2153.0000     9.5332    50.3750     2.4825    -0.0149     0.1973   -72.7175    13.0679     6.3196     8.4043  1721.2825
 2153.5000     9.5379    51.3726     2.4845    -0.0128     0.1981   -72.7175    13.4315     6.3187     8.3262  1701.4998
 2154.0000     9.5426    51.9729     2.4885    -0.0108     0.1872   -72.9159    13.4296     6.3177     8.3242  1701.7175
 2154.5000     9.5473    52.1760     2.4925    -0.0088     0.1860   -73.1143    13.6769     6.3168     8.3237  1701.9353
 2155.0000     9.5519    52.3795     2.4925    -0.0087     0.1872   -73.1143    13.5498     6.3158     8.3225  1702.1530
 2155.5000     9.5566    52.3822     2.4866    -0.0087     0.1912   -72.9159    13.4238     6.3149     8.3213  1702.3707
 2156.0000     9.5613    51.7908     2.4826    -0.0086     0.1964   -73.1143    12.5841     6.3139     8.3200  1702.5885
 2156.5000     9.5660    51.1995     2.4787    -0.0085     0.2020   -73.1143    11.7988     6.3130     8.2427  1722.8080
 2157.0000     9.5716    50.8068     2.4787    -0.0065     0.2048   -73.1143    10.6621     6.4888     8.3176  1703.0240
 2157.5000     9.5719    50.4141     2.4887    -0.0045     0.2093   -73.1143    12.6960     6.6082     8.8693  1723.2440
 2158.0000     9.5525    50.4186     2.4927    -0.0044     0.2112   -73.1143    13.4143     6.8548     8.9500  1703.4592
 2158.5000     9.5529    50.8203     2.4947    -0.0063     0.2161   -73.1143    14.1733     6.9171     9.0313  1703.6770
 2159.0000     9.5337    51.0233     2.4928    -0.0043     0.2152   -73.3127    13.6594     6.9800     9.1976  1723.8975
 2159.5000     9.5341    50.6306     2.4888    -0.0062     0.2192   -73.1143    13.9110     7.1085     9.6290  1724.1155
 2160.0000     9.5346    49.8408     2.4829    -0.0042     0.2233   -73.5111    14.6981     7.3731     9.6276  1764.3398
 2160.5000     9.5549    49.4481     2.4789    -0.0081     0.2297   -73.3127    15.1071     7.3052     9.6262  1724.5515
 2161.0000     9.5554    49.4526     2.4769    -0.0081     0.2236   -73.3127    14.6939     7.3041     9.6248  1704.7659
 2161.5000     9.5360    50.4514     2.4730    -0.0060     0.2208   -73.3127    14.0315     7.3030     9.6234  1704.9836
 2162.0000     9.5960    51.6474     2.4730    -0.0080     0.2180   -73.5111    13.6478     7.3694     9.6220  1745.2095
 2162.5000     9.5965    52.4462     2.4730    -0.0079     0.2228   -73.5111    13.2744     7.3009     9.6206  1725.4235
 2163.0000     9.5970    53.4427     2.4711    -0.0059     0.2304   -73.5111    13.5190     7.2998     9.6192  1725.6412
 2163.5000     9.6173    54.0428     2.4711    -0.0078     0.2316   -73.5111    13.2707     7.2987     9.6178  1725.8593
 2164.0000     9.6376    54.2459     2.4711    -0.0058     0.2279   -73.3127    13.5151     7.2308     9.6164  1726.0771
 2164.5000     9.6182    54.4489     2.4711    -0.0037     0.2279   -73.5111    14.2799     7.1635     9.2677  1726.2952
 2165.0000     9.6185    55.0491     2.4752    -0.0037     0.2275   -73.5111    14.1471     7.0969     9.0974  1746.5186
 2165.5000     9.6188    55.2521     2.4812    -0.0036     0.2275   -73.7095    13.5093     7.0309     8.9303  1726.7313
 2166.0000     9.6191    55.4551     2.4892    -0.0016     0.2299   -73.9079    12.6651     6.9017     8.5277  1706.9437
 2166.5000     9.6287    55.6581     2.4952    -0.0015     0.2307   -73.7095    12.0941     6.9006     8.2184  1727.1674
 2167.0000     9.6384    55.8611     2.5012    -0.0015     0.2307   -73.7095    11.3383     6.7118     8.2172  1747.3914
 2167.5000     9.6480    55.8655     2.5032    -0.0014     0.2310   -73.7095    11.4415     6.5885     8.2160  1727.6034
 2168.0000     9.6577    55.8700     2.5102    -0.0014     0.2298   -73.9079    11.0266     6.3496     8.2907  1747.8276
 2168.5000     9.6673    55.8735     2.5082    -0.0013     0.2258   -73.7095    11.9765     6.3486     8.2136  1728.0392
 2169.0000     9.6769    55.4817     2.4953    -0.0013     0.2233   -73.9079    12.3099     6.3476     8.2882  1728.2573
 2169.5000     9.6866    54.4934     2.4874    -0.0012     0.2233   -73.9079    12.5366     6.5239     8.2870  1708.4683
 2170.0000     9.6962    54.2993     2.4814    -0.0012     0.2249   -74.1063    12.3063     6.5237     8.4396  1728.6934
 2170.5000     9.7059    56.2892     2.4864    -0.0011     0.2293   -73.9079    11.8600     6.5826     8.4384  1728.9115
 2171.0000     9.7155    57.4832     2.4974    -0.0011     0.2305   -73.7095    11.9679     6.7038     8.4374  1729.1296
 2171.5000     9.7251    57.6870     2.5114     0.0030     0.2289   -73.7095    11.7481     6.8904     8.4359  1729.3477
 2172.0000     9.7348    56.3025     2.5174     0.0050     0.2265   -73.9079    11.5322     6.8893     8.4349  1729.5657
 2172.5000     9.7446    55.1157     2.5154     0.0071     0.2293   -73.7095    11.7447     7.0811     8.6699  1729.7838
 2173.0000     9.7450    54.1266     2.5115     0.0091     0.2272   -73.7095    12.4094     7.2115     9.0764  1730.0016
 2173.5000     9.7454    53.3378     2.5095     0.0092     0.2260   -73.7095    13.8557     7.3443     9.2436  1750.2284
 2174.0000     9.7459    51.9525     2.5155     0.0092     0.2236   -73.7095    13.7269     7.6184     9.5887  1750.4467
 2174.5000     9.7662    51.1629     2.5275     0.0093     0.2187   -74.1063    12.6344     7.8305     9.5873  1730.6559
 2175.0000     9.7665    50.5709     2.5315     0.0093     0.2131   -73.9079    12.2887     7.9017     9.9452  1730.8740
 2175.5000     9.7661    49.9807     2.5266     0.0094     0.2131   -74.1063    12.1744     7.9005    10.0357  1731.0922
 2176.0000     9.7656    49.3896     2.5176     0.0074     0.2223   -74.5032    11.9507     7.8270     9.6717  1731.3103
