~VERSION INFORMATION
 VERS.                2.0:   CWLS LOG ASCII STANDARD - VERSION 2.0
 WRAP.                 NO:   ONE LINE PER DEPTH STEP
~WELL INFORMATION
#MNEM.UNIT      DATA TYPE    INFORMATION
#----------   ------------   ------------------------------
 STRT.F          218.0000:   START DEPTH
 STOP.F         2860.0000:   STOP DEPTH
 STEP.F            0.5000:   STEP LENGTH
 NULL.          -999.2500:   NO VALUE
 COMP.    FENIX & SCISSON:   COMPANY
 WELL.  FENIX "AX" #76-20:   WELL
 FLD . TEAPOT DOME NPR -3:   FIELD
 LOC .      S20 T39N R78W:   LOCATION
 CNTY.            NATRONA:   COUNTY
 STAT.            WYOMING:   STATE
 CTRY. UNITED STATES OF AMERICA:   COUNTRY
 SRVC.           BIRDWELL:   SERVICE COMPANY
 DATE.        21-AUG-1978:   LOGDATE
 API .     49025106920000:   API NUMBER
~CURVE INFORMATION
#MNEM.UNIT       API CODE    CURVE DESCRIPTION
#----------   ------------   ------------------------------
 DEPT.F                  :   
 SPR .MV     05 010 01 00:   SPONTANEOUS POTENTIAL FROM RES.
 ILD .OHMM   05 120 46 00:   INDUCTION LOG DEEP
 SN  .OHMM   05 040 16 00:   SHORT NORMAL 16"
 RHOB.G/C3   45 350 01 00:   BULK DENSITY
 CALD.IN     45 280 60 00:   CALIPER FROM DENSITY LOG
 DCOR.G/C3   45 356 01 00:   DENSITY CORRECTION
 GRD .GAPI   45 310 01 00:   GAMMA RAY FROM DENSITY LOG
~PARAMETER INFORMATION
#MNEM.UNIT          VALUE    DESCRIPTION
#----------   ------------   ------------------------------
 EKB .F         5062.0000:   Kelly bushing
 EGL .F         5052.0000:   Ground level
 EDF .F            0.0000:   Drilling floor
 EPD .F            0.0000:   Permanent datum
 TD  .F         2854.0000:   Total depth
 DATE.        21-AUG-1978:   Date logged
 CLNT.            A2DTECH:   Client Code
 SL  . 1500' FNL & 1200' FEL:   Surface Location
 PD  .                 GL:   Permanent Datum
 DD  .F              2850:   Depth driller
 DL  .F              2854:   Depth logger
 BLI .F              2848:   Bottom log interval
 CS1 .IN            8.625:   Casing size
 CBD1.      8.625" @ 200':   Casing driller 1
 CBL1.F               235:   Casing logger 1
 BS1 .IN            7.875:   Bit size
 DFT .                KCL:   Type fluid in hole
 DFD .                9.2:   Density
 DFV .                 30:   Viscosity
 DFL .                8.4:   Fluid loss
 MSS .           FLOWLINE:   Source of sample
 RMS .OHMM            1.2:   Rm
 MST .F                86:   Rm Meas. temp.
 RMF .OHMM            0.8:   Rmf
 MFST.F                68:   Rmf Meas. temp.
 RMC .OHMM            1.6:   Rmc
 MCST.F                70:   Rmc Meas. temp.
 MFSS.              PRESS:   Source Rmf.
 BHT .F               102:   BHT.
 TCS .HRS               3:   Time Circ. stopped
 MRT .F               102:   Maximum recorded temp.
 LUN .               2968:   Logging unit number
 LUL .             CASPER:   Logging unit location
 ENGI.           REYNOLDS:   Recorded By
 ORIG.           5" PRINT:   Origin of data
 UWI .     49025106920000:   Unique Well ID
 DICO. A2D TECHNOLOGIES, INC.:   Digitizing Company
 DAPD.                 12:   Feet Above Permanent Datum
 BSD1.               2850:   Depth drilled with bit1
 MCSS.               MEAS:   Source Rmc.
 TLI .                230:   Top log interval
~OTHER INFORMATION
~A   DEPT      SPR        ILD         SN       RHOB       CALD       DCOR          GRD 
# ...
 2447.5000   -71.1490     8.8300    10.0840     2.5150     7.9560     0.0870    77.4040
 2448.0000   -71.2100     8.8420    10.0740     2.5260     7.6350     0.0890    80.0020
 2448.5000   -71.2720     8.8530    10.0630     2.5280     7.3920     0.0990    83.4450
 2449.0000   -71.3330     8.8650    10.0530     2.5270     7.3890     0.1090    79.6970
 2449.5000   -71.3940     8.8760    10.0360     2.5260     7.3810     0.1170    73.9470
 2450.0000   -71.4570     8.8870    10.0360     2.5350     7.3800     0.1030    76.6140
 2450.5000   -71.5200     8.8990    10.0290     2.5480     7.3850     0.1010    80.2990
 2451.0000   -71.5390     8.9100    10.1430     2.5610     7.3910     0.1060    84.0100
 2451.5000   -71.3390     8.9210    10.1310     2.5680     7.3960     0.1060    86.4180
 2452.0000   -71.2480     8.9330    10.1320     2.5660     7.4020     0.1000    83.6630
 2452.5000   -71.1650     8.9440    10.1320     2.5640     7.4070     0.0940    80.1980
 2453.0000   -71.0830     8.9550    10.1320     2.5630     7.4120     0.0890    76.8550
 2453.5000   -71.0010     8.9690    10.1320     2.5530     7.4090     0.0920    77.6760
 2454.0000   -70.9180     8.8860    10.1320     2.5410     7.3770     0.0970    79.9910
 2454.5000   -70.8350     8.8030    10.1320     2.5280     7.3450     0.0990    81.5590
 2455.0000   -70.7900     8.8030    10.1330     2.5160     7.3090     0.0990    81.5050
 2455.5000   -71.0980     8.8030    10.1410     2.5100     7.2730     0.0990    80.5920
 2456.0000   -71.4270     8.7200    10.1490     2.5120     7.1570     0.0990    79.8690
 2456.5000   -71.5520     8.7200    10.1560     2.5180     6.9770     0.1070    83.0620
 2457.0000   -71.4370     8.7190    10.1640     2.5250     6.9510     0.1190    83.9850
 2457.5000   -71.2410     8.7210    10.1720     2.5320     6.9530     0.1290    85.0340
 2458.0000   -71.0130     8.7200    10.1790     2.5370     6.9520     0.1870    91.9300
 2458.5000   -71.5130     8.7200    10.1870     2.5480     6.9480     0.1630    90.4880
 2459.0000   -71.5500     8.7200    10.1950     2.5660     6.9440     0.1320    89.0420
 2459.5000   -71.2870     8.7200    10.2030     2.5880     6.9400     0.0980    94.9460
 2460.0000   -71.0330     8.7170    10.2100     2.5700     6.9370     0.1120   101.1760
 2460.5000   -71.2780     8.7230    10.2180     2.5430     6.9290     0.1380    98.7000
 2461.0000   -71.5140     8.4440    10.2290     2.5270     6.9130     0.1510    95.5800
 2461.5000   -71.7480     8.2360    10.2320     2.5290     6.9570     0.1410    92.8640
 2462.0000   -71.9740     8.0280    10.2410     2.5590     7.0190     0.1300    91.2610
 2462.5000   -72.0510     7.8200    10.0380     2.5480     7.0820     0.1210    91.6450
 2463.0000   -71.4210     7.6120     9.8980     2.5330     7.1470     0.1320    93.3340
 2463.5000   -71.1770     7.3970     9.7330     2.5260     7.0780     0.1490    94.5750
 2464.0000   -71.1880     7.1810     9.5780     2.5310     6.9870     0.2010    86.6600
 2464.5000   -71.1860     6.9650     9.1850     2.5360     6.8980     0.2560    81.3060
 2465.0000   -71.1850     6.7490     8.7900     2.5410     6.9590     0.2930    80.3310
 2465.5000   -71.1860     6.5200     8.3950     2.5590     7.0270     0.3150    79.3150
 2466.0000   -71.2450     6.4140     8.0000     2.5900     7.0630     0.3240    79.6560
 2466.5000   -71.3780     6.3020     7.6470     2.6080     7.0870     0.2970    84.2970
 2467.0000   -71.5090     6.1890     7.6470     2.6180     7.1160     0.2230    88.9160
 2467.5000   -71.6410     6.0770     7.5760     2.6310     7.1470     0.1370    93.5300
 2468.0000   -71.7730     5.9640     7.4410     2.6010     7.1550     0.1740    98.0930
 2468.5000   -71.9050     5.8520     7.3000     2.5530     7.1550     0.2220    99.5150
 2469.0000   -72.0370     5.7390     7.1610     2.5210     7.1550     0.2720    99.6240
 2469.5000   -72.1690     5.5590     7.0140     2.5520     7.1590     0.2920    99.2600
 2470.0000   -72.3000     5.4540     6.7710     2.5900     7.1620     0.2360    98.3370
 2470.5000   -72.3910     5.3620     6.5280     2.6290     7.1660     0.1800    98.1390
 2471.0000   -72.3760     5.2710     6.2850     2.6360     7.1690     0.1230    99.3780
 2471.5000   -72.2670     5.1800     6.1640     2.6110     7.1730     0.1080   101.0070
 2472.0000   -72.1570     5.0620     6.1640     2.5870     7.1670     0.0640   101.5200
 2472.5000   -72.0470     5.1570     6.1640     2.5630     7.1360     0.0510   101.3340
 2473.0000   -71.9370     5.2550     6.1720     2.5510     7.1150     0.0480   101.1690
 2473.5000   -71.8270     5.3760     6.1890     2.5490     7.1320     0.0460   102.2770
 2474.0000   -71.7170     5.4560     6.2070     2.5180     7.1480     0.0600   107.9410
 2474.5000   -71.6070     5.4560     6.2240     2.4830     7.1640     0.0940   113.4860
 2475.0000   -71.4970     5.4820     6.2420     2.4670     7.1790     0.1180   119.0490
 2475.5000   -71.3860     5.5470     6.2590     2.4480     7.1930     0.1040   121.0280
 2476.0000   -71.2870     5.6120     6.3390     2.5130     7.1410     0.1090   114.5790
 2476.5000   -71.1890     5.6760     6.2220     2.5090     7.0820     0.1330   112.9320
 2477.0000   -71.1840     5.7410     6.8330     2.5060     7.0230     0.1800   115.4400
 2477.5000   -71.1840     5.9440     6.7820     2.5020     6.9630     0.2210   121.4480
 2478.0000   -71.1690     6.2740     6.7100     2.4990     6.9340     0.3540   116.5960
 2478.5000   -71.1120     6.6050     6.6440     2.4960     6.9380     0.4940   107.8800
 2479.0000   -71.0570     6.9360     7.2400     2.5370     6.9920     0.4970    99.2330
 2479.5000   -71.0020     7.2660     7.8530     2.6010     7.0680     0.3960    98.5230
 2480.0000   -70.9470     7.5970     8.4650     2.7010     7.1440     0.2650   101.0540
 2480.5000   -70.8920     7.7920     9.0780     2.7020     7.0880     0.1470   103.6060
 2481.0000   -70.8370     7.7920     9.6910     2.6480     7.0070     0.1330   108.7820
 2481.5000   -70.7850     7.5760    10.3240     2.6060     6.9260     0.1300   117.7090
 2482.0000   -70.7790     7.2020    10.3240     2.5720     6.8760     0.1310   129.0770
 2482.5000   -70.9290     6.8270    10.2460     2.5550     6.8980     0.1260   128.6250
 2483.0000   -71.1070     6.4520    10.1320     2.5620     6.9200     0.1190   121.1790
 2483.5000   -71.2870     6.0780     9.5140     2.5680     6.9420     0.1240   112.9310
 2484.0000   -71.4610     5.7030     8.8420     2.5670     6.9640     0.1260   110.1970
 2484.5000   -71.4660     5.3280     8.1710     2.5660     6.9860     0.1260   109.4480
 2485.0000   -71.0560     4.9540     7.4990     2.5650     7.0080     0.1250   108.7590
 2485.5000   -70.6230     4.6850     6.8280     2.5640     7.0310     0.1260   111.0490
 2486.0000   -70.2020     4.5580     6.1560     2.5640     7.0340     0.1450   113.7740
 2486.5000   -70.0010     4.4820     5.6080     2.5630     7.0560     0.1670   114.4180
 2487.0000   -70.0760     4.4950     5.5920     2.5620     7.0760     0.1900   118.2910
 2487.5000   -70.1480     4.5060     5.5750     2.5660     7.1010     0.2090   120.1440
 2488.0000   -70.2210     4.5160     5.5580     2.5750     7.1280     0.2240   122.2530
 2488.5000   -70.2940     4.5260     5.5410     2.5840     7.1540     0.2380   126.5430
 2489.0000   -70.3670     4.5370     5.5240     2.5920     7.1810     0.2530   127.2540
 2489.5000   -70.4410     4.5470     5.5070     2.6010     7.2090     0.2670   127.9100
 2490.0000   -70.5140     4.5580     5.4890     2.6030     7.1740     0.2750   124.4870
 2490.5000   -70.5870     4.6640     5.4730     2.6020     7.1140     0.2600   121.5880
 2491.0000   -70.6610     5.0620     5.4570     2.6080     7.0560     0.2270   121.5010
 2491.5000   -70.7340     5.4600     5.4560     2.6140     7.0550     0.1790   121.4170
 2492.0000   -70.8070     5.8590     6.1860     2.6200     7.0640     0.1310   122.3110
 2492.5000   -70.8810     6.2570     6.9110     2.6000     7.0740     0.1030   127.8340
