~VERSION INFORMATION
 VERS.                2.0:   CWLS LOG ASCII STANDARD - VERSION 2.0
 WRAP.                 NO:   ONE LINE PER DEPTH STEP
~WELL INFORMATION
#MNEM.UNIT      DATA TYPE    INFORMATION
#----------   ------------   ------------------------------
 STRT.F            0.5000:   START DEPTH
 STOP.F         5663.0000:   STOP DEPTH
 STEP.F            0.5000:   STEP LENGTH
 NULL.          -999.2500:   NO VALUE
 COMP.         U. S. NAVY:   COMPANY
 WELL.         US TP #1-3:   WELL
 FLD . TEAPOT NAVAL RESERVE:   FIELD
 LOC .       S3 T38N R78W:   LOCATION
 CNTY.            NATRONA:   COUNTY
 STAT.            WYOMING:   STATE
 CTRY. UNITED STATES OF AMERICA:   COUNTRY
 SRVC.       SCHLUMBERGER:   SERVICE COMPANY
 DATE.        27-FEB-1953:   LOGDATE
 API .     49025064250000:   API NUMBER
~CURVE INFORMATION
#MNEM.UNIT       API CODE    CURVE DESCRIPTION
#----------   ------------   ------------------------------
 DEPT.F                  :   
 SPR .MV     01 010 01 00:   SPONTANEOUS POTENTIAL FROM RES.
 ASN .OHMM   01 041 16 00:   AMPLIFIED SHORT NORMAL 16"
 LAT .OHMM   01 070 00 00:   LATERAL
 LN  .OHMM   01 060 64 00:   LONG NORMAL 64"
 GRN .CPS    35 310 01 00:   GAMMA RAY
 NEUT.NAPI   35 330 01 00:   NEUTRON
~PARAMETER INFORMATION
#MNEM.UNIT          VALUE    DESCRIPTION
#----------   ------------   ------------------------------
 EKB .F            0.0000:   Kelly bushing
 EGL .F            0.0000:   Ground level
 EDF .F            0.0000:   Drilling floor
 EPD .F            0.0000:   Permanent datum
 TD  .F         5653.0000:   Total depth
 DATE.        27-FEB-1953:   Date logged
 CLNT.            A2DTECH:   Client Code
 DD  .F              5653:   Depth driller
 DL  .F              5653:   Depth logger
 BLI .F              5652:   Bottom log interval
 TLI .F               446:   Top log interval
 CBD1.F               445:   Casing driller 1
 CBL1.F               446:   Casing logger 1
 BS1 .IN                9:   Bit size
 BSD1.F              5653:   Depth drilled with bit1
 DFT .          LIMA/BASE:   Type fluid in hole
 DFD .                9.9:   Density
 DFV .                 43:   Viscosity
 RMS .OHMM            1.1:   Rm
 MST .F                55:   Rm Meas. temp.
 RMB .OHMM            .34:   Rm. at BHT
 BHT .F               166:   BHT.
 TCS .HRS               1:   Time Circ. stopped
 MRT .F               166:   Maximum recorded temp.
 LUN .                728:   Logging unit number
 LUL .               CSPR:   Logging unit location
 ENGI.            EVENSON:   Recorded By
 WITN.              MILLS:   Witnessed by
 ORIG.      1" 2.5" PRINT:   Origin of data
 UWI .     49025064250000:   Unique Well ID
 DICO. A2D TECHNOLOGIES, INC.:   Digitizing Company
~OTHER INFORMATION
~A  DEPTH      SPR        ASN        LAT         LN        GRN       NEUT
# ...
 1820.5000   -36.8633     7.1332     7.5269     6.9108    70.7248   162.8846
 1821.0000   -36.8633     7.0539     7.5269     6.9096    71.7932   172.3798
 1821.5000   -36.8633     7.0147     7.5269     6.9078    72.7406   174.8685
 1822.0000   -36.8633     6.9484     7.5269     6.8252    73.7970   177.3573
 1822.5000   -36.8633     6.8821     7.5269     6.7731    75.2284   172.2520
 1823.0000   -36.8633     6.8108     7.6272     6.7721    76.2344   166.3507
 1823.5000   -36.8633     6.7594     7.6613     6.7710    78.1773   162.0596
 1824.0000   -36.8633     6.6949     7.6613     6.7701    80.9874   154.0415
 1824.5000   -36.5952     6.6440     7.6613     6.7689    81.7377   144.2916
 1825.0000   -36.5952     6.5946     7.5941     6.7680    82.4873   139.2045
 1825.5000   -36.5952     6.5572     7.5269     6.7670    82.7364   127.9993
 1826.0000   -36.5952     6.4865     7.6613     6.7660    80.7290   121.4365
 1826.5000   -36.5952     6.4324     7.6613     6.7650    79.1960   113.1617
 1827.0000   -36.5952     6.3784     7.6613     6.7640    78.4649   108.7189
 1827.5000   -36.5952     6.2973     7.6613     6.7630    79.4705   108.6806
 1828.0000   -36.5952     6.2249     7.6613     6.7620    80.5613   121.2539
 1828.5000   -36.5952     6.1351     7.6613     6.7610    81.7223   133.8436
 1829.0000   -36.5952     6.0811     7.6613     6.7599    82.0288   152.5915
 1829.5000   -36.5952     6.0541     7.6613     6.7590    81.7184   181.7321
 1830.0000   -36.5952     6.0811     7.7083     6.7580    79.9123   192.8042
 1830.5000   -36.5952     6.1244     7.7957     6.7570    77.7045   206.8933
 1831.0000   -36.5952     6.1914     7.7957     6.7560    75.6980   227.4583
 1831.5000   -36.5952     6.2977     7.7957     6.7550    69.4659   247.0145
 1832.0000   -36.5952     6.4054     7.7957     6.7540    64.9172   249.6970
 1832.5000   -36.5952     6.5469     7.7957     6.7530    65.9431   245.6121
 1833.0000   -36.5952     6.7027     7.8656     6.7520    68.6727   242.0277
 1833.5000   -36.5952     6.7838     7.9301     6.7509    70.2112   236.7613
 1834.0000   -36.5952     6.8108     7.9301     6.7500    70.2782   231.8354
 1834.5000   -36.5952     6.8408     7.9301     6.7490    69.1574   231.7989
 1835.0000   -36.5952     6.8649     7.9301     6.7219    67.2117   231.7551
 1835.5000   -36.5952     6.8344     7.8746     6.6556    67.1020   241.8086
 1836.0000   -36.5952     6.7568     7.7957     6.6123    68.3209   254.2970
 1836.5000   -36.5952     6.7297     7.7957     6.6113    69.6621   274.5456
 1837.0000   -36.5952     6.7428     7.7957     6.6103    69.6604   282.0848
 1837.5000   -36.5952     6.8091     7.7419     6.6093    69.4076   269.4129
 1838.0000   -36.5952     6.8754     7.6764     6.6081    68.8897   260.3786
 1838.5000   -36.7905     6.9189     7.6613     6.6073    68.1535   251.6224
 1839.0000   -36.8633     6.9459     7.6613     6.6063    67.3972   241.4981
 1839.5000   -36.8633     6.8649     7.6613     6.6053    66.8027   236.4078
 1840.0000   -36.8633     6.8324     7.6613     6.6043    66.6414   241.4068
 1840.5000   -36.8633     6.8108     7.6613     6.5751    67.2587   272.0282
 1841.0000   -36.8633     6.7838     7.6613     6.4925    69.3945   299.1038
 1841.5000   -36.8851     6.8108     7.6613     6.4676    70.9622   311.9861
 1842.0000   -36.9320     6.8381     7.6613     6.4666    72.6488   320.2272
 1842.5000   -36.9789     6.8846     7.6613     6.4654    73.3991   319.4706
 1843.0000   -37.0258     6.9189     7.6613     6.4646    74.1041   305.8966
 1843.5000   -37.0726     6.9288     7.6613     6.4303    71.6409   273.9247
 1844.0000   -37.1195     6.9459     7.6613     6.3289    68.4912   220.8579
 1844.5000   -37.1314     6.9116     7.6613     6.3279    67.6270   187.6324
 1845.0000   -37.1314     6.8378     7.6613     6.2717    67.6253   177.8372
 1845.5000   -37.1314     6.8012     7.6613     6.1922    68.6256   182.5474
 1846.0000   -37.1314     6.7237     7.6613     6.1912    69.6418   218.1500
 1846.5000   -37.1314     6.6746     7.6613     6.1902    72.4056   241.4482
 1847.0000   -37.1314     6.6216     7.6613     6.1890    77.8934   263.4212
 1847.5000   -37.1314     6.5946     7.6459     6.1201    79.9374   276.1030
 1848.0000   -37.1314     6.5886     7.5991     6.0535    79.8280   281.9196
 1848.5000   -37.1314     6.5405     7.5522     6.0216    78.7682   281.0622
 1849.0000   -37.1314     6.5359     7.5269     5.9390    77.6351   270.1133
 1849.5000   -37.1314     6.5135     7.5269     5.8765    76.3476   248.1426
 1850.0000   -37.1314     6.5135     7.5269     5.8211    75.2506   220.3283
 1850.5000   -37.1314     6.5088     7.5269     5.7502    74.3878   205.5368
 1851.0000   -37.1314     6.4922     7.5269     5.6464    73.6178   202.5602
 1851.5000   -37.1314     6.4865     7.5269     5.6454    73.3651   202.5190
 1852.0000   -37.1314     6.4865     7.5269     5.6439    73.1128   202.4747
 1852.5000   -37.1314     6.4865     7.5269     5.5775    72.6094   202.4306
 1853.0000   -37.1314     6.4732     7.5269     5.5087    72.0514   202.3864
 1853.5000   -37.1314     6.4595     7.4337     5.5077    70.6005   203.1334
 1854.0000   -37.1314     6.4595     7.3244     5.3730    69.8471   204.8298
 1854.5000   -37.1314     6.4324     7.2151     5.3616    69.5946   205.7638
 1855.0000   -37.1314     6.4324     7.1237     5.2372    69.5926   208.2701
 1855.5000   -37.1314     6.4054     7.1237     5.1026    69.6623   209.7412
 1856.0000   -37.1314     6.3784     7.0470     5.1016    70.3406   211.0103
 1856.5000   -37.1314     6.3748     6.8548     5.0783    70.5897   212.1864
 1857.0000   -37.1314     6.2973     6.7133     5.0228    71.0887   212.1317
 1857.5000   -37.1314     6.2142     6.5860     4.9649    72.6034   212.0896
 1858.0000   -37.1314     6.0678     6.4516     4.9639    74.5336   209.5151
 1858.5000   -37.1314     5.7297     6.4301     4.9371    80.1058   209.4760
 1859.0000   -37.1314     5.5085     6.3172     4.8545    81.8562   204.3733
 1859.5000   -37.1314     5.1892     6.1828     4.8272    81.6057   199.2863
 1860.0000   -37.1314     4.9108     6.1470     4.8195    79.3481   190.6569
 1860.5000   -37.1314     4.8649     6.0484     4.6734    75.5868   176.4677
 1861.0000   -37.1314     4.8704     6.0484     4.5907    73.7957   160.6693
 1861.5000   -37.1314     4.9189     6.1434     4.5558    72.5758   148.5986
 1862.0000   -37.1314     4.9219     6.1828     4.5548    71.8220   140.7820
 1862.5000   -37.1314     4.9730     6.1828     4.5538    71.5695   133.3664
 1863.0000   -37.1314     5.0453     6.3172     4.5528    71.8181   138.3698
 1863.5000   -37.1314     5.0811     6.3172     4.5518    73.8778   153.5278
 1864.0000   -37.1314     5.0811     6.3172     4.5508    78.3306   171.1067
 1864.5000   -37.2086     5.0934     6.3172     4.6835    80.4203   184.6030
 1865.0000   -37.3179     5.1081     6.3172     4.8160    82.0861   187.9421
 1865.5000   -37.4328     5.1351     6.3172     4.9489    82.5858   183.5536
 1866.0000   -37.5641     5.1351     6.2240     5.0817    82.3008   176.8428
 1866.5000   -37.6676     5.1081     6.1147     5.2902    80.5770   168.3624
 1867.0000   -37.6676     5.0995     6.0054     5.5003    72.4592   150.7454
 1867.5000   -37.6676     5.0811     5.9140     5.6133    66.0368   110.1902
 1868.0000   -37.6676     5.0541     5.9140     5.6912    64.7419    94.3944
 1868.5000   -37.6676     5.0811     5.9140     5.7450    64.5291    87.3716
 1869.0000   -37.6676     5.1592     5.9140     5.8152    65.5375    92.3856
 1869.5000   -37.4707     5.2377     5.8917     5.8767    66.8803   107.3676
 1870.0000   -37.3995     5.3338     5.8448     5.8757    67.5313   125.1226
 1870.5000   -37.2524     5.4054     5.7980     5.8747    66.9442   137.7123
 1871.0000   -37.1314     5.4934     5.7133     5.8178    66.5249   140.1894
 1871.5000   -37.1314     5.5405     5.6452     5.7390    66.5232   140.1452
 1872.0000   -36.9383     5.6216     5.5842     5.7379    66.5210   140.1010
