~VERSION INFORMATION
 VERS.                2.0:   CWLS LOG ASCII STANDARD - VERSION 2.0
 WRAP.                 NO:   ONE LINE PER DEPTH STEP
~WELL INFORMATION
#MNEM.UNIT      DATA TYPE    INFORMATION
#----------   ------------   ------------------------------
 STRT.F           41.0000:   START DEPTH
 STOP.F          925.0000:   STOP DEPTH
 STEP.F            0.5000:   STEP LENGTH
 NULL.          -999.2500:   NO VALUE
 COMP. LAWRENCE ALLISON & ASSOCIATION:   COMPANY
 WELL. LAWRENCE ALLISON #48-2:   WELL
 FLD .       N.P.R. NO. 3:   FIELD
 LOC .       S2 T38N R78W:   LOCATION
 CNTY.            NATRONA:   COUNTY
 STAT.            WYOMING:   STATE
 CTRY. UNITED STATES OF AMERICA:   COUNTRY
 SRVC.       SCHLUMBERGER:   SERVICE COMPANY
 DATE.        06-SEP-1982:   LOGDATE
 API .     49025109110000:   API NUMBER
~CURVE INFORMATION
#MNEM.UNIT       API CODE    CURVE DESCRIPTION
#----------   ------------   ------------------------------
 DEPT.F                  :   
 ILM .OHMM   07 120 44 00:   INDUCTION LOG MEDIUM RESISTIVITY
 ILD .OHMM   07 120 46 00:   DEEP INDUCTION RESISTIVITY
 CALD.IN     45 280 60 00:   CALIPER FROM DENSITY LOG
 GRD .GAPI   45 310 01 00:   GAMMA RAY FROM DENSITY LOG
 TEND.LBS    45 635 01 00:   TENSION FROM DENSITY LOG
 CORR.G/C3   45 356 01 00:   DENSITY CORRECTION
 RHOB.G/C3   45 350 01 00:   BULK DENSITY
 NPHI.DEC    42 890 03 00:   NEUTRON POROSITY SANDSTONE
~PARAMETER INFORMATION
#MNEM.UNIT          VALUE    DESCRIPTION
#----------   ------------   ------------------------------
 EKB .F         5192.0000:   Kelly bushing
 EGL .F         5182.0000:   Ground level
 TD  .F          920.0000:   Total depth
 CLNT.            A2DTECH:   Client Code
 DATE.         6-SEP-1982:   Date Logged [DD-MMM-YYYY]
 DD  .F               920:   Depth driller
 DL  .F               918:   Depth logger
 BLI .F               908:   Bottom log interval
 TLI .F                49:   Top log interval
 CBL1.IN               49:   Casing logger 1
 BSD1.F               920:   Depth drilled with bit1
 DFT .                AIR:   Type fluid in hole
 TCS .HRS            0730:   Time Circ. stopped
 TLAB.HRS            0900:   Time logger at bottom
 LUN .               8035:   Logging unit number
 LUL .               CSPR:   Logging unit location
 ENGI.              PENNY:   Recorded By
 WITN.           JENNINGS:   Witnessed by
 ORIG.           5" PRINT:   Origin of data
 UWI .     49025109110000:   Unique Well ID
 DICO. A2D TECHNOLOGIES, INC.:   Digitizing Company
 PD  .                 GL:   Permanent Datum
 EPD .               5180:   Elevation Permanent Datum
 LMF .                 KB:   Log Measured From
 DMF .                 KB:   Drilling Measured From
 DAPD.                 10:   Feet Above Permanent Datum
~OTHER INFORMATION
~A   DEPT      ILM        ILD       CALD         GRD      TEND       CORR       RHOB       NPHI   
# ...
  284.0000     6.3064     6.2051    12.8126   141.5907   560.6753     0.0334     2.3929  -999.2500
  284.5000     6.3082     6.2516    12.7991   142.5026   560.0702     0.0310     2.3867  -999.2500
  285.0000     6.3099     6.2086    12.8004   141.6197   559.4650     0.0318     2.3843  -999.2500
  285.5000     6.3117     6.2103    12.8017   140.9882   558.8599     0.0334     2.3906  -999.2500
  286.0000     6.3135     6.2121    12.8030   142.5658   558.2548     0.0357     2.3867  -999.2500
  286.5000     6.2700     6.2142    12.8043   143.6947   573.1067     0.0365     2.3797  -999.2500
  287.0000     6.2722     6.2160    12.8059   145.0455   572.4883     0.0286     2.3800  -999.2500
  287.5000     6.2740     6.2177    12.8072   146.3963   571.8702     0.0200     2.3933  -999.2500
  288.0000     6.2304     6.2194    12.8085   149.3003   571.1390     0.0239     2.4148  -999.2500
  288.5000     6.1876     6.2212    12.8098   153.4340   570.5339     0.0389     2.4218  -999.2500
  289.0000     6.1450     6.2229    12.8110   157.7744   569.9287     0.0459     2.4195  -999.2500
  289.5000     6.1472     6.1801    12.8123   160.9003   569.3236     0.0475     2.4148  -999.2500
  290.0000     6.1489     6.0499    12.8136   161.5854   568.7185     0.0474     2.4109  -999.2500
  290.5000     6.1043     6.0520    12.8149   161.1611   568.1133     0.0349     2.3805  -999.2500
  291.0000     6.0646     6.0099    12.8163   159.6273   567.5082     0.0208     2.3556  -999.2500
  291.5000     6.0667     6.0554    12.8326   157.6497   566.9031     0.0161     2.3493  -999.2500
  292.0000     6.1121     6.1008    12.8339   158.5567   550.8420     0.0177     2.3495  -999.2500
  292.5000     6.1579     6.1909    12.8352   161.6900   550.2318     0.0263     2.3590  -999.2500
  293.0000     6.2040     6.2373    12.8365   160.8121   534.1576     0.0302     2.3618  -999.2500
  293.5000     6.3408     6.3751    12.8378   150.9141   517.9634     0.0318     2.3595  -999.2500
  294.0000     6.4806     6.4692    12.8391   148.6541   548.2702     0.0334     2.3618  -999.2500
  294.5000     6.6236     6.6121    12.8404   143.5700   547.6650     0.0349     2.3712  -999.2500
  295.0000     6.7213     6.7586    12.8417   138.4858   562.6672     0.0349     2.3775  -999.2500
  295.5000     6.8208     6.8093    12.8433   136.7253   561.9108     0.0334     2.3790  -999.2500
  296.0000     6.8719     6.9099    12.8446   138.3028   561.3057     0.0334     2.3775  -999.2500
  296.5000     6.9732     7.0119    12.8459   141.8725   545.2446     0.0412     2.3900  -999.2500
  297.0000     7.0254     7.1155    12.8472   143.6686   544.6395     0.0514     2.4002  -999.2500
  297.5000     7.1290     7.2205    12.8485   144.8742   544.0343     0.0561     2.4009  -999.2500
  298.0000     7.1823     7.2226    12.8350   149.9239   543.4292     0.0585     2.3923  -999.2500
  298.5000     7.2361     7.2767    12.8363   150.8260   542.8129     0.0624     2.3962  -999.2500
  299.0000     7.2381     7.2266    12.8375   149.7409   542.1947     0.0736     2.4079  -999.2500
  299.5000     7.1883     7.1768    12.8392   148.8711   541.4625     0.0789     2.4228  -999.2500
  300.0000     6.9364     7.0764    12.8256   143.5787   540.8574     0.0742     2.4111  -999.2500
  300.5000     6.6085     6.5759    12.8265   143.3561   555.8614     0.0585     2.3760  -999.2500
  301.0000     6.1659     6.0867    12.8273   144.0533   555.1074     0.0498     2.3588  -999.2500
  301.5000     5.2183     5.0860    12.8282   141.7710   554.5042     0.0459     2.3596  -999.2500
  302.0000     4.3857     4.1592    12.8439   140.3489   553.9011     0.0530     2.3605  -999.2500
  302.5000     3.6349     3.4505    12.8448   150.2738   553.2979     0.0867     2.3496  -999.2500
  303.0000     3.0549     2.7417    12.8309   159.1277   552.6948     0.1087     2.2935  -999.2500
  303.5000     2.3947     2.4795    12.8318   170.0405   552.0865     0.1260     2.2132  -999.2500
  304.0000     2.2188     2.3412    12.8326   174.3853   551.4684     0.1401     2.1329  -999.2500
  304.5000     2.1737     2.2749    12.8335   172.7907   550.7345     0.1417     2.0947  -999.2500
  305.0000     2.1593     2.2755    12.8344   164.0842   550.1313     0.1401     2.0713  -999.2500
  305.5000     2.2839     2.3592    12.8500   149.8707   549.5282     0.1071     2.0516  -999.2500
  306.0000     2.7005     2.6094    12.9545   146.2123   548.9250     0.0757     2.0540  -999.2500
  306.5000     3.3063     3.5298    12.9405   128.7901   548.3218     0.0145     2.1510  -999.2500
  307.0000     4.1624     4.1652    12.8667   124.6707   563.3254     0.0012     2.2750  -999.2500
  307.5000     5.0607     5.2812    12.7796   123.7623   578.0525     0.0184     2.3421  -999.2500
  308.0000     6.1102     6.3221    12.7805   123.3127   577.4243     0.0391     2.3749  -999.2500
  308.5000     7.5858     7.6777    12.7815   121.4868   576.8160     0.0484     2.3820  -999.2500
  309.0000     8.6023     8.8132    12.7824   118.7436   576.1979     0.0412     2.3750  -999.2500
  309.5000     9.4211     9.8284    12.7833   117.6058   575.4640     0.0318     2.3641  -999.2500
  310.0000    10.0342     9.9504    12.7841   117.8442   574.8608     0.0279     2.3657  -999.2500
  310.5000     9.8952     9.6004    12.7850   117.8532   574.2576     0.0349     2.3774  -999.2500
  311.0000     9.4826     8.6823    12.7859   117.8762   573.6545     0.0428     2.3837  -999.2500
  311.5000     9.1528     8.0232    12.7717   120.0490   588.6581     0.0436     2.3720  -999.2500
  312.0000     8.6462     7.5215    12.7728   124.6028   587.9041     0.0428     2.3720  -999.2500
  312.5000     7.1263     7.0007    12.7441   133.0292   571.8450     0.0522     2.3713  -999.2500
  313.0000     6.2449     6.3768    12.7450   143.5887   586.6978     0.0718     2.3648  -999.2500
  313.5000     5.4302     6.0647    12.7754   149.6091   586.0897     0.0867     2.3034  -999.2500
  314.0000     5.5518     6.1093    12.8511   150.4860   585.4714     0.0836     2.2271  -999.2500
  314.5000     5.7990     6.2887    12.9899   147.5149   569.2816     0.0561     2.2146  -999.2500
  315.0000     6.2337     6.4731    13.1481   138.5790   568.6785     0.0389     2.2217  -999.2500
  315.5000     6.7492     6.8081    13.0306   128.4962   568.0753     0.0381     2.2560  -999.2500
  316.0000     7.3600     7.2643    12.8688   121.8539   567.4721     0.0517     2.3083  -999.2500
  316.5000     7.9117     8.0347    12.8398   118.8813   566.8690     0.0624     2.3372  -999.2500
  317.0000     8.5047     8.9509    12.8409   116.1380   566.2658     0.0553     2.3295  -999.2500
  317.5000     9.1422     9.5506    12.8418   113.1654   581.1437     0.0491     2.3123  -999.2500
  318.0000     9.5530     9.9730    12.8427   111.5689   580.5154     0.0341     2.3030  -999.2500
  318.5000     9.9919    10.2658    12.8436   110.8877   579.9071     0.0302     2.2968  -999.2500
  319.0000    10.4198    10.5668    12.8444   110.1942   594.7651     0.0326     2.3038  -999.2500
  319.5000    10.8059    10.7987    12.8453   109.2714   594.0112     0.0357     2.3140  -999.2500
  320.0000    11.1262    11.0357    12.8462   107.4789   593.4080     0.0357     2.3203  -999.2500
  320.5000    11.2119    11.1971    12.8470   105.4237   608.4116     0.0341     2.3234  -999.2500
  321.0000    11.3796    11.4429    12.8479   106.5795   592.2017     0.0341     2.3193  -999.2500
  321.5000    11.6330    11.5271    12.8636   110.2583   591.5985     0.0365     2.3032  -999.2500
  322.0000    11.7226    11.6957    12.8647   114.1664   590.9954     0.0365     2.2978  -999.2500
  322.5000    11.9837    11.7058    12.8655   116.9277   590.3922     0.0357     2.2970  -999.2500
  323.0000    11.9896    11.7838    12.8664   115.5606   574.3331     0.0317     2.2986  -999.2500
  323.5000    11.9955    11.8705    12.8673   113.5054   573.7249     0.0252     2.2870  -999.2500
  324.0000    12.0015    11.8721    12.8682   111.9089   573.1066     0.0106     2.2667  -999.2500
