~VERSION INFORMATION
 VERS.                2.0:   CWLS LOG ASCII STANDARD - VERSION 2.0
 WRAP.                 NO:   ONE LINE PER DEPTH STEP
~WELL INFORMATION
#MNEM.UNIT      DATA TYPE    INFORMATION
#----------   ------------   ------------------------------
 STRT.F         3500.0000:   START DEPTH
 STOP.F         6855.0000:   STOP DEPTH
 STEP.F            0.5000:   STEP LENGTH
 NULL.          -999.2500:   NO VALUE
 COMP.          U.S. NAVY:   COMPANY
 WELL.  US NAVY "G" #1-10:   WELL
 FLD . TEAPOT NAVAL RESERVE:   FIELD
 LOC .      S10 T38N R78W:   LOCATION
 CNTY.            NATRONA:   COUNTY
 STAT.            WYOMING:   STATE
 CTRY. UNITED STATES OF AMERICA:   COUNTRY
 SRVC.         LANE WELLS:   SERVICE COMPANY
 DATE.        23-MAR-1952:   LOGDATE
 API .     49025063380000:   API NUMBER
~CURVE INFORMATION
#MNEM.UNIT       API CODE    CURVE DESCRIPTION
#----------   ------------   ------------------------------
 DEPT.F                  :   
 GRN .GAPI   35 310 01 00:   GAMMA RAY
 NEUT.NAPI   35 330 01 00:   NEUTRON
~PARAMETER INFORMATION
#MNEM.UNIT          VALUE    DESCRIPTION
#----------   ------------   ------------------------------
 EKB .F         5195.0000:   Kelly bushing
 EGL .F         5184.0000:   Ground level
 EDF .F         5195.0000:   Drilling floor
 EPD .F            0.0000:   Permanent datum
 TD  .F         6861.0000:   Total depth
 CLNT.            A2DTECH:   Client Code
 PD  .                 GL:   Permanent Datum
 DATE.        23-MAR-1952:   Date Logged [DD-MMM-YYYY]
 DD  .F              6861:   Depth driller
 DL  .F              6861:   Depth logger
 BLI .F              6855:   Bottom log interval
 TLI .F              3500:   Top log interval
 BSD1.F              6861:   Depth drilled with bit1
 DFT .                MUD:   Type fluid in hole
 ENGI.            GAMBERG:   Recorded By
 WITN.           GRIBBENS:   Witnessed by
 ORIG.         2.5" PRINT:   Origin of data
 UWI .     49025063380000:   Unique Well ID
 DICO. A2D TECHNOLOGIES, INC.:   Digitizing Company
~OTHER INFORMATION
~A  DEPT       GRN        NEUT  
# ...
 5201.0000   104.6417   321.9829
 5201.5000   104.4013   292.7245
 5202.0000   103.6583   171.8143
 5202.5000   100.0511   118.7636
 5203.0000    96.3664   106.8419
 5203.5000    94.2768   135.6422
 5204.0000    93.6872   175.0748
 5204.5000    96.8254   194.8030
 5205.0000    97.4148   202.3813
 5205.5000    93.4555   208.1996
 5206.0000    94.6785   230.3638
 5206.5000    95.4137   311.3745
 5207.0000    95.4172   332.8529
 5207.5000    96.3964   310.3055
 5208.0000    97.3755   291.0345
 5208.5000    95.4278   313.3709
 5209.0000    95.4317   352.6642
 5209.5000    95.8475   374.8554
 5210.0000    96.9751   380.2966
 5210.5000    99.4931   325.6419
 5211.0000   101.3007   281.3307
 5211.5000   104.7188   239.1338
 5212.0000   103.7467   203.8779
 5212.5000   103.0185   178.7667
 5213.0000   102.7781   152.2600
 5213.5000   103.5259   132.1243
 5214.0000   103.7610   140.9192
 5214.5000   101.5697   173.4621
 5215.0000   100.3537   210.4283
 5215.5000   100.2179   213.0250
 5216.0000    96.7129   185.5210
 5216.5000    93.1103   163.3773
 5217.0000    89.7909   138.7705
 5217.5000    84.6288   136.0853
 5218.0000    82.4314   146.2072
 5218.5000    79.8922   158.7766
 5219.0000    78.4323   172.6553
 5219.5000    76.9723   214.5918
 5220.0000    73.5612   248.1183
 5220.5000    70.1501   274.5086
 5221.0000    68.1606   292.8098
 5221.5000    66.0000   299.5361
 5222.0000    62.0967   311.6747
 5222.5000    55.9048   350.9144
 5223.0000    51.6924   398.2578
 5223.5000    47.7554   469.6879
 5224.0000    44.6664   537.6337
 5224.5000    38.9604   599.1165
 5225.0000    34.5736   695.2081
 5225.5000    31.4064   749.4543
 5226.0000    29.4587   823.4050
 5226.5000    28.2347   877.6512
 5227.0000    27.4893   946.6758
 5227.5000    26.9838  1030.4886
 5228.0000    26.5458  1077.3456
 5228.5000    27.3974  1121.7396
 5229.0000    29.4591  1180.9119
 5229.5000    30.1051  1218.8536
 5230.0000    29.7324  1245.4408
 5230.5000    29.2481  1242.3960
 5231.0000    28.7637  1178.2430
 5231.5000    28.2794  1061.9944
 5232.0000    27.3073  1008.7968
 5232.5000    26.3169  1034.3433
 5233.0000    25.8509  1043.4827
 5233.5000    26.5881  1028.7634
 5234.0000    28.6294   991.7213
 5234.5000    30.7740   809.6796
 5235.0000    33.7026   671.8076
 5235.5000    40.2604   600.4382
 5236.0000    45.3859   533.9946
 5236.5000    49.0479   511.8862
 5237.0000    51.2466   499.4951
 5237.5000    53.4452   487.1205
 5238.0000    55.6668   492.7063
 5238.5000    56.6229   542.4412
 5239.0000    54.5397   682.7058
 5239.5000    50.1984   833.7149
 5240.0000    44.3902   938.4437
 5240.5000    39.7194  1140.4570
 5241.0000    36.5666  1273.2513
 5241.5000    33.9628  1364.4000
 5242.0000    32.7468  1394.3289
 5242.5000    32.6732  1372.7908
 5243.0000    34.2172  1314.7074
 5243.5000    36.1809  1217.6825
 5244.0000    37.2302  1189.9020
 5244.5000    38.1782  1172.9589
 5245.0000    37.9961  1234.2748
 5245.5000    35.3684  1318.7029
 5246.0000    31.1264  1386.5336
 5246.5000    27.3200  1449.0867
 5247.0000    23.5153  1495.9438
 5247.5000    21.0798  1496.8805
 5248.0000    19.3759  1468.9683
 5248.5000    19.0877  1432.0815
 5249.0000    20.6025  1393.0494
 5249.5000    22.1073  1350.1427
 5250.0000    23.5371  1312.8004
 5250.5000    27.3274  1286.1597
 5251.0000    28.4219  1272.6769
 5251.5000    28.4256  1269.8892
 5252.0000    29.4238  1269.9628
 5252.5000    32.8239  1267.5587
 5253.0000    35.7542  1250.3765
 5253.5000    41.1236  1228.2679
 5254.0000    46.4929  1174.1398
 5254.5000    52.4067  1116.7751
 5255.0000    57.0047  1038.3257
 5255.5000    62.0437   994.8361
 5256.0000    69.1196   979.8046
 5256.5000    72.3652   889.6112
 5257.0000    73.8322   807.9387
 5257.5000    75.2991   776.9688
 5258.0000    74.3270   758.3658
 5258.5000    72.8651   789.8524
 5259.0000    70.5663   839.2053
 5259.5000    68.3530   866.2800
 5260.0000    67.0731   891.6365
 5260.5000    65.2189   908.9369
 5261.0000    60.8269   911.4590
 5261.5000    57.3627   921.3702
 5262.0000    53.8690   933.7446
 5262.5000    49.9700   941.1946
 5263.0000    48.2662   938.4269
 5263.5000    47.0502   936.3847
 5264.0000    46.5659   960.4818
 5264.5000    42.9906  1008.6470
 5265.0000    38.3423  1077.6376
 5265.5000    36.8203  1131.6556
 5266.0000    37.7104  1175.5907
 5266.5000    40.0172  1180.5912
 5267.0000    44.1567  1147.3585
 5267.5000    52.9336  1096.9949
 5268.0000    59.7664  1050.2560
 5268.5000    64.1602   952.9271
 5269.0000    68.5539   881.2598
 5269.5000    66.3623   841.0834
 5270.0000    65.1463   870.6990
 5270.5000    65.6378   900.3147
 5271.0000    65.8850   915.1520
 5271.5000    64.5968   939.8417
 5272.0000    66.2132   949.8189
 5272.5000    69.7391   943.5096
 5273.0000    75.1096   885.9578
 5273.5000    81.2701   796.9087
 5274.0000    84.2005   742.9332
 5274.5000    86.3991   727.0474
 5275.0000    88.8416   734.7087
 5275.5000    91.0477   743.2992
 5276.0000    93.0408   738.4321
 5276.5000    94.1516   706.4714
 5277.0000    99.8324   644.9541
 5277.5000    99.6807   605.6044
 5278.0000   101.5488   547.3292
 5278.5000   106.0385   494.8942
 5279.0000   109.6801   455.4011
 5279.5000   112.7495   419.7132
 5280.0000   114.5851   384.2365
 5280.5000   115.7379   371.9828
 5281.0000   116.9348   381.5555
 5281.5000   117.9139   411.5151
 5282.0000   118.4052   483.0026
 5282.5000   119.3843   471.2077
 5283.0000   120.8512   452.3474
 5283.5000   122.3809   440.4934
 5284.0000   123.7854   437.8829
 5284.5000   122.3008   430.3195
 5285.0000   118.6459   377.4751
 5285.5000   115.2439   330.7361
 5286.0000   116.0219   276.6080
 5286.5000   117.0683   232.3320
 5287.0000   113.8078   205.2975
 5287.5000   111.6162   185.6521
 5288.0000   110.1563   183.2481
 5288.5000   108.2086   186.2484
 5289.0000   110.7906   191.4472
 5289.5000   114.8047   187.2462
 5290.0000   119.2917   156.0327
 5290.5000   122.1963   110.2845
 5291.0000   124.7808   108.7991
 5291.5000   127.9836   119.6515
 5292.0000   129.6983   127.0997
 5292.5000   128.4823   119.7696
 5293.0000   124.8272   107.5134
 5293.5000   121.9039   115.4647
 5294.0000   119.4684   135.7374
 5294.5000   115.0298   151.2210
 5295.0000   108.3581   160.2437
 5295.5000   105.2284   164.4588
 5296.0000   102.2970   158.4221
 5296.5000    99.9737   145.6316
 5297.0000   100.1788   136.7038
 5297.5000    97.7013   142.5570
 5298.0000    95.1079   150.0052
 5298.5000    94.1358   307.6997
 5299.0000    93.6515   384.1134
 5299.5000    92.1916   507.0673
 5300.0000    87.0732   532.0148
 5300.5000    81.2048   488.3433
 5301.0000    74.7249   482.8718
 5301.5000    68.3394   488.5366
 5302.0000    64.1148   518.9945
 5302.5000    58.8326   606.2311
 5303.0000    53.5941   630.9208
 5303.5000    46.8555   650.6841
 5304.0000    43.4444   638.4280
 5304.5000    40.5211   616.3196
 5305.0000    37.5978   598.9570
 5305.5000    34.1866   591.5389
 5306.0000    32.6690   586.9400
 5306.5000    31.4746   603.8324
 5307.0000    32.7073   677.4294
 5307.5000    35.4934   729.5262
 5308.0000    37.5773   778.7825
 5308.5000    38.8432   850.8115
 5309.0000    40.0666   897.6686
 5309.5000    39.5823   927.2843
 5310.0000    37.3907   942.1216
 5310.5000    35.1990   942.2551
 5311.0000    34.2269   923.5102
 5311.5000    34.9697   780.1519
 5312.0000    34.6926   606.5765
 5312.5000    34.7764   487.6960
 5313.0000    35.3614   424.7939
 5313.5000    35.8967   422.6840
 5314.0000    40.8264   436.6241
 5314.5000    45.1794   437.7565
 5315.0000    49.8519   445.2047
 5315.5000    59.5908   469.8943
 5316.0000    69.0866   509.3621
 5316.5000    74.1399   521.7365
 5317.0000    81.6214   534.9543
 5317.5000    88.8896   564.6395
 5318.0000    93.9389   603.8993
 5318.5000    99.8907   634.5709
 5319.0000   103.3780   661.3871
 5319.5000   111.4647   687.2707
 5320.0000   116.0302   633.0168
 5320.5000   122.0517   586.2777
 5321.0000   125.4687   564.1693
 5321.5000   129.1296   556.8350
 5322.0000   129.4633   566.7504
