~VERSION INFORMATION
 VERS.                2.0:   CWLS LOG ASCII STANDARD - VERSION 2.0
 WRAP.                 NO:   ONE LINE PER DEPTH STEP
~WELL INFORMATION
#MNEM.UNIT      DATA TYPE    INFORMATION
#----------   ------------   ------------------------------
 STRT.F          200.0000:   START DEPTH
 STOP.F         3124.0000:   STOP DEPTH
 STEP.F            0.5000:   STEP LENGTH
 NULL.          -999.2500:   NO VALUE
 COMP.    FENIX & SCISSON:   COMPANY
 WELL. FENIX SCISSON #18-27:   WELL
 FLD .                NPR:   FIELD
 LOC .      S27 T39N R78W:   LOCATION
 CNTY.            NATRONA:   COUNTY
 STAT.            WYOMING:   STATE
 CTRY. UNITED STATES OF AMERICA:   COUNTRY
 SRVC.              WELEX:   SERVICE COMPANY
 DATE.        26-SEP-1977:   LOGDATE
 API .     49025104210000:   API NUMBER
~CURVE INFORMATION
#MNEM.UNIT       API CODE    CURVE DESCRIPTION
#----------   ------------   ------------------------------
 DEPT.F                  :   
 CALD.IN     45 280 60 00:   CALIPER FROM DENSITY LOG
 GRD .GAPI   45 310 01 00:   GAMMA RAY FROM DENSITY LOG
 RHOB.G/C3   45 350 01 00:   BULK DENSITY
 CORR.G/C3   45 356 01 00:   DENSITY CORRECTION
 NPHI.DEC    42 890 03 00:   NEUTRON POROSITY SANDSTONE
 SPR .MV     07 010 01 00:   SPONTANEOUS POTENTIAL
 GURD.OHMM   07 220 05 00:   GUARD LOG RESISTIVITY
 ILD .OHMM   07 120 46 00:   DEEP INDUCTION RESISTIVITY
 ILM .OHMM   07 120 44 00:   INDUCTION LOG MEDIUM RESISTIVITY
 TENR.LBS    07 635 01 00:   TENSION FROM RESISTIVITY
~PARAMETER INFORMATION
#MNEM.UNIT          VALUE    DESCRIPTION
#----------   ------------   ------------------------------
 EKB .F         5080.0000:   Kelly bushing
 EGL .F         5070.0000:   Ground level
 EDF .F            0.0000:   Drilling floor
 EPD .F            0.0000:   Permanent datum
 TD  .F         3117.0000:   Total depth
 DATE.        26-SEP-1977:   Date logged
 CLNT.            A2DTECH:   Client Code
 SL  . 330' FSL & 1650' FWL:   Surface Location
 PD  .                 GL:   Permanent Datum
 DAPD.F                10:   Feet Above Permanent Datum
 DD  .F              3115:   Depth driller
 DL  .F              3117:   Depth logger
 BLI .F              3115:   Bottom log interval
 TLI .F               200:   Top log interval
 CS1 .IN            8.625:   Casing size
 CBD1.      8.625" @ 219':   Casing driller 1
 CBL1.F               220:   Casing logger 1
 BS1 .IN            7.875:   Bit size
 BSD1.F              3115:   Depth drilled with bit1
 DFT .            KCL MUD:   Type fluid in hole
 DFD .                9.1:   Density
 DFV .                 35:   Viscosity
 DFPH.                 11:   pH
 DFL .               17.2:   Fluid loss
 MSS .           FLOWLINE:   Source of sample
 RMS .OHMM            .59:   Rm
 MST .F                98:   Rm Meas. temp.
 RMF .OHMM            .56:   Rmf
 MFST.F                98:   Rmf Meas. temp.
 RMC .OHMM            .24:   Rmc
 MCST.F                98:   Rmc Meas. temp.
 MFSS.               MEAS:   Source Rmf.
 MCSS.               MEAS:   Source Rmc.
 RMB .OHMM            .48:   Rm. at BHT
 BHT .F               116:   BHT.
 TCS .HRS               4:   Time Circ. stopped
 MRT .F               116:   Maximum recorded temp.
 LUN .               8611:   Logging unit number
 LUL .             CASPER:   Logging unit location
 ENGI.            C. DOAK:   Recorded By
 WITN.         PETTINGILL:   Witnessed by
 ORIG.           5" PRINT:   Origin of data
 UWI .     49025104210000:   Unique Well ID
 DICO. A2D TECHNOLOGIES, INC.:   Digitizing Company
~OTHER INFORMATION
~A   DEPT     CALD        GRD       RHOB       CORR         NPHI      SPR       GURD        ILD        ILM        TENR  
# ...
 1339.0000     8.9138    95.8930     2.4905     0.0364     0.3029   -67.3376    10.7360     6.9466     7.7097   542.5941
 1339.5000     8.9079   101.6554     2.4955     0.0393     0.3025   -67.3436    10.6949     6.9449     7.7078   552.8760
 1340.0000     8.9019   106.2252     2.4975     0.0417     0.3025   -67.5473    10.3070     6.9435     7.7059   563.1578
 1340.5000     8.8942   102.8643     2.4955     0.0397     0.3053   -67.5533    10.3044     6.8780     7.7040   543.4862
 1341.0000     8.8946   100.8956     2.4936     0.0378     0.3124   -67.5592    10.3018     6.7508     7.6316   553.7680
 1341.5000     8.8554   100.5080     2.4876     0.0359     0.3154   -67.5652    10.3943     6.6262     7.5598   544.0810
 1342.0000     8.8560   102.5009     2.4817     0.0319     0.3160   -67.1744    10.3917     6.5640     7.4202   544.3783
 1342.5000     8.8367   107.0732     2.4748     0.0300     0.3132   -67.5771    10.3891     6.5624     7.4862   544.6757
 1343.0000     8.8372   106.6790     2.4668     0.0241     0.3096   -67.5819    10.1042     6.6213     7.4847   544.9731
 1343.5000     8.8179   106.6900     2.4579     0.0202     0.3064   -67.5879    10.2890     6.7427     7.4832   545.2704
 1344.0000     8.8184   102.5449     2.4520     0.0182     0.3012   -67.1983    10.3813     6.8660     7.4813   555.5519
 1344.5000     8.8190   103.3487     2.4510     0.0183     0.3008   -67.5998    10.1898     6.9916     7.4795   545.8652
 1345.0000     8.8392   106.9275     2.4540     0.0164     0.3028   -67.4080     9.9103     7.1405     7.4776   556.1465
 1345.5000     8.8250   107.3350     2.4541     0.0164     0.3032   -67.4139    10.0916     7.1398     7.4757   546.4599
 1346.0000     8.8203   110.1210     2.4551     0.0205     0.3012   -67.4199    10.3709     7.1504     7.4739   546.7573
 1346.5000     8.8211   113.5000     2.4571     0.0225     0.3012   -67.4259    10.3684     7.1611     7.4720   547.0546
 1347.0000     8.8216   108.1610     2.4581     0.0226     0.3080   -67.6296    10.2710     7.1718     7.6088   547.3519
 1347.5000     8.8221   101.4325     2.4601     0.0226     0.3188   -67.4378    10.1745     7.1825     7.8197   547.6493
 1348.0000     8.8821    97.2790     2.4591     0.0207     0.3240   -67.4437    10.1720     7.1961     8.0364   557.9303
 1348.5000     8.8826   100.2651     2.4641     0.0187     0.3256   -67.4497    10.0765     7.1292     8.1086   558.2276
 1349.0000     8.8831   101.8619     2.4691     0.0188     0.3244   -67.4592    10.0739     7.0622     8.4108   548.5413
 1349.5000     8.8837   103.0623     2.4702     0.0189     0.3220   -67.4616     9.9793     6.9318     7.3249   548.8386
 1350.0000     8.8839   107.6286     2.4652     0.0189     0.3196   -67.2686     9.9768     6.4786     7.2561   549.1359
 1350.5000     8.8846   106.8401     2.4722     0.0229     0.3176   -67.0792     9.8832     6.4770     7.2543   549.4333
 1351.0000     8.9050   103.4917     2.4772     0.0250     0.3144   -67.4795    10.0639     6.7177     7.2528   549.6711
 1351.5000     8.9055   103.5027     2.4782     0.0290     0.3076   -67.4855    10.3425     6.9037     7.2510   549.9684
 1352.0000     8.9060   103.5137     2.4723     0.0271     0.3044   -67.2937    10.6288     7.0299     7.3838   560.3085
 1352.5000     8.9066   103.5247     2.4594     0.0251     0.2992   -67.4974    10.3373     7.1585     7.5880   560.6058
 1353.0000     8.9071   105.5182     2.4524     0.0172     0.2988   -67.3056    10.3347     7.2894     7.7983   550.9198
 1353.5000     8.9076   109.6928     2.4525     0.0153     0.2968   -67.5093    10.1441     7.4227     7.7968   541.2340
 1354.0000     8.9082   109.3029     2.4604     0.0193     0.2956   -67.9108    10.0488     7.5584     7.7945   551.5144
 1354.5000     8.9087   103.9652     2.4644     0.0254     0.2960   -67.5212     9.9545     7.6263     7.7925   551.8117
 1355.0000     8.9091   102.3902     2.4674     0.0274     0.2968   -67.5272    10.2300     7.6244     7.7906   552.1090
 1355.5000     8.9097   100.0222     2.4734     0.0294     0.2988   -67.7309    10.1339     7.6225     8.7776   552.4064
 1356.0000     8.9103    99.2401     2.4854     0.0355     0.3015   -67.5391    10.1314     7.5509     8.3794   552.7037
 1356.5000     8.9108    98.8546     2.4904     0.0415     0.3027   -67.7429    10.3167     7.3443     8.1510   553.0009
 1357.0000     8.9113    98.4690     2.4934     0.0435     0.3039   -67.7488    10.3141     7.0772     8.2243   553.2982
 1357.5000     8.9119   100.8591     2.4954     0.0436     0.3083   -67.9526    10.2172     6.8202     8.3744   553.5955
 1358.0000     8.9124   102.4540     2.4934     0.0417     0.3215   -67.9585    10.0288     6.6332     8.2291   553.8928
 1358.5000     8.9129   102.4650     2.4895     0.0397     0.3239   -67.9645    10.0262     6.4514     8.0684   544.2074
 1359.0000     8.9134   105.6482     2.4845     0.0356     0.3271   -67.9704     9.9311     6.3899     8.1409   554.4873
 1359.5000     8.9536   109.8212     2.4816     0.0319     0.3279   -67.9764    10.1152     6.1025     9.0887   554.7846
 1360.0000     8.9537   106.4634     2.4746     0.0280     0.3243   -67.9824    22.6899     6.0452     9.6018   555.0819
 1360.5000     8.9546   101.1259     2.4747     0.0260     0.3191   -67.9883    18.6107     6.0437     9.1681   555.3791
 1361.0000     8.9548   105.6923     2.4727     0.0241     0.3179   -68.1921     9.5643     6.0422     7.4184   555.6764
 1361.5000     8.9562   109.2723     2.4697     0.0241     0.3219   -68.0002     9.3020     6.0407     6.8906   555.9736
 1362.0000     8.9575   112.6502     2.4698     0.0202     0.3235   -68.0062     9.4721     6.0392     6.7015   556.2709
 1362.5000     8.9589   106.5185     2.4698     0.0183     0.3235   -68.0122     9.4698     5.9825     6.6385   546.5859
 1363.0000     8.9603   101.3742     2.4708     0.0144     0.3234   -68.0181     9.5547     5.9263     6.6368   546.8832
 1363.5000     8.9617    99.4024     2.4718     0.0104     0.3294   -68.0241     9.8192     5.9795     6.6352   557.1626
 1364.0000     8.9631    99.4133     2.4719     0.0105     0.3322   -68.0301    11.6871     6.1451     6.6335   557.4599
 1364.5000     8.9644   103.3901     2.4759     0.0165     0.3314   -68.0360     9.5476     5.7610     6.8803   557.7571
 1365.0000     8.9658   108.1600     2.4719     0.0146     0.3274   -68.0420     9.0335     5.5519     7.4720   558.0543
 1365.5000     8.9672   112.9301     2.4640     0.0107     0.3270   -67.8514     8.9487     5.5505     7.8942   548.3697
 1366.0000     8.9686   115.5129     2.4660     0.0107     0.3302   -67.8563     8.9464     5.5491     7.6073   548.6669
 1366.5000     8.9700   110.9693     2.4710     0.0167     0.3274   -67.8597     8.9442     5.5989     6.8106   548.9642
 1367.0000     8.9713   112.1702     2.4829     0.0247     0.3238   -67.8669     9.0245     5.7016     6.5631   549.2615
 1367.5000     8.9727   113.9687     2.4879     0.0268     0.3210   -67.8728     9.1895     5.7839     6.5618   559.5405
 1368.0000     8.9741   113.9665     2.4890     0.0249     0.3142   -67.8788     9.3570     5.9117     6.6204   559.8378
 1368.5000     8.9755   112.7945     2.4890     0.0249     0.3106   -68.0825     9.3551     6.0757     6.8670   560.1350
 1369.0000     8.9769   109.0417     2.5009     0.0289     0.3078   -68.0885     9.6141     6.3593     6.9931   560.4322
 1369.5000     8.9783   103.5001     2.5129     0.0330     0.3066   -68.0944     9.8230     6.6564     7.3195   560.7294
 1370.0000     8.9796   101.1314     2.5179     0.0390     0.3046   -68.1004    10.2831     6.7785     7.5918   551.0451
 1370.5000     8.9810   101.9356     2.5159     0.0390     0.3022   -68.1064    12.0202     6.9024     7.9473   551.3427
 1371.0000     8.9824   103.1365     2.5050     0.0391     0.3014   -68.1123    10.9616     7.0283     8.9540   551.6396
 1371.5000     8.9838   106.3183     2.4981     0.0372     0.2994   -68.1183     9.6349     7.1568     9.2871   561.9182
 1372.0000     8.9852   108.9036     2.4872     0.0313     0.2958   -68.1242     9.1998     7.3552     8.1634   532.2119
