~VERSION INFORMATION
 VERS.                2.0:   CWLS LOG ASCII STANDARD - VERSION 2.0
 WRAP.                 NO:   ONE LINE PER DEPTH STEP
~WELL INFORMATION
#MNEM.UNIT      DATA TYPE    INFORMATION
#----------   ------------   ------------------------------
 STRT.F           36.0000:   START DEPTH
 STOP.F         3488.0000:   STOP DEPTH
 STEP.F            0.5000:   STEP LENGTH
 NULL.          -999.2500:   NO VALUE
 COMP. LAWRENCE - ALLISON  & ASSOCIATE:   COMPANY
 WELL. LAWRENCE "STX" #76-23:   WELL
 FLD .              NPR 3:   FIELD
 LOC .      S23 T38N R78W:   LOCATION
 CNTY.            NATRONA:   COUNTY
 STAT.            WYOMING:   STATE
 CTRY. UNITED STATES OF AMERICA:   COUNTRY
 SRVC.       SCHLUMBERGER:   SERVICE COMPANY
 DATE.        07-MAY-1982:   LOGDATE
 API .     49025108920000:   API NUMBER
~CURVE INFORMATION
#MNEM.UNIT       API CODE    CURVE DESCRIPTION
#----------   ------------   ------------------------------
 DEPT.F                  :   
 CORR.G/C3   45 356 01 00:   DENSITY CORRECTION
 CALD.IN     45 280 60 00:   CALIPER FROM DENSITY LOG
 GRD .GAPI   45 310 01 00:   GAMMA RAY FROM DENSITY LOG
 RHOB.G/C3   45 350 01 00:   BULK DENSITY
 SFL .OHMM   07 220 01 00:   SHALLOW FOCUSED LOG RESISTIVITY
 ILD .OHMM   07 120 46 00:   DEEP INDUCTION RESISTIVITY
 ILM .OHMM   07 120 44 00:   INDUCTION LOG MEDIUM RESISTIVITY
 TENR.LBS    07 635 01 00:   TENSION
 SPR .MV     07 010 01 00:   SPONTANEOUS POTENTIAL
 NPHI.DEC    42 890 03 00:   NEUTRON POROSITY SANDSTONE
 TEND.LBS    45 635 01 00:   TENSION FROM DENSITY LOG
~PARAMETER INFORMATION
#MNEM.UNIT          VALUE    DESCRIPTION
#----------   ------------   ------------------------------
 EKB .F         5441.0000:   Kelly bushing
 EGL .F         5431.0000:   Ground level
 EDF .F            0.0000:   Drilling floor
 EPD .F            0.0000:   Permanent datum
 TD  .F         3788.0000:   Total depth
 DATE.        07-MAY-1982:   Date logged
 CLNT.            A2DTECH:   Client Code
 SL  . 1327' FSL & 1190' FEL:   Surface Location
 PD  .                 GL:   Permanent Datum
 DAPD.F                10:   Feet Above Permanent Datum
 DD  .F              3788:   Depth driller
 DL  .F              3478:   Depth logger
 BLI .F              3471:   Bottom log interval
 TLI .F              1615:   Top log interval
 CS1 .IN            9.625:   Casing size
 CBD1.     9.625" @ 1603':   Casing driller 1
 CBL1.F              1615:   Casing logger 1
 BS1 .IN            7.875:   Bit size
 BSD1.F              3788:   Depth drilled with bit1
 DFT .                AIR:   Type fluid in hole
 TCS .HRS            1230:   Time Circ. stopped
 TLAB.HRS            1500:   Time logger at bottom
 MRT .F               125:   Maximum recorded temp.
 LUN .               8035:   Logging unit number
 LUL .               CSPR:   Logging unit location
 ENGI.              PENNY:   Recorded By
 WITN.    JENNINGS/STRONG:   Witnessed by
 ORIG.       2.5"5" PRINT:   Origin of data
 UWI .     49025108920000:   Unique Well ID
 DICO. A2D TECHNOLOGIES, INC.:   Digitizing Company
~OTHER INFORMATION
~A   DEPT       CORR     CALD        GRD         RHOB      SFL        ILD        ILM       TENR        SPR        NPHI      TEND   
# ...
 1835.5000     0.1410    19.0580   171.5800     2.3500  -999.2500     5.4380     5.7160  1757.5760  -999.2500  -999.2500  -999.2500
 1836.0000     0.1120    17.5120   176.6770     2.4240  -999.2500     5.4360     5.7490  1757.5760  -999.2500  -999.2500  -999.2500
 1836.5000     0.1310    16.5040   181.9220     2.4610  -999.2500     5.4370     5.7310  1757.5760  -999.2500  -999.2500  -999.2500
 1837.0000     0.1270    15.6800   184.0250     2.4750  -999.2500     5.4370     5.6820  1757.5760  -999.2500  -999.2500  -999.2500
 1837.5000     0.1320    14.8700   185.1750     2.4800  -999.2500     5.4370     5.6320  1757.5760  -999.2500  -999.2500  -999.2500
 1838.0000     0.1510    14.4620   182.6320     2.4740  -999.2500     5.4370     5.5830  1757.5760  -999.2500  -999.2500  -999.2500
 1838.5000     0.1850    14.9120   179.0630     2.3920  -999.2500     5.4370     5.5330  1757.5760  -999.2500  -999.2500  -999.2500
 1839.0000     0.2180    15.5530   175.4830     2.2680  -999.2500     5.4370     5.4840  1757.7120  -999.2500  -999.2500  -999.2500
 1839.5000     0.2420    15.9980   171.8910     2.1240  -999.2500     5.4370     5.4370  1758.2720  -999.2500  -999.2500  -999.2500
 1840.0000     0.2440    15.9860   169.7660     2.0960  -999.2500     5.4370     5.4440  1758.8320  -999.2500  -999.2500  -999.2500
 1840.5000     0.2440    15.9080   168.8970     2.1470  -999.2500     5.4370     5.4540  1759.3910  -999.2500  -999.2500  -999.2500
 1841.0000     0.2410    15.5930   168.0780     2.2100  -999.2500     5.4380     5.4640  1759.9510  -999.2500  -999.2500  -999.2500
 1841.5000     0.2310    15.2030   166.6160     2.2770  -999.2500     5.4320     5.4740  1760.5100  -999.2500  -999.2500  -999.2500
 1842.0000     0.1750    14.8140   165.0280     2.3430  -999.2500     5.4210     5.4840  1761.0699  -999.2500  -999.2500  -999.2500
 1842.5000     0.1810    14.4290   163.4220     2.4160  -999.2500     5.4100     5.4940  1761.6300  -999.2500  -999.2500  -999.2500
 1843.0000     0.1960    14.1010   163.3440     2.3440  -999.2500     5.3990     5.5040  1762.1890  -999.2500  -999.2500  -999.2500
 1843.5000     0.1820    14.0960   164.7140     2.2540  -999.2500     5.3890     5.5130  1762.7490  -999.2500  -999.2500  -999.2500
 1844.0000     0.1560    14.3000   166.1330     2.1670  -999.2500     5.3780     5.5240  1763.3080  -999.2500  -999.2500  -999.2500
 1844.5000     0.1370    14.4420   166.2400     2.2400  -999.2500     5.3670     5.5380  1763.8680  -999.2500  -999.2500  -999.2500
 1845.0000     0.1960    14.2670   165.7390     2.3360  -999.2500     5.3560     5.5290  1764.4280  -999.2500  -999.2500  -999.2500
 1845.5000     0.2440    14.0960   165.1160     2.4330  -999.2500     5.3460     5.5010  1764.9871  -999.2500  -999.2500  -999.2500
 1846.0000     0.2390    14.1240   163.5060     2.4910  -999.2500     5.3350     5.4750  1765.5470  -999.2500  -999.2500  -999.2500
 1846.5000     0.2380    14.1870   161.9120     2.4470  -999.2500     5.3240     5.4490  1766.1060  -999.2500  -999.2500  -999.2500
 1847.0000     0.2430    14.2510   160.2600     2.4030  -999.2500     5.3130     5.4230  1766.6660  -999.2500  -999.2500  -999.2500
 1847.5000     0.2440    14.3150   159.8750     2.3600  -999.2500     5.3030     5.3960  1767.2260  -999.2500  -999.2500  -999.2500
 1848.0000     0.2420    14.3840   160.0210     2.2750  -999.2500     5.2920     5.3700  1767.7850  -999.2500  -999.2500  -999.2500
 1848.5000     0.2270    14.4570   162.9240     2.1160  -999.2500     5.2810     5.3440  1768.3450  -999.2500  -999.2500  -999.2500
 1849.0000     0.2000    14.5290   168.9500     2.0990  -999.2500     5.2700     5.3170  1768.9050  -999.2500  -999.2500  -999.2500
 1849.5000     0.2180    14.6040   174.9940     2.2020  -999.2500     5.2600     5.2910  1769.4640  -999.2500  -999.2500  -999.2500
 1850.0000     0.2410    14.8420   176.9750     2.3240  -999.2500     5.2500     5.2640  1770.0240  -999.2500  -999.2500  -999.2500
 1850.5000     0.2450    15.1010   171.9250     2.3010  -999.2500     5.2400     5.2390  1770.5830  -999.2500  -999.2500  -999.2500
 1851.0000     0.2460    15.2280   167.9390     2.2250  -999.2500     5.2690     5.2800  1771.1429  -999.2500  -999.2500  -999.2500
 1851.5000     0.2460    14.9950   165.5150     2.1420  -999.2500     5.2980     5.3210  1771.7030  -999.2500  -999.2500  -999.2500
 1852.0000     0.2360    14.8160   165.1830     2.0770  -999.2500     5.3270     5.3630  1772.2620  -999.2500  -999.2500  -999.2500
 1852.5000     0.2420    14.8350   165.8320     2.1530  -999.2500     5.3560     5.4040  1772.8220  -999.2500  -999.2500  -999.2500
 1853.0000     0.2420    14.7070   168.1280     2.2290  -999.2500     5.3860     5.4450  1773.3810  -999.2500  -999.2500  -999.2500
 1853.5000     0.2450    14.4560   170.3250     2.3120  -999.2500     5.4150     5.4860  1773.9410  -999.2500  -999.2500  -999.2500
 1854.0000     0.2230    14.2000   171.2380     2.2440  -999.2500     5.4450     5.5270  1774.5010  -999.2500  -999.2500  -999.2500
 1854.5000     0.2020    14.2000   169.8540     2.2600  -999.2500     5.4740     5.5680  1775.0601  -999.2500  -999.2500  -999.2500
 1855.0000     0.2330    14.2420   169.0210     2.2980  -999.2500     5.5030     5.6090  1775.6200  -999.2500  -999.2500  -999.2500
 1855.5000     0.2460    14.1890   169.2210     2.0550  -999.2500     5.5330     5.6510  1776.1790  -999.2500  -999.2500  -999.2500
 1856.0000     0.2570    14.1380   169.5090     1.7270  -999.2500     5.5620     5.6920  1776.7390  -999.2500  -999.2500  -999.2500
 1856.5000     0.0430    14.0930   170.4920     1.2590  -999.2500     5.5920     5.7330  1777.2990  -999.2500  -999.2500  -999.2500
 1857.0000    -0.0360    14.1780   171.8740     1.3840  -999.2500     5.6210     5.7740  1777.8580  -999.2500  -999.2500  -999.2500
 1857.5000     0.0160    14.2990   173.0740     1.6880  -999.2500     5.6430     5.8150  1778.4180  -999.2500  -999.2500  -999.2500
 1858.0000     0.0830    15.0980   168.9030     2.1640  -999.2500     5.6300     5.8560  1778.9771  -999.2500  -999.2500  -999.2500
 1858.5000     0.1400    15.7030   163.7460     2.4020  -999.2500     5.6140     5.8970  1779.5370  -999.2500  -999.2500  -999.2500
 1859.0000     0.1060    15.1470   161.0320     2.4370  -999.2500     5.5980     5.9670  1780.0970  -999.2500  -999.2500  -999.2500
 1859.5000     0.0780    14.5060   161.1940     2.4420  -999.2500     5.5820     5.9570  1780.6560  -999.2500  -999.2500  -999.2500
 1860.0000     0.0700    14.1300   161.6010     2.4560  -999.2500     5.5660     5.9240  1781.2159  -999.2500  -999.2500  -999.2500
 1860.5000     0.0680    14.0440   162.7630     2.4740  -999.2500     5.5500     5.8900  1781.7760  -999.2500  -999.2500  -999.2500
 1861.0000     0.0520    14.0320   161.7860     2.4850  -999.2500     5.5330     5.8560  1782.3350  -999.2500  -999.2500  -999.2500
 1861.5000     0.0350    14.0230   154.8870     2.4530  -999.2500     5.5170     5.8230  1782.8950  -999.2500  -999.2500  -999.2500
 1862.0000     0.0230    14.0100   150.0650     2.4660  -999.2500     5.5010     5.7890  1783.4540  -999.2500  -999.2500  -999.2500
 1862.5000     0.1050    14.0830   149.3910     2.5020  -999.2500     5.4850     5.7550  1784.0140  -999.2500  -999.2500  -999.2500
 1863.0000     0.1760    14.1790   150.5630     2.5450  -999.2500     5.4690     5.7220  1784.5740  -999.2500  -999.2500  -999.2500
 1863.5000     0.2030    14.2750   151.4140     2.5200  -999.2500     5.4530     5.6880  1785.1331  -999.2500  -999.2500  -999.2500
 1864.0000     0.1420    14.3730   152.4500     2.4590  -999.2500     5.4370     5.6540  1785.6930  -999.2500  -999.2500  -999.2500
 1864.5000     0.0630    14.4670   153.4740     2.4000  -999.2500     5.4210     5.6210  1786.2520  -999.2500  -999.2500  -999.2500
 1865.0000     0.0530    14.4710   154.1040     2.4080  -999.2500     5.4050     5.5870  1786.8120  -999.2500  -999.2500  -999.2500
 1865.5000     0.0720    14.4710   154.0960     2.4180  -999.2500     5.3890     5.5530  1787.3719  -999.2500  -999.2500  -999.2500
