~VERSION INFORMATION
 VERS.                2.0:   CWLS LOG ASCII STANDARD - VERSION 2.0
 WRAP.                 NO:   ONE LINE PER DEPTH STEP
~WELL INFORMATION
#MNEM.UNIT      DATA TYPE    INFORMATION
#----------   ------------   ------------------------------
 STRT.F          387.0000:   START DEPTH
 STOP.F         2921.0000:   STOP DEPTH
 STEP.F            0.5000:   STEP LENGTH
 NULL.          -999.2500:   NO VALUE
 COMP.    FENIX & SCISSON:   COMPANY
 WELL.  FENIX  "A" #21-28:   WELL
 FLD .          N.P.R. #3:   FIELD
 LOC .      S28 T39N R78W:   LOCATION
 CNTY.            NATRONA:   COUNTY
 STAT.            WYOMING:   STATE
 CTRY. UNITED STATES OF AMERICA:   COUNTRY
 SRVC.       SCHLUMBERGER:   SERVICE COMPANY
 DATE.        30-APR-1977:   LOGDATE
 API .     49025103550000:   API NUMBER
~CURVE INFORMATION
#MNEM.UNIT       API CODE    CURVE DESCRIPTION
#----------   ------------   ------------------------------
 DEPT.F                  :   
 SPR .MV     07 010 01 00:   SPONTANEOUS POTENTIAL
 ILD .OHMM   07 120 46 00:   DEEP INDUCTION RESISTIVITY
 ILM .OHMM   07 120 44 00:   INDUCTION LOG MEDIUM RESISTIVITY
 LL8 .OHMM   07 220 08 00:   LATEROLOG-8 RES.
 GRD .GAPI   45 310 01 00:   GAMMA RAY FROM DENSITY LOG
 CALD.IN     45 280 60 00:   CALIPER FROM DENSITY LOG
 CORR.G/C3   45 356 01 00:   DENSITY CORRECTION
 RHOB.G/C3   45 350 01 00:   BULK DENSITY
~PARAMETER INFORMATION
#MNEM.UNIT          VALUE    DESCRIPTION
#----------   ------------   ------------------------------
 EKB .F         4977.0000:   Kelly bushing
 EGL .F         4967.0000:   Ground level
 EDF .F            0.0000:   Drilling floor
 TD  .F         2922.0000:   Total depth
 CLNT.            A2DTECH:   Client Code
 SL  . 330' FNL & 990' FWL:   Surface Location
 DATE.        30-APR-1977:   Date Logged [DD-MMM-YYYY]
 DD  .F              2915:   Depth driller
 DL  .F              2922:   Depth logger
 BLI .F              2916:   Bottom log interval
 TLI .F               394:   Top log interval
 CS1 .              8.625:   Casing size
 CBD1.      8.625" @ 390':   Casing driller 1
 CBL1.IN              394:   Casing logger 1
 BS1 .IN            7.875:   Bit size
 BSD1.F              2915:   Depth drilled with bit1
 DFT .            KCL MUD:   Type fluid in hole
 DFD .                8.9:   Density
 DFV .                 87:   Viscosity
 DFPH.                8.5:   pH
 DFL .                9.6:   Fluid loss
 MSS .                PIT:   Source of sample
 RMS .OHMM           0.25:   Rm
 MST .F                70:   Rm Meas. temp.
 RMF .OHMM           0.22:   Rmf
 MFST.F                70:   Rmf Meas. temp.
 MFSS.               MEAS:   Source Rmf.
 RMC .OHMM           0.38:   Rmc
 MCST.F                70:   Rmc Meas. temp.
 MCSS.               CALC:   Source Rmc.
 RMB .OHMM           0.09:   Rm. at BHT
 BHT .F               109:   BHT.
 TCS .HRS            1800:   Time Circ. stopped
 TLAB.HRS            2200:   Time logger at bottom
 MRT .F               109:   Maximum recorded temp.
 LUN .                711:   Logging unit number
 LUL .             CASPER:   Logging unit location
 ENGI.              SYLER:   Recorded By
 WITN.         PETTINGILL:   Witnessed by
 ORIG.           5" PRINT:   Origin of data
 UWI .     49025103550000:   Unique Well ID
 DICO. A2D TECHNOLOGIES, INC.:   Digitizing Company
 PD  .                 GL:   Permanent Datum
 EPD .F              4967:   Elevation Permanent Datum
 LMF .                 KB:   Log Measured From
 DMF .                 KB:   Drilling Measured From
 DAPD.F                10:   Feet Above Permanent Datum
~OTHER INFORMATION
~A   DEPT      SPR        ILD        ILM        LL8         GRD      CALD       CORR       RHOB   
  387.0000  -999.2500  -999.2500  -999.2500  -999.2500    78.2367  -999.2500  -999.2500  -999.2500
  387.5000  -999.2500  -999.2500  -999.2500  -999.2500    78.2521  -999.2500  -999.2500  -999.2500
  388.0000  -999.2500  -999.2500  -999.2500  -999.2500    78.7318  -999.2500  -999.2500  -999.2500
  388.5000  -999.2500  -999.2500  -999.2500  -999.2500    81.5336  -999.2500  -999.2500  -999.2500
  389.0000  -999.2500  -999.2500  -999.2500  -999.2500    81.8586  -999.2500  -999.2500  -999.2500
  389.5000  -999.2500  -999.2500  -999.2500  -999.2500    80.9451  -999.2500  -999.2500  -999.2500
  390.0000  -999.2500  -999.2500  -999.2500  -999.2500    79.8731  -999.2500  -999.2500  -999.2500
  390.5000  -999.2500  -999.2500  -999.2500  -999.2500    80.3567  -999.2500  -999.2500  -999.2500
  391.0000  -999.2500  -999.2500  -999.2500  -999.2500    80.6817  -999.2500  -999.2500  -999.2500
  391.5000  -999.2500  -999.2500  -999.2500  -999.2500    80.6971  -999.2500  -999.2500  -999.2500
  392.0000  -999.2500  -999.2500  -999.2500  -999.2500    80.5573  -999.2500  -999.2500  -999.2500
  392.5000  -999.2500  -999.2500  -999.2500  -999.2500    80.2634  -999.2500  -999.2500  -999.2500
  393.0000  -999.2500  -999.2500  -999.2500  -999.2500    78.5760  -999.2500  -999.2500  -999.2500
  393.5000  -999.2500  -999.2500  -999.2500  -999.2500    79.2106  -999.2500  -999.2500  -999.2500
  394.0000  -999.2500  -999.2500  -999.2500  -999.2500    81.8674     8.5050    -0.1758     2.3755
  394.5000  -999.2500  -999.2500  -999.2500  -999.2500    87.0501     8.9593     0.1129     2.6386
  395.0000    -7.8296     6.7282     7.2528    12.7020    92.4666     9.0547     0.1464     2.3919
  395.5000    -8.1714     3.2969     6.6740    11.0675    95.4149     9.1502     0.0953     2.3827
  396.0000   -17.5304     2.6060     5.8546    10.1209    97.6284     9.3705     0.1288     2.4440
  396.5000   -33.1582     3.5124     5.9415     9.9867    99.8276     9.5311     0.0924     2.4480
  397.0000   -39.8195     6.2690     6.4073    10.3477   103.3992     9.4678     0.0476     2.4612
  397.5000   -46.4808    11.3796    10.0636    10.7199   110.9164     9.2668     0.0229     2.4846
  398.0000   -55.2697    47.3361    11.7793    10.8018   114.4921     9.1751     0.0144     2.5001
  398.5000   -61.3189    25.3291    13.0963    10.5137   114.8133     9.1613     0.0106     2.5049
  399.0000   -65.2446    12.5167    12.3092     9.9535   113.1297     9.1465     0.0223     2.5057
  399.5000   -67.4986    11.2083    11.0986     9.6211   110.3587     9.1462     0.0363     2.5120
  400.0000   -70.8164    10.8305    10.8741     9.3645   114.3988     9.1458     0.0263     2.5182
  400.5000   -75.5020    11.1416    10.7282     9.2403   115.8074     9.1455     0.0202     2.5198
  401.0000   -78.5159    11.4602    10.3667     9.3126   115.8228     9.1451     0.0311     2.5160
  401.5000   -81.2258    11.6258    10.1570     9.5147   115.6795     9.1448     0.0196     2.5060
  402.0000   -83.0238    11.4712    10.2311     9.7889   115.6987     9.1444     0.0065     2.4968
  402.5000   -84.5180    11.0858    10.4494    10.0014   115.5593     9.1608     0.0019     2.4898
  403.0000   -86.0121    10.7879    10.5988    10.1479   109.6924     9.1626     0.0066     2.4860
  403.5000   -87.2022    10.4255    10.6024    10.0847   109.5491     9.1801     0.0099     2.4830
  404.0000   -87.9365    10.2857    10.4602     9.9539   112.4900     9.2132     0.0098     2.4799
  404.5000   -87.9108    10.0801    10.2486     9.8236   116.9344     9.2306     0.0130     2.4808
  405.0000   -87.4293    10.0151    10.0414     9.7608   120.7458     9.2481     0.0224     2.4886
  405.5000   -85.8839     9.9509     9.9058     9.7006   120.9135     9.2811     0.0325     2.4996
  406.0000   -85.0983     9.9556     9.7729     9.7075   119.5357     9.2986     0.0241     2.5091
  406.5000   -85.5286     9.9604     9.7096     9.7143   115.9801     9.3163     0.0172     2.5185
  407.0000   -86.5668     9.9652     9.7130     9.7222   112.1238     9.3341     0.0141     2.5238
  407.5000   -88.2129     9.9701     9.7163     9.7283   111.2227     9.3510     0.0150     2.5229
  408.0000   -90.7687     9.9749     9.7196     9.7350   111.5624     9.3699     0.0181     2.5053
  408.5000   -93.0227     9.9797     9.7905     9.8094   112.2012     9.4016     0.0229     2.4898
  409.0000   -94.3648    10.0549     9.8619     9.8162   112.9948     9.4191     0.0338     2.4961
  409.5000   -95.0991    10.2002     9.9339     9.9600   113.6068     9.4209     0.0439     2.5140
  410.0000   -95.5294    10.3475    10.0064    10.1059   113.3158     9.4543     0.0393     2.5350
  410.5000   -95.9596    10.4244     9.9407    10.1832   111.9380     9.4562     0.0293     2.5358
  411.0000   -96.3899    10.5020     9.9539    10.4043   111.4851     9.4581     0.0224     2.5212
  411.5000   -96.6682    10.5801    10.0292    10.4838   112.8975     9.4755     0.0163     2.5034
  412.0000   -96.9529    10.6587    10.3024    10.5669   113.8417     9.4930     0.0124     2.4926
  412.5000   -97.2248    10.6638    10.3776    10.7189   111.3803     9.4948     0.0110     2.4950
  413.0000   -97.3576    10.8179    10.3811    10.7015   108.6093     9.5279     0.0359     2.5144
  413.5000   -97.1736    10.8983    10.5295    10.6730   109.2439     9.5298     0.0445     2.5292
  414.0000   -97.1479    11.0557    10.6063    10.6660   111.7360     9.5316     0.0376     2.5331
  414.5000   -97.1223    11.2154    10.7579    10.6752   113.2994     9.5491     0.0253     2.5188
  415.0000   -97.2492    11.2988    10.8364    10.6825   111.9216     9.5510     0.0191     2.5046
  415.5000   -97.3754    11.5417    10.9149    10.7641   108.6862     9.5528     0.0122     2.5054
  416.0000   -97.3493    11.7084    10.9187    10.7715   106.8439     9.5703     0.0107     2.5086
  416.5000   -97.3221    11.7140    10.9230    10.7789   105.1565     9.5877     0.0124     2.5102
  417.0000   -98.6636    11.8011    10.9267    10.7863   101.9211     9.6208     0.0155     2.5056
  417.5000  -100.4617    11.8069    10.9305    10.7937   100.8491     9.6539     0.0187     2.4948
  418.0000  -101.4999    11.8124    10.9342    10.8762   102.2615     9.7025     0.0219     2.4941
  418.5000  -101.4743    11.9006    11.0140    10.9594   103.2057     9.7824     0.0250     2.4988
  419.0000  -101.2966    12.0736    11.2490    11.0432   103.2210     9.8466     0.0321     2.5082
  419.5000  -100.9670    12.3332    11.5690    11.1276   103.8556     9.8953     0.0345     2.5214
  420.0000  -100.4855    12.6859    11.6524    11.1353   106.6574     9.9284     0.0287     2.5238
  420.5000  -100.3078    13.1395    11.5767    11.1430   108.3755     9.9458     0.0228     2.5184
  421.0000   -99.9782    13.7040    11.2645    11.1508   109.0101     9.9633     0.0206     2.5177
  421.5000   -99.6487    13.4284    10.8097    11.1601   109.9543     9.9651     0.0326     2.5195
  422.0000   -99.0151    12.7986    10.0900    11.1677   110.2793     9.9670     0.0364     2.5249
  422.5000   -98.3815    12.2833     8.4889    11.1754   109.8302    10.0001     0.0350     2.5246
  423.0000   -98.0446    11.9532     8.3172    11.1039   104.5837    10.0175     0.0306     2.5157
  423.5000   -97.5699    11.7128     8.4394    10.8847   102.8963    10.0194     0.0382     2.5111
  424.0000   -97.0881    11.7184     8.7652    10.7423   101.2089    10.0368     0.0569     2.5142
  424.5000   -96.7583    11.9703    10.0930    10.5999   100.2955    10.0699     0.0800     2.5244
  425.0000   -96.4285    12.0594    11.6398    10.4629    99.2273    10.1810     0.1000     2.5361
  425.5000   -95.9417    12.1491    11.7797    10.3960    97.6947    10.4029     0.1297     2.5455
  426.0000   -95.3081    12.0708    11.5415    10.4055    97.3966    10.8646     0.1518     2.5486
  426.5000   -94.9785    11.8282    11.3081    10.4126    97.4158    11.2175     0.1504     2.5285
  427.0000   -94.4448    11.7522    11.3119    10.5652    97.8956    11.2649     0.0692     2.5053
