~VERSION INFORMATION
 VERS.                2.0:   CWLS LOG ASCII STANDARD - VERSION 2.0
 WRAP.                 NO:   ONE LINE PER DEPTH STEP
~WELL INFORMATION
#MNEM.UNIT      DATA TYPE    INFORMATION
#----------   ------------   ------------------------------
 STRT.F            0.0000:   START DEPTH
 STOP.F         4152.0000:   STOP DEPTH
 STEP.F            0.5000:   STEP LENGTH
 NULL.          -999.2500:   NO VALUE
 COMP. LAWRENCE ALLISON & ASSOCIATES:   COMPANY
 WELL. LAWRENCE "X" #28-27:   WELL
 FLD .             NPR #3:   FIELD
 LOC .      S27 T39N R78W:   LOCATION
 CNTY.            NATRONA:   COUNTY
 STAT.            WYOMING:   STATE
 CTRY. UNITED STATES OF AMERICA:   COUNTRY
 SRVC.      DRESSER ATLAS:   SERVICE COMPANY
 DATE.        26-FEB-1984:   LOGDATE
 API .     49025109630000:   API NUMBER
~CURVE INFORMATION
#MNEM.UNIT       API CODE    CURVE DESCRIPTION
#----------   ------------   ------------------------------
 DEPT.F                  :   
 GRR .GAPI   07 310 01 00:   GAMMA RAY FROM RES.
 TENR.LBS    07 635 01 00:   TENSION FROM RES.
 SPR .MV     07 010 01 00:   SPONTANEOUS POTENTIAL
 RILD.OHMM   07 120 46 00:   RESISTIVITY INDUCTION LOG DEEP
 RILM.OHMM   07 120 44 00:   RESISTIIVTY INDUCTION LOG MEDIUM
 RFOC.OHMM   07 220 04 00:   RESISTIVITY FOCUSED LOG
 DT  .US/F   60 520 00 00:   DELTA TIME
 TENS.LBS    60 635 01 00:   TENSION FROM SONIC
 CALD.IN     45 280 60 00:   CALIPER FROM DENSITY LOG
 TEND.LBS    45 635 01 00:   TENSION FORM DENSITY LOG
 CNC .DEC    42 890 03 00:   NEUTRON POROSITY SANDSTONE
 CORR.G/C3   45 356 01 00:   DENSITY CORRECTION
 DENS.G/C3   45 350 01 00:   DENSITY
~PARAMETER INFORMATION
#MNEM.UNIT          VALUE    DESCRIPTION
#----------   ------------   ------------------------------
 EKB .F         5088.0000:   Kelly bushing
 EGL .F         5078.0000:   Ground level
 EDF .F            0.0000:   Drilling floor
 TD  .F         4154.0000:   Total depth
 CLNT.            A2DTECH:   Client Code
 SL  . 250' FSL & 810' FWL:   Surface Location
 PD  .                 GL:   Permanent Datum
 EPD .F              5078:   Elevation Permanent Datum
 LMF .                 KB:   Log Measured From
 DMF .                 KB:   Drilling Measured From
 DAPD.F                10:   Feet Above Permanent Datum
 DATE.        26-FEB-1984:   Date Logged [DD-MMM-YYYY]
 DD  .F              4154:   Depth driller
 DL  .F              4148:   Depth logger
 BLI .F              4146:   Bottom log interval
 TLI .F                 0:   Top log interval
 CS1 .IN            8.625:   Casing size
 CBD1.      8.625" @ 537':   Casing driller 1
 CBL1.F               540:   Casing logger 1
 BS1 .IN            7.875:   Bit size
 BSD1.F              4154:   Depth drilled with bit1
 DFT .            GEL KCL:   Type fluid in hole
 DFD .                  9:   Density
 DFV .                 45:   Viscosity
 DFPH.                  8:   pH
 DFL .                 14:   Fluid loss
 MSS .           FLOWLINE:   Source of sample
 RMS .OHMM          0.595:   Rm
 MST .F                60:   Rm Meas. temp.
 RMF .OHMM          0.446:   Rmf
 MFST.F                60:   Rmf Meas. temp.
 MFSS.               CALC:   Source Rmf.
 RMC .OHMM          0.744:   Rmc
 MCST.F                60:   Rmc Meas. temp.
 MCSS.               CALC:   Source Rmc.
 RMB .OHMM           0.26:   Rm. at BHT
 BHT .F               138:   BHT.
 TCS .HRS               4:   Time Circ. stopped
 MRT .F               138:   Maximum recorded temp.
 LUN .               6307:   Logging unit number
 LUL .               GLTE:   Logging unit location
 ENGI.           FAHLSING:   Recorded By
 WITN.           JENNINGS:   Witnessed by
 ORIG.      1" 2.5" PRINT:   Origin of data
 UWI .     49025109630000:   Unique Well ID
 DICO. A2D TECHNOLOGIES, INC.:   Digitizing Company
~OTHER INFORMATION
~A    DEPT       GRR     TENR        SPR       RILD       RILM       RFOC         DT       TENS       CALD       TEND        CNC       CORR       DENS   
# ...
 2210.0000   114.2556   -35.5030   -23.9580     5.2510     5.2871     6.0020  -999.2500  -999.2500     8.8576   -40.0000     0.2556     0.0933     2.4815
 2210.5000   115.4753   -35.8728   -24.2670     5.0924     5.2894     5.2415  -999.2500  -999.2500     8.8580   -40.0000     0.2531     0.0702     2.4935
 2211.0000   113.1022   -43.3407   -24.6050     4.9492     5.1400     5.1023  -999.2500  -999.2500     8.8585   -40.0000     0.2513     0.0733     2.5041
 2211.5000   110.0551   -51.4644   -25.1278     4.6036     4.7643     4.9668  -999.2500  -999.2500     8.8589   -40.0000     0.2518     0.0733     2.5010
 2212.0000   109.5536   -51.8047   -25.1190     4.2569     4.3097     4.7458  -999.2500  -999.2500     8.8594   -40.0000     0.2535     0.0734     2.4973
 2212.5000   113.6223   -52.1451   -25.1106     3.8366     3.7208     4.3103  -999.2500  -999.2500     8.8599   -40.0000     0.2563     0.0639     2.4896
 2213.0000   119.1898   -52.5148   -25.1037     3.6850     3.5734     3.8928  -999.2500  -999.2500     8.8300   -40.0000     0.2539     0.0644     2.4604
 2213.5000   115.6191   -52.8846   -25.0873     3.7890     3.7241     3.3991  -999.2500  -999.2500     8.8001   -40.0000     0.2382     0.0705     2.4393
 2214.0000   111.4496   -53.2545   -24.4940     3.9688     3.9537     3.0498  -999.2500  -999.2500     8.8006   -40.0000     0.2364     0.1278     2.4288
 2214.5000   110.1337   -53.6764   -24.4866     4.1935     4.1770     3.1571  -999.2500  -999.2500     8.7707   -40.0000     0.2471     0.1494     2.4341
 2215.0000   108.1637   -54.0168   -24.9305     4.3819     4.3050     3.8300  -999.2500  -999.2500     8.7712   -40.0000     0.2497     0.1218     2.4744
 2215.5000   106.1317   -54.3639   -25.0670     4.4117     4.3337     5.2589  -999.2500  -999.2500     8.7717   -40.0000     0.2491     0.1063     2.5087
 2216.0000   105.5612   -54.7337   -25.6542     4.2377     4.2769     5.8607  -999.2500  -999.2500     8.7722   -40.0000     0.2533     0.0968     2.5185
 2216.5000   105.5833   -49.3778   -25.9456     3.9931     3.9807     5.8716  -999.2500  -999.2500     8.7726   -40.0000     0.2629     0.0934     2.5118
 2217.0000   106.2042   -40.6805   -26.2357     3.6107     3.5320     5.5328  -999.2500  -999.2500     8.7730   -40.0000     0.2630     0.0889     2.5073
 2217.5000   109.6089   -26.3028   -26.3245     3.1725     3.1806     4.6416  -999.2500  -999.2500     8.7735   -40.0000     0.2617     0.0859     2.4937
 2218.0000   123.8215   -26.6432   -26.6627     2.9026     2.8108     3.2491  -999.2500  -999.2500     8.7739   -40.0000     0.2612     0.0799     2.4772
 2218.5000   123.5427   -26.9970   -26.8080     2.7504     2.6271     2.7425  -999.2500  -999.2500     8.7745   -40.0000     0.2624     0.0735     2.4582
 2219.0000   117.3095   -27.3668   -26.5023     2.6781     2.5927     2.6697  -999.2500  -999.2500     8.7749   -40.0000     0.2545     0.0579     2.4362
 2219.5000   108.3549   -27.7367   -26.1978     2.6719     2.6655     2.6704  -999.2500  -999.2500     8.7753   -40.0000     0.2582     0.0469     2.4344
 2220.0000   104.1907   -28.1745   -25.5160     2.6448     2.7033     2.7244  -999.2500  -999.2500     8.7454   -40.0000     0.2606     0.0530     2.4335
 2220.5000   107.5169   -28.5149   -24.3964     2.7201     2.7419     3.3016  -999.2500  -999.2500     8.7459   -40.0000     0.2564     0.0952     2.4426
 2221.0000   111.0247   -28.8552   -24.6875     2.7589     2.7059     3.5755  -999.2500  -999.2500     8.7464   -40.0000     0.2452     0.0923     2.4576
 2221.5000   116.2627   -29.2159   -24.9780     2.7604     2.7443     3.3224  -999.2500  -999.2500     8.7469   -40.0000     0.2414     0.0863     2.4516
 2222.0000   118.6853   -29.5859   -24.9702     2.6828     2.7084     3.2784  -999.2500  -999.2500     8.7776   -40.0000     0.2517     0.0934     2.4468
 2222.5000   121.1079   -29.9556   -24.5238     2.6416     2.7098     3.2288  -999.2500  -999.2500     8.7780   -40.0000     0.2598     0.0984     2.4451
 2223.0000   121.0316   -30.3867   -23.7637     2.6190     2.6744     3.1077  -999.2500  -999.2500     8.7785   -40.0000     0.2613     0.0924     2.4434
 2223.5000   117.3071   -15.9024   -23.4593     2.6567     2.6041     2.6930  -999.2500  -999.2500     8.7789   -40.0000     0.2631     0.0684     2.4336
 2224.0000   114.0120   -16.2745   -22.8451     2.7315     2.6771     2.6304  -999.2500  -999.2500     8.7794   -40.0000     0.2661     0.0353     2.4200
 2224.5000   118.2372   -14.2708   -22.5521     2.9736     2.9539     3.1949  -999.2500  -999.2500     8.7799   -40.0000     0.2685     0.0223     2.4170
 2225.0000   123.6538    -2.1623   -22.5446     3.2978     3.3088     3.3287  -999.2500  -999.2500     8.7804   -40.0000     0.2616     0.0103     2.4339
 2225.5000   129.9742    -2.5887   -22.8335     3.4691     3.4190     3.3296  -999.2500  -999.2500     8.7808   -40.0000     0.2514     0.0083     2.4517
 2226.0000   136.3744    -3.0130   -23.4219     3.6939     3.6678     3.3305  -999.2500  -999.2500     8.7812   -40.0000     0.2530     0.0174     2.4503
 2226.5000   140.5090    -3.3533   -23.7128     3.8500     3.9277     3.4233  -999.2500  -999.2500     8.7817   -40.0000     0.2667     0.0596     2.4518
 2227.0000   138.1484   -18.4910   -23.7054     4.0675     4.2060     4.3136  -999.2500  -999.2500     8.7821   -40.0000     0.2698     0.1018     2.4624
 2227.5000   136.3794   -18.8610   -23.6979     4.3184     4.4540     4.8117  -999.2500  -999.2500     8.7826   -40.0000     0.2692     0.1014     2.4714
 2228.0000   134.6104   -19.2307   -23.5277     4.5858     4.6766     4.8772  -999.2500  -999.2500     8.7831   -40.0000     0.2588     0.0969     2.4937
 2228.5000   133.9149   -27.6880   -23.0869     4.9365     4.9284     4.7220  -999.2500  -999.2500     8.7835   -40.0000     0.2514     0.0839     2.5046
 2229.0000   131.8005   -34.8110   -22.4849     5.4263     5.2391     4.3185  -999.2500  -999.2500     8.7839   -40.0000     0.2493     0.0749     2.5016
 2229.5000   125.1255   -35.1331   -22.4777     5.8115     5.5345     4.2038  -999.2500  -999.2500     8.7844   -40.0000     0.2496     0.0745     2.5047
 2230.0000   116.7697   -35.5030   -22.0833     6.2502     5.9515     4.5619  -999.2500  -999.2500     8.7848   -40.0000     0.2445     0.0750     2.5122
 2230.5000   110.2102   -35.8728   -21.7222     6.7188     6.3968     5.3940  -999.2500  -999.2500     8.7853   -40.0000     0.2349     0.0846     2.5243
 2231.0000   105.8845   -36.2426   -21.2638     6.9434     6.7483     5.8322  -999.2500  -999.2500     8.7858   -40.0000     0.2385     0.0932     2.5322
 2231.5000   102.3127   -36.6827   -20.6617     7.3422     7.0840     6.2460  -999.2500  -999.2500     8.7862   -40.0000     0.2440     0.0977     2.5349
 2232.0000    98.6113   -36.9822   -20.3412     7.5490     7.2826     6.5905  -999.2500  -999.2500     8.8170   -40.0000     0.2446     0.1023     2.5075
 2232.5000    97.7545   -37.3633   -20.0521     7.7616     7.3881     6.7737  -999.2500  -999.2500     8.8227   -40.0000     0.2402     0.1084     2.4897
 2233.0000    98.9837   -37.7219   -20.0446     7.7664     7.5929     6.8682  -999.2500  -999.2500     8.8482   -40.0000     0.2360     0.1114     2.4882
 2233.5000   101.5554   -38.0917   -20.0359     7.7711     7.6376     6.8436  -999.2500  -999.2500     8.8789   -40.0000     0.2319     0.1074     2.4882
 2234.0000   106.8180   -38.4615   -20.0291     7.7768     7.7050     6.7359  -999.2500  -999.2500     8.8795   -40.0000     0.2301     0.0804     2.4882
 2234.5000   110.6259   -38.8949   -20.0223     7.7812     7.7083     6.5993  -999.2500  -999.2500     8.9102   -40.0000     0.2350     0.0649     2.4882
 2235.0000   117.0711   -39.2352   -20.0149     7.7855     7.7117     6.5120  -999.2500  -999.2500     8.9106   -40.0000     0.2382     0.0574     2.4889
 2235.5000   123.0865   -39.5710   -20.0074     7.7902     7.8210     6.6063  -999.2500  -999.2500     8.9111   -40.0000     0.2392     0.0604     2.4943
