~VERSION INFORMATION
 VERS.                2.0:   CWLS LOG ASCII STANDARD - VERSION 2.0
 WRAP.                 NO:   ONE LINE PER DEPTH STEP
~WELL INFORMATION
#MNEM.UNIT      DATA TYPE    INFORMATION
#----------   ------------   ------------------------------
 STRT.F            0.0000:   START DEPTH
 STOP.F         3040.0000:   STOP DEPTH
 STEP.F            0.5000:   STEP LENGTH
 NULL.          -999.2500:   NO VALUE
 COMP. LAWRENCE ALLISON & ASSOCIATES:   COMPANY
 WELL. LAWRENCE NPR 3 "AX" #77-28:   WELL
 FLD .      NPR - WILDCAT:   FIELD
 LOC .      S28 T39N R78W:   LOCATION
 CNTY.            NATRONA:   COUNTY
 STAT.            WYOMING:   STATE
 CTRY. UNITED STATES OF AMERICA:   COUNTRY
 SRVC.      DRESSER ATLAS:   SERVICE COMPANY
 DATE.        19-OCT-1986:   LOGDATE
 API .     49025111150000:   API NUMBER
~CURVE INFORMATION
#MNEM.UNIT       API CODE    CURVE DESCRIPTION
#----------   ------------   ------------------------------
 DEPT.F                  :   
 TENR.LBS    07 635 01 00:   TENSION FROM RESISTIVITY
 RILD.OHMM   07 120 46 00:   DEEP INDUCTION RESISTIVITY
 RILM.OHMM   07 120 44 00:   INDUCTION LOG MEDIUM RESISTIVITY
 RFOC.OHMM   07 220 04 00:   RESISTIVITY FOCUSED LOG RES.
 SPR .MV     07 010 01 00:   SPONTANEOUS POTENTIAL
 GRR .GAPI   07 310 01 00:   GAMMA RAY FROM RESISTIVITY
 CNC .DEC    42 890 03 00:   NEUTRON POROSITY SANDSTONE
 RHOB.G/C3   45 350 01 00:   BULK DENSITY
 TEND.LBS    45 635 01 00:   TENSION FROM DENSITY LOG
 CORR.G/C3   45 356 01 00:   DENSITY CORRECTION
 CALD.IN     45 280 60 00:   CALIPER FROM DENSITY LOG
~PARAMETER INFORMATION
#MNEM.UNIT          VALUE    DESCRIPTION
#----------   ------------   ------------------------------
 EKB .F         5086.0000:   Kelly bushing
 EGL .F         5074.0000:   Ground level
 EDF .F            0.0000:   Drilling floor
 TD  .F         3025.0000:   Total depth
 DATE.        19-OCT-1986:   Date logged
 CLNT.            A2DTECH:   Client Code
 SL  . 967' FSL @ 763' FEL:   Surface Location
 PD  .                 GL:   Permanent Datum
 EPD .F              5074:   Elevation Permanent Datum
 LMF .                 KB:   Log Measured From
 DMF .                 KB:   Drilling Measured From
 DAPD.F                12:   Feet Above Permanent Datum
 DD  .F              3021:   Depth driller
 DL  .F              3025:   Depth logger
 BLI .F              3023:   Bottom log interval
 CS1 .IN            8.625:   Casing size
 CBD1.      8.625" @ 620':   Casing driller 1
 CBL1.F               615:   Casing logger 1
 BS1 .IN            7.875:   Bit size
 BSD1.F              3021:   Depth drilled with bit1
 DFT .        KCL/POLTMER:   Type fluid in hole
 DFD .                8.9:   Density
 DFV .                 38:   Viscosity
 DFPH.                9.5:   pH
 DFL .                 11:   Fluid loss
 MSS .           FLOWLINE:   Source of sample
 RMS .OHMM            .25:   Rm
 MST .F                65:   Rm Meas. temp.
 RMF .OHMM           .203:   Rmf
 MFST.F                65:   Rmf Meas. temp.
 RMC .OHMM            .31:   Rmc
 MCST.F                65:   Rmc Meas. temp.
 MFSS.               MEAS:   Source Rmf.
 MCSS.               CALC:   Source Rmc.
 RMB .OHMM           .136:   Rm. at BHT
 BHT .F               119:   BHT.
 TCS .HRS               5:   Time Circ. stopped
 MRT .F               119:   Maximum recorded temp.
 LUN .               6274:   Logging unit number
 LUL .               GLTE:   Logging unit location
 ENGI.             RAUTIO:   Recorded By
 WITN.             STRONG:   Witnessed by
 ORIG.         2.5" PRINT:   Origin of data
 UWI .     49025111150000:   Unique Well ID
 DICO. A2D TECHNOLOGIES, INC.:   Digitizing Company
~OTHER INFORMATION
~A    DEPT    TENR       RILD       RILM       RFOC        SPR         GRR       CNC       RHOB       TEND       CORR       CALD   
# ...
  945.5000   -64.3640     8.5440     8.1550     9.1820   -77.3590   106.2300  -999.2500  -999.2500  -999.2500  -999.2500  -999.2500
  946.0000   -66.1960     8.5610     8.1790     9.2830   -77.4310   106.3250  -999.2500  -999.2500  -999.2500  -999.2500  -999.2500
  946.5000   -71.1570     8.5790     8.2030     9.1300   -77.5020   104.9440  -999.2500  -999.2500  -999.2500  -999.2500  -999.2500
  947.0000   -76.1180     8.5970     8.2270     8.9640   -77.5660   100.2340  -999.2500  -999.2500  -999.2500  -999.2500  -999.2500
  947.5000   -81.0780     8.6150     8.2510     8.9870   -77.6360    97.0050  -999.2500  -999.2500  -999.2500  -999.2500  -999.2500
  948.0000   -74.3140     8.6330     8.2750     9.0330   -77.7040    97.7020  -999.2500  -999.2500  -999.2500  -999.2500  -999.2500
  948.5000   -57.7780     8.6510     8.2990     9.0790   -77.7720    99.3410  -999.2500  -999.2500  -999.2500  -999.2500  -999.2500
  949.0000   -41.2420     8.6690     8.3230     9.1170   -77.8390   100.8630  -999.2500  -999.2500  -999.2500  -999.2500  -999.2500
  949.5000   -24.5100     8.6870     8.3470     9.0770   -77.9070   102.5340  -999.2500  -999.2500  -999.2500  -999.2500  -999.2500
  950.0000   -30.6040     8.7040     8.3710     9.0430   -77.9770   102.8250  -999.2500  -999.2500  -999.2500  -999.2500  -999.2500
  950.5000   -36.7710     8.7220     8.3960     9.0080   -78.0510   102.0480  -999.2500  -999.2500  -999.2500  -999.2500  -999.2500
  951.0000   -44.1180     8.7400     8.4180     8.9540   -78.1340   101.4830  -999.2500  -999.2500  -999.2500  -999.2500  -999.2500
  951.5000   -44.8280     8.7570     8.4440     8.9660   -78.2190   102.6540  -999.2500  -999.2500  -999.2500  -999.2500  -999.2500
  952.0000   -45.7070     8.7750     8.4820     8.9980   -78.3030   104.3580  -999.2500  -999.2500  -999.2500  -999.2500  -999.2500
  952.5000   -46.5860     8.7920     8.4040     9.0300   -78.3880   103.1080  -999.2500  -999.2500  -999.2500  -999.2500  -999.2500
  953.0000   -47.4650     8.7450     8.2190     9.0610   -78.4720   101.8680  -999.2500  -999.2500  -999.2500  -999.2500  -999.2500
  953.5000   -48.3440     8.7000     8.0330     9.1090   -78.5570   100.6900  -999.2500  -999.2500  -999.2500  -999.2500  -999.2500
  954.0000   -49.2230     8.6530     7.8900     9.0890   -78.6410    99.3570  -999.2500  -999.2500  -999.2500  -999.2500  -999.2500
  954.5000   -50.1020     8.6070     7.8860     8.9680   -78.7260   100.9630  -999.2500  -999.2500  -999.2500  -999.2500  -999.2500
  955.0000   -50.9800     8.5600     7.8820     8.8470   -78.8110   102.8250  -999.2500  -999.2500  -999.2500  -999.2500  -999.2500
  955.5000   -51.8590     8.5130     7.8780     8.7270   -78.8950   104.5300  -999.2500  -999.2500  -999.2500  -999.2500  -999.2500
  956.0000   -52.7380     8.4660     7.8750     8.6560   -78.9800   102.9660  -999.2500  -999.2500  -999.2500  -999.2500  -999.2500
  956.5000   -53.6170     8.4200     7.8710     8.7360   -79.0640   102.2330  -999.2500  -999.2500  -999.2500  -999.2500  -999.2500
  957.0000   -54.4960     8.3730     7.8670     8.8150   -79.1490   103.6900  -999.2500  -999.2500  -999.2500  -999.2500  -999.2500
  957.5000   -55.3750     8.3270     7.8640     8.8950   -79.2330   107.9770  -999.2500  -999.2500  -999.2500  -999.2500  -999.2500
  958.0000   -56.2540     8.2800     7.8600     8.9470   -79.3180   106.8920  -999.2500  -999.2500  -999.2500  -999.2500  -999.2500
  958.5000   -57.1320     8.2330     7.8560     8.9200   -79.4020   100.8390  -999.2500  -999.2500  -999.2500  -999.2500  -999.2500
  959.0000   -58.0110     8.1810     7.8520     8.8940   -79.4870    97.5880  -999.2500  -999.2500  -999.2500  -999.2500  -999.2500
  959.5000   -58.8900     8.1730     7.8490     8.8670   -79.5710   100.0010  -999.2500  -999.2500  -999.2500  -999.2500  -999.2500
  960.0000   -59.7690     8.1630     7.8450     8.8410   -79.6570   102.7550  -999.2500  -999.2500  -999.2500  -999.2500  -999.2500
  960.5000   -60.6480     8.1530     7.8410     8.8140   -79.7400   105.4910  -999.2500  -999.2500  -999.2500  -999.2500  -999.2500
  961.0000   -61.5270     8.1440     7.8370     8.7870   -79.8230   104.7770  -999.2500  -999.2500  -999.2500  -999.2500  -999.2500
  961.5000   -62.4050     8.1350     7.8340     8.7610   -79.9190   103.2950  -999.2500  -999.2500  -999.2500  -999.2500  -999.2500
  962.0000   -63.2840     8.1250     7.8300     8.7340   -79.9140   104.6690  -999.2500  -999.2500  -999.2500  -999.2500  -999.2500
  962.5000   -62.9830     8.1160     7.8260     8.7070   -79.7640   106.0430  -999.2500  -999.2500  -999.2500  -999.2500  -999.2500
  963.0000   -61.4910     8.1060     7.8230     8.6810   -79.6280   105.3770  -999.2500  -999.2500  -999.2500  -999.2500  -999.2500
  963.5000   -60.0000     8.0970     7.8190     8.6380   -79.4840   103.1700  -999.2500  -999.2500  -999.2500  -999.2500  -999.2500
  964.0000   -58.5090     8.0870     7.8150     8.6460   -79.3500   100.8100  -999.2500  -999.2500  -999.2500  -999.2500  -999.2500
  964.5000   -57.0170     8.0780     7.8110     8.6790   -79.1930    99.9570  -999.2500  -999.2500  -999.2500  -999.2500  -999.2500
  965.0000   -55.5260     8.0680     7.8080     8.7120   -79.2090    99.9530  -999.2500  -999.2500  -999.2500  -999.2500  -999.2500
  965.5000   -54.0340     8.0590     7.8040     8.7460   -79.2690   100.4950  -999.2500  -999.2500  -999.2500  -999.2500  -999.2500
  966.0000   -52.5430     8.0500     7.8000     8.7920   -79.3330   101.3990  -999.2500  -999.2500  -999.2500  -999.2500  -999.2500
  966.5000   -51.0520     8.0400     7.7960     8.7840   -79.3930   102.1770  -999.2500  -999.2500  -999.2500  -999.2500  -999.2500
  967.0000   -49.5600     8.0310     7.7930     8.7640   -79.4550   102.9980  -999.2500  -999.2500  -999.2500  -999.2500  -999.2500
  967.5000   -48.0690     8.0210     7.7890     8.7450   -79.5160   102.6090  -999.2500  -999.2500  -999.2500  -999.2500  -999.2500
  968.0000   -46.5780     8.0120     7.7850     8.7260   -79.5770   101.6420  -999.2500  -999.2500  -999.2500  -999.2500  -999.2500
  968.5000   -45.0860     8.0020     7.7820     8.7070   -79.6390   100.7800  -999.2500  -999.2500  -999.2500  -999.2500  -999.2500
  969.0000   -24.5100     7.9930     7.7780     8.6880   -79.7000   100.0180  -999.2500  -999.2500  -999.2500  -999.2500  -999.2500
  969.5000   -25.3470     7.9830     7.7740     8.6690   -79.7610   100.0170  -999.2500  -999.2500  -999.2500  -999.2500  -999.2500
  970.0000   -26.2250     7.9740     7.7700     8.6500   -79.8230   100.1270  -999.2500  -999.2500  -999.2500  -999.2500  -999.2500
  970.5000   -27.1040     7.9640     7.7660     8.6310   -79.8830   101.6190  -999.2500  -999.2500  -999.2500  -999.2500  -999.2500
  971.0000   -27.9830     7.9550     7.7630     8.6110   -79.9430   103.4870  -999.2500  -999.2500  -999.2500  -999.2500  -999.2500
  971.5000   -28.8620     7.9450     7.7590     8.5920   -79.9850   105.8790  -999.2500  -999.2500  -999.2500  -999.2500  -999.2500
  972.0000   -29.7410     7.9360     7.7550     8.5730   -80.0560   107.6950  -999.2500  -999.2500  -999.2500  -999.2500  -999.2500
  972.5000   -30.6200     7.9260     7.7530     8.5540   -80.1240   107.8280  -999.2500  -999.2500  -999.2500  -999.2500  -999.2500
  973.0000   -31.4990     7.9170     7.7230     8.5340   -80.1960   107.0270  -999.2500  -999.2500  -999.2500  -999.2500  -999.2500
  973.5000   -32.3770     7.9080     7.6500     8.5130   -80.2650   105.2310  -999.2500  -999.2500  -999.2500  -999.2500  -999.2500
  974.0000   -33.2560     7.8970     7.5790     8.4900   -80.3320   104.9300  -999.2500  -999.2500  -999.2500  -999.2500  -999.2500
  974.5000   -34.1350     7.8890     7.5080     8.4960   -80.3580   105.5420  -999.2500  -999.2500  -999.2500  -999.2500  -999.2500
  975.0000   -35.0140     7.8600     7.4370     8.2070   -80.2800   106.1470  -999.2500  -999.2500  -999.2500  -999.2500  -999.2500
  975.5000   -35.8930     7.8360     7.3650     7.9770   -80.1410   104.0760  -999.2500  -999.2500  -999.2500  -999.2500  -999.2500
