~VERSION INFORMATION
 VERS.                2.0:   CWLS LOG ASCII STANDARD - VERSION 2.0
 WRAP.                 NO:   ONE LINE PER DEPTH STEP
~WELL INFORMATION
#MNEM.UNIT      DATA TYPE    INFORMATION
#----------   ------------   ------------------------------
 STRT.F          290.0000:   START DEPTH
 STOP.F         2884.0000:   STOP DEPTH
 STEP.F            0.5000:   STEP LENGTH
 NULL.          -999.2500:   NO VALUE
 COMP.   FENNIX & SCISSON:   COMPANY
 WELL. FENIX & SCISSON AX #22-28:   WELL
 FLD .             NPR #3:   FIELD
 LOC .      S28 T39N R78W:   LOCATION
 CNTY.            NATRONA:   COUNTY
 STAT.            WYOMING:   STATE
 CTRY. UNITED STATES OF AMERICA:   COUNTRY
 SRVC.              WELEX:   SERVICE COMPANY
 DATE.        29-DEC-1979:   LOGDATE
 API .     49025107930000:   API NUMBER
~CURVE INFORMATION
#MNEM.UNIT       API CODE    CURVE DESCRIPTION
#----------   ------------   ------------------------------
 DEPT.F                  :   
 GRD .GAPI   45 310 01 00:   GAMMA RAY FROM DENSITY LOG
 CALD.IN     45 280 60 00:   CALIPER FROM DENSITY LOG
 CORR.G/C3   45 356 01 00:   DENSITY CORRECTION
 RHOB.G/C3   45 350 01 00:   BULK DENSITY
 NPHI.DEC    42 890 03 00:   NEUTRON POROSITY SANDSTONE
 SPR .MV     07 010 01 00:   SPONTANEOUS POTENTIAL
 TENR.LBS    07 635 01 00:   TENSION FROM RESISTIVITY
 ILD .OHMM   07 120 46 00:   DEEP INDUCTION RESISTIVITY
 ILM .OHMM   07 120 44 00:   INDUCTION LOG MEDIUM RESISTIVITY
 SGRD.OHMM   07 220 08 00:   LATEROLOG-8 RES.
~PARAMETER INFORMATION
#MNEM.UNIT          VALUE    DESCRIPTION
#----------   ------------   ------------------------------
 EKB .F         4988.0000:   Kelly bushing
 EGL .F         4978.0000:   Ground level
 EPD .F         4978.0000:   Permanent datum
 TD  .F         2872.0000:   Total depth
 CLNT.            A2DTECH:   Client Code
 SL  . 803' FNL & 938' FWL:   Surface Location
 DATE.        29-DEC-1979:   Date Logged [DD-MMM-YYYY]
 DD  .F              2868:   Depth driller
 DL  .F              2872:   Depth logger
 BLI .F              2870:   Bottom log interval
 TLI .F               300:   Top log interval
 CS1 .              8.625:   Casing size
 CBD1.      8.625" @ 318':   Casing driller 1
 CBL1.IN              318:   Casing logger 1
 BS1 .IN            7.875:   Bit size
 BSD1.F              2868:   Depth drilled with bit1
 DFT .          GEL-BENEX:   Type fluid in hole
 DFD .                8.8:   Density
 TCS .HRS              10:   Time Circ. stopped
 MRT .F               109:   Maximum recorded temp.
 ENGI.               REIN:   Recorded By
 WITN.          MR. AMEND:   Witnessed by
 ORIG.      2.5" 5" PRINT:   Origin of data
 UWI .     49025107930000:   Unique Well ID
 DICO. A2D TECHNOLOGIES, INC.:   Digitizing Company
 PD  .                 GL:   Permanent Datum
 LMF .                 KB:   Log Measured From
 DMF .                 KB:   Drilling Measured From
~OTHER INFORMATION
~A   DEPT       GRD        CALD     CORR         RHOB       NPHI      SPR       TENR        ILD        ILM       SGRD   
# ...
 1998.5000   114.1571     8.3571     0.0076     2.4948     0.3296   -64.0908  1682.3291     6.4991     6.9248     6.8652
 1999.0000   114.4790     8.4357     0.0094     2.4987     0.3289   -64.0922  1684.9623     6.4109     7.2150     7.0249
 1999.5000   113.9161     8.4525     0.0081     2.5003     0.3225   -64.0937  1687.5955     6.3241     7.6210     7.6370
 2000.0000   112.7461     8.5155    -0.0039     2.5041     0.3168   -64.0945  1690.2286     6.3392     7.8325     8.9528
 2000.5000   111.5687     8.5169     0.0009     2.5088     0.3297   -64.0946  1692.8618     6.3838     7.6210     9.9423
 2001.0000   114.6040     8.5183     0.0041     2.5111     0.3300   -64.0947  1695.4949     6.3264     7.6210     9.3888
 2001.5000   117.6319     8.5196     0.0060     2.5088     0.3275   -64.0947  1694.4669     6.4146     7.6581     7.9136
 2002.0000   118.2690     8.5210     0.0125     2.5176     0.3178   -64.0948  1689.8417     6.4155     7.7644     7.5601
 2002.5000   115.8622     8.5224     0.0185     2.5238     0.3162   -64.0949  1685.2164     6.5049     7.8720     7.8065
 2003.0000   113.8053     8.5392     0.0233     2.5296     0.3165   -64.0950  1680.5912     6.5058     8.0912     8.1347
 2003.5000   112.0769     8.5406     0.0188     2.5319     0.3171   -64.0950  1675.9659     6.5965     8.2732     8.3614
 2004.0000   110.3486     8.5265     0.0080     2.5245     0.3155   -64.0950  1671.3406     6.7807     7.5174     7.8463
 2004.5000   108.6203     8.5124     0.0034     2.5208     0.3158   -64.0950  1666.7153     6.7817     8.0713     7.6670
 2005.0000   107.0485     8.4833     0.0098     2.5300     0.3176   -64.0950  1665.6953     6.7826     8.5496     7.9894
 2005.5000   108.2775     8.4688     0.0162     2.5406     0.3225   -64.0950  1666.2955     6.7835     8.6199     9.5703
 2006.0000   109.5066     8.4706     0.0194     2.5534     0.3299   -64.0950  1666.8958     6.7844     8.4549    10.5368
 2006.5000   111.3354     8.4874     0.0195     2.5565     0.3311   -64.0950  1667.4960     6.7854     8.1793     9.4452
 2007.0000   111.6961     8.5041     0.0134     2.5506     0.3317   -64.0950  1668.0962     6.7863     7.8944     8.5835
 2007.5000   109.5957     8.5055     0.0088     2.5454     0.3298   -64.0950  1668.6965     6.6948     7.6805     7.9080
 2008.0000   107.2266     8.5069     0.0074     2.5432     0.3260   -64.0950  1669.2968     6.6958     7.3709     7.4882
 2008.5000   105.1533     8.4928     0.0107     2.5494     0.3210   -64.0950  1669.8970     6.5156     7.0202     7.3880
 2009.0000   103.3723     8.4787     0.0061     2.5427     0.3235   -64.1128  1670.4972     6.4278     7.0202     7.3903
 2009.5000   103.7181     8.4801     0.0000     2.5308     0.3225   -64.3917  1671.0974     6.2548     7.0202     8.0259
 2010.0000   104.9874     8.5123    -0.0107     2.5189     0.3107   -64.3917  1671.6976     6.1705     7.0202     8.2512
 2010.5000   106.2287     8.5446    -0.0168     2.5054     0.3097   -64.3917  1672.2979     6.1714     7.0660     8.2713
 2011.0000   107.7120     8.5460    -0.0058     2.5153     0.3165   -64.3917  1672.8981     6.1722     7.1169     8.1433
 2011.5000   109.5408     8.5476     0.0114     2.5199     0.3186   -64.3917  1673.4983     6.1731     7.0202     7.8174
 2012.0000   111.3696     8.5490     0.0194     2.5253     0.3127   -64.3917  1674.0985     6.1739     6.8784     7.8195
 2012.5000   113.1983     8.5504     0.0272     2.5224     0.3160   -64.3917  1674.6987     6.1748     6.8307     7.8217
 2013.0000   114.1276     8.5363     0.0304     2.5142     0.3272   -64.0950  1675.2990     6.1756     6.8784     7.8238
 2013.5000   114.7496     8.4142     0.0306     2.5165     0.3358   -64.0950  1675.8992     6.1764     6.9248     7.8259
 2014.0000   115.9861     8.3230     0.0307     2.5226     0.3395   -64.0950  1676.4994     6.1773     6.9744     7.8281
 2014.5000   122.6125     8.3552     0.0355     2.5250     0.3361   -64.0950  1677.0996     6.1781     6.9248     7.4125
 2015.0000   128.3393     8.4029     0.0434     2.5191     0.3335   -64.0950  1677.6998     6.0949     6.7323     7.0190
 2015.5000   133.1666     8.4351     0.0202     2.5131     0.3338   -64.0950  1678.3000     6.0957     6.4603     7.6226
 2016.0000   136.4946     8.4982    -0.0046     2.5010     0.3341   -63.7982  1678.9003     6.0134     6.8922     7.9520
 2016.5000   139.8227     8.4996    -0.0076     2.4931     0.3325   -63.7982  1679.5005     5.9324     7.0202     7.0247
 2017.0000   142.5510     8.4238    -0.0059     2.4977     0.3303   -63.7982  1680.1007     5.9333     6.8201     6.9310
 2017.5000   144.6796     8.3634    -0.0089     2.4933     0.3296   -63.5015  1680.7009     5.8532     6.4947     7.7363
 2018.0000   146.2086     8.3175     0.0006     2.5047     0.3321   -63.5015  1681.3011     5.8541     6.1948     7.5292
 2018.5000   145.9384     8.2890     0.0101     2.5138     0.3380   -63.5015  1681.9014     5.8549     5.9915     7.0324
 2019.0000   142.0701     8.2595     0.0180     2.5184     0.3475   -63.5015  1682.5016     5.7759     5.9095     7.5333
 2019.5000   137.0023     8.2146     0.0181     2.5117     0.3502   -63.7982  1683.1018     5.6981     5.9240     7.4328
 2020.0000   132.2344     8.2005     0.0244     2.5065     0.3474   -63.7982  1683.7020     5.6213     6.2922     7.0382
 2020.5000   127.7663     8.2948     0.0354     2.5172     0.3499   -64.0950  1684.3022     5.5455     6.6462     6.7550
 2021.0000   124.4977     8.3270     0.0293     2.5090     0.3520   -64.0950  1684.9025     5.5464     7.2150     6.4861
 2021.5000   126.0589     8.3747     0.0201     2.4971     0.3526   -64.3917  1685.5027     5.6237     7.7260     6.7649
 2022.0000   128.5120     8.4224     0.0094     2.4934     0.3485   -64.3917  1686.1029     5.7808     8.1607     7.1497
 2022.5000   131.2642     8.4388     0.0048     2.4852     0.3410   -64.3917  1686.7031     6.1074     8.7387     7.5701
 2023.0000   134.9686     8.3939     0.0096     2.4823     0.3428   -64.3917  1687.3033     6.5415     9.1049     8.5528
 2023.5000   139.0463     8.3798     0.0145     2.4937     0.3468   -64.3917  1687.9036     7.2012     9.2304     9.0394
 2024.0000   141.1675     8.3352     0.0161     2.4923     0.3499   -64.3917  1688.5038     7.6080     9.2304     9.5999
 2024.5000   139.4055     8.3675     0.0051     2.4819     0.3533   -64.3917  1689.1304     8.0378     9.2304    10.7908
 2025.0000   137.6361     8.3380     0.0023     2.4842     0.3622   -64.3917  1688.9882     8.1499     9.4865    10.6228
 2025.5000   135.5669     8.2457     0.0149     2.4918     0.3637   -64.3917  1688.8394     8.1510    10.1584     9.9971
 2026.0000   134.0973     8.1535     0.0244     2.5010     0.3600   -64.3917  1688.6906     8.1521    10.7300     9.0370
 2026.5000   132.3279     8.0492     0.0105     2.4853     0.3590   -64.3393  1688.5416     8.1532    10.7763    10.1175
 2027.0000   131.1508     8.1732    -0.0003     2.4793     0.3537   -64.0950  1688.3928     8.1543    10.2984    10.6583
 2027.5000   129.9885     8.3276    -0.0017     2.4870     0.3533   -64.0950  1688.2440     8.0444     9.6172     9.6696
 2028.0000   129.7109     8.3805     0.0078     2.4931     0.3606   -64.0950  1688.0952     7.9360     8.7387     9.3597
 2028.5000   130.9474     8.2881     0.0157     2.4984     0.3647   -64.0950  1687.9464     7.8291     8.3872     8.6848
 2029.0000   132.4763     8.2127     0.0205     2.4993     0.3557   -64.0950  1687.7976     7.7236     8.3872     8.9286
 2029.5000   134.0053     8.1680     0.0252     2.4919     0.3529   -64.0950  1687.6488     7.5157     8.6199     8.4366
 2030.0000   135.2344     8.3261     0.0191     2.4867     0.3528   -64.0950  1687.5000     7.5168     8.7387     8.6642
 2030.5000   134.3645     8.3720     0.0006     2.4716     0.3528   -64.0950  1687.3512     7.4155     8.7387     9.8357
 2031.0000   133.7931     8.3583    -0.0164     2.4689     0.3527   -64.0950  1687.2024     7.4165     9.1049     9.4789
 2031.5000   133.8242     8.3445    -0.0069     2.4743     0.3527   -64.3917  1687.0536     7.5198     9.6172     8.6541
