~VERSION INFORMATION
 VERS.                2.0:   CWLS LOG ASCII STANDARD - VERSION 2.0
 WRAP.                 NO:   ONE LINE PER DEPTH STEP
~WELL INFORMATION
#MNEM.UNIT      DATA TYPE    INFORMATION
#----------   ------------   ------------------------------
 STRT.F          196.0000:   START DEPTH
 STOP.F         3430.0000:   STOP DEPTH
 STEP.F            0.5000:   STEP LENGTH
 NULL.          -999.2500:   NO VALUE
 COMP.    FENIX $ SCISSON:   COMPANY
 WELL.   FENIX "A" #23-10:   WELL
 FLD .              N P R:   FIELD
 LOC .      S10 T38N R78W:   LOCATION
 CNTY.            NATRONA:   COUNTY
 STAT.            WYOMING:   STATE
 CTRY. UNITED STATES OF AMERICA:   COUNTRY
 SRVC.              WELEX:   SERVICE COMPANY
 DATE.        23-JUL-1977:   LOGDATE
 API .     49025103990000:   API NUMBER
~CURVE INFORMATION
#MNEM.UNIT       API CODE    CURVE DESCRIPTION
#----------   ------------   ------------------------------
 DEPT.F                  :   
 SPR .MV     07 010 01 00:   SPONTANEOUS POTENTIAL
 GURD.OHMM   07 220 05 00:   GUARD LOG RESISTIVITY
 FORX.OHMM   07 220 00 00:   FORMATION FACTOR
 NPHI.DEC    42 890 03 00:   NEUTRON POROSITY SANDSTONE
 CALD.IN     45 280 60 00:   CALIPER FROM DENSITY LOG
 CORR.G/C3   45 356 01 00:   DENSITY CORRECTION
 GRD .GAPI   45 310 01 00:   GAMMA RAY FROM DENSITY LOG
 RHOB.G/C3   45 350 01 00:   BULK DENSITY
~PARAMETER INFORMATION
#MNEM.UNIT          VALUE    DESCRIPTION
#----------   ------------   ------------------------------
 EKB .F         5251.0000:   Kelly bushing
 EGL .F         5241.0000:   Ground level
 EDF .F            0.0000:   Drilling floor
 EPD .F         5241.0000:   Permanent datum
 TD  .F         3430.0000:   Total depth
 DATE.        23-JUL-1977:   Date logged
 CLNT.            A2DTECH:   Client Code
 SL  . 1650' FNL & 990' FWL:   Surface Location
 PD  .                 GL:   Permanent Datum
 DD  .F              3430:   Depth driller
 DL  .F              3430:   Depth logger
 BLI .F              3428:   Bottom log interval
 CS1 .IN            8.625:   Casing size
 CBD1.      8.625" @ 220':   Casing driller 1
 BS1 .IN            7.875:   Bit size
 DFT .            KCL MUD:   Type fluid in hole
 DFD .                8.9:   Density
 DFV .                 33:   Viscosity
 DFPH.                  8:   pH
 DFL .                  8:   Fluid loss
 MSS .           FLOWLINE:   Source of sample
 RMS .OHMM            .49:   Rm
 MST .F                94:   Rm Meas. temp.
 RMF .OHMM            .46:   Rmf
 MFST.F                90:   Rmf Meas. temp.
 RMC .OHMM            .40:   Rmc
 MCST.F                90:   Rmc Meas. temp.
 MFSS.               FANN:   Source Rmf.
 RMB .OHMM            .15:   Rm. at BHT
 BHT .F               122:   BHT.
 TCS .HRS               6:   Time Circ. stopped
 MRT .F               122:   Maximum recorded temp.
 LUN .               8611:   Logging unit number
 LUL .             CASPER:   Logging unit location
 ENGI.            C. DOAK:   Recorded By
 WITN.      B. HARRINGTON:   Witnessed by
 ORIG.           5" PRINT:   Origin of data
 UWI .     49025103990000:   Unique Well ID
 DICO. A2D TECHNOLOGIES, INC.:   Digitizing Company
 DAPD.                 10:   Feet Above Permanent Datum
 BSD1.               3430:   Depth drilled with bit1
 MCSS.                KIT:   Source Rmc.
 TLI .                200:   Top log interval
~OTHER INFORMATION
~A   DEPT      SPR         GURD     FORX       NPHI       CALD       CORR        GRD       RHOB   
# ...
 2545.0000   -85.8120     3.0650     9.5360     0.3170     8.5220     0.0320   122.1970     2.4830
 2545.5000   -85.7690     3.2940    10.3660     0.3100     8.5200     0.0340   120.0460     2.4970
 2546.0000   -85.7490     4.0490    10.2710     0.3070     8.5190     0.0370   117.8430     2.5040
 2546.5000   -85.7290     4.4880     8.8860     0.3060     8.5170     0.0390   117.4410     2.5080
 2547.0000   -85.7090     3.9760     7.4450     0.3100     8.5150     0.0420   120.4160     2.5030
 2547.5000   -85.6890     3.5670     9.9920     0.3180     8.5130     0.0440   122.3940     2.4960
 2548.0000   -85.6700     3.3460     9.5660     0.3240     8.5120     0.0470   119.9720     2.5010
 2548.5000   -85.6500     3.9780     9.0310     0.3280     8.5100     0.0440   119.7180     2.5070
 2549.0000   -85.6320     3.9250     9.3830     0.3320     8.5080     0.0400   120.4390     2.5020
 2549.5000   -85.6140     3.8720     9.7200     0.3350     8.5070     0.0360   121.1880     2.4930
 2550.0000   -85.5510     3.8190     8.8590     0.3370     8.5050     0.0310   121.9370     2.4840
 2550.5000   -85.3540     3.7710     7.5020     0.3380     8.5040     0.0270   122.6910     2.4760
 2551.0000   -85.2510     3.3300     6.1460     0.3350     8.5030     0.0240   123.4580     2.4670
 2551.5000   -85.1580     2.7920     5.4470     0.3310     8.5020     0.0270   123.9530     2.4680
 2552.0000   -85.0650     2.4040    10.7060     0.3270     8.5010     0.0300   120.7290     2.4750
 2552.5000   -84.9710     3.3120    10.3660     0.3240     8.5000     0.0330   117.6020     2.4820
 2553.0000   -84.8770     4.2110    10.8530     0.3220     8.5000     0.0370   114.5020     2.4900
 2553.5000   -84.7830     4.5740    10.6270     0.3190     8.4990     0.0360   112.5790     2.4970
 2554.0000   -84.6900     4.4340    10.3660     0.3160     8.4980     0.0340   112.8280     2.5030
 2554.5000   -84.5960     4.2170     8.6250     0.3120     8.4970     0.0310   113.0810     2.5000
 2555.0000   -84.5020     3.9990    11.1570     0.3070     8.4960     0.0290   113.3350     2.4980
 2555.5000   -84.4140     3.7020     9.9000     0.3020     8.4950     0.0270   113.5890     2.5020
 2556.0000   -84.4110     4.7020    10.4570     0.3000     8.4940     0.0250   113.8430     2.5020
 2556.5000   -84.4120     4.5980     9.8280     0.2970     8.4930     0.0220   114.0960     2.5010
 2557.0000   -84.4120     4.3520    10.2710     0.2910     8.4920     0.0200   114.3500     2.5020
 2557.5000   -84.4120     4.0590    10.2710     0.2880     8.4910     0.0180   114.6030     2.4930
 2558.0000   -84.4120     4.2630    10.7540     0.2870     8.4910     0.0160   114.8580     2.4820
 2558.5000   -84.4120     4.5320    10.2710     0.2850     8.4900     0.0130   115.1130     2.4800
 2559.0000   -84.4120     4.6590    10.3970     0.2840     8.4890     0.0110   115.3300     2.4840
 2559.5000   -84.4120     4.6280    10.7540     0.2870     8.4880     0.0080   115.0880     2.4890
 2560.0000   -84.4120     4.5760    10.5900     0.2920     8.4870     0.0120   114.1170     2.4980
 2560.5000   -84.4120     4.4910    10.3660     0.2960     8.4860     0.0160   113.1710     2.5090
 2561.0000   -84.4120     4.4470    10.8530     0.3010     8.4850     0.0200   112.2200     2.5190
 2561.5000   -84.4120     4.4090    10.7610     0.3050     8.4640     0.0210   111.0200     2.5270
 2562.0000   -84.4040     4.1890    10.6560     0.3000     8.4410     0.0220   109.4400     2.5350
 2562.5000   -84.3820     3.9520    14.5650     0.2930     8.4170     0.0240   107.8480     2.5410
 2563.0000   -84.3610     3.7020    96.6410     0.2800     8.3940     0.0270   106.2730     2.5470
 2563.5000   -84.3390     4.6820   167.9510     0.2660     8.3700     0.0300   103.9390     2.5520
 2564.0000   -84.3170     7.6540    12.4580     0.2550     8.3470     0.0330   106.0070     2.5540
 2564.5000   -84.2960     7.1110    11.0550     0.2510     8.3220     0.0370   110.3750     2.5420
 2565.0000   -84.2740     5.7300    11.0550     0.2570     8.2920     0.0390   114.7370     2.5300
 2565.5000   -84.2520     4.3760    10.1060     0.2650     8.3240     0.0340   119.1090     2.5200
 2566.0000   -84.2310     4.0900     8.9340     0.2930     8.3580     0.0280   123.5230     2.5040
 2566.5000   -84.2140     3.7580     7.5840     0.3040     8.3930     0.0220   126.3090     2.4880
 2567.0000   -84.1060     3.3660    10.2710     0.3140     8.4270     0.0200   126.4210     2.4690
 2567.5000   -83.9840     3.1670     7.7240     0.3240     8.4610     0.0230   124.5440     2.4750
 2568.0000   -83.8580     3.6350    10.3030     0.3340     8.4960     0.0260   122.7250     2.4850
 2568.5000   -83.8200     3.4720    12.5090     0.3350     8.5070     0.0300   120.9170     2.5010
 2569.0000   -83.8000     4.6440    13.1640     0.3340     8.5100     0.0330   119.1080     2.5050
 2569.5000   -83.7820     5.1280    12.5780     0.3340     8.5130     0.0340   117.2940     2.5090
 2570.0000   -83.7640     5.2700    10.4610     0.3340     8.5150     0.0310   115.4250     2.5130
 2570.5000   -83.7460     5.3970    11.1890     0.3350     8.5180     0.0270   114.6050     2.5010
 2571.0000   -83.7280     5.3970    11.7890     0.3370     8.5210     0.0230   113.9000     2.4880
 2571.5000   -83.7100     5.2840    11.7030     0.3400     8.5240     0.0200   113.2130     2.4820
 2572.0000   -83.6920     5.1550    11.4100     0.3430     8.5270     0.0160   112.5230     2.4880
 2572.5000   -83.6740     5.1000    11.6810     0.3430     8.5290     0.0130   111.8490     2.4840
 2573.0000   -83.6560     5.0150    10.5580     0.3380     8.5320     0.0130   111.7190     2.4830
 2573.5000   -83.6380     5.0840    11.5750     0.3330     8.5350     0.0120   113.0150     2.4850
 2574.0000   -83.6280     5.1690    10.6560     0.3330     8.5380     0.0120   114.1690     2.4800
 2574.5000   -83.6280     5.2500    12.3440     0.3320     8.5410     0.0110   115.3170     2.4740
 2575.0000   -83.6270     5.1710    11.6810     0.3310     8.5430     0.0100   116.4790     2.4670
 2575.5000   -83.6270     5.1080    12.9240     0.3290     8.5460     0.0090   117.6720     2.4660
 2576.0000   -83.6270     5.1590    12.3440     0.3240     8.5490     0.0110   117.2800     2.4750
 2576.5000   -83.6270     5.2020    12.6890     0.3200     8.5520     0.0130   116.7620     2.4830
 2577.0000   -83.6270     5.1940    11.1570     0.3190     8.5550     0.0150   116.2480     2.4920
 2577.5000   -83.6270     5.1800    12.3440     0.3190     8.5570     0.0170   115.7370     2.5000
 2578.0000   -83.6270     5.1660    11.1570     0.3220     8.5600     0.0190   115.2270     2.5070
 2578.5000   -83.6270     5.1550    11.8980     0.3250     8.5630     0.0210   114.7150     2.5010
 2579.0000   -83.6270     5.0630    11.0550     0.3280     8.5660     0.0230   114.1940     2.4960
 2579.5000   -83.6270     4.9370    11.6810     0.3310     8.5690     0.0250   113.7390     2.4940
 2580.0000   -83.6270     4.8110    11.4690     0.3310     8.5720     0.0270   113.3640     2.4910
 2580.5000   -83.6270     4.7020    11.9910     0.3290     8.5740     0.0290   114.7420     2.4920
 2581.0000   -83.6270     4.7020    12.5730     0.3280     8.5770     0.0310   116.0470     2.4950
 2581.5000   -83.6270     5.0610    12.7670     0.3270     8.5800     0.0280   117.3310     2.4920
 2582.0000   -83.6270     5.0150    13.1960     0.3260     8.5830     0.0240   118.6170     2.4800
 2582.5000   -83.6270     5.3770    13.2860     0.3210     8.5840     0.0210   119.9190     2.4700
 2583.0000   -83.6190     5.7010    13.7830     0.3160     8.5850     0.0170   121.2460     2.4650
 2583.5000   -83.6020     5.8630    13.4150     0.3120     8.5890     0.0190   120.2810     2.4830
 2584.0000   -83.5850     5.8630    12.4700     0.3110     8.5920     0.0220   119.1110     2.4760
 2584.5000   -83.5670     5.6880    12.1780     0.3100     8.5950     0.0260   117.9450     2.4720
 2585.0000   -83.5500     5.4360    11.7890     0.3110     8.5990     0.0290   116.7830     2.4960
