~VERSION INFORMATION
 VERS.                2.0:   CWLS LOG ASCII STANDARD - VERSION 2.0
 WRAP.                 NO:   ONE LINE PER DEPTH STEP
~WELL INFORMATION
#MNEM.UNIT      DATA TYPE    INFORMATION
#----------   ------------   ------------------------------
 STRT.F           48.5000:   START DEPTH
 STOP.F         3509.0000:   STOP DEPTH
 STEP.F            0.5000:   STEP LENGTH
 NULL.          -999.2500:   NO VALUE
 COMP.   TESORO PETROLEUM:   COMPANY
 WELL. TESORO "TX" #45-33:   WELL
 FLD .        TEAPOT DOME:   FIELD
 LOC .      S33 T39N R78W:   LOCATION
 CNTY.            NATRONA:   COUNTY
 STAT.            WYOMING:   STATE
 CTRY. UNITED STATES OF AMERICA:   COUNTRY
 SRVC.      DRESSER ATLAS:   SERVICE COMPANY
 DATE.        03-OCT-1976:   LOGDATE
 API .     49025102700000:   API NUMBER
~CURVE INFORMATION
#MNEM.UNIT       API CODE    CURVE DESCRIPTION
#----------   ------------   ------------------------------
 DEPT.F                  :   
 SPR .MV     07 010 01 00:   SPONTANEOUS POTENTIAL
 TENR.LBS    07 635 01 00:   TENSION FROM RESISTIVITY
 SFL .OHMM   07 220 01 00:   SHALLOW FOCUSED LOG RESISTIVITY
 ILM .OHMM   07 120 44 00:   INDUCTION LOG MEDIUM RESISTIVITY
 ILD .OHMM   07 120 46 00:   DEEP INDUCTION RESISTIVITY
 GRD .GAPI   45 310 01 00:   GAMMA RAY FROM DENSITY LOG
 CALD.IN     45 280 60 00:   CALIPER FROM DENSITY LOG
 NPHI.DEC    42 890 03 00:   NEUTRON POROSITY SANDSTONE
 DPHI.DEC    45 890 12 00:   DENSITY POROSITY SANDSTONE
 TEND.LBS    45 635 01 00:   TENSION FROM DENSITY LOG
~PARAMETER INFORMATION
#MNEM.UNIT          VALUE    DESCRIPTION
#----------   ------------   ------------------------------
 EKB .F         5217.0000:   Kelly bushing
 EGL .F         5206.0000:   Ground level
 EDF .F         5216.0000:   Drilling floor
 EPD .F         5206.0000:   Permanent datum
 TD  .F         3491.0000:   Total depth
 DATE.        03-OCT-1976:   Date logged
 CLNT.            A2DTECH:   Client Code
 SL  . 2030' FWL & 2145' FSL:   Surface Location
 PD  .                 GL:   Permanent Datum
 DD  .F              3491:   Depth driller
 DL  .F              3487:   Depth logger
 BLI .F              3485:   Bottom log interval
 TLI .F               813:   Top log interval
 CS1 .IN            8.625:   Casing size
 CBD1.      8.625" @ 823':   Casing driller 1
 CBL1.F               819:   Casing logger 1
 BS1 .IN            7.875:   Bit size
 BSD1.F              3491:   Depth drilled with bit1
 DFT .           CHEM GEL:   Type fluid in hole
 DFD .                9.4:   Density
 DFV .                 47:   Viscosity
 DFPH.                 10:   pH
 DFL .                5.8:   Fluid loss
 MSS .           FLOWLINE:   Source of sample
 RMS .OHMM           1.09:   Rm
 MST .F                68:   Rm Meas. temp.
 RMF .OHMM              1:   Rmf
 MFST.F                68:   Rmf Meas. temp.
 RMC .OHMM           1.24:   Rmc
 MCST.F                68:   Rmc Meas. temp.
 MFSS.               MEAS:   Source Rmf.
 MCSS.               MEAS:   Source Rmc.
 RMB .OHMM            .62:   Rm. at BHT
 BHT .F               119:   BHT.
 TCS .HRS              12:   Time Circ. stopped
 MRT .F               119:   Maximum recorded temp.
 LUN .               6134:   Logging unit number
 LUL .              GLTTE:   Logging unit location
 ENGI.            VAUGHIN:   Recorded By
 WITN.        WOLF-CARTER:   Witnessed by
 ORIG.     2.5", 5" PRINT:   Origin of data
 UWI .     49025102700000:   Unique Well ID
 DICO. A2D TECHNOLOGIES, INC.:   Digitizing Company
 DAPD.                 11:   Feet Above Permanent Datum
~OTHER INFORMATION
~A   DEPT      SPR        TENR       SFL        ILM        ILD        GRD       CALD       NPHI       DPHI       TEND   
# ...
  517.5000   -23.1160   168.4000     6.9450     5.8990     5.6050  -999.2500  -999.2500  -999.2500  -999.2500  -999.2500
  518.0000   -22.8840   165.0400     6.9810     5.7810     5.4830  -999.2500  -999.2500  -999.2500  -999.2500  -999.2500
  518.5000   -22.6110   161.6800     7.0170     5.5870     5.3260  -999.2500  -999.2500  -999.2500  -999.2500  -999.2500
  519.0000   -22.6520   158.3200     7.0640     5.3930     5.1690  -999.2500  -999.2500  -999.2500  -999.2500  -999.2500
  519.5000   -23.0270   154.9600     6.9470     5.1990     5.0120  -999.2500  -999.2500  -999.2500  -999.2500  -999.2500
  520.0000   -23.3400   151.6000     6.7810     5.0050     4.8550  -999.2500  -999.2500  -999.2500  -999.2500  -999.2500
  520.5000   -23.6750   148.2400     6.6150     4.7980     4.6240  -999.2500  -999.2500  -999.2500  -999.2500  -999.2500
  521.0000   -23.6350   144.8800     6.4500     4.9130     4.6950  -999.2500  -999.2500  -999.2500  -999.2500  -999.2500
  521.5000   -23.5640   141.5200     6.2090     5.0370     4.8270  -999.2500  -999.2500  -999.2500  -999.2500  -999.2500
  522.0000   -23.4830   141.9030     6.4360     5.1610     4.9590  -999.2500  -999.2500  -999.2500  -999.2500  -999.2500
  522.5000   -23.4130   145.3790     6.8500     5.2850     5.0920  -999.2500  -999.2500  -999.2500  -999.2500  -999.2500
  523.0000   -23.3370   148.8550     7.1950     5.4090     5.2240  -999.2500  -999.2500  -999.2500  -999.2500  -999.2500
  523.5000   -23.2650   152.3310     7.2150     5.5340     5.3570  -999.2500  -999.2500  -999.2500  -999.2500  -999.2500
  524.0000   -23.1900   155.8070     7.2320     5.6580     5.4890  -999.2500  -999.2500  -999.2500  -999.2500  -999.2500
  524.5000   -23.1170   159.2830     7.2480     5.7820     5.6220  -999.2500  -999.2500  -999.2500  -999.2500  -999.2500
  525.0000   -23.0430   162.7590     7.2650     5.9060     5.7540  -999.2500  -999.2500  -999.2500  -999.2500  -999.2500
  525.5000   -22.9640   166.2340     7.2820     6.0300     5.8870  -999.2500  -999.2500  -999.2500  -999.2500  -999.2500
  526.0000   -22.9570   169.7100     7.2990     6.1540     6.0190  -999.2500  -999.2500  -999.2500  -999.2500  -999.2500
  526.5000   -23.1550   173.1860     7.3160     6.3250     6.1140  -999.2500  -999.2500  -999.2500  -999.2500  -999.2500
  527.0000   -23.3520   176.6620     7.3340     6.2250     6.1580  -999.2500  -999.2500  -999.2500  -999.2500  -999.2500
  527.5000   -23.5540   180.0000     7.3560     6.2940     6.2010  -999.2500  -999.2500  -999.2500  -999.2500  -999.2500
  528.0000   -23.7530   180.0000     7.3780     6.3620     6.2450  -999.2500  -999.2500  -999.2500  -999.2500  -999.2500
  528.5000   -23.9600   180.0000     7.3990     6.4310     6.2890  -999.2500  -999.2500  -999.2500  -999.2500  -999.2500
  529.0000   -24.0710   180.0000     7.4210     6.4990     6.3320  -999.2500  -999.2500  -999.2500  -999.2500  -999.2500
  529.5000   -23.9580   180.0000     7.4430     6.5680     6.3760  -999.2500  -999.2500  -999.2500  -999.2500  -999.2500
  530.0000   -23.8530   180.0000     7.4650     6.6370     6.4200  -999.2500  -999.2500  -999.2500  -999.2500  -999.2500
  530.5000   -23.7390   180.0000     7.4870     6.7050     6.4470  -999.2500  -999.2500  -999.2500  -999.2500  -999.2500
  531.0000   -23.6930   180.0000     7.5090     6.7740     6.4570  -999.2500  -999.2500  -999.2500  -999.2500  -999.2500
  531.5000   -23.6780   180.0000     7.5310     6.8080     6.4660  -999.2500  -999.2500  -999.2500  -999.2500  -999.2500
  532.0000   -23.6620   180.0000     7.5520     6.8330     6.4760  -999.2500  -999.2500  -999.2500  -999.2500  -999.2500
  532.5000   -23.6470   180.0000     7.5740     6.8560     6.4860  -999.2500  -999.2500  -999.2500  -999.2500  -999.2500
  533.0000   -23.6310   180.0000     7.5960     6.8790     6.4960  -999.2500  -999.2500  -999.2500  -999.2500  -999.2500
  533.5000   -23.6150   180.0000     7.6180     6.9020     6.5050  -999.2500  -999.2500  -999.2500  -999.2500  -999.2500
  534.0000   -23.5990   180.0000     7.6400     6.9350     6.5150  -999.2500  -999.2500  -999.2500  -999.2500  -999.2500
  534.5000   -23.5830   180.0000     7.6620     6.9130     6.5250  -999.2500  -999.2500  -999.2500  -999.2500  -999.2500
  535.0000   -23.5670   180.0000     7.6830     6.8740     6.5340  -999.2500  -999.2500  -999.2500  -999.2500  -999.2500
  535.5000   -23.5510   180.0000     7.7070     6.8340     6.5460  -999.2500  -999.2500  -999.2500  -999.2500  -999.2500
  536.0000   -23.5350   180.0000     7.7260     6.7950     6.5640  -999.2500  -999.2500  -999.2500  -999.2500  -999.2500
  536.5000   -23.5190   180.0000     7.7450     6.7550     6.5560  -999.2500  -999.2500  -999.2500  -999.2500  -999.2500
  537.0000   -23.5030   180.0000     7.6640     6.7160     6.4660  -999.2500  -999.2500  -999.2500  -999.2500  -999.2500
  537.5000   -23.4870   180.0000     7.5950     6.6840     6.3860  -999.2500  -999.2500  -999.2500  -999.2500  -999.2500
  538.0000   -23.4710   180.0000     7.5270     6.5000     6.3050  -999.2500  -999.2500  -999.2500  -999.2500  -999.2500
  538.5000   -23.4550   180.0000     7.4580     6.3460     6.2090  -999.2500  -999.2500  -999.2500  -999.2500  -999.2500
  539.0000   -23.4390   180.0000     7.3890     6.1920     6.0680  -999.2500  -999.2500  -999.2500  -999.2500  -999.2500
  539.5000   -23.4230   180.0000     7.3200     6.0380     5.8960  -999.2500  -999.2500  -999.2500  -999.2500  -999.2500
  540.0000   -23.4070   180.0000     7.2520     5.8840     5.7240  -999.2500  -999.2500  -999.2500  -999.2500  -999.2500
  540.5000   -23.3910   180.0000     7.1830     5.7250     5.5390  -999.2500  -999.2500  -999.2500  -999.2500  -999.2500
  541.0000   -23.3740   180.0000     7.1140     5.5590     5.3480  -999.2500  -999.2500  -999.2500  -999.2500  -999.2500
  541.5000   -23.3590   180.0000     7.0080     5.2450     5.1560  -999.2500  -999.2500  -999.2500  -999.2500  -999.2500
  542.0000   -23.3440   180.0000     6.7960     4.9460     4.9780  -999.2500  -999.2500  -999.2500  -999.2500  -999.2500
  542.5000   -23.3210   180.0000     6.5840     4.6480     4.4600  -999.2500  -999.2500  -999.2500  -999.2500  -999.2500
  543.0000   -23.3250   180.0000     6.3720     4.3760     3.9770  -999.2500  -999.2500  -999.2500  -999.2500  -999.2500
  543.5000   -23.1620   180.0000     6.1600     4.0080     3.4440  -999.2500  -999.2500  -999.2500  -999.2500  -999.2500
  544.0000   -22.9030   180.0000     5.9480     3.6700     3.2020  -999.2500  -999.2500  -999.2500  -999.2500  -999.2500
  544.5000   -22.6710   180.0000     5.7360     3.3320     2.9320  -999.2500  -999.2500  -999.2500  -999.2500  -999.2500
  545.0000   -22.4390   180.0000     5.5240     2.9930     2.6630  -999.2500  -999.2500  -999.2500  -999.2500  -999.2500
  545.5000   -22.1950   180.0000     5.3120     2.6550     2.3930  -999.2500  -999.2500  -999.2500  -999.2500  -999.2500
  546.0000   -21.9690   180.0000     5.1000     2.3170     2.1230  -999.2500  -999.2500  -999.2500  -999.2500  -999.2500
  546.5000   -21.7400   180.0000     4.8880     2.0940     1.9410  -999.2500  -999.2500  -999.2500  -999.2500  -999.2500
  547.0000   -21.8650   180.0000     4.6760     2.0840     1.9280  -999.2500  -999.2500  -999.2500  -999.2500  -999.2500
  547.5000   -22.0170   180.0000     4.5400     2.0560     1.9100  -999.2500  -999.2500  -999.2500  -999.2500  -999.2500
  548.0000   -22.1790   180.0000     4.7220     2.2220     2.0810  -999.2500  -999.2500  -999.2500  -999.2500  -999.2500
  548.5000   -22.3320   180.0000     5.0460     2.5160     2.3840  -999.2500  -999.2500  -999.2500  -999.2500  -999.2500
  549.0000   -22.4900   180.0000     5.3690     2.8100     2.6870  -999.2500  -999.2500  -999.2500  -999.2500  -999.2500
  549.5000   -22.6460   180.0000     5.6930     3.1040     2.9900  -999.2500  -999.2500  -999.2500  -999.2500  -999.2500
  550.0000   -22.8020   180.0000     6.2090     3.3980     3.2940  -999.2500  -999.2500  -999.2500  -999.2500  -999.2500
  550.5000   -22.9580   180.0000     5.3580     3.6930     3.5970  -999.2500  -999.2500  -999.2500  -999.2500  -999.2500
