~VERSION INFORMATION
 VERS.                2.0:   CWLS LOG ASCII STANDARD - VERSION 2.0
 WRAP.                 NO:   ONE LINE PER DEPTH STEP
~WELL INFORMATION
#MNEM.UNIT      DATA TYPE    INFORMATION
#----------   ------------   ------------------------------
 STRT.F            0.0000:   START DEPTH
 STOP.F         5786.0000:   STOP DEPTH
 STEP.F            0.5000:   STEP LENGTH
 NULL.          -999.2500:   NO VALUE
 COMP. U.S. DEPARTMENT OF ENERGY:   COMPANY
 WELL. DEPARTMENT "X" #2-3:   WELL
 FLD .           N P R #3:   FIELD
 LOC .       S3 T38N R78W:   LOCATION
 CNTY.            NATRONA:   COUNTY
 STAT.            WYOMING:   STATE
 CTRY. UNITED STATES OF AMERICA:   COUNTRY
 SRVC.       BAKER HUHGES:   SERVICE COMPANY
 DATE.        14-JUL-2002:   LOGDATE
 API .     49025230540000:   API NUMBER
~CURVE INFORMATION
#MNEM.UNIT       API CODE    CURVE DESCRIPTION
#----------   ------------   ------------------------------
 DEPT.F                  :   
 TEND.LBS    45 635 01 00:   TENSION FROM DENSITY LOG
 CALD.IN     45 280 60 00:   CALIPER FROM DENSITY LOG
 ZCOR.G/C3   45 356 01 00:   DENSITY CORRECTION
 PE  .B/E    45 358 01 00:   PHOTOELECTRIC FACTOR
 ZDEN.G/C3   45 350 01 00:   BULK DENSITY
 CNCF.DEC    42 890 03 00:   NEUTRON POROSITY
 TENS.LBS    60 635 01 00:   TENSION FROM SONIC
 DT  .US/F   60 520 00 00:   DELTA TIME
 RD  .OHMM   11 220 10 00:   RESISTIVITY DEEP
 TENR.LBS    11 635 01 00:   TENSION FROM RES. LOG
 RS  .OHMM   11 220 09 00:   RESISTIVITY SHALLOW
 GRR .GAPI   11 310 01 00:   GAMMA RAY FROM RES.
 RMLL.OHMM   11 270 04 00:   MICRO LATEROLOG
 SPR .MV     11 010 01 00:   SPONTANEOUS POTENTIAL FROM RES.
~PARAMETER INFORMATION
#MNEM.UNIT          VALUE    DESCRIPTION
#----------   ------------   ------------------------------
 EKB .F         5164.7000:   Kelly bushing
 EGL .F         5154.7000:   Ground level
 EDF .F         5163.7000:   Drilling floor
 TD  .F         5773.0000:   Total depth
 DATE.        14-JUL-2002:   Date logged
 CLNT.            A2DTECH:   Client Code
 SL  . 838' FNL & 2128' FWL:   Surface Location
 PD  .                 GL:   Permanent Datum
 EPD .F            5154.7:   Elevation Permanent Datum
 LMF .                 KB:   Log Measured From
 DMF .                 KB:   Drilling Measured From
 DD  .F              5770:   Depth driller
 DL  .F              5773:   Depth logger
 BLI .F              5770:   Bottom log interval
 CS1 .IN            9.625:   Casing size
 CBD1.       9.625 @ 578':   Casing driller 1
 CBL1.F               578:   Casing logger 1
 BS1 .IN             8.75:   Bit size
 DFT .       GEL/CHEMICAL:   Type fluid in hole
 DFD .                  9:   Density
 DFV .                 45:   Viscosity
 DFPH.                8.5:   pH
 DFL .                9.6:   Fluid loss
 MSS .           FLOWLINE:   Source of sample
 RMS .OHMM          0.568:   Rm
 MST .F                91:   Rm Meas. temp.
 RMF .OHMM          0.490:   Rmf
 MFST.F                92:   Rmf Meas. temp.
 RMC .OHMM          1.072:   Rmc
 MCST.F                90:   Rmc Meas. temp.
 MFSS.               MEAS:   Source Rmf.
 RMB .OHMM          0.291:   Rm. at BHT
 BHT .F               184:   BHT.
 TCS .HRS               8:   Time Circ. stopped
 MRT .F               184:   Maximum recorded temp.
 LUN .            HL-6530:   Logging unit number
 LUL .             CASPER:   Logging unit location
 ENGI.           VERCIMAK:   Recorded By
 WITN.              HARDY:   Witnessed by
 ORIG.           5" PRINT:   Origin of data
 UWI .     49025230540000:   Unique Well ID
 DICO. A2D TECHNOLOGIES, INC.:   Digitizing Company
~OTHER INFORMATION
~A    DEPT    TEND       CALD       ZCOR         PE       ZDEN       CNCF       TENS         DT         RD       TENR         RS         GRR      RMLL        SPR   
# ...
 3675.0000   -19.0000    11.9860     0.1710     2.9130     1.8420     0.4140   -48.0170   107.9860     1.6250     2.9560     1.8170   125.0330  -999.2500     1.4660
 3675.5000   -12.4130    12.5090     0.1500     3.2910     1.7840     0.3910   -39.9170   104.3790     1.7780    14.4710     1.9670   118.1670  -999.2500     1.4770
 3676.0000    -5.8270    12.5330     0.1000     3.5080     1.7930     0.3590   -34.2340   103.4770     1.9310     6.7660     2.1010   111.9900  -999.2500     1.0120
 3676.5000   -16.6000    11.4360     0.0520     3.4250     2.0010     0.3260   -33.2470   102.9600     2.0840    -3.0740     2.3620   108.8810  -999.2500    -0.0010
 3677.0000   -41.3000    10.9740     0.1410     2.9000     2.1250     0.2940   -32.2610    98.5630     2.4050   -12.9140     2.6230   111.1670  -999.2500    -0.9920
 3677.5000   -41.0000    10.9610     0.2450     2.5110     2.2560     0.2980   -31.2740    93.7880     2.8630    -6.3620     2.8840   117.7470  -999.2500    -1.9440
 3678.0000   -32.0180    11.2070     0.2770     2.2850     2.2360     0.3150   -30.2870    90.1500     3.1090    14.4710     3.1670   124.1800  -999.2500    -2.4520
 3678.5000   -23.0360    11.6860     0.2710     2.0730     2.1770     0.3480   -29.3010    92.4490     2.9240    -4.9900     3.2550   129.3960  -999.2500    -2.5320
 3679.0000   -14.0550    12.3010     0.2650     1.8850     2.1040     0.3810   -28.3140    93.9580     2.6730   -32.3240     3.0320   127.2130  -999.2500    -2.2430
 3679.5000    -5.0000    12.9910     0.2560     1.8510     2.0530     0.3970   -27.3280    92.8400     2.4210   -10.5010     2.7540   124.5080  -999.2500    -1.9600
 3680.0000   -18.0000    13.3740     0.2490     1.8530     2.0120     0.4050   -26.3410    91.7540     2.2750    11.3660     2.4940   121.8210  -999.2500    -1.7210
 3680.5000   -34.4670    13.5120     0.2570     1.7180     2.0270     0.4180   -25.3550    89.9500     2.2330     0.0400     2.4480   119.1250  -999.2500    -1.6810
 3681.0000   -50.9330    13.4880     0.2730     1.4320     2.0580     0.4220   -23.9950    89.9500     2.1420    -5.4890     2.3820   116.4290  -999.2500    -2.0700
 3681.5000   -65.0000    14.0600     0.3020     1.1400     2.0760     0.4200   -20.9770   100.7850     2.0560     0.1180     2.2300   113.7350  -999.2500    -2.4420
 3682.0000   -45.6550    14.7850     0.3290     1.0420     2.0970     0.4370   -17.9590   108.6420     1.8950     9.0640     2.0740   111.0540  -999.2500    -2.1110
 3682.5000    -9.7270    15.6470     0.3310     0.9530     2.1410     0.4610   -14.9420   116.4990     1.7430     9.7310     1.9190   109.1540  -999.2500    -0.6140
 3683.0000    15.0000    15.5330     0.3340     0.8890     2.1950     0.4840   -17.9360   119.1080     1.6450    -5.4890     1.7750   110.4040  -999.2500     0.6440
 3683.5000    15.0000    15.3160     0.3310     0.8720     2.2380     0.4910   -21.8820   112.3080     1.5970    -5.4890     1.6640   114.4940  -999.2500    -0.2990
 3684.0000    15.0000    15.0870     0.3220     1.0200     2.2690     0.4670   -10.6880   106.0240     1.5750    22.7210     1.6040   118.9780  -999.2500    -1.3600
 3684.5000    15.0000    14.8580     0.3070     1.2870     2.2480     0.4380    22.3330    99.4690     1.6190    54.3910     1.7300   123.4560  -999.2500    -2.2020
 3685.0000    12.4440    14.4770     0.3140     1.7460     2.2300     0.4120     1.2080    97.9400     1.7360    18.6850     1.8400   125.8450  -999.2500    -2.3450
 3685.5000     6.9560    14.0180     0.3100     1.9650     2.2400     0.4110   -19.9160    97.2280     1.8610   -15.4690     1.9490   126.7270  -999.2500    -1.8210
 3686.0000     1.4670    13.3170     0.2980     2.1410     2.2220     0.4100   -41.0410    98.3670     1.9860   -22.3750     2.0180   127.1590  -999.2500    -1.0340
 3686.5000    -4.0220    12.6160     0.2230     2.5870     2.0020     0.4080   -43.8130    96.4910     2.0180   -32.2160     2.0370   127.7670  -999.2500    -0.2420
 3687.0000   -35.4500    11.9120     0.1480     3.1820     1.8870     0.4310   -42.8800    91.7200     1.8960   -33.4530     1.9480   131.6870  -999.2500     0.5500
 3687.5000   -72.5000    11.6470     0.1140     3.7690     1.8130     0.4600   -41.9480    87.9960     1.7140   -26.0730     1.7990   136.4800  -999.2500     1.3480
 3688.0000   -84.5540    11.5740     0.1750     4.3910     1.8270     0.4780   -41.0150    86.2420     1.5270   -18.6930     1.6500   144.4310  -999.2500     1.7670
 3688.5000   -57.9540    11.7540     0.2230     3.9780     1.8600     0.4760   -40.0820    89.6490     1.3280   -11.3120     1.5010   155.0790  -999.2500     2.0490
 3689.0000   -31.3540    11.9510     0.2210     3.3940     1.8850     0.4640   -39.1490    96.0170     1.2170    -5.4890     1.3530   170.3370  -999.2500     2.3270
 3689.5000   -29.1780    12.0910     0.2120     2.7860     1.9070     0.4510   -38.2160   102.7260     1.1560    -5.4890     1.2520   187.9260  -999.2500     2.6040
 3690.0000   -34.6670    12.2390     0.2100     2.1600     1.9930     0.4290   -37.2840   108.4870     1.1310    -5.4890     1.2290   181.8940  -999.2500     2.8800
 3690.5000   -40.1560    12.4810     0.2490     1.3810     2.0550     0.4180   -36.3510   106.3730     1.2260    -5.4890     1.2840   169.1470  -999.2500     3.0730
 3691.0000   -39.2000    12.8670     0.2920     0.9760     2.1360     0.4410   -35.4180   104.4840     1.3370    -5.4890     1.4020   143.9960  -999.2500     3.0960
 3691.5000   -30.1200    13.6790     0.3350     0.8280     2.1620     0.4610   -34.5690   102.8760     1.4470    -5.4890     1.5180   121.2680  -999.2500     3.1230
 3692.0000   -59.7600    14.4850     0.3560     0.7510     2.1820     0.4510   -32.8220   102.7760     1.5180    -5.4890     1.5600   107.7300  -999.2500     3.1500
 3692.5000   -89.4000    14.9970     0.3510     0.6680     2.2170     0.4410   -31.2190   105.6290     1.5250    -5.4890     1.5940   104.1630  -999.2500     3.1770
 3693.0000   -72.8250    14.8190     0.3350     0.4980     2.2570     0.4810   -29.6150   106.1820     1.5390    -5.4890     1.6340   107.2040  -999.2500     3.2030
 3693.5000    -4.9000    14.4350     0.3050     0.4350     2.2890     0.5130   -28.0120   103.9500     1.5460    -5.4890     1.6490   108.3060  -999.2500     3.2300
 3694.0000    47.2000    14.1110     0.2820     0.7250     2.2490     0.5470   -26.4090   103.1760     1.5460    -5.4890     1.6440   109.0370  -999.2500     3.2590
 3694.5000    42.8800    13.8520     0.2870     1.0800     2.1880     0.5620   -24.8060   106.3500     1.5320    -5.4890     1.6390   110.8130  -999.2500     3.1700
 3695.0000     8.3000    13.8690     0.2980     1.6920     2.1280     0.5660   -32.6830   107.3500     1.4890   -28.8710     1.6340   116.3170  -999.2500     3.0210
 3695.5000   -26.2800    13.9290     0.2640     1.8450     2.1420     0.5740   -50.7900   107.4850     1.4280   -42.9280     1.5890   121.5350  -999.2500     2.8710
 3696.0000   -60.8600    14.0470     0.2200     1.8360     2.1600     0.6020   -68.8970   109.4650     1.3660   -56.9860     1.5220   120.0710  -999.2500     2.7210
 3696.5000   -75.0000    14.1940     0.2070     1.8460     2.1660     0.5840   -84.6690   112.1840     1.3050   -58.3120     1.4550   116.9850  -999.2500     2.5700
 3697.0000   -30.4500    14.4400     0.2260     1.9380     2.1210     0.5550   -54.6090   113.3970     1.2430   -23.1680     1.3880   113.8800  -999.2500     2.4190
 3697.5000    14.8330    14.6390     0.2450     2.0240     2.0880     0.4820   -58.1160   109.4330     1.2060   -24.0080     1.3590   113.6690  -999.2500     2.2700
 3698.0000    33.2880    14.1610     0.2640     1.9100     2.0660     0.4030   -61.7810   104.0850     1.2830   -35.4290     1.4570   114.3860  -999.2500     2.2630
 3698.5000    30.2000    13.5750     0.2720     1.7800     2.0600     0.4030   -63.2010    97.3020     1.3820   -35.4290     1.5840   115.1300  -999.2500     2.2650
 3699.0000    27.1130    13.3530     0.2760     1.7720     2.0960     0.4040   -56.7890    96.0620     1.4810   -28.8420     1.7110   115.8740  -999.2500     2.2660
