~VERSION INFORMATION
 VERS.                2.0:   CWLS LOG ASCII STANDARD - VERSION 2.0
 WRAP.                 NO:   ONE LINE PER DEPTH STEP
~WELL INFORMATION
#MNEM.UNIT      DATA TYPE    INFORMATION
#----------   ------------   ------------------------------
 STRT.F           31.0000:   START DEPTH
 STOP.F         2926.0000:   STOP DEPTH
 STEP.F            0.5000:   STEP LENGTH
 NULL.          -999.2500:   NO VALUE
 COMP. LAWERNCE ALLISON AND ASSOCIATES:   COMPANY
 WELL.   FENIX "X" #17-21:   WELL
 FLD .             NPR #3:   FIELD
 LOC .      S21 T39N R78W:   LOCATION
 CNTY.            NATRONA:   COUNTY
 STAT.            WYOMING:   STATE
 CTRY. UNITED STATES OF AMERICA:   COUNTRY
 SRVC.      WESTERN ATLAS:   SERVICE COMPANY
 DATE.        02-NOV-1987:   LOGDATE
 API .     49025111960000:   API NUMBER
~CURVE INFORMATION
#MNEM.UNIT       API CODE    CURVE DESCRIPTION
#----------   ------------   ------------------------------
 DEPT.F                  :   
 CALD.IN     45 280 60 00:   CALIPER FROM DENSITY LOG
 TEND.LBS    45 635 01 00:   TENSION FROM DENSITY LOG
 CORR.G/C3   45 356 01 00:   DENSITY CORRECTION
 RHOB.G/C3   45 350 01 00:   BULK DENSITY
 CNC .DEC    42 890 03 00:   NEUTRON POROSITY SANDSTONE
 SPR .MV     07 010 01 00:   SPONTANEOUS POTENTIAL
 GRR .GAPI   07 310 01 00:   GAMMA RAY FROM RESISTIVITY
 TENR.LBS    07 635 01 00:   TENSION FROM RESISTIVITY
 RFOC.OHMM   07 220 04 00:   RESISTIVITY FOCUSED LOG RES.
 RILD.OHMM   07 120 46 00:   DEEP INDUCTION RESISTIVITY
 RILM.OHMM   07 120 44 00:   INDUCTION LOG MEDIUM RESISTIVITY
~PARAMETER INFORMATION
#MNEM.UNIT          VALUE    DESCRIPTION
#----------   ------------   ------------------------------
 EKB .F         5006.0000:   Kelly bushing
 EGL .F         4995.0000:   Ground level
 EDF .F            0.0000:   Drilling floor
 TD  .F         2915.0000:   Total depth
 DATE.        02-NOV-1987:   Date logged
 CLNT.            A2DTECH:   Client Code
 SL  . 1824' FSL & 399' FWL:   Surface Location
 PD  .                 GL:   Permanent Datum
 DD  .F              2911:   Depth driller
 DL  .F              2915:   Depth logger
 BLI .F              2913:   Bottom log interval
 CS1 .IN            8.625:   Casing size
 CBD1.      8.625" @ 350':   Casing driller 1
 CBL1.F               350:   Casing logger 1
 BS1 .IN            7.875:   Bit size
 DFT .        KCL-POLYMER:   Type fluid in hole
 DFD .                8.8:   Density
 DFV .                 42:   Viscosity
 DFPH.                9.5:   pH
 DFL .                 11:   Fluid loss
 MSS .           FLOWLINE:   Source of sample
 RMS .OHMM           0.41:   Rm
 MST .F                78:   Rm Meas. temp.
 RMF .OHMM           0.29:   Rmf
 MFST.F                78:   Rmf Meas. temp.
 RMC .OHMM           0.51:   Rmc
 MCST.F                78:   Rmc Meas. temp.
 MFSS.               MEAS:   Source Rmf.
 RMB .OHMM           0.29:   Rm. at BHT
 BHT .F               108:   BHT.
 TCS .HRS               5:   Time Circ. stopped
 MRT .F               108:   Maximum recorded temp.
 LUN .            HL-6274:   Logging unit number
 LUL .           GILLETTE:   Logging unit location
 WITN.             STRONG:   Witnessed by
 ORIG.           5" PRINT:   Origin of data
 UWI .     49025111960000:   Unique Well ID
 DICO. A2D TECHNOLOGIES, INC.:   Digitizing Company
 DAPD.                 11:   Feet Above Permanent Datum
 BSD1.               2911:   Depth drilled with bit1
 MCSS.               CALC:   Source Rmc.
 EPD .               4995:   Elevation Permanent Datum
 LMF .                 KB:   Log Measured From
 DMF .                 KB:   Drilling Measured From
 TLI .                 11:   Top log interval
~OTHER INFORMATION
~A   DEPT     CALD       TEND       CORR       RHOB        CNC        SPR         GRR      TENR       RFOC       RILD       RILM   
# ...
 2227.0000     8.0370  -100.3160     0.0210     2.4500     0.3030   -26.6490   123.6890   -84.5710     5.7030     4.6860     5.0240
 2227.5000     8.0380   -99.4300     0.0180     2.4460     0.3070   -26.2090   126.9770   -84.8260     5.9360     4.8380     5.2250
 2228.0000     8.0400   -98.5440     0.0170     2.4530     0.3110   -25.7450   127.2790   -83.8540     6.1690     4.9910     5.3240
 2228.5000     8.0410   -97.6580     0.0210     2.4660     0.3130   -25.4650   127.0480   -81.7010     6.4010     5.1430     5.4780
 2229.0000     8.0430   -96.7720     0.0260     2.4740     0.3120   -25.6180   126.0600   -79.5480     6.6340     5.2950     5.6520
 2229.5000     8.0440   -95.8860     0.0310     2.4760     0.3110   -25.7440   123.3990   -77.3960     6.8670     5.4470     5.8260
 2230.0000     8.0460   -95.0000     0.0360     2.4860     0.3090   -25.8770   122.2410   -75.2430     6.9630     5.5990     6.0350
 2230.5000     8.0470   -94.1140     0.0400     2.4940     0.2980   -26.0150   120.8040   -73.0900     6.9630     5.7510     6.0390
 2231.0000     8.0480   -93.2280     0.0450     2.5020     0.2950   -26.1470   119.5620   -70.9370     6.9120     5.9280     6.0510
 2231.5000     8.0500   -92.3420     0.0500     2.5090     0.2920   -26.2820   119.8780   -68.7840     6.6950     5.9400     6.0620
 2232.0000     8.0510   -91.4570     0.0570     2.5160     0.2930   -26.4170   120.3220   -66.6310     6.3670     5.9670     6.0740
 2232.5000     8.0530   -90.5710     0.0820     2.5230     0.2970   -26.5510   120.8910   -65.5340     6.4820     5.9950     6.0860
 2233.0000     8.0540   -89.6850     0.1040     2.5250     0.2990   -26.6840   120.0080   -66.2530     6.6070     6.0230     6.0970
 2233.5000     8.0550   -88.7990     0.1300     2.5290     0.3000   -26.8220   120.0820   -66.9080     6.7210     6.0500     6.1090
 2234.0000     8.0570   -87.9130     0.1230     2.5330     0.3000   -26.9520   121.7950   -67.5620     6.8390     6.0780     6.1200
 2234.5000     8.0580   -87.0270     0.1120     2.5350     0.2940   -27.0850   123.8300   -68.2170     6.7550     6.1050     6.1320
 2235.0000     8.0580   -86.1410     0.1000     2.5390     0.2950   -27.2370   126.8370   -68.8720     6.6680     6.1330     6.1430
 2235.5000     8.0550   -85.2550     0.0850     2.5430     0.2940   -27.3230   130.8520   -69.5270     6.5990     6.1430     6.4130
 2236.0000     8.0520   -84.3690     0.0630     2.5400     0.2950   -27.7560   130.7350   -70.1820     6.9030     6.2540     6.8390
 2236.5000     8.0490   -83.4830     0.0650     2.5350     0.2980   -27.8180   128.9490   -70.8360     7.2730     6.6470     7.3350
 2237.0000     8.0470   -82.5970     0.0750     2.5410     0.2860   -27.8320   117.2450   -71.4910     7.6140     7.0250     7.8110
 2237.5000     8.0440   -81.7110     0.0570     2.5710     0.2600   -27.8150   100.6610   -72.1460     8.6290     7.4030     8.2880
 2238.0000     8.0410   -81.2700     0.0390     2.6130     0.2350   -27.8230    84.2580   -72.8010    17.2340     7.7820     8.7650
 2238.5000     8.0390   -82.4720     0.0200     2.6550     0.2090   -27.8220    67.1280   -73.4550    26.7750     8.0340     9.2690
 2239.0000     8.0360   -83.6740     0.0090     2.6420     0.1980   -27.8210    60.3170   -74.1100    34.8180     7.8420     9.2690
 2239.5000     8.0330   -84.8760     0.0050     2.6080     0.2110   -27.8220    68.9270   -74.7650    22.5990     7.6390     8.2090
 2240.0000     8.0310   -86.0790     0.0050     2.5690     0.2280   -27.8210    87.2560   -75.4200    12.0360     7.4360     7.2930
 2240.5000     8.0280   -87.2810     0.0070     2.5300     0.2460   -27.8210   106.6700   -76.0750     5.8220     7.2330     6.3760
 2241.0000     8.0250   -88.4830     0.0080     2.5120     0.2610   -27.8210   124.8400   -76.7290     5.8220     7.0290     6.0350
 2241.5000     8.0230   -89.6860     0.0100     2.5040     0.2820   -27.8210   131.5940   -77.3840     5.8220     6.8260     6.0350
 2242.0000     8.0200   -90.8880     0.0110     2.4970     0.2960   -27.8210   130.9100   -78.0390     5.9420     6.5990     6.0350
 2242.5000     8.0250   -92.0900     0.0130     2.5010     0.3000   -27.8210   127.3320   -78.6940     6.3750     6.4820     6.3000
 2243.0000     8.0310   -93.2930     0.0140     2.5080     0.2980   -27.8220   123.9100   -79.3480     6.8090     6.3790     6.6020
 2243.5000     8.0370   -94.4950     0.0160     2.5140     0.2890   -27.8210   119.8980   -80.0030     7.2430     6.2840     6.9030
 2244.0000     8.0430   -95.6970     0.0170     2.5200     0.2810   -27.8210   117.8270   -80.6580     7.6760     6.1900     7.2160
 2244.5000     8.0490   -96.9000     0.0170     2.5260     0.2770   -27.8230   119.2480   -81.3130     8.0340     6.0960     6.9500
 2245.0000     8.0560   -98.1020     0.0210     2.5310     0.2770   -27.8200   125.9740   -81.9670     8.0340     6.0010     6.4820
 2245.5000     8.0620   -99.3040     0.0370     2.5290     0.2860   -27.8180   134.1530   -82.6220     7.1870     5.9280     6.1390
 2246.0000     8.0680  -100.5060     0.0520     2.5270     0.2980   -27.6460   142.3160   -83.2770     6.3410     5.8220     5.7960
 2246.5000     8.0740  -101.7160     0.0670     2.5230     0.3180   -27.4300   152.9810   -83.9320     5.4940     5.8220     5.4530
 2247.0000     8.0800  -102.9280     0.0820     2.5240     0.3190   -27.2130   150.2800   -84.5870     4.9570     5.8220     5.1370
 2247.5000     8.0860  -104.1400     0.0980     2.5340     0.2980   -26.9990   143.6320   -85.2410     5.3240     6.0350     5.5150
 2248.0000     8.0920  -105.3530     0.1070     2.5530     0.2800   -26.7830   131.7190   -85.8960     5.7190     6.1430     5.8660
 2248.5000     8.0970  -106.5650     0.1100     2.5710     0.2600   -26.5680   118.2520   -86.5510     8.6130     6.2540     6.2170
 2249.0000     8.0910  -107.7780     0.1200     2.5840     0.2590   -26.3520   110.5080   -87.2060     9.7800     6.3670     6.5670
 2249.5000     8.0850  -108.9900     0.1350     2.5860     0.2620   -26.1370   111.6150   -87.8600     8.9330     6.5500     6.9180
 2250.0000     8.0780  -110.2020     0.1510     2.5880     0.2630   -25.9220   113.1280   -88.5150     8.2000     6.7330     7.2680
 2250.5000     8.0710  -111.4150     0.1530     2.5920     0.2640   -25.7060   114.3050   -89.1700     7.4790     6.9170     7.7510
 2251.0000     8.0640  -112.6270     0.1600     2.5950     0.2650   -25.4910   114.7470   -89.8250     7.6630     7.1000     7.7310
 2251.5000     8.0570  -113.8390     0.1740     2.5970     0.2690   -25.2760   113.3130   -90.4800     7.8760     7.3460     7.6440
 2252.0000     8.0500  -115.0520     0.1910     2.5980     0.2710   -25.0600   111.6800   -91.1340     8.0340     7.2310     7.4460
 2252.5000     8.0430  -116.2640     0.2070     2.6010     0.2670   -24.8450   109.6500   -91.7890     7.8910     7.0530     7.3170
 2253.0000     8.0360  -117.4770     0.2240     2.6080     0.2650   -24.6290   111.6190   -92.4440     7.5370     6.8760     7.1880
 2253.5000     8.0300  -118.6890     0.2400     2.6110     0.2670   -24.4120   116.9250   -93.0990     7.2090     6.5990     7.0590
 2254.0000     8.0230  -119.9010     0.2550     2.6140     0.2710   -24.2020   120.8450   -93.7530     6.8810     6.6240     6.9300
 2254.5000     8.0160  -120.2580     0.2520     2.6220     0.2690   -23.9850   120.8620   -94.4080     6.5990     6.7020     6.8010
 2255.0000     8.0090  -118.4040     0.2450     2.6290     0.2680   -24.0160   119.5080   -95.0630     7.0900     6.7800     6.7180
 2255.5000     8.0020  -116.5500     0.2600     2.6280     0.2680   -24.1440   119.7900   -95.7180     7.5860     6.8590     6.7180
 2256.0000     7.9950  -114.6960     0.2870     2.6250     0.2740   -24.2690   121.7980   -96.3720     7.8910     6.9370     6.4820
 2256.5000     7.9890  -112.8420     0.3100     2.6170     0.2860   -24.3910   126.0590   -97.0270     7.2400     7.0150     6.4820
 2257.0000     7.9830  -110.9880     0.3360     2.6100     0.2840   -24.5160   126.6950   -97.6820     6.5990     7.0930     6.4820
