~VERSION INFORMATION
 VERS.                2.0:   CWLS LOG ASCII STANDARD - VERSION 2.0
 WRAP.                 NO:   ONE LINE PER DEPTH STEP
~WELL INFORMATION
#MNEM.UNIT      DATA TYPE    INFORMATION
#----------   ------------   ------------------------------
 STRT.F            0.0000:   START DEPTH
 STOP.F         4022.0000:   STOP DEPTH
 STEP.F            0.5000:   STEP LENGTH
 NULL.          -999.2500:   NO VALUE
 COMP. LAWRENCE - ALLISON:   COMPANY
 WELL. LAWRENCE NPR 3 "MX" #58-10:   WELL
 FLD .                MPR:   FIELD
 LOC .      S10 T38N R78W:   LOCATION
 CNTY.            NATRONA:   COUNTY
 STAT.            WYOMING:   STATE
 CTRY. UNITED STATES OF AMERICA:   COUNTRY
 SRVC.      DRESSER ATLAS:   SERVICE COMPANY
 DATE.        12-FEB-1984:   LOGDATE
 API .     49025109610000:   API NUMBER
~CURVE INFORMATION
#MNEM.UNIT       API CODE    CURVE DESCRIPTION
#----------   ------------   ------------------------------
 DEPT.F                  :   
 GRR .GAPI   07 310 01 00:   GAMMA RAY FROM RESISTIVITY
 SPR .MV     07 010 01 00:   SPONTANEOUS POTENTIAL
 TENR.LBS    07 635 01 00:   TENSION FROM RESISTIVITY
 ILD .OHMM   07 120 46 00:   DEEP INDUCTION RESISTIVITY
 ILM .OHMM   07 120 44 00:   INDUCTION LOG MEDIUM RESISTIVITY
 SFL .OHMM   07 220 01 00:   SHALLOW FOCUSED LOG RESISTIVITY
 DT  .US/F   60 520 00 00:   DELTA TIME
 TENS.LBS    60 635 01 00:   TENSION FROM SONIC LOG
 CNC .DEC    42 890 03 00:   NEUTRON PORISITY SANDSTONE
 CALD.IN     45 280 60 00:   CALIPER FROM DENSITY LOG
 RHOB.G/C3   45 350 01 00:   BULK DENSITY
 CORR.G/C3   45 356 01 00:   DENSITY CORRECTION
 TEND.LBS    45 635 01 00:   TENSION FROM DENSITY LOG
~PARAMETER INFORMATION
#MNEM.UNIT          VALUE    DESCRIPTION
#----------   ------------   ------------------------------
 EKB .F         5218.0000:   Kelly bushing
 EGL .F         5208.0000:   Ground level
 EDF .F         5217.0000:   Drilling floor
 TD  .F         4014.0000:   Total depth
 DATE.        12-FEB-1984:   Date logged
 CLNT.            A2DTECH:   Client Code
 SL  . 500' FSL & 2150' FEL:   Surface Location
 PD  .                 GL:   Permanent Datum
 EPD .F              5208:   Elevation Permanent Datum
 LMF .                 KB:   Log Measured From
 DMF .                 KB:   Drilling Measured From
 DD  .F              4014:   Depth driller
 DL  .F              4011:   Depth logger
 BLI .F              4009:   Bottom log interval
 CS1 .IN            8.625:   Casing size
 CBD1.      8.625" @ 526':   Casing driller 1
 CBL1.F               525:   Casing logger 1
 BS1 .IN            7.875:   Bit size
 DFT .            GEL/KCL:   Type fluid in hole
 DFD .                8.9:   Density
 DFV .                 48:   Viscosity
 DFPH.                  8:   pH
 DFL .                1.3:   Fluid loss
 MSS .           MUD/TANK:   Source of sample
 RMS .OHMM           .556:   Rm
 MST .F                61:   Rm Meas. temp.
 RMF .OHMM           .423:   Rmf
 MFST.F                61:   Rmf Meas. temp.
 RMC .OHMM           .662:   Rmc
 MCST.F                61:   Rmc Meas. temp.
 MFSS.           MUD/TANK:   Source Rmf.
 RMB .OHMM            .80:   Rm. at BHT
 BHT .F               119:   BHT.
 TCS .HRS               5:   Time Circ. stopped
 MRT .F               119:   Maximum recorded temp.
 LUN .               6302:   Logging unit number
 ENGI.              GETTY:   Recorded By
 ORIG.           5" PRINT:   Origin of data
 UWI .     49025109610000:   Unique Well ID
 DICO. A2D TECHNOLOGIES, INC.:   Digitizing Company
 TLI .F                 0:   Top log interval
~OTHER INFORMATION
~A    DEPT      GRR       SPR       TENR        ILD        ILM        SFL         DT       TENS        CNC       CALD       RHOB       CORR       TEND   
# ...
 1664.0000   108.9450   -27.6360  -104.0520     7.0740     7.2160     7.8630  -999.2500  -999.2500     0.2510     8.4720     2.5050    -0.0260  -105.4340
 1664.5000   110.5200   -27.7630  -105.4340     7.0710     7.2090     7.9300  -999.2500  -999.2500     0.2400     8.4650     2.5160    -0.0100  -105.4340
 1665.0000   110.8500   -27.7120  -105.4340     7.0680     7.1970     7.9980  -999.2500  -999.2500     0.2360     8.4640     2.5250     0.0040  -105.4340
 1665.5000   111.0080   -27.6580  -105.4340     7.0640     7.1850     8.0660  -999.2500  -999.2500     0.2410     8.4750     2.5220    -0.0070  -105.4340
 1666.0000   112.0420   -27.6060  -105.4340     7.0610     7.1730     8.1320  -999.2500  -999.2500     0.2480     8.4860     2.5170    -0.0220  -105.4340
 1666.5000   113.1400   -27.5810  -105.4340     7.0580     7.1600     8.0010  -999.2500  -999.2500     0.2560     8.4970     2.5110    -0.0110  -105.4340
 1667.0000   114.0070   -27.6340  -105.4340     7.0550     7.1490     7.8740  -999.2500  -999.2500     0.2550     8.5080     2.5080    -0.0040  -105.4340
 1667.5000   113.0830   -27.6830  -105.4340     7.0520     7.1380     7.7470  -999.2500  -999.2500     0.2540     8.5190     2.5060    -0.0050  -105.4340
 1668.0000   109.6550   -27.7330  -105.4340     7.0480     7.1270     7.6260  -999.2500  -999.2500     0.2530     8.5300     2.5040    -0.0150  -105.4340
 1668.5000   102.4050   -27.7680  -105.4340     7.0450     7.1170     7.6260  -999.2500  -999.2500     0.2520     8.5400     2.5060    -0.0530  -105.4340
 1669.0000    99.8100   -27.7670  -105.4340     7.0420     7.1060     7.7270  -999.2500  -999.2500     0.2540     8.5350     2.5090    -0.0620  -105.4340
 1669.5000   100.7110   -27.7670  -105.4340     7.0390     7.0960     7.8460  -999.2500  -999.2500     0.2540     8.5310     2.5130    -0.0320  -105.4340
 1670.0000   100.8960   -27.7670  -105.4340     7.0350     7.0860     7.9110  -999.2500  -999.2500     0.2490     8.5260     2.5120    -0.0100  -105.1590
 1670.5000   100.2510   -27.7670  -105.4340     7.0320     7.1100     7.9110  -999.2500  -999.2500     0.2390     8.5220     2.5050    -0.0230  -104.8850
 1671.0000    99.6820   -27.7670  -105.4340     7.0290     7.1330     7.9110  -999.2500  -999.2500     0.2390     8.5170     2.4990    -0.0430  -104.6100
 1671.5000   101.4370   -27.7670  -105.4340     7.0260     7.1550     7.9110  -999.2500  -999.2500     0.2400     8.5130     2.4920    -0.0430  -104.3360
 1672.0000   104.2210   -27.7670   -99.6110     7.0210     7.1780     7.9110  -999.2500  -999.2500     0.2440     8.5090     2.4860    -0.0340  -104.0620
 1672.5000   109.5870   -27.7710   -92.9380     7.0570     7.2010     7.9110  -999.2500  -999.2500     0.2550     8.5040     2.4870    -0.0230  -103.7870
 1673.0000   111.1210   -27.6310   -86.2650     7.1320     7.2340     7.9110  -999.2500  -999.2500     0.2590     8.5000     2.4940     0.0010  -103.5130
 1673.5000   108.2120   -27.4570   -90.4120     7.2070     7.2930     7.9110  -999.2500  -999.2500     0.2530     8.4950     2.5010     0.0120  -103.2390
 1674.0000   105.1820   -27.2820   -95.4640     7.2830     7.3530     8.0110  -999.2500  -999.2500     0.2430     8.4910     2.5010     0.0120  -102.9640
 1674.5000   103.1190   -27.2490  -104.5700     7.3510     7.4150     8.2130  -999.2500  -999.2500     0.2400     8.4870     2.4960    -0.0190  -102.6900
 1675.0000   101.0420   -27.4500   -99.8260     7.3180     7.3960     8.4360  -999.2500  -999.2500     0.2420     8.4820     2.4930    -0.0580  -102.4160
 1675.5000   102.0900   -27.6470   -93.5690     7.2870     7.3720     8.4360  -999.2500  -999.2500     0.2450     8.4770     2.4980    -0.0670  -102.1410
 1676.0000   106.1980   -27.8330   -87.3130     7.2570     7.3470     8.3850  -999.2500  -999.2500     0.2480     8.4710     2.5050    -0.0350  -101.8670
 1676.5000   108.4610   -28.0010   -87.4650     7.2270     7.3220     7.9840  -999.2500  -999.2500     0.2510     8.4640     2.5120    -0.0080  -101.5930
 1677.0000   103.4500   -28.1580   -90.2460     7.1970     7.2980     7.9830  -999.2500  -999.2500     0.2530     8.4580     2.5130    -0.0120  -101.3180
 1677.5000    99.5760   -28.1270   -93.0260     7.1660     7.2730     7.9740  -999.2500  -999.2500     0.2570     8.4510     2.5120    -0.0160  -101.0440
 1678.0000   101.0080   -28.0900   -95.1950     7.1360     7.2480     7.9650  -999.2500  -999.2500     0.2560     8.4450     2.5060    -0.0160  -100.7700
 1678.5000   103.9260   -28.0550   -93.0190     7.1060     7.2170     7.9560  -999.2500  -999.2500     0.2490     8.4480     2.4960    -0.0150  -100.4960
 1679.0000   106.8460   -28.0190   -90.8430     7.0860     7.2580     7.9460  -999.2500  -999.2500     0.2510     8.4880     2.4910    -0.0140  -100.2210
 1679.5000   109.7770   -27.9840   -88.6670     7.1900     7.3140     7.9370  -999.2500  -999.2500     0.2530     8.5270     2.4880    -0.0120   -99.9470
 1680.0000   112.6780   -27.9210   -86.4910     7.2680     7.3700     7.9280  -999.2500  -999.2500     0.2550     8.5680     2.4910    -0.0130   -99.6730
 1680.5000   112.1180   -27.8260   -86.7850     7.3510     7.4270     7.9190  -999.2500  -999.2500     0.2540     8.5570     2.4950    -0.0190   -99.3980
 1681.0000   108.7290   -27.7310   -89.1680     7.5610     7.4890     7.9120  -999.2500  -999.2500     0.2510     8.5240     2.4970    -0.0260   -99.1240
 1681.5000   103.8100   -27.6380   -91.5520     7.7840     7.5500     8.1660  -999.2500  -999.2500     0.2470     8.4900     2.4910    -0.0360   -98.8500
 1682.0000   100.9900   -27.6180   -93.9350     7.8390     7.6110     8.3880  -999.2500  -999.2500     0.2450     8.4590     2.4860    -0.0520   -98.5750
 1682.5000   103.7500   -27.8250   -95.3120     7.8390     7.6830     8.6100  -999.2500  -999.2500     0.2460     8.4460     2.4850    -0.0670   -98.3010
 1683.0000   104.1550   -28.0220   -94.8870     7.8390     7.7580     8.7650  -999.2500  -999.2500     0.2500     8.4330     2.4950    -0.0620   -98.0270
 1683.5000   102.8170   -28.2190   -94.4630     7.8390     7.8340     8.8020  -999.2500  -999.2500     0.2550     8.4210     2.5130    -0.0100   -97.7520
 1684.0000   103.9140   -28.2800   -94.0390     7.8390     7.9110     8.8330  -999.2500  -999.2500     0.2560     8.4450     2.5190    -0.0010   -97.4780
 1684.5000   108.4770   -27.9600   -93.6150     7.8390     7.8440     8.6280  -999.2500  -999.2500     0.2520     8.4700     2.5210    -0.0080   -97.2040
 1685.0000   109.3650   -27.6430   -93.1910     7.8390     7.7760     8.4540  -999.2500  -999.2500     0.2440     8.4960     2.5230    -0.0080   -96.9290
 1685.5000   110.1570   -27.6910   -92.7670     7.7840     7.7070     8.2790  -999.2500  -999.2500     0.2400     8.5210     2.5270    -0.0030   -96.6550
 1686.0000   113.6400   -27.8540   -92.3420     7.6890     7.6380     8.1320  -999.2500  -999.2500     0.2400     8.5350     2.5330     0.0020   -96.3810
 1686.5000   114.0150   -28.0200   -91.9180     7.5950     7.5700     8.1450  -999.2500  -999.2500     0.2420     8.5120     2.5360     0.0020   -96.1070
 1687.0000   109.9980   -28.1470   -91.4940     7.4980     7.5010     8.1800  -999.2500  -999.2500     0.2430     8.4890     2.5350     0.0010   -95.8320
 1687.5000   106.6690   -28.0360   -91.0700     7.4000     7.4480     8.2070  -999.2500  -999.2500     0.2460     8.4670     2.5330     0.0090   -95.5580
 1688.0000   108.4020   -27.9260   -90.6460     7.3030     7.4000     8.1410  -999.2500  -999.2500     0.2520     8.4440     2.5310     0.0160   -95.8380
 1688.5000   111.5040   -27.8160   -90.2220     7.2670     7.3520     8.0580  -999.2500  -999.2500     0.2550     8.4220     2.5330     0.0010   -96.4090
 1689.0000   112.1320   -27.9100   -89.7980     7.2470     7.3030     7.9760  -999.2500  -999.2500     0.2530     8.4480     2.5360    -0.0040   -96.9810
 1689.5000   110.2670   -28.1560   -89.3730     7.2270     7.2550     7.9110  -999.2500  -999.2500     0.2490     8.4790     2.5380    -0.0060   -97.5520
