~VERSION INFORMATION
 VERS.                2.0:   CWLS LOG ASCII STANDARD - VERSION 2.0
 WRAP.                 NO:   ONE LINE PER DEPTH STEP
~WELL INFORMATION
#MNEM.UNIT      DATA TYPE    INFORMATION
#----------   ------------   ------------------------------
 STRT.F            0.0000:   START DEPTH
 STOP.F         5576.0000:   STOP DEPTH
 STEP.F            0.5000:   STEP LENGTH
 NULL.          -999.2500:   NO VALUE
 COMP.      FLUCOR DANIEL:   COMPANY
 WELL.  FLUCOR "X" #76-10:   WELL
 FLD .          N.P.R. #3:   FIELD
 LOC .      S10 T38N R78W:   LOCATION
 CNTY.            NATRONA:   COUNTY
 STAT.            WYOMING:   STATE
 CTRY. UNITED STATES OF AMERICA:   COUNTRY
 SRVC. ATLAS WIRELINE SERVICES:   SERVICE COMPANY
 DATE.        16-MAR-1995:   LOGDATE
 API .     49025226860000:   API NUMBER
~CURVE INFORMATION
#MNEM.UNIT       API CODE    CURVE DESCRIPTION
#----------   ------------   ------------------------------
 DEPT.F                  :   
 CNC .DEC    42 890 01 00:   NEUTRON POROSITY LIMESTONE
 CALD.IN     45 280 60 00:   CALIPER FROM DENSITY LOG
 ZDEN.G/C3   45 350 01 00:   BULK DENSITY
 ZCOR.G/C3   45 356 01 00:   DENSITY CORRECTION
 RILD.OHMM   07 120 46 00:   INDUCTION LOG DEEP RESISTIVITY
 RILM.OHMM   07 120 44 00:   INDUCTION LOG MEDIUM RESISTIVITY
 RS  .OHMM   11 220 10 00:   RESISTIVITY SHALLOW
 RD  .OHMM   11 220 09 00:   RESISTIVITY DEEP
 GRR .GAPI   07 310 01 00:   GAMMA RAY
 TENR.LBS    07 635 01 00:   TENSION FROM RESISTIVITY
~PARAMETER INFORMATION
#MNEM.UNIT          VALUE    DESCRIPTION
#----------   ------------   ------------------------------
 EKB .F         5191.0000:   Kelly bushing
 EGL .F         5101.0000:   Ground level
 EDF .F         5190.0000:   Drilling floor
 TD  .F         5582.0000:   Total depth
 CLNT.            A2DTECH:   Client Code
 SL  . 1896' FSL & 832' FEL:   Surface Location
 PD  .                 GL:   Permanent Datum
 EPD .F              5181:   Elevation Permanent Datum
 LMF .                 KB:   Log Measured From
 DMF .                 KB:   Drilling Measured From
 DAPD.F                10:   Feet Above Permanent Datum
 DATE.        16-MAR-1995:   Date Logged [DD-MMM-YYYY]
 DD  .F              5582:   Depth driller
 DL  .F              5578:   Depth logger
 BLI .F              5566:   Bottom log interval
 TLI .F               518:   Top log interval
 CS1 .IN            8.625:   Casing size
 CBD1.      8.625" @ 519':   Casing driller 1
 CBL1.F               518:   Casing logger 1
 BS1 .IN             8.75:   Bit size
 BSD1.F              5582:   Depth drilled with bit1
 DFT .               LSND:   Type fluid in hole
 DFD .               10.1:   Density
 DFV .                 52:   Viscosity
 DFPH.                9.5:   pH
 DFL .                7.2:   Fluid loss
 MSS .           FLOWLINE:   Source of sample
 RMS .OHMM          0.536:   Rm
 MST .F                70:   Rm Meas. temp.
 RMF .OHMM          0.415:   Rmf
 MFST.F                70:   Rmf Meas. temp.
 MFSS.               MEAS:   Source Rmf.
 RMC .OHMM          0.646:   Rmc
 MCST.F                70:   Rmc Meas. temp.
 MCSS.               MEAS:   Source Rmc.
 RMB .OHMM          0.228:   Rm. at BHT
 BHT .F               165:   BHT.
 TCS .HRS             6.5:   Time Circ. stopped
 MRT .F               165:   Maximum recorded temp.
 LUN .            HL-6530:   Logging unit number
 LUL .             CASPER:   Logging unit location
 ENGI.      PAT RASMUSSEN:   Recorded By
 WITN.        GARY STRONG:   Witnessed by
 ORIG.           5" PRINT:   Origin of data
 UWI .     49025226860000:   Unique Well ID
 DICO. A2D TECHNOLOGIES, INC.:   Digitizing Company
~OTHER INFORMATION
~A  DEPTH      CNC       CALD       ZDEN       ZCOR       RILD       RILM         RS         RD        GRR       TENR
# ...
 3149.0000     0.1905     9.8693     2.5288     0.0286  -999.2500  -999.2500     8.3300    10.5573    83.3621     1.1105
 3149.5000     0.1956     9.9134     2.5257     0.0345  -999.2500  -999.2500     8.2123    10.4024    85.7719    -6.1136
 3150.0000     0.2101     9.9123     2.5264     0.0238  -999.2500  -999.2500     8.2096    10.1139    93.9384    -5.6228
 3150.5000     0.2114     9.9111     2.5317     0.0131  -999.2500  -999.2500     8.5556    10.8369    94.2372   -12.7487
 3151.0000     0.2095     9.9100     2.5407     0.0130  -999.2500  -999.2500     9.0417    11.6116    93.0179   -19.8748
 3151.5000     0.2041     9.9086     2.5451     0.0129  -999.2500  -999.2500     9.8241    12.2000    89.9818   -19.3838
 3152.0000     0.1984     9.9045     2.5405     0.0128  -999.2500  -999.2500    10.3823    12.9705    86.0352   -11.4723
 3152.5000     0.1999     9.8947     2.5375     0.0127  -999.2500  -999.2500    10.5247    13.3326    82.0901    -3.5608
 3153.0000     0.2047     9.8766     2.5389     0.0126  -999.2500  -999.2500    10.5195    13.3262    81.7813    -3.1579
 3153.5000     0.2053     9.8757     2.5419     0.0140  -999.2500  -999.2500    10.2259    13.3209    82.6847   -17.7147
 3154.0000     0.2081     9.8902     2.5463     0.0169  -999.2500  -999.2500     9.9414    12.9491    83.2850   -47.3971
 3154.5000     0.2093     9.8891     2.5493     0.0230  -999.2500  -999.2500     9.8002    12.5889    85.7020   -62.0420
 3155.0000     0.2032     9.8882     2.5492     0.0333  -999.2500  -999.2500     9.8715    12.3241    88.1220   -69.1729
 3155.5000     0.1924     9.8872     2.5462     0.0393  -999.2500  -999.2500     9.9981    12.4041    88.1148   -68.6771
 3156.0000     0.1836     9.8863     2.5454     0.0316  -999.2500  -999.2500    10.3479    13.0180    86.2909   -60.7656
 3156.5000     0.1754     9.8854     2.5476     0.0179  -999.2500  -999.2500    10.9358    14.1458    81.4352   -52.8541
 3157.0000     0.1721     9.8846     2.5490     0.0068  -999.2500  -999.2500    10.7795    14.1343    80.5204   -44.9425
 3157.5000     0.1830     9.8988     2.5474     0.0043  -999.2500  -999.2500    10.4796    13.0015    81.7267   -37.0300
 3158.0000     0.2007     9.8977     2.5428    -0.0016  -999.2500  -999.2500     9.7038    11.8727    85.6604   -44.0588
 3158.5000     0.2105     9.8969     2.5352    -0.0017  -999.2500  -999.2500     8.6715    10.8419    89.8971   -51.2503
 3159.0000     0.2115     9.9113     2.5314    -0.0002  -999.2500  -999.2500     8.2618     9.9687    90.4960   -50.7593
 3159.5000     0.2103     9.9254     2.5351    -0.0003  -999.2500  -999.2500     8.2013     9.8958    93.2175   -50.3666
 3160.0000     0.2021     9.9243     2.5471    -0.0034  -999.2500  -999.2500     8.3710    10.1720    90.4845   -19.8987
 3160.5000     0.1994     9.9536     2.5486    -0.0050  -999.2500  -999.2500     8.3676    10.2381    87.4484    10.5693
 3161.0000     0.2085     9.9981     2.5330    -0.0005  -999.2500  -999.2500     7.8016     8.8422    88.9564    -4.0756
 3161.5000     0.2290    10.0728     2.4903     0.0190  -999.2500  -999.2500     6.5083     6.7678    93.7991   -11.2015
 3162.0000     0.2529    10.3752     2.4442     0.0601  -999.2500  -999.2500     5.0998     5.3543    99.5510    11.8457
 3162.5000     0.3124    10.4787     2.4124     0.0960  -999.2500  -999.2500     4.2836     4.9231   101.3648     4.7198
 3163.0000     0.3284    10.4931     2.4063     0.1035  -999.2500  -999.2500     4.2232     4.9901   101.9799   -17.4439
 3163.5000     0.3300    10.3712     2.4173     0.0837  -999.2500  -999.2500     4.4627     5.0230   104.9868   -24.5699
 3164.0000     0.3230    10.3402     2.4258     0.0655  -999.2500  -999.2500     4.5894     5.0210   106.4977   -16.5602
 3164.5000     0.3097    10.3242     2.4046     0.0549  -999.2500  -999.2500     4.5846     5.0541   104.6723    -8.6487
 3165.0000     0.2997    10.3080     2.3653     0.0608  -999.2500  -999.2500     4.6148     5.0517   103.1514    14.3005
 3165.5000     0.2858    10.2769     2.3403     0.0895  -999.2500  -999.2500     4.7763     5.1204   102.8424    22.2180
 3166.0000     0.2761    10.1401     2.3394     0.1045  -999.2500  -999.2500     4.9092     5.1537   102.8355    22.7029
 3166.5000     0.2906    10.0486     2.3530     0.0712  -999.2500  -999.2500     5.0457     5.2608   104.3449    15.4786
 3167.0000     0.2967     9.9701     2.4058     0.0340  -999.2500  -999.2500     5.1144     5.4824   107.0664    15.9398
 3167.5000     0.2936     9.9409     2.4752     0.0181  -999.2500  -999.2500     5.1835     5.6349   116.4969    16.3623
 3168.0000     0.2909     9.9705     2.4888     0.0196  -999.2500  -999.2500     5.1094     5.7116   117.3579     8.3373
 3168.5000     0.2955    10.0299     2.4827     0.0286  -999.2500  -999.2500     5.0369     5.7088   116.1386    -5.4084
 3169.0000     0.3094    10.0592     2.4735     0.0421  -999.2500  -999.2500     5.0700     5.7464   110.9814   -12.5345
 3169.5000     0.3079    10.0128     2.4689     0.0662  -999.2500  -999.2500     5.2564     5.9469   105.8241   -12.0435
 3170.0000     0.2867     9.9213     2.4855     0.0707  -999.2500  -999.2500     5.8624     6.6445   107.3335   -11.6508
 3170.5000     0.2419     9.9358     2.5308     0.0464  -999.2500  -999.2500     7.0219     7.4239   106.7203   -11.2406
 3171.0000     0.2141     9.9196     2.5459     0.0312  -999.2500  -999.2500     8.0669    10.0775   105.5024   -18.2859
 3171.5000     0.1989     9.9036     2.5533     0.0220  -999.2500  -999.2500     9.7969    11.4173   103.6785   -17.8932
 3172.0000     0.1856     9.9026     2.5562     0.0129  -999.2500  -999.2500    10.7948    12.9353   101.8433   -17.5005
 3172.5000     0.1720     9.9017     2.5592     0.0113  -999.2500  -999.2500    11.4081    14.9792    96.9989   -17.1053
 3173.0000     0.1660     9.9008     2.5623     0.0128  -999.2500  -999.2500    11.4833    15.4877    94.2659   -16.6168
 3173.5000     0.1626     9.9000     2.5681     0.0172  -999.2500  -999.2500    11.2406    15.4802    93.9585    -8.7052
 3174.0000     0.1696     9.8840     2.5756     0.0232  -999.2500  -999.2500    11.0810    15.5823    95.1635    -8.3125
 3174.5000     0.1684     9.8829     2.5892     0.0277  -999.2500  -999.2500    11.2318    15.6848    99.4687    -7.9198
 3175.0000     0.1666     9.8821     2.6208     0.0215  -999.2500  -999.2500    11.7049    16.8066   100.0005    -7.5188
 3175.5000     0.1651     9.8963     2.6336     0.0094  -999.2500  -999.2500    12.1144    17.5178    96.6600    -7.0361
 3176.0000     0.1660     9.8955     2.6358    -0.0013  -999.2500  -999.2500    12.1097    17.3782    91.1997    -6.6434
 3176.5000     0.1723     9.8946     2.5950    -0.0029  -999.2500  -999.2500    11.8550    16.6690    90.2830    -6.2504
 3177.0000     0.1793     9.8935     2.5632     0.0061  -999.2500  -999.2500    10.6011    15.2218    95.1261    -5.8577
 3177.5000     0.1865     9.9078     2.5616     0.0136  -999.2500  -999.2500     9.5469    13.5188   100.5749    -5.4511
 3178.0000     0.1929     9.9069     2.5578     0.0166  -999.2500  -999.2500     8.8402    12.4300   101.1767   -20.0116
 3178.5000     0.1987     9.9060     2.5486     0.0059  -999.2500  -999.2500     8.1684    11.5902   101.4725   -34.6565
 3179.0000     0.2056     9.9201     2.5342    -0.0018  -999.2500  -999.2500     7.4743    10.0110   104.3064   -34.2638
 3179.5000     0.2083     9.9192     2.5161    -0.0033  -999.2500  -999.2500     7.0180     9.4580   109.0354   -48.9098
 3180.0000     0.2189     9.9334     2.5047    -0.0049  -999.2500  -999.2500     6.4984     9.0741   113.2721   -56.0347
 3180.5000     0.2377     9.9326     2.4900    -0.0020  -999.2500  -999.2500     5.5736     7.1600   121.1451   -55.5437
 3181.0000     0.2616     9.9471     2.4766     0.0041  -999.2500  -999.2500     4.9157     6.6763   129.0181   -40.1134
 3181.5000     0.2713     9.9611     2.4720     0.0236  -999.2500  -999.2500     4.5202     5.3413   129.9215   -32.2019
 3182.0000     0.2707     9.9753     2.4674     0.0431  -999.2500  -999.2500     4.4560     5.1567   122.9446   -23.9299
