~VERSION INFORMATION
 VERS.                2.0:   CWLS LOG ASCII STANDARD - VERSION 2.0
 WRAP.                 NO:   ONE LINE PER DEPTH STEP
~WELL INFORMATION
#MNEM.UNIT      DATA TYPE    INFORMATION
#----------   ------------   ------------------------------
 STRT.F          200.0000:   START DEPTH
 STOP.F         2968.0000:   STOP DEPTH
 STEP.F            0.5000:   STEP LENGTH
 NULL.          -999.2500:   NO VALUE
 COMP. FENIX & SCISSON U.S. NAVY:   COMPANY
 WELL.   FENIX "A" #23-28:   WELL
 FLD .              NPR 3:   FIELD
 LOC .      S28 T39N R78W:   LOCATION
 CNTY.            NATRONA:   COUNTY
 STAT.            WYOMING:   STATE
 CTRY. UNITED STATES OF AMERICA:   COUNTRY
 SRVC.       SCHLUMBERGER:   SERVICE COMPANY
 DATE.        10-JUN-1977:   LOGDATE
 API .     49025103860000:   API NUMBER
~CURVE INFORMATION
#MNEM.UNIT       API CODE    CURVE DESCRIPTION
#----------   ------------   ------------------------------
 DEPT.F                  :   
 SPR .MV     07 010 01 00:   SPONTANEOUS POTENTIAL
 RILM.OHMM   07 120 44 00:   INDUCTION LOG MEDIUM RESISTIVITY
 RILD.OHMM   07 120 46 00:   DEEP INDUCTION RESISTIVITY
 LL8 .None   99 022 08 00:   LATEROLOG
 GRD .GAPI   45 310 01 00:   GAMMA RAY FROM DENSITY LOG
 CALD.IN     45 280 60 00:   CALIPER FROM DENSITY LOG
 RHOB.G/C3   45 350 01 00:   BULK DENSITY
 DRHO.G/C3   45 356 01 00:   DENSITY CORRECTION
~PARAMETER INFORMATION
#MNEM.UNIT          VALUE    DESCRIPTION
#----------   ------------   ------------------------------
 EKB .F         5019.0000:   Kelly bushing
 EGL .F         5009.0000:   Ground level
 EDF .F            0.0000:   Drilling floor
 EPD .F         5009.0000:   Permanent datum
 TD  .F         2971.0000:   Total depth
 DATE.        10-JUN-1977:   Date logged
 CLNT.            A2DTECH:   Client Code
 SL  . 1650' FNL & 990' FWL:   Surface Location
 DAPD.F                10:   Feet Above Permanent Datum
 DD  .F              2970:   Depth driller
 DL  .F              2971:   Depth logger
 BLI .F              2905:   Bottom log interval
 TLI .F               216:   Top log interval
 CS1 .IN            8.625:   Casing size
 CBD1.      9.625" @ 216':   Casing driller 1
 CBL1.F               216:   Casing logger 1
 BS1 .IN            7.875:   Bit size
 BSD1.F              2970:   Depth drilled with bit1
 DFT .            KCL MUD:   Type fluid in hole
 DFD .                8.8:   Density
 DFV .                 32:   Viscosity
 DFPH.                8.5:   pH
 DFL .                7.4:   Fluid loss
 MSS .               CIRC:   Source of sample
 RMS .OHMM           1.87:   Rm
 MST .F                85:   Rm Meas. temp.
 RMF .OHMM           1.69:   Rmf
 MFST.F                85:   Rmf Meas. temp.
 RMC .OHMM           2.80:   Rmc
 MCST.F                85:   Rmc Meas. temp.
 MFSS.               MEAS:   Source Rmf.
 MCSS.               CALC:   Source Rmc.
 RMB .OHMM           1.43:   Rm. at BHT
 BHT .F               111:   BHT.
 TCS .HRS            1600:   Time Circ. stopped
 TLAB.HRS            0945:   Time logger at bottom
 MRT .F               111:   Maximum recorded temp.
 LUN .               7711:   Logging unit number
 LUL .               CSPR:   Logging unit location
 ENGI.             SAYLER:   Recorded By
 WITN.         HARRINGTON:   Witnessed by
 ORIG.           5" PRINT:   Origin of data
 UWI .     49025103860000:   Unique Well ID
 DICO. A2D TECHNOLOGIES, INC.:   Digitizing Company
~OTHER INFORMATION
~A  DEPTH      SPR       RILM       RILD        LL8        GRD       CALD       RHOB       DRHO
# ...
 1820.0000   -66.8560     9.5290     9.1840    10.7350   119.6300     9.3380     1.7790     0.0490
 1820.5000   -66.8200    10.1010     9.3470    10.9400   121.0930     9.4390     1.7150     0.0620
 1821.0000   -66.7840    10.6420     9.5370    10.8850   122.5080     9.6240     1.6470     0.0800
 1821.5000   -66.8110    10.5820     9.7270    10.8410   123.9120     9.7990     1.5790     0.0780
 1822.0000   -66.8990    10.5080     9.8860    10.7970   125.3060    10.2970     1.5310     0.0910
 1822.5000   -66.9860    10.4340     9.6050    10.7410   126.1010    10.8790     1.5780     0.1170
 1823.0000   -67.0740    10.3520     9.3230    10.8920   125.6730    11.0300     1.6380     0.1430
 1823.5000   -67.1610    10.4860     9.8860    11.0420   124.8760    11.1380     1.7250     0.1720
 1824.0000   -67.2490    10.6340     9.2690    11.0420   124.3580    11.1540     1.8160     0.1640
 1824.5000   -67.3390    10.7820     9.5160    11.1400   124.5330    10.8750     1.8560     0.1520
 1825.0000   -67.3390    10.9310    10.0810    11.2560   124.6590    10.9550     1.8200     0.1560
 1825.5000   -67.3110    11.1440    10.5450    11.3510   124.1990    11.0420     1.7810     0.1440
 1826.0000   -67.2820    11.0000    10.1630    11.0320   122.3670    11.1100     1.7360     0.1310
 1826.5000   -67.2520    10.5980    10.3520    10.7620   119.5430    10.3000     1.7690     0.1370
 1827.0000   -67.2230    10.0700    10.0850    10.3520   118.4010    10.0980     1.8100     0.1440
 1827.5000   -67.1940    10.1820     9.7110    10.6130   120.0890     9.8830     1.8510     0.1510
 1828.0000   -67.1650    10.4140     9.3550    11.3340   124.8760     9.8690     1.8843     0.1580
 1828.5000   -67.1360    10.6420     9.9070    11.2470   129.5930     9.8720     1.9210     0.1340
 1829.0000   -67.1060    10.2700    10.5650    11.6690   130.9470     9.8630     1.9576     0.1000
 1829.5000   -67.0770     9.9040    10.8400    11.3350   126.6500     9.6090     1.9756     0.0660
 1830.0000   -67.0480     9.3550    10.4300    10.9990   123.2920     9.4190     1.9799     0.0450
 1830.5000   -67.0190     9.4390     9.9780    10.8400   120.6100     9.4520     1.9845     0.0650
 1831.0000   -66.9890     9.6170    10.0530    10.8400   122.8920     9.4540     1.9279     0.0800
 1831.5000   -66.9650     9.2890    10.1630    10.6550   125.3390     9.4520     1.8661     0.0960
 1832.0000   -67.0320     8.8080     9.9100    10.4850   126.5700     9.5030     1.8043     0.1090
 1832.5000   -67.1060     8.3260     9.6730    10.3520   124.8340     9.5330     1.7626     0.1170
 1833.0000   -67.1790     7.6390     9.5290    10.8410   122.7550     9.5530     1.7830     0.1140
 1833.5000   -67.2520     7.7100    10.1630    11.2470   122.8640     9.5420     1.8450     0.1250
 1834.0000   -67.3250     7.4310     9.8660    10.7260   123.0470     9.5450     1.9070     0.1830
 1834.5000   -67.3980     8.6270     9.2690    10.2890   122.8350     9.5920     1.9690     0.2180
 1835.0000   -67.4710     9.5190     9.4360     9.9780   122.7200     9.5110     2.0990     0.2010
 1835.5000   -67.5440    10.4110     9.6170    10.7190   123.6310     9.4550     2.1990     0.1980
 1836.0000   -67.6170    10.5450     9.1840    11.2470   124.5160     9.4910     2.2970     0.2030
 1836.5000   -67.6900    10.6420     9.4460    11.7160   124.3370     9.4150     2.2880     0.1540
 1837.0000   -67.7630    11.0420     9.7060    11.9850   122.5870     9.4170     2.1930     0.0550
 1837.5000   -67.8360    10.8880     9.4180    11.8860   121.1010     9.3390     2.1200     0.0620
 1838.0000   -67.9090    10.6150     9.1000    11.5390   121.4400     9.2450     1.9830     0.0770
 1838.5000   -67.9550    10.3420     9.2500    11.0720   118.8530     9.2410     1.8470     0.0910
 1839.0000   -68.0210    10.0700     9.4600    10.6060   117.3170     9.6260     1.7430     0.1050
 1839.5000   -68.1090     9.9780     9.6170    10.2570   119.0090     9.9840     1.6940     0.1040
 1840.0000   -68.1960    10.3520     9.1010    10.3150   120.3500    10.4160     1.6780     0.1060
 1840.5000   -68.2830    10.2510     8.7710    10.3520   122.2870    10.9550     1.6880     0.1210
 1841.0000   -68.3570    10.0010     9.0570    10.0990   124.1660    11.0410     1.7350     0.1350
 1841.5000   -68.3980     9.7510     9.4410     9.8880   123.3380    11.0010     1.7990     0.1490
 1842.0000   -68.4430     9.5000     9.1880     9.6760   123.6610    10.8680     1.8630     0.1640
 1842.5000   -68.4880     9.2500     8.9180     9.4650   122.0570    10.7920     1.9260     0.1780
 1843.0000   -68.5330     9.0160     8.6110     9.3550   120.4090    11.8800     1.9880     0.1880
 1843.5000   -68.5780     9.1830     8.7400     9.6330   118.6740    11.9690     1.9980     0.1940
 1844.0000   -68.6220     9.5210     8.9380     9.9570   121.0260    11.9380     2.0000     0.1980
 1844.5000   -68.6670     9.7960     9.1000    10.3520   123.9580    13.3600     2.0500     0.1740
 1845.0000   -68.7120     9.6070     9.0560    10.0010   125.9720    13.6800     2.1280     0.1150
 1845.5000   -68.7570     9.4410     9.0160     9.7060   126.5050    13.6160     2.2310     0.0550
 1846.0000   -68.8020     9.7960     9.0880     9.8860   127.0700    13.0790     2.3540     0.0040
 1846.5000   -68.8470     9.6940     9.2250     9.8300   127.6480    14.9280     2.4310     0.0100
 1847.0000   -68.8920     9.5290     9.3550     9.7060   128.5710    15.8340     2.4380     0.0190
 1847.5000   -68.9360     9.7500     9.3280     9.9750   130.8070    16.0310     2.4640     0.0280
 1848.0000   -68.9810     9.9780     9.2860    10.5830   133.2200    15.7850     2.4910     0.0370
 1848.5000   -69.0260     9.8320     9.1000    11.4560   135.6280    14.3420     2.4750     0.0500
 1849.0000   -69.0710     9.6870     8.9190    11.3820   137.3690    13.5650     2.4600     0.0630
 1849.5000   -69.1160     9.5420     8.7330    11.2470   138.3330    12.2710     2.4320     0.0600
 1850.0000   -69.1520     9.1840     8.4530    11.6690   140.9520     8.9170     2.3980     0.0840
 1850.5000   -69.1950     9.1000     8.5990    10.7410   143.5120     8.8810     2.3456     0.1020
 1851.0000   -69.2380     9.5290     8.8970    10.8600   144.7130     8.8920     2.2913     0.1200
 1851.5000   -69.2820     9.9780     9.1840    11.1160   138.8220     8.8530     2.2571     0.1290
 1852.0000   -69.3250     9.9410     9.0360    11.3710   134.8350     8.8090     2.2962     0.0970
 1852.5000   -69.3690     9.8540     9.2250    11.6270   135.8540     8.8790     2.3353     0.0700
 1853.0000   -69.4120     9.7670     9.4360    11.8830   136.7310     8.9360     2.3743     0.0440
 1853.5000   -69.4550     9.6800     9.3830    11.9960   136.1690     8.9100     2.4140     0.0590
 1854.0000   -69.4990     9.5930     9.3340    11.5580   132.3080     8.8810     2.4610     0.0770
 1854.5000   -69.5420     9.5060     9.1680    11.2620   130.4820     8.8730     2.4850     0.0870
 1855.0000   -69.5860     9.4190     9.0160    11.4560   129.2850     8.8900     2.5040     0.0780
 1855.5000   -69.6290     9.7960     8.7750    11.0620   128.8410     8.8880     2.4790     0.0660
 1856.0000   -69.6720     8.8520     8.4530    10.4750   128.4850     8.8410     2.4910     0.0740
 1856.5000   -69.7160     9.1800     8.6280    10.1850   127.4940     8.8790     2.5230     0.0980
 1857.0000   -69.7400     9.4960     8.8520    10.0700   127.5170     8.9160     2.5520     0.1220
 1857.5000   -69.6750     9.8860     8.4530    11.8860   127.6680     8.8680     2.5590     0.1460
 1858.0000   -69.6070     9.1000     8.6140    11.7820   131.8320     8.8160     2.5350     0.1090
 1858.5000   -69.5400     9.5920     8.9020    11.3510   136.5380     8.8680     2.5080     0.0640
 1859.0000   -69.4720     9.8860     9.1000    11.4700   140.7740     8.8950     2.4840     0.0300
 1859.5000   -69.4040     9.8860     9.1000    11.7770   142.6660     8.8830     2.4850     0.0340
 1860.0000   -69.3360    10.0560     9.3920    11.4560   146.6150     8.8780     2.4890     0.0420
