~VERSION INFORMATION
 VERS.                2.0:   CWLS LOG ASCII STANDARD - VERSION 2.0
 WRAP.                 NO:   ONE LINE PER DEPTH STEP
~WELL INFORMATION
#MNEM.UNIT      DATA TYPE    INFORMATION
#----------   ------------   ------------------------------
 STRT.F          200.0000:   START DEPTH
 STOP.F         3014.0000:   STOP DEPTH
 STEP.F            0.5000:   STEP LENGTH
 NULL.          -999.2500:   NO VALUE
 COMP.    FENIX & SCISSON:   COMPANY
 WELL. FENIX NPR 3 "AX" #45-28:   WELL
 FLD .                NPR:   FIELD
 LOC .      S28 T39N R78W:   LOCATION
 CNTY.            NATRONA:   COUNTY
 STAT.            WYOMING:   STATE
 CTRY. UNITED STATES OF AMERICA:   COUNTRY
 SRVC.              WELEX:   SERVICE COMPANY
 DATE.        30-SEP-1977:   LOGDATE
 API .     49025104230000:   API NUMBER
~CURVE INFORMATION
#MNEM.UNIT       API CODE    CURVE DESCRIPTION
#----------   ------------   ------------------------------
 DEPT.F                  :   
 SPR .MV     07 010 01 00:   SPONTANEOUS POTENTIAL
 TENR.LBS    07 635 01 00:   TENSION
 SFL .OHMM   07 220 01 00:   SHALLOW FOCUSED LOG RESISTIVITY
 ILD .OHMM   07 120 46 00:   INDUCTION LOG DEEP RESISTIVITY
 ILM .OHMM   07 120 44 00:   INDUCTION LOG MEDIUM RESISTIVITY
 TEND.LBS    45 635 01 00:   TENSION FROM DENSITY LOG
 CALD.IN     45 280 60 00:   CALIPER FROM DENSITY LOG
 RHOB.G/C3   45 350 01 00:   BULK DENSITY
 CORR.G/C3   45 356 01 00:   DENSITY CORRECTION
 GRD .GAPI   45 310 01 00:   GAMMA RAY FROM DENSITY LOG
~PARAMETER INFORMATION
#MNEM.UNIT          VALUE    DESCRIPTION
#----------   ------------   ------------------------------
 EKB .F         5075.0000:   Kelly bushing
 EGL .F         5065.0000:   Ground level
 EDF .F            0.0000:   Drilling floor
 E TD.F         3008.0000:   Total depth
 DATE.        30-SEP-1977:   Date logged
 CLNT.            A2DTECH:   Client Code
 SL  . 2210' FSL & 2310' FWL:   Surface Location
 PD  .                 GL:   Permanent Datum
 EPD .F              5065:   Elevation Permanent Datum
 LMF .                 KB:   Log Measured From
 DMF .                 KB:   Drilling Measured From
 DAPD.F                10:   Feet Above Permanent Datum
 DD  .F              3005:   Depth driller
 DL  .F              3008:   Depth logger
 BLI .F              3006:   Bottom log interval
 TLI .F               200:   Top log interval
 CS1 .IN            8.625:   Casing size
 CBD1.      8.625" @ 205':   Casing driller 1
 CBL1.F               220:   Casing logger 1
 BS1 .IN            7.875:   Bit size
 BSD1.F              3005:   Depth drilled with bit1
 DFT .            KCL/MUD:   Type fluid in hole
 DFD .                9.1:   Density
 DFV .                 38:   Viscosity
 DFPH.                 11:   pH
 DFL .                6.8:   Fluid loss
 MSS .           FLOWLINE:   Source of sample
 RMS .OHMM            .31:   Rm
 MST .F                78:   Rm Meas. temp.
 RMF .OHMM            .15:   Rmf
 MFST.F                78:   Rmf Meas. temp.
 RMC .OHMM           1.02:   Rmc
 MCST.F                78:   Rmc Meas. temp.
 MFSS.               FANN:   Source Rmf.
 MCSS.                KIT:   Source Rmc.
 RMB .OHMM            .20:   Rm. at BHT
 BHT .F               117:   BHT.
 TCS .HRS               3:   Time Circ. stopped
 MRT .F               117:   Maximum recorded temp.
 LUN .               8611:   Logging unit number
 LUL .             CASPER:   Logging unit location
 ENGI.         G. BENTSEN:   Recorded By
 WITN.         HARRINGTON:   Witnessed by
 ORIG.           5" PRINT:   Origin of data
 UWI .     49025104230000:   Unique Well ID
 DICO. A2D TECHNOLOGIES, INC.:   Digitizing Company
~OTHER INFORMATION
~A   DEPT      SPR        TENR       SFL        ILD        ILM       TEND       CALD       RHOB       CORR        GRD   
# ...
 2980.5000   -67.1690   889.0860     7.7850     6.2760     6.7740  1066.3370     7.8410     2.4360     0.0130    84.4930
 2981.0000   -67.0710   888.9540     7.5800     6.3190     6.8370  1066.4399     7.8250     2.4440     0.0140    73.3050
 2981.5000   -66.9740   888.8220     7.4160     6.3620     6.9010  1066.5430     7.8100     2.4520     0.0140    69.7920
 2982.0000   -66.8760   888.6890     7.8830     6.4050     6.9520  1066.6460     7.7940     2.4550     0.0130    67.3960
 2982.5000   -66.7780   888.5540     8.2730     6.4570     6.8890  1066.7490     7.7780     2.4490     0.0120    78.6420
 2983.0000   -66.6810   888.5540     8.5960     6.4350     6.8250  1066.8530     7.7630     2.4430     0.0110    73.5890
 2983.5000   -66.5840   888.5540     7.8610     6.3970     6.7610  1066.9561     7.7480     2.4360     0.0100    67.6400
 2984.0000   -66.5070   888.5540     7.2360     6.3580     6.6970  1067.0590     7.7500     2.4300     0.0090    60.1220
 2984.5000   -66.5640   888.5540     6.8250     6.3200     6.6330  1067.1620     7.7710     2.4270     0.0100    64.4950
 2985.0000   -66.6190   888.5540     6.7620     6.2820     6.5780  1067.2650     7.7910     2.4350     0.0100    71.1290
 2985.5000   -66.6740   888.5540     7.0090     6.2430     6.7660  1067.3680     7.8120     2.4440     0.0100    77.3920
 2986.0000   -66.7290   888.5540     7.4350     6.2050     7.0200  1067.4709     7.8330     2.4520     0.0100    81.1790
 2986.5000   -66.7840   888.5540     9.4360     6.1670     7.3480  1067.5750     7.8540     2.4540     0.0100    84.7800
 2987.0000   -66.8380   888.5540    11.2340     6.1280     7.2780  1067.6780     7.8750     2.4400     0.0100    84.7950
 2987.5000   -66.8930   888.5540     8.8980     6.1090     7.1410  1067.7810     7.8960     2.4270     0.0100    83.6100
 2988.0000   -66.9480   888.5540     7.1470     6.0240     7.0050  1067.8840     7.8830     2.4150     0.0100    81.5990
 2988.5000   -67.0030   888.5540     7.8160     5.9020     6.8680  1067.9871     7.8660     2.4100     0.0100    78.7000
 2989.0000   -67.0570   888.5540     7.2820     5.7790     6.6000  1068.0900     7.8480     2.4210     0.0100    72.7710
 2989.5000   -67.1120   888.5540     6.6700     5.6570     6.2610  1068.1930     7.8310     2.4280     0.0100    62.4870
 2990.0000   -67.1670   888.5540     6.3290     5.5340     5.9430  1068.2970     7.8130     2.4290     0.0100    27.7240
 2990.5000   -67.2220   888.5540     6.1660     5.4120     5.8790  1068.4000     7.8000     2.4390     0.0090     2.5840
 2991.0000   -67.2760   888.5540     6.2580     5.3200     5.8340  1068.5031     7.8260     2.4500     0.0090    17.2960
 2991.5000   -67.4060   888.5540     6.3980     5.2780     5.9420  1068.6060     7.8520     2.4550     0.0090    46.5280
 2992.0000   -67.5750   888.5540     6.6040     5.2390     6.0290  1068.7090     7.8790     2.4410     0.0090   117.9090
 2992.5000   -67.7450   888.5540     6.9440     5.1990     6.1660  1068.8120     7.9050     2.4310     0.0090   161.1530
 2993.0000   -67.9150   888.5540     7.4850     5.1590     6.1240  1068.9150     7.9310     2.4300     0.0090   180.3580
 2993.5000   -68.0850   888.5540     7.2830     5.1200     6.0230  1069.0190     7.9580     2.4350     0.0090   198.9620
 2994.0000   -68.2590   888.5540     6.7880     5.0800     5.9090  1069.1219     7.9340     2.4370     0.0090   205.2680
 2994.5000   -68.2310   888.5540     6.2930     4.9810     5.7390  1069.2250     7.9020     2.4290     0.0090   136.9780
 2995.0000   -68.1600   888.5540     5.8460     4.8830     5.5690  1069.3280     7.8710     2.4230     0.0090   140.1150
 2995.5000   -68.0860   888.5540     5.6150     4.7840     5.3990  1069.4310     7.8400     2.4270     0.0090    82.9690
 2996.0000   -68.0130   888.5540     5.4810     4.6860     5.2220  1069.5341     7.8220     2.4320     0.0080    73.5330
 2996.5000   -67.9390   888.5540     5.6080     4.5870     5.1840  1069.6370     7.8460     2.4270     0.0080    74.5680
 2997.0000   -67.8600   888.5540     5.6750     4.4880     5.1450  1069.7410     7.8690     2.4190     0.0080    75.6030
 2997.5000   -67.7520   888.5540     5.2220     4.3900     5.1050  1069.8440     7.8920     2.4120     0.0080    76.6380
 2998.0000   -67.6480   888.5540     5.2880     4.2910     5.0660  1069.9470     7.9150     2.4070     0.0080    76.5830
 2998.5000   -67.5440   888.5540     5.3570     4.1850     5.0260  1070.0500     7.9380     2.4080     0.0080    73.8580
 2999.0000   -67.3940   888.5540     5.4090     4.2440     4.9870  1070.1530     7.9580     2.4100     0.0080    72.1580
 2999.5000   -67.2030   888.5540     5.2850     4.3090     4.9470  1070.2560     7.9170     2.4060     0.0080    71.3970
 3000.0000   -67.0120   888.5540     5.1650     4.3740     4.8960  1070.3590     7.8720     2.3990     0.0080    73.8060
 3000.5000   -66.8200   888.5540     5.0800     4.4380     4.9170  1070.4630     7.8390     2.3980     0.0080    77.2060
 3001.0000   -66.6290   888.5540     5.4480     4.5030     4.9590  1070.5660     7.8440     2.3980     0.0080    80.6250
 3001.5000   -66.4370   888.5540     5.7330     4.5670     5.0010  1070.6689     7.8480     2.3990     0.0070    84.0540
 3002.0000   -66.2430   888.5540     5.9430     4.6320     5.0430  1070.7720     7.8520     2.3830     0.0070    85.6600
 3002.5000   -65.9980   888.5540     5.4790     4.6960     5.0850  1070.8750     7.8540     2.3810     0.0070    85.6700
 3003.0000   -65.5650   888.5540     5.1270     4.7610     5.1280  1070.9780     7.8690     2.3800     0.0070    85.8070
 3003.5000   -65.1370   888.5540     5.4140     4.8260     5.1700  1071.0811     8.4560     2.3790     0.0070    81.7710
 3004.0000   -64.7110   888.5540     5.7570     4.8900     5.2120  1071.1851     8.9500     2.3680     0.0070    76.6730
 3004.5000   -64.2840   888.5540     6.1000     4.9410     5.2650  1071.2880     7.2830     2.3650     0.0070    36.6430
 3005.0000   -63.8550   888.5540     6.8250     4.8790     5.1970  1071.3910     6.6200     2.3640     0.0070     2.0780
 3005.5000   -63.3220   888.5540     7.6240     4.8270     5.0740  1071.4940     6.5760     2.3600     0.0070     3.4520
 3006.0000   -62.3790   869.5780     5.3200     4.1950     4.9520  1071.5970     6.5480     2.3560     0.0070     4.6460
 3006.5000   -61.4340   765.2110     5.2990     2.6160     4.8510  1071.7000     6.5620     2.3470     0.0070     2.8560
 3007.0000   -60.4840   676.1040     5.2780     2.0850     4.8330  1055.5830     6.5770     2.3380     0.0060     1.0550
 3007.5000   -59.5370   666.1650     5.2570     2.0270     4.6950   966.4760     6.5870     2.3280     0.0050     3.0210
 3008.0000   -57.8450   656.2250     5.2350     2.0000     3.9590   872.3830     6.5860     2.3240     0.0040     5.3450
 3008.5000   -55.6090   646.2850     5.2140     2.1320     3.2230  -999.2500  -999.2500  -999.2500  -999.2500  -999.2500
 3009.0000   -53.3750   637.5500     5.1930     2.2300     2.4280  -999.2500  -999.2500  -999.2500  -999.2500  -999.2500
 3009.5000   -49.3670   637.5500     5.1740     2.3830     2.7530  -999.2500  -999.2500  -999.2500  -999.2500  -999.2500
 3010.0000   -43.9160   637.5500     5.1740     2.6870     3.1440  -999.2500  -999.2500  -999.2500  -999.2500  -999.2500
 3010.5000   -38.4360   659.2350     5.1740  -999.2500  -999.2500  -999.2500  -999.2500  -999.2500  -999.2500  -999.2500
 3011.0000   -30.9680   656.6310     5.2220  -999.2500  -999.2500  -999.2500  -999.2500  -999.2500  -999.2500  -999.2500
 3011.5000   -21.8950   656.3130     5.2220     3.3380     6.4490  -999.2500  -999.2500  -999.2500  -999.2500  -999.2500
 3012.0000   -11.9760   656.3130     5.2710     3.6150     7.0820  -999.2500  -999.2500  -999.2500  -999.2500  -999.2500
 3012.5000  -999.2500   656.3130     5.2710     3.6850     7.0820  -999.2500  -999.2500  -999.2500  -999.2500  -999.2500
 3013.0000  -999.2500   656.3130     5.2710     3.6850     7.0820  -999.2500  -999.2500  -999.2500  -999.2500  -999.2500
 3013.5000  -999.2500   656.3130     5.2710     3.6850     7.0820  -999.2500  -999.2500  -999.2500  -999.2500  -999.2500
