~VERSION INFORMATION
 VERS.                2.0:   CWLS LOG ASCII STANDARD - VERSION 2.0
 WRAP.                 NO:   ONE LINE PER DEPTH STEP
~WELL INFORMATION
#MNEM.UNIT      DATA TYPE    INFORMATION
#----------   ------------   ------------------------------
 STRT.F          742.0000:   START DEPTH
 STOP.F         3406.0000:   STOP DEPTH
 STEP.F            0.5000:   STEP LENGTH
 NULL.          -999.2500:   NO VALUE
 COMP. FENIX & SCISSON - US NAVY:   COMPANY
 WELL.   FENIX "AX" #85-4:   WELL
 FLD .      NPR - WILDCAT:   FIELD
 LOC .       S4 T38N R78W:   LOCATION
 CNTY.            NATRONA:   COUNTY
 STAT.            WYOMING:   STATE
 CTRY. UNITED STATES OF AMERICA:   COUNTRY
 SRVC.              WELEX:   SERVICE COMPANY
 DATE.        03-MAY-1977:   LOGDATE
 API .     49025103520000:   API NUMBER
~CURVE INFORMATION
#MNEM.UNIT       API CODE    CURVE DESCRIPTION
#----------   ------------   ------------------------------
 DEPT.F                  :   
 SNP .DEC    41 890 00 00:   SIDEWALL NEUTRON POROSITY
 GR  .GAPI   30 310 01 00:   GAMMA RAY
 SPR .MV     07 010 01 00:   SPONTANEOUS POTENTIAL
 RXO .OHMM   11 220 01 00:   FLUSHED ZONE RESISTIVITY
 GURD.OHMM   07 220 05 00:   GUARD LOG RESISTIVITY
 CALD.IN     45 280 60 00:   CALIPER FROM DENSITY LOG
 RHOB.G/C3   45 350 01 00:   BULK DENSITY
 GRD .GAPI   45 310 01 00:   GAMMA RAY FROM DENSITY LOG
 CORR.G/C3   45 356 01 00:   DENSITY CORRECTION
~PARAMETER INFORMATION
#MNEM.UNIT          VALUE    DESCRIPTION
#----------   ------------   ------------------------------
 EKB .F         5254.0000:   Kelly bushing
 EGL .F         5240.0000:   Ground level
 EDF .F            0.0000:   Drilling floor
 TD  .F         3467.0000:   Total depth
 DATE.        03-MAY-1977:   Date logged
 CLNT.            A2DTECH:   Client Code
 SL  . 2200' FSL & 100' FEL:   Surface Location
 PD  .                 GL:   Permanent Datum
 EPD .F              5240:   Elevation Permanent Datum
 LMF .                 KB:   Log Measured From
 DMF .                 KB:   Drilling Measured From
 DAPD.F                14:   Feet Above Permanent Datum
 DD  .F              3647:   Depth driller
 DL  .F              3404:   Depth logger
 BLI .F              3402:   Bottom log interval
 TLI .F               720:   Top log interval
 CS1 .IN            8.625:   Casing size
 CBD1.      8.625" @ 720':   Casing driller 1
 CBL1.F               760:   Casing logger 1
 BS1 .IN            7.875:   Bit size
 BSD1.F              3467:   Depth drilled with bit1
 DFT .            KCL/MUD:   Type fluid in hole
 DFD .                9.1:   Density
 DFV .                 36:   Viscosity
 DFPH.                  8:   pH
 DFL .                  5:   Fluid loss
 MSS .           FLOWLINE:   Source of sample
 RMS .OHMM            .30:   Rm
 MST .F                66:   Rm Meas. temp.
 RMF .OHMM            .21:   Rmf
 MFST.F                66:   Rmf Meas. temp.
 RMC .OHMM            .49:   Rmc
 MCST.F                66:   Rmc Meas. temp.
 MFSS.               FANN:   Source Rmf.
 MCSS.                KIT:   Source Rmc.
 RMB .OHMM            .18:   Rm. at BHT
 BHT .F               107:   BHT.
 TCS .HRS             2.5:   Time Circ. stopped
 MRT .F               107:   Maximum recorded temp.
 LUN .               8611:   Logging unit number
 LUL .             CASPER:   Logging unit location
 ENGI.            C. DOAK:   Recorded By
 WITN.      B. HARRINGTON:   Witnessed by
 ORIG.     2.5", 5" PRINT:   Origin of data
 UWI .     49025103520000:   Unique Well ID
 DICO. A2D TECHNOLOGIES, INC.:   Digitizing Company
~OTHER INFORMATION
~A   DEPT        SNP       GR        SPR        RXO       GURD         CALD       RHOB       GRD       CORR  
# ...
 1253.0000     0.2130  -999.2500   -30.6800     7.1010     6.3680     9.0370     2.5430   102.4630     0.0220
 1253.5000     0.2040  -999.2500   -30.7040     7.1010     6.4850     9.0260     2.5320   103.7140     0.0150
 1254.0000     0.2030  -999.2500   -30.7270     7.1010     6.4850     9.0150     2.5280   104.8900     0.0100
 1254.5000     0.2060  -999.2500   -30.7510     7.1010     6.3700     9.0120     2.5300   105.7040     0.0050
 1255.0000     0.2120  -999.2500   -30.7750     7.1010     6.2740     9.0120     2.5310   105.1110     0.0020
 1255.5000     0.2170  -999.2500   -30.7990     7.0060     6.1790     9.0120     2.5320   103.7100     0.0060
 1256.0000     0.2220  -999.2500   -30.8230     6.9270     6.0300     9.0120     2.5410   102.3610     0.0090
 1256.5000     0.2170  -999.2500   -30.8470     6.8480     6.1420     9.0120     2.5460   101.3920     0.0130
 1257.0000     0.2200  -999.2500   -30.8710     6.8480     6.2530     9.0120     2.5510   101.3920     0.0160
 1257.5000     0.2210  -999.2500   -30.8940     6.8480     6.2530     9.0130     2.5530   101.3370     0.0200
 1258.0000     0.2200  -999.2500   -30.9190     6.8480     6.2530     9.0140     2.5520   101.1670     0.0230
 1258.5000     0.2110  -999.2500   -30.9410     6.8470     6.3680     9.0150     2.5510   101.0600     0.0270
 1259.0000     0.2020  -999.2500   -30.9680     6.8470     6.3970     9.0170     2.5500   100.6530     0.0300
 1259.5000     0.2060  -999.2500   -30.9890     6.9160     6.4460     9.0180     2.5520   100.3670     0.0330
 1260.0000     0.2160  -999.2500   -31.0090     7.0030     6.4850     9.0190     2.5530   100.1390     0.0330
 1260.5000     0.2210  -999.2500   -31.0560     7.0890     6.6030     9.0200     2.5500    99.9270     0.0310
 1261.0000     0.2150  -999.2500   -31.0150     7.1790     6.6030     9.0210     2.5460    99.6950     0.0280
 1261.5000     0.2070  -999.2500   -31.3690     7.5750     6.7270     9.0220     2.5400    99.4710     0.0250
 1262.0000     0.1940  -999.2500   -31.4390     7.9190     6.8290     9.0230     2.5320    99.4260     0.0210
 1262.5000     0.1990  -999.2500   -31.4400     7.6810     6.9320     9.0240     2.5240    99.0610     0.0210
 1263.0000     0.2200  -999.2500   -31.4170     7.4830     6.9730     9.0250     2.5220    98.2790     0.0210
 1263.5000     0.2190  -999.2500   -31.4210     7.3640     6.8630     9.0260     2.5280    98.5950     0.0210
 1264.0000     0.2140  -999.2500   -31.4100     7.4990     6.7260     9.0270     2.5430    98.9850     0.0240
 1264.5000     0.2110  -999.2500   -31.4040     7.4020     6.5880     9.0280     2.5500    99.4040     0.0280
 1265.0000     0.2100  -999.2500   -31.3980     7.1600     6.4500     9.0290     2.5590    99.8020     0.0320
 1265.5000     0.2070  -999.2500   -31.3910     6.9180     6.3680     9.0300     2.5660   100.2090     0.0370
 1266.0000     0.2060  -999.2500   -31.3840     6.7240     6.3680     9.0310     2.5750   100.6130     0.0410
 1266.5000     0.2160  -999.2500   -31.3770     6.8520     6.3680     9.0320     2.5680   101.0180     0.0400
 1267.0000     0.2230  -999.2500   -31.3700     7.0120     6.3680     9.0330     2.5600   101.4230     0.0380
 1267.5000     0.2180  -999.2500   -31.3640     7.1720     6.3680     9.0340     2.5520   101.8260     0.0360
 1268.0000     0.2120  -999.2500   -31.3570     7.3640     6.3680     9.0360     2.5440   102.1760     0.0330
 1268.5000     0.2190  -999.2500   -31.3500     7.3640     6.3680     9.0370     2.5360   101.8820     0.0300
 1269.0000     0.2290  -999.2500   -31.3430     7.2850     6.3680     9.0380     2.5300   101.0520     0.0280
 1269.5000     0.2250  -999.2500   -31.3370     7.1540     6.3680     9.0390     2.5330   100.2610     0.0250
 1270.0000     0.2280  -999.2500   -31.3300     7.1010     6.3680     9.0400     2.5310    99.4410     0.0250
 1270.5000     0.2290  -999.2500   -31.3230     7.1010     6.3680     9.0410     2.5250    98.6110     0.0240
 1271.0000     0.2240  -999.2500   -31.3160     7.1420     6.3700     9.0420     2.5190    98.2590     0.0210
 1271.5000     0.2260  -999.2500   -31.3090     7.1820     6.3660     9.0430     2.5280    99.3440     0.0180
 1272.0000     0.2340  -999.2500   -31.3030     7.2310     6.3060     9.0440     2.5440   100.2320     0.0190
 1272.5000     0.2320  -999.2500   -31.2960     7.2310     6.2480     9.0450     2.5530   101.2820     0.0230
 1273.0000     0.2270  -999.2500   -31.2890     7.1880     6.1870     9.0460     2.5540   101.4310     0.0280
 1273.5000     0.2230  -999.2500   -31.2820     7.1170     6.1230     9.0470     2.5620   100.7580     0.0320
 1274.0000     0.2190  -999.2500   -31.2760     7.0450     6.0620     9.0480     2.5640    99.5670     0.0360
 1274.5000     0.2250  -999.2500   -31.2690     6.9730     6.0300     9.0490     2.5590    98.4550     0.0370
 1275.0000     0.2200  -999.2500   -31.2620     6.9730     6.0300     9.0500     2.5560    97.6860     0.0320
 1275.5000     0.2220  -999.2500   -31.2550     7.0250     6.1410     9.0510     2.5500    98.8120     0.0260
 1276.0000     0.2240  -999.2500   -31.2490     7.0890     6.1410     9.0490     2.5430   100.7080     0.0190
 1276.5000     0.2170  -999.2500   -31.2420     7.1540     6.2530     9.0470     2.5330   102.1160     0.0160
 1277.0000     0.2220  -999.2500   -31.2350     7.2310     6.2530     9.0450     2.5230   101.7800     0.0120
 1277.5000     0.2290  -999.2500   -31.2280     7.2310     6.2960     9.0430     2.5210   101.3220     0.0060
 1278.0000     0.2320  -999.2500   -31.2220     7.2310     6.3320     9.0410     2.5200   100.8200     0.0050
 1278.5000     0.2280  -999.2500   -31.2150     7.1450     6.3680     9.0390     2.5140   100.3360     0.0060
 1279.0000     0.2250  -999.2500   -31.2080     7.0740     6.3680     9.0370     2.5100   100.1750     0.0080
 1279.5000     0.2230  -999.2500   -31.2010     7.0020     6.3680     9.0350     2.5130    99.9320     0.0100
 1280.0000     0.2260  -999.2500   -31.1950     6.9730     6.2760     9.0330     2.5200    99.6410     0.0120
 1280.5000     0.2290  -999.2500   -31.1880     6.8480     6.1850     9.0310     2.5280    99.3410     0.0140
 1281.0000     0.2320  -999.2500   -31.1810     6.8160     6.0940     9.0290     2.5360    99.0510     0.0160
 1281.5000     0.2360  -999.2500   -31.1740     6.7620     6.0020     9.0270     2.5430    98.7550     0.0180
 1282.0000     0.2380  -999.2500   -31.1670     6.7090     5.9110     9.0260     2.5520    98.4610     0.0200
 1282.5000     0.2270  -999.2500   -31.1610     6.6550     5.8200     9.0240     2.5560    98.1680     0.0220
 1283.0000     0.2290  -999.2500   -31.1540     6.6020     5.7100     9.0220     2.5580    97.8730     0.0240
 1283.5000     0.2270  -999.2500   -31.1470     6.5490     5.7490     9.0200     2.5590    97.5790     0.0260
 1284.0000     0.2200  -999.2500   -31.1400     6.4850     5.8460     9.0180     2.5590    97.2850     0.0280
 1284.5000     0.2120  -999.2500   -31.1340     7.3640     5.9430     9.0160     2.5610    96.9910     0.0300
 1285.0000     0.2050  -999.2500   -31.1270     7.0430     6.0400     9.0140     2.5640    96.6980     0.0320
 1285.5000     0.2020  -999.2500   -31.1200     6.6030     6.1370     9.0130     2.5670    96.4050     0.0340
 1286.0000     0.1990  -999.2500   -31.1130     6.7920     6.2530     9.0320     2.5660    96.1080     0.0360
 1286.5000     0.2010  -999.2500   -31.1070     7.1060     6.2530     9.0530     2.5640    95.8210     0.0380
 1287.0000     0.2070  -999.2500   -31.0990     7.2310     6.3680     9.0770     2.5620    95.5190     0.0400
 1287.5000     0.2050  -999.2500   -31.0930     7.2310     6.3680     9.0930     2.5650    95.2210     0.0410
 1288.0000     0.2000  -999.2500   -31.0870     7.2310     6.3680     9.0740     2.5680    95.1130     0.0410
 1288.5000     0.2050  -999.2500   -31.0760     7.2310     6.3680     9.0370     2.5720    95.7430     0.0370
 1289.0000     0.2030  -999.2500   -31.0800     7.2310     6.3680     9.0020     2.5740    96.3230     0.0320
