~VERSION INFORMATION
 VERS.                2.0:   CWLS LOG ASCII STANDARD - VERSION 2.0
 WRAP.                 NO:   ONE LINE PER DEPTH STEP
~WELL INFORMATION
#MNEM.UNIT      DATA TYPE    INFORMATION
#----------   ------------   ------------------------------
 STRT.F           10.0000:   START DEPTH
 STOP.F         5812.0000:   STOP DEPTH
 STEP.F            0.5000:   STEP LENGTH
 NULL.          -999.2500:   NO VALUE
 COMP. LAWRENCE - ALLSISON:   COMPANY
 WELL. LAWRENCE "X" #11-11:   WELL
 FLD .              NPR 3:   FIELD
 LOC .      S11 T38N R78W:   LOCATION
 CNTY.            NATRONA:   COUNTY
 STAT.            WYOMING:   STATE
 CTRY. UNITED STATES OF AMERICA:   COUNTRY
 SRVC.      DRESSER ATLAS:   SERVICE COMPANY
 DATE.        12-NOV-1982:   LOGDATE
 API .     49025109160000:   API NUMBER
~CURVE INFORMATION
#MNEM.UNIT       API CODE    CURVE DESCRIPTION
#----------   ------------   ------------------------------
 DEPT.F                  :   
 TEND.LBS    45 635 01 00:   TENSION FROM DENSITY LOG
 CALD.IN     45 280 60 00:   CALIPER FROM DENSITY LOG
 CORR.G/C3   45 356 01 00:   DENSITY CORRECTION
 RHOB.G/C3   45 350 01 00:   BULK DENSITY
 CN  .DEC    42 890 03 00:   COMPENSATED NEUTRON POROSITY SANDSTONE
 AC  .US/F   60 520 00 00:   ACOUSTIC
 TENS.LBS    60 635 01 00:   TENSION FROM SONIC
 GRR .GAPI   11 310 01 00:   GAMMA RAY FROM RESISTIVITY
 RD  .OHMM   11 220 10 00:   RESISTIVITY DEEP
 RMLL.OHMM   11 270 04 00:   RESISTIVITY MICROLATEROLOG
 RS  .OHMM   11 220 09 00:   RESISTIVITY SHALLOW
 SPR .MV     11 010 01 00:   SPONTANEOUS POTENTIAL FROM RESISTIVITY
 TENR.LBS    11 635 01 00:   TENSION FROM RESISTIVITY
~PARAMETER INFORMATION
#MNEM.UNIT          VALUE    DESCRIPTION
#----------   ------------   ------------------------------
 EKB .F         5160.0000:   Kelly bushing
 EGL .F         5150.0000:   Ground level
 EDF .F            0.0000:   Drilling floor
 TD  .F         5800.0000:   Total depth
 CLNT.            A2DTECH:   Client Code
 SL  . 660' FNL & 660' FWL:   Surface Location
 PD  .                 GL:   Permanent Datum
 EPD .F              5150:   Elevation Permanent Datum
 LMF .                 KB:   Log Measured From
 DMF .                 KB:   Drilling Measured From
 DAPD.F                10:   Feet Above Permanent Datum
 DATE.        12-NOV-1982:   Date Logged [DD-MMM-YYYY]
 DD  .F              5800:   Depth driller
 DL  .F              5795:   Depth logger
 BLI .F              5702:   Bottom log interval
 TLI .F                 0:   Top log interval
 CS1 .IN            9.625:   Casing size
 CBD1.      9.625" @ 664':   Casing driller 1
 CBL1.F               660:   Casing logger 1
 BS1 .IN             8.75:   Bit size
 BSD1.F              5800:   Depth drilled with bit1
 DFT .                KCL:   Type fluid in hole
 DFD .                8.6:   Density
 DFV .                 45:   Viscosity
 DFPH.                8.5:   pH
 DFL .                7.8:   Fluid loss
 MSS .           FLOWLINE:   Source of sample
 RMS .OHMM           0.32:   Rm
 MST .F                92:   Rm Meas. temp.
 RMF .OHMM           0.26:   Rmf
 MFST.F                90:   Rmf Meas. temp.
 MFSS.               MEAS:   Source Rmf.
 RMB .OHMM           0.19:   Rm. at BHT
 BHT .F               160:   BHT.
 TCS .HRS               3:   Time Circ. stopped
 MRT .F               160:   Maximum recorded temp.
 LUN .               6270:   Logging unit number
 LUL .              WLSTN:   Logging unit location
 ENGI.            QUICKEL:   Recorded By
 WITN.             STRONG:   Witnessed by
 ORIG.        2" 5" PRINT:   Origin of data
 UWI .     49025109160000:   Unique Well ID
 DICO. A2D TECHNIOLOGIES,INC.:   Digitizing Company
 RMC .OHMM           0.40:   Rmc
 MCST.F                92:   Rmc Meas. temp.
 MCSS.               CALC:   Source Rmc.
~OTHER INFORMATION
~A  DEPTH     TEND       CALD       CORR       RHOB         CN         AC       TENS        GRR         RD       RMLL         RS        SPR       TENR
# ...
 2350.0000    19.8957    13.0434     0.2743     2.1129     0.3470   101.1622   -62.2877   139.6396     4.3894     1.0579     4.8398   -53.3034   -42.6094
 2350.5000    12.5372    13.9864     0.2832  -999.2500     0.3472    97.8506   -61.9926   130.4264     3.6373     0.7321     3.7122   -53.3001   -42.6471
 2351.0000    -5.3828    14.8546     0.2109  -999.2500     0.3941    94.1619   -65.5249   115.6287     3.6622     0.5661     3.6856   -52.8467   -42.0838
 2351.5000   -13.5489    15.1540     0.1371  -999.2500     0.3836    91.7552   -68.9098   114.4054     3.8713     0.5779     3.8957   -52.6937   -35.1788
 2352.0000   -20.9083    14.9293     0.1341  -999.2500     0.3504    91.1343   -68.6146   111.8869     4.1785     0.6150     4.1469   -52.3904   -42.7665
 2352.5000   -17.0508    14.7646     0.2062  -999.2500     0.3245    92.3718   -72.0733   106.8913     4.4791     0.6636     4.2039   -52.2174   -57.8864
 2353.0000   -13.1932    14.8409     0.2257  -999.2500     0.3172    92.6047   -75.5320   102.9845     4.4165     0.6543     4.2325   -51.9334   -57.9234
 2353.5000    -9.3328    15.0595     0.2136  -999.2500     0.3076    91.8588   -75.2252   100.5792     4.4159     0.6094     4.2905   -51.7803   -50.4189
 2354.0000   -12.9743    15.4829     0.1854  -999.2500     0.2970    91.1867   -74.8679    99.0747     4.4461     0.5771     4.4106   -51.6272   -42.9143
 2354.5000   -20.3338    15.7373     0.1654  -999.2500     0.3310    90.6654   -74.5727    97.2700     4.5465     0.5850     4.4409   -51.6243   -46.7221
 2355.0000   -35.2169    15.8870     0.1653  -999.2500     0.3616    90.4458   -74.2776    94.8647     4.8317     0.5840     4.4359   -51.4712   -50.5298
 2355.5000   -46.3518    15.9318     0.1773  -999.2500     0.3646    90.3754   -73.9825    95.1622     4.9331     0.5960     4.3405   -51.4685   -65.6497
 2356.0000   -57.4868    15.9766     0.1983  -999.2500     0.3625    90.6853   -73.6873    96.3603     5.0015     0.6126     4.3143   -51.3152   -80.7696
 2356.5000   -61.1528    16.0065     0.2000  -999.2500     0.3550    90.9182   -73.4234    97.5910     4.9660     0.6039     4.2831   -51.3122   -76.8788
 2357.0000   -68.5158    16.0364     0.1967  -999.2500     0.3452    91.2265   -73.1231    99.1052     4.9653     0.5790     4.1933   -51.3093   -72.8525
 2357.5000   -72.1515    16.0513     0.1951  -999.2500     0.3431    91.7610   -72.8019   100.5550     4.9646     0.5748     4.1341   -51.1562   -54.4946
 2358.0000   -68.2909    16.0362     0.2312  -999.2500     0.3382    92.1448   -72.5068    99.6512     4.9640     0.5867     4.1043   -51.1532   -58.3023
 2358.5000   -56.9122    16.0511     0.2612  -999.2500     0.3220    92.0502   -72.2116    98.7474     4.9633     0.5905     4.0746   -51.1496   -58.3393
 2359.0000   -49.3065    16.0361     0.2581  -999.2500     0.3159    91.5563   -71.9165    98.4441     4.9626     0.5861     4.1023   -51.4477   -58.3762
 2359.5000   -60.4415    16.0061     0.2220  -999.2500     0.3147    91.0350   -71.6216    99.9427     5.1020     0.5982     4.1876   -51.7443   -69.7254
 2360.0000   -67.8557    15.9461     0.2023  -999.2500     0.3218    90.6645   -71.3214   103.5434     5.3236     0.6106     4.3048   -52.0424   -77.3038
 2360.5000   -67.7189    15.8263     0.2430     2.0228     0.3733    90.6712   -74.7849   105.3423     5.6223     0.6512     4.4563   -52.3391   -73.5608
 2361.0000   -56.3651    15.6316     0.2743     2.1130     0.3766    90.8286   -70.6621   105.6396     5.7802     0.6969     4.5817   -52.6372   -47.2119
 2361.5000   -45.0112    15.4968     0.3090     2.1761     0.3467    90.9861   -74.1946   105.9725     5.8197     0.7055     4.6767   -52.9345   -46.6464
 2362.0000   -33.6575    15.4219     0.3435     2.1843     0.2657    90.9170   -77.6276   109.2367     5.7784     0.6764     4.6372   -53.2312   -77.4517
 2362.5000   -18.5532    15.5116     0.3661     2.1640     0.2639    90.6222   -77.2842   110.1354     5.6978     0.6485     4.5136   -53.3784   -73.7179
 2363.0000   -14.6979    15.5714     0.3765     2.1549     0.2746    90.0968   -76.9892   104.7263     5.5407     0.6262     4.2976   -53.8397   -58.6720
 2363.5000   -25.8329    15.5713     0.3767     2.1534     0.3017    89.4810   -76.6941    98.4171     5.2037     0.6046     4.0917   -54.1233   -66.2519
 2364.0000   -36.9405    15.5722     0.3719     2.1473     0.3071    90.1913   -76.3989    97.5133     4.8197     0.5837     3.7362   -54.1196   -62.5166
 2364.5000   -40.6065    15.7406     0.3721     2.1375     0.3607    91.7816   -76.1038    97.8114     4.6220     0.5675     3.5572   -53.9665   -58.7829
 2365.0000   -59.2104    15.9004     0.3748     2.1112     0.3660    92.5407   -75.8085    97.8077     4.5260     0.5479     3.5315   -53.8134   -66.3706
 2365.5000   -81.5897    16.0501     0.3687     2.0534     0.3555    91.4178   -75.5135    97.8048     4.4319     0.5515     3.5060   -53.3600   -58.8568
 2366.0000   -88.9765    16.0500     0.3340  -999.2500     0.3268    90.4440   -75.2184    97.5015     4.4006     0.5551     3.4807   -52.9067   -40.0493
 2366.5000   -88.8670    16.0499     0.2933  -999.2500     0.3157    89.9227   -74.9249    97.4979     4.3998     0.5507     3.4554   -52.4533   -32.5356
 2367.0000   -88.7556    16.0498     0.2602  -999.2500     0.3135    90.2310   -78.3818    97.4950     4.3687     0.5388     3.4304   -52.1500   -32.5818
 2367.5000  -103.6134    16.0647     0.2450  -999.2500     0.3134    91.4443   -78.0781    96.8914     4.2483     0.5136     3.3585   -51.9969   -40.1602
 2368.0000  -114.7757    16.0647     0.2372  -999.2500     0.2836    94.7511   -73.9640    96.2879     4.1311     0.4891     3.2652   -51.9940   -43.9679
 2368.5000  -122.1624    16.0646     0.2269  -999.2500     0.2833    98.4717   -73.6689    95.9847     3.9070     0.4436     3.1525   -51.9910   -66.6293
 2369.0000  -125.8011    16.0645     0.2118  -999.2500     0.2893   103.6819   -73.3737    95.3812     3.4950     0.4024     2.9806   -52.1376   -93.3623
 2369.5000  -125.6644    16.0644     0.1711  -999.2500     0.3067   106.7813   -73.8686    95.3783     3.0832     0.3428     2.6653   -52.2855  -104.8691
 2370.0000  -125.5549    16.0644     0.1334  -999.2500     0.4072   106.4553   -76.6111    95.3753     2.6088     0.3175     2.2540   -52.4320  -108.2276
 2370.5000  -125.4455    16.0643     0.0701  -999.2500     0.4628   100.6114   -76.2421    95.0600     2.5525     0.3241     2.0870   -52.5799  -100.7139
 2371.0000  -125.3361    16.0642     0.0490  -999.2500     0.4565    95.9423   -83.4545    94.4685     2.6816     0.3448     2.1157   -52.5763   -85.6771
 2371.5000  -125.2249    16.0791     0.0550  -999.2500     0.4580    93.5357   -86.9868    94.7660     3.0894     0.4071     2.3484   -52.7242   -70.6311
 2372.0000  -128.8653    16.0790     0.1091  -999.2500     0.4706    93.7686   -79.1104    95.3636     3.5806     0.4909     2.5719   -52.7206   -74.4388
 2372.5000  -128.7285    16.0790     0.2201  -999.2500     0.4832    93.4735   -63.8003    96.2609     3.9026     0.5836     2.8204   -52.7176   -85.7880
 2373.0000  -124.8710    16.0639     0.2594  -999.2500     0.4807    92.8014   -48.4901    97.4591     3.9568     0.5544     2.9535   -52.8648   -97.1372
 2373.5000  -128.5370    16.0489     0.2654  -999.2500     0.4729    92.2047   -44.4413   100.1589     3.9015     0.5218     2.9525   -52.8619   -93.4034
 2374.0000  -124.6521    16.0488     0.2593  -999.2500     0.4553    91.7589   -47.8998   104.6605     3.9283     0.5145     2.9311   -52.8589   -63.2745
 2374.5000  -128.3181    16.0038     0.2472  -999.2500     0.3346    91.6147   -51.3585   107.9609     3.9552     0.5436     2.9100   -53.0062   -44.4570
 2375.0000  -128.1814    16.0037     0.2454  -999.2500     0.2714    91.9357   -54.8171   107.6577     3.9546     0.5472     2.8689   -53.0025   -52.0362
 2375.5000  -128.0719    16.0037     0.2486  -999.2500     0.2786    93.5149   -58.2019   105.7889     3.9540     0.5246     2.8681   -52.9996   -90.3960
