~VERSION INFORMATION
 VERS.                2.0:   CWLS LOG ASCII STANDARD - VERSION 2.0
 WRAP.                 NO:   ONE LINE PER DEPTH STEP
~WELL INFORMATION
#MNEM.UNIT      DATA TYPE    INFORMATION
#----------   ------------   ------------------------------
 STRT.F           40.0000:   START DEPTH
 STOP.F         1336.0000:   STOP DEPTH
 STEP.F            0.5000:   STEP LENGTH
 NULL.          -999.2500:   NO VALUE
 COMP. LAWRENCE - ALLISON WEST:   COMPANY
 WELL. LAWRENCE NPR 3 "AX" #54-23:   WELL
 FLD .              N P R:   FIELD
 LOC .      S23 T38N R78W:   LOCATION
 CNTY.            NATRONA:   COUNTY
 STAT.            WYOMING:   STATE
 CTRY. UNITED STATES OF AMERICA:   COUNTRY
 SRVC.       SCHLUMBERGER:   SERVICE COMPANY
 DATE.        13-MAY-1982:   LOGDATE
 API .     49025108880000:   API NUMBER
~CURVE INFORMATION
#MNEM.UNIT       API CODE    CURVE DESCRIPTION
#----------   ------------   ------------------------------
 DEPT.F                  :   
 NPOR.DEC    42 890 03 00:   ALPHA PROCESSED NEUTRON POROSITY
 TEND.LBS    45 635 01 00:   TENSION FROM DENSITY LOG
 CORR.G/C3   45 356 01 00:   DENSITY CORRECTION
 RHOB.G/C3   45 350 01 00:   BULK DENSITY
 GRD .GAPI   45 310 01 00:   GAMMA RAY FROM DENSITY LOG
 CALD.IN     45 280 60 00:   CALIPER FROM DENSITY LOG
 SPR .MV     07 010 01 00:   SPONTANEOUS POTENTIAL
 TENR.LBS    07 635 01 00:   TENSION
 ILD .OHMM   07 120 46 00:   DEEP INDUCTION RESISTIVITY
 ILM .OHMM   07 120 44 00:   INDUCTION LOG MEDIUM RESISTIVITY
 SFL .OHMM   07 220 01 00:   SHALLOW FOCUSED LOG RESISTIVITY
~PARAMETER INFORMATION
#MNEM.UNIT          VALUE    DESCRIPTION
#----------   ------------   ------------------------------
 EKB .F         5342.0000:   Kelly bushing
 EGL .F         5332.0000:   Ground level
 EDF .F            0.0000:   Drilling floor
 TD  .F         1325.0000:   Total depth
 DATE.        13-MAY-1982:   Date logged
 CLNT.            A2DTECH:   Client Code
 SL  . 2278' FSL & 2665' FWL:   Surface Location
 PD  .                 GL:   Permanent Datum
 DD  .F              1325:   Depth driller
 DL  .F              1314:   Depth logger
 BLI .F              1308:   Bottom log interval
 CS1 .IN             15.5:   Casing size
 CBD1.        15.5" @ 40':   Casing driller 1
 CBL1.F                54:   Casing logger 1
 BS1 .IN            12.25:   Bit size
 DFT .             LT/GEL:   Type fluid in hole
 DFD .                8.9:   Density
 DFV .                 33:   Viscosity
 DFPH.                8.8:   pH
 DFL .                 16:   Fluid loss
 MSS .                PIT:   Source of sample
 RMS .OHMM           2.47:   Rm
 MST .F                61:   Rm Meas. temp.
 RMF .OHMM           2.12:   Rmf
 MFST.F                62:   Rmf Meas. temp.
 MFSS.               MEAS:   Source Rmf.
 RMB .OHMM           1.73:   Rm. at BHT
 BHT .F                87:   BHT.
 TCS .HRS            2300:   Time Circ. stopped
 MRT .F                87:   Maximum recorded temp.
 LUN .               8043:   Logging unit number
 LUL .               CSPR:   Logging unit location
 ENGI.        WAGNER/CSPR:   Recorded By
 WITN.           JENNINGS:   Witnessed by
 ORIG.           5" PRINT:   Origin of data
 UWI .     49025108880000:   Unique Well ID
 DICO. A2D TECHNOLOGIES, INC.:   Digitizing Company
 BSD1.F              1325:   Depth drilled with bit1
 EPD .F              5332:   Elevation Permanent Datum
 LMF .                 KB:   Log Measured From
 DMF .                 KB:   Drilling Measured From
 TLI .F                54:   Top log interval
 DAPD.F                10:   Feet Above Permanent Datum
~OTHER INFORMATION
~A   DEPT     NPOR       TEND       CORR       RHOB        GRD       CALD        SPR       TENR        ILD        ILM        SFL   
# ...
  131.5000     0.1520    61.9780     0.0430     2.4660   134.2080    13.6840   -39.7000   -96.6260     6.3850     5.5030     4.8820
  132.0000     0.1600    63.1120     0.0340     2.4400   135.4220    13.7650   -39.6610   -96.6260     5.9910     5.2900     5.2310
  132.5000     0.1710    64.2450     0.0260     2.4130   138.0330    13.7900   -39.6220   -94.1330     5.9550     4.9630     5.3510
  133.0000     0.1730    65.3790     0.0180     2.4020   140.6510    13.8100   -39.5810   -84.5090     5.9000     5.0570     5.3510
  133.5000     0.1730    66.5130     0.0110     2.4020   141.1770    13.8200   -39.5430   -74.8850     5.8450     5.1550     5.3510
  134.0000     0.1680    67.6470     0.0070     2.4020   137.6050    13.8390   -39.5030   -65.2610     5.7900     5.2470     5.3510
  134.5000     0.1610    68.7800     0.0040     2.3980   134.0910    13.8570   -39.4620   -55.6370     5.7350     5.3510     5.3800
  135.0000     0.1540    69.9140     0.0020     2.3950   131.7650    13.8760   -39.4300   -46.0120     5.6620     5.3920     5.4220
  135.5000     0.1480    71.0480     0.0030     2.3910   131.0080    13.8940   -39.3450   -35.2760     5.6720     5.4530     5.4530
  136.0000     0.1540    72.1810     0.0050     2.3870   129.0990    13.9080   -39.2260   -37.7980     5.7090     5.3540     5.3380
  136.5000     0.1560    73.3150     0.0030     2.3860   125.2320    13.9230   -39.1180   -40.6500     5.7450     5.2420     5.2080
  137.0000     0.1510    74.4490    -0.0010     2.3860   124.8910    13.9370   -39.0090   -43.5010     5.7810     5.1300     5.0780
  137.5000     0.1480    75.5830    -0.0010     2.3940   127.6190    13.9510   -38.9000   -46.3530     5.8180     5.0180     4.9480
  138.0000     0.1440    76.7160     0.0130     2.4020   130.3400    13.9660   -38.7910   -49.2050     5.8540     4.9630     4.8180
  138.5000     0.1400    77.8500     0.0210     2.4110   134.1930    13.9760   -38.6810   -52.0560     5.9910     5.4530     4.7790
  139.0000     0.1370    78.9840     0.0270     2.4160   136.2770    13.9810   -38.5740   -54.9080     6.1930     5.6990     5.4370
  139.5000     0.1390    80.1180     0.0270     2.4130   135.0480    13.9870   -38.4590   -56.4040     6.4150     6.2210     6.2210
  140.0000     0.1390    80.9570     0.0160     2.4070   132.7980    13.9920   -38.3550   -57.3540     6.6380     6.2910     6.3000
  140.5000     0.1360    80.9570     0.0070     2.4010   131.3400    13.9660   -38.2550   -58.3050     6.8600     6.4270     6.4530
  141.0000     0.1360    80.9570     0.0040     2.4010   131.3760    13.9110   -38.4340   -59.2550     7.0980     6.5630     6.6060
  141.5000     0.1390    80.9570     0.0010     2.4000   134.2050    13.8560   -38.6540   -60.2060     7.3810     6.7080     6.7080
  142.0000     0.1410    80.9570     0.0000     2.4010   137.6490    13.8170   -38.8900   -61.1570     7.5840     6.7080     6.7080
  142.5000     0.1440    80.9570    -0.0020     2.4070   137.3750    13.8760   -38.9960   -62.1070     7.7990     6.4600     6.7080
  143.0000     0.1480    80.9570    -0.0020     2.4160   132.7170    13.8750   -38.3970   -63.0580     7.6450     6.5830     6.8920
  143.5000     0.1520    80.9570     0.0000     2.4270   129.9820    13.7050   -37.7640   -64.0080     7.2330     6.7040     7.0980
  144.0000     0.1610    80.9570     0.0040     2.4390   128.8340    13.4290   -37.0320   -64.9590     7.3700     6.8090     7.2330
  144.5000     0.1660    80.9570     0.0100     2.4510   128.2320    13.2360   -36.7350   -65.9090     7.4610     6.9650     7.2330
  145.0000     0.1650    80.9570     0.0160     2.4540   127.6080    13.1510   -37.0820   -66.8600     7.5400     6.9650     7.2330
  145.5000     0.1720    80.9570     0.0170     2.4390   126.9860    13.1520   -37.3560   -67.8100     7.6190     6.6660     6.9110
  146.0000     0.1840    80.9570     0.0120     2.4210   126.7360    13.1520   -37.6750   -68.7610     7.6530     6.2730     6.3960
  146.5000     0.1970    80.9570     0.0070     2.4050   128.0550    13.1520   -37.8500   -69.7110     7.2200     5.8800     5.8820
  147.0000     0.2000    80.9570     0.0080     2.4020   130.0950    13.1520   -37.6300   -70.6620     6.8490     5.5560     5.6240
  147.5000     0.1830    80.9570     0.0020     2.4010   131.5090    13.1520   -37.4300   -71.6130     6.4780     5.4370     5.5560
  148.0000     0.1750    80.9570    -0.0040     2.3970   130.5760    13.1520   -37.2150   -72.5630     6.1070     5.2840     5.4710
  148.5000     0.1670    80.9570    -0.0040     2.3940   130.7420    13.1520   -37.0070   -73.5140     5.7700     5.2100     5.3510
  149.0000     0.1590    80.9570     0.0030     2.3960   132.0180    13.1520   -36.7830   -74.4640     5.7490     5.1040     5.1690
  149.5000     0.1530    80.9570     0.0100     2.3990   133.1610    13.1520   -36.6350   -75.4150     5.7280     4.9980     4.9850
  150.0000     0.1500    80.9570     0.0150     2.3920   134.0270    13.1520   -36.5920   -76.1760     5.7080     4.8700     4.6900
  150.5000     0.1590    80.9570     0.0110     2.3810   136.0410    13.1520   -36.5320   -74.9970     5.6870     4.8700     4.7600
  151.0000     0.1620    80.9570     0.0070     2.3800   139.2020    13.1520   -36.4760   -74.0140     5.6620     5.0500     4.9350
  151.5000     0.1600    80.9570     0.0040     2.3840   142.3580    13.1520   -36.4210   -73.0300     5.6620     5.3510     5.1110
  152.0000     0.1590    80.9570     0.0010     2.3870   143.9670    13.1550   -36.3640   -72.0470     5.7360     5.3890     5.2510
  152.5000     0.1670    80.9570    -0.0020     2.3910   143.1530    13.1600   -36.3080   -71.0640     5.8100     5.4530     5.2510
  153.0000     0.1760    80.9570    -0.0040     2.3940   141.5000    13.1650   -36.2520   -70.0810     5.8840     5.4530     5.2510
  153.5000     0.1830    80.9570    -0.0020     2.3980   140.0120    13.1710   -36.1960   -69.0980     5.9570     5.4530     5.2510
  154.0000     0.1800    80.9570     0.0100     2.4090   139.2880    13.1760   -36.1410   -68.1140     6.0310     5.4530     5.2510
  154.5000     0.1720    80.9570     0.0150     2.4140   136.8010    13.1820   -36.0840   -67.1310     6.1050     5.5890     5.4040
  155.0000     0.1680    80.9570     0.0110     2.4120   134.4100    13.1870   -36.0280   -66.1480     6.1050     5.7020     5.5560
  155.5000     0.1620    80.9570     0.0040     2.4080   132.0260    13.1920   -35.9730   -65.1650     6.2060     5.7700     5.6800
  156.0000     0.1530    80.9570    -0.0030     2.4030   129.8550    13.1980   -35.9120   -64.1820     6.3310     5.8220     5.7250
  156.5000     0.1450    80.9570    -0.0040     2.4020   130.5340    13.2030   -35.8930   -63.1980     6.4570     5.8750     5.7710
  157.0000     0.1420    80.9570     0.0000     2.4030   133.7250    13.2090   -35.9330   -62.2150     6.5820     5.9270     5.8160
  157.5000     0.1470    80.9990     0.0050     2.4040   136.9240    13.2130   -35.9660   -61.2320     6.7080     5.9790     5.8610
  158.0000     0.1530    81.3840     0.0100     2.4020   137.4790    13.2150   -36.0010   -60.2490     6.7080     6.0320     5.8790
  158.5000     0.1580    81.7700     0.0150     2.4000   134.0770    13.2170   -36.0370   -59.2660     6.7080     6.0840     5.8680
  159.0000     0.1630    82.1550     0.0130     2.3980   130.4620    13.2190   -36.0710   -58.2820     6.7080     6.1050     5.8410
  159.5000     0.1690    82.5400     0.0110     2.3960   127.1730    13.2220   -36.1060   -57.2990     6.7080     6.1050     5.8140
  160.0000     0.1720    82.9250     0.0140     2.3950   129.1140    13.2240   -36.1410   -56.3160     6.7080     6.1050     5.7860
  160.5000     0.1650    83.3110     0.0150     2.3950   133.6210    13.2270   -36.1760   -56.0790     6.7080     6.1050     5.7700
  161.0000     0.1590    83.6960     0.0140     2.3950   138.6820    13.2290   -36.2110   -56.9600     6.7080     6.4090     5.7700
  161.5000     0.1580    84.0810     0.0110     2.3960   136.0290    13.2310   -36.2470   -57.8410     6.7080     6.7140     6.7010
