~VERSION INFORMATION
 VERS.                2.0:   CWLS LOG ASCII STANDARD - VERSION 2.0
 WRAP.                 NO:   ONE LINE PER DEPTH STEP
~WELL INFORMATION
#MNEM.UNIT      DATA TYPE    INFORMATION
#----------   ------------   ------------------------------
 STRT.F          208.0000:   START DEPTH
 STOP.F         2980.0000:   STOP DEPTH
 STEP.F            0.5000:   STEP LENGTH
 NULL.          -999.2500:   NO VALUE
 COMP. FENIX & SCISSON INC:   COMPANY
 WELL. FENIX  32AX #28-28:   WELL
 FLD .        TEAPOT DOME:   FIELD
 LOC .      S28 T39N R78W:   LOCATION
 CNTY.            NATRONA:   COUNTY
 STAT.            WYOMING:   STATE
 CTRY. UNITED STATES OF AMERICA:   COUNTRY
 SRVC.           BIRDWELL:   SERVICE COMPANY
 DATE.        09-OCT-1977:   LOGDATE
 API .     49025104430000:   API NUMBER
~CURVE INFORMATION
#MNEM.UNIT       API CODE    CURVE DESCRIPTION
#----------   ------------   ------------------------------
 DEPT.F                  :   
 SPR .MV     05 010 01 00:   SPONTANEOUS POTENTIAL
 ILD .OHMM   05 120 46 00:   DEEP INDUCTION RESISTIVITY
 SN  .OHMM   05 040 16 00:   SHORT NORMAL
 GRD .GAPI   45 310 01 00:   GAMMA RAY FROM DENSITY LOG
 CALD.IN     45 280 60 00:   CALIPER FROM DENSITY LOG
 CORR.G/C3   45 356 01 00:   DENSITY CORRECTION
 DEN .G/C3   45 350 01 00:   BULK DENSITY
~PARAMETER INFORMATION
#MNEM.UNIT          VALUE    DESCRIPTION
#----------   ------------   ------------------------------
 EKB .F         5005.0000:   Kelly bushing
 EGL .F         4995.0000:   Ground level
 EDF .F            0.0000:   Drilling floor
 EPD .F         4995.0000:   Permanent datum
 TD  .F         2980.0000:   Total depth
 DATE.        09-OCT-1977:   Date logged
 CLNT.            A2DTECH:   Client Code
 SL  . 990' FNL & 1650' FWL:   Surface Location
 PD  .                 GL:   Permanent Datum
 DAPD.F                10:   Feet Above Permanent Datum
 DD  .F              2980:   Depth driller
 DL  .F              2979:   Depth logger
 BLI .F              2974:   Bottom log interval
 TLI .F               221:   Top log interval
 CS1 .IN            8.625:   Casing size
 CBD1.      8.625" @ 211':   Casing driller 1
 CBL1.F               221:   Casing logger 1
 BS1 .IN            7.875:   Bit size
 BSD1.F              2980:   Depth drilled with bit1
 DFT .            KCL GEL:   Type fluid in hole
 DFD .                8.8:   Density
 DFV .                 33:   Viscosity
 DFPH.                 11:   pH
 DFL .                6.4:   Fluid loss
 MSS .           FLOWLINE:   Source of sample
 RMS .OHMM            .52:   Rm
 MST .F                59:   Rm Meas. temp.
 RMF .OHMM            .67:   Rmf
 MFST.F                54:   Rmf Meas. temp.
 RMC .OHMM            .45:   Rmc
 MCST.F                56:   Rmc Meas. temp.
 MFSS.               MEAS:   Source Rmf.
 MCSS.               MEAS:   Source Rmc.
 RMB .OHMM            .35:   Rm. at BHT
 BHT .F                91:   BHT.
 TCS .HRS               3:   Time Circ. stopped
 MRT .F                91:   Maximum recorded temp.
 LUN .               2958:   Logging unit number
 LUL .             CASPER:   Logging unit location
 ENGI.                LAW:   Recorded By
 WITN.       W. PENINGELL:   Witnessed by
 ORIG.           5" PRINT:   Origin of data
 UWI .     49025104430000:   Unique Well ID
 DICO. A2D TECHNOLOGIES, INC.:   Digitizing Company
~OTHER INFORMATION
~A   DEPT      SPR        ILD         SN         GRD      CALD       CORR        DEN   
# ...
  936.0000   -44.8030     8.1390     8.6430   141.8000     8.0650     0.0080     2.5090
  936.5000   -44.8020     8.0000     8.4600   139.6050     8.0650     0.0020     2.5020
  937.0000   -44.8000     7.8610     8.3250   137.0080     8.0650     0.0040     2.4990
  937.5000   -44.7990     7.7220     8.1970   139.6730     8.0650     0.0060     2.5080
  938.0000   -44.8190     7.6260     8.0580   140.8820     8.0650     0.0100     2.5170
  938.5000   -44.7480     7.6260     8.0580   137.0720     8.0650     0.0140     2.5270
  939.0000   -44.7260     7.6260     8.0580   135.8270     8.0650     0.0090     2.5200
  939.5000   -44.6570     7.6260     8.0580   137.1030     8.0650     0.0060     2.5120
  940.0000   -44.9680     7.6260     8.0580   135.1990     8.0650     0.0060     2.5050
  940.5000   -44.6180     7.6260     8.0580   135.8230     8.0650     0.0030     2.5070
  941.0000   -44.6060     7.6260     8.0580   139.6940     8.0650     0.0040     2.5080
  941.5000   -44.6020     7.6260     8.0580   138.1860     8.0650     0.0100     2.5160
  942.0000   -44.6020     7.6260     8.0580   141.5740     8.0650     0.0160     2.5220
  942.5000   -44.6050     7.6340     8.0570   139.7600     8.0650     0.0160     2.5220
  943.0000   -44.5390     7.6530     8.0740   137.4040     8.0650     0.0180     2.5210
  943.5000   -44.4660     7.6720     8.1080   135.3130     8.0650     0.0200     2.5240
  944.0000   -44.3690     7.6960     8.1430   132.2070     8.0650     0.0210     2.5270
  944.5000   -44.0270     7.6840     8.1770   131.7710     8.0650     0.0170     2.5290
  945.0000   -43.7490     7.6600     8.2070   133.8750     8.0660     0.0150     2.5150
  945.5000   -43.4610     7.6260     8.2070   135.6040     8.0680     0.0180     2.5200
  946.0000   -43.9890     7.6810     8.2070   139.0590     8.0700     0.0190     2.5230
  946.5000   -44.2250     7.7800     8.2070   133.5100     8.0710     0.0160     2.5190
  947.0000   -45.2220     7.8390     8.2070   131.6460     8.0730     0.0170     2.5220
  947.5000   -45.0220     7.7660     8.2210   134.0980     8.0750     0.0180     2.5260
  948.0000   -45.1270     7.6960     8.2860   138.4740     8.0770     0.0190     2.5240
  948.5000   -45.2650     7.7500     8.3510   140.0230     8.0790     0.0160     2.5180
  949.0000   -45.3970     7.8130     8.4150   138.1050     8.0800     0.0140     2.5200
  949.5000   -45.5290     7.8770     8.4360   136.2630     8.0820     0.0120     2.5220
  950.0000   -45.5950     7.9400     8.4360   136.0690     8.0840     0.0110     2.5230
  950.5000   -45.5000     7.9840     8.4360   136.4230     8.0850     0.0120     2.5220
  951.0000   -45.3950     7.9020     8.4360   135.7380     8.0830     0.0120     2.5200
  951.5000   -45.2900     7.8280     8.3590   138.7000     8.0810     0.0060     2.5090
  952.0000   -45.0910     7.7670     8.2900   141.1100     8.0790     0.0080     2.5180
  952.5000   -44.8880     7.8750     8.2180   142.9630     8.0770     0.0130     2.5230
  953.0000   -44.8680     7.9840     8.1320   141.1110     8.0760     0.0130     2.5260
  953.5000   -44.0910     7.7620     8.2210   136.0970     8.0740     0.0130     2.5300
  954.0000   -43.8800     7.6260     8.3590   133.9930     8.0720     0.0120     2.5280
  954.5000   -43.9900     7.9560     8.1810   137.4810     8.0700     0.0080     2.5230
  955.0000   -44.1020     8.0580     8.0580   134.3250     8.0690     0.0060     2.5190
  955.5000   -44.2020     7.8030     8.1490   130.0150     8.0670     0.0080     2.5200
  956.0000   -43.9090     7.6260     8.2070   128.1330     8.0650     0.0100     2.5210
  956.5000   -43.6160     7.7840     8.1760   125.1740     8.0650     0.0140     2.5230
  957.0000   -43.9880     7.9060     8.1520   132.2170     8.0650     0.0200     2.5390
  957.5000   -44.4110     7.9840     8.1320   135.2660     8.0650     0.0240     2.5460
  958.0000   -44.5160     8.0200     8.2070   138.5430     8.0650     0.0080     2.5270
  958.5000   -44.3670     8.0580     8.1800   142.4580     8.0650     0.0070     2.5160
  959.0000   -44.2180     7.7340     8.1450   145.1560     8.0650     0.0080     2.5110
  959.5000   -44.0610     7.5140     8.0530   141.5170     8.0650     0.0070     2.5130
  960.0000   -44.3530     7.3510     7.9280   144.0350     8.0650     0.0060     2.5150
  960.5000   -44.9090     7.5560     7.9110   139.0890     8.0650     0.0080     2.5160
  961.0000   -45.0730     7.4230     7.9110   140.0280     8.0650     0.0110     2.5140
  961.5000   -45.1620     7.3510     7.9110   138.5030     8.0650     0.0140     2.5190
  962.0000   -45.2500     7.4870     7.9110   137.6430     8.0630     0.0180     2.5240
  962.5000   -45.3370     7.3800     7.9110   136.8660     8.0610     0.0170     2.5210
  963.0000   -45.3970     7.2340     7.9110   135.2490     8.0600     0.0140     2.5150
  963.5000   -45.2300     7.0860     7.9110   133.1730     8.0580     0.0190     2.5220
  964.0000   -45.0460     7.1850     7.9110   135.2690     8.0560     0.0220     2.5290
  964.5000   -44.8620     7.2840     7.9110   138.4310     8.0540     0.0260     2.5290
  965.0000   -44.6780     7.2400     7.9110   137.4890     8.0530     0.0250     2.5250
  965.5000   -44.6410     7.1960     7.9080   139.1380     8.0510     0.0190     2.5210
  966.0000   -44.7030     7.1530     7.9010   142.3310     8.0490     0.0190     2.5170
  966.5000   -44.7650     7.1100     7.8940   142.0290     8.0470     0.0170     2.5160
  967.0000   -44.7540     7.0670     7.8880   143.5010     8.0450     0.0140     2.5190
  967.5000   -44.6310     7.0210     7.8810   140.8110     8.0490     0.0170     2.5220
  968.0000   -44.4070     7.0400     7.8740   140.2000     8.0530     0.0210     2.5250
  968.5000   -43.7660     7.0590     7.8670   131.8690     8.0570     0.0220     2.5280
  969.0000   -43.6770     7.0790     7.8600   129.8600     8.0600     0.0170     2.5200
  969.5000   -43.6970     7.0990     7.8530   132.0400     8.0640     0.0120     2.5140
  970.0000   -44.4100     7.1190     7.8470   134.9810     8.0680     0.0120     2.5150
  970.5000   -44.7530     7.1390     7.8390   137.8630     8.0720     0.0120     2.5140
  971.0000   -44.6070     7.1590     7.8520   138.9290     8.0750     0.0080     2.5100
  971.5000   -44.7990     7.1790     7.8670   136.0710     8.0790     0.0000     2.4990
  972.0000   -44.9920     7.1990     7.8820   136.8150     8.0830     0.0030     2.5040
  972.5000   -44.9610     7.2170     7.8980   136.5230     8.0840     0.0040     2.5090
  973.0000   -44.9350     7.0210     7.9110   134.9750     8.0820     0.0040     2.5060
  973.5000   -44.9070     7.1090     7.9250   133.7580     8.0800     0.0100     2.5120
  974.0000   -44.8800     7.1880     7.9400   133.2880     8.0780     0.0160     2.5260
  974.5000   -44.8530     7.2660     7.9550   134.9630     8.0760     0.0200     2.5380
  975.0000   -44.8250     7.3450     7.9700   133.3450     8.0740     0.0200     2.5440
  975.5000   -44.8070     7.4240     7.9840   131.2410     8.0720     0.0210     2.5410
  976.0000   -44.5820     7.5020     8.0330   124.8720     8.0700     0.0210     2.5360
  976.5000   -44.2750     7.5810     8.0930   127.1530     8.0680     0.0210     2.5310
  977.0000   -44.2580     7.6590     8.1520   124.8750     8.0660     0.0200     2.5290
  977.5000   -44.3980     7.7380     8.2120   122.1850     8.0650     0.0180     2.5340
  978.0000   -44.3370     7.8160     8.2720   125.8300     8.0650     0.0190     2.5320
  978.5000   -44.2290     7.8780     8.3310   131.8930     8.0650     0.0220     2.5340
  979.0000   -44.0770     7.9870     8.3670   126.2860     8.0650     0.0250     2.5350
  979.5000   -43.9260     8.0080     8.4190   123.5750     8.0650     0.0240     2.5360
  980.0000   -43.8770     8.0290     8.4720   124.7070     8.0650     0.0200     2.5250
  980.5000   -44.1970     8.0500     8.5330   123.4280     8.0650     0.0160     2.5210
  981.0000   -44.5180     8.1060     8.6280   119.0290     8.0650     0.0140     2.5170
