~VERSION INFORMATION
 VERS.                2.0:   CWLS LOG ASCII STANDARD - VERSION 2.0
 WRAP.                 NO:   ONE LINE PER DEPTH STEP
~WELL INFORMATION
#MNEM.UNIT      DATA TYPE    INFORMATION
#----------   ------------   ------------------------------
 STRT.F           53.0000:   START DEPTH
 STOP.F         3110.0000:   STOP DEPTH
 STEP.F            0.5000:   STEP LENGTH
 NULL.          -999.2500:   NO VALUE
 COMP. LAWRENCE ALLISON & ASSOCIATES W:   COMPANY
 WELL. LAWRENCE NPR 3 "AX" #31-34:   WELL
 FLD .      NPR - WILDCAT:   FIELD
 LOC .      S34 T39N R78W:   LOCATION
 CNTY.            NATRONA:   COUNTY
 STAT.            WYOMING:   STATE
 CTRY. UNITED STATES OF AMERICA:   COUNTRY
 SRVC.      DRESSER ATLAS:   SERVICE COMPANY
 DATE.        11-JUL-1986:   LOGDATE
 API .     49025111020000:   API NUMBER
~CURVE INFORMATION
#MNEM.UNIT       API CODE    CURVE DESCRIPTION
#----------   ------------   ------------------------------
 DEPT.F                  :   
 DEN .G/C3   45 350 01 00:   BULK DENSITY
 TEND.LBS    45 635 01 00:   TENSION FROM DENSITY LOG
 CORR.G/C3   45 356 01 00:   DENSITY CORRECTION
 NPHI.DEC    42 890 03 00:   NEUTRON POROSITY SANDSTONE
 SPR .MV     07 010 01 00:   SPONTANEOUS POTENTIAL
 RILM.OHMM   07 120 44 00:   INDUCTION LOG MEDIUM RESISTIVITY
 RILD.OHMM   07 120 46 00:   DEEP INDUCTION RESISTIVITY
 RFOC.OHMM   07 220 04 00:   RESISTIVITY FOCUSED LOG RES.
 TENR.LBS    07 635 01 00:   TENSION FROM RESISTIVITY
 GRR .GAPI   07 310 01 00:   GAMMA RAY FROM RESISTIVITY
 CALR.IN     07 280 01 00:   CALIPER FROM RESISTIVITY
~PARAMETER INFORMATION
#MNEM.UNIT          VALUE    DESCRIPTION
#----------   ------------   ------------------------------
 EKB .F          5074.800:   Kelly bushing
 EGL .F          5063.000:   Ground level
 EDF .F            0.0000:   Drilling floor
 EPD .F            0.0000:   Permanent datum
 TD  .F         3108.0000:   Total depth
 DATE.        11-JUL-1986:   Date logged
 CLNT.            A2DTECH:   Client Code
 SL  . 1796' FWL & 318' FNL:   Surface Location
 PD  .                 GL:   Permanent Datum
 DAPD.F                11:   Feet Above Permanent Datum
 DD  .F              3103:   Depth driller
 DL  .F              3108:   Depth logger
 BLI .F              3106:   Bottom log interval
 CS1 .IN            8.625:   Casing size
 CBD1.      8.625" @ 602':   Casing driller 1
 CBL1.F               596:   Casing logger 1
 BS1 .IN            7.875:   Bit size
 BSD1.F              3103:   Depth drilled with bit1
 DFT .            KCL/GEL:   Type fluid in hole
 DFD .                  9:   Density
 DFV .                 42:   Viscosity
 MSS .           MUD/TANK:   Source of sample
 RMS .OHMM           .352:   Rm
 MST .F                82:   Rm Meas. temp.
 RMF .OHMM           .264:   Rmf
 MFST.F                82:   Rmf Meas. temp.
 RMC .OHMM            .44:   Rmc
 MCST.F                82:   Rmc Meas. temp.
 MFSS.               CALC:   Source Rmf.
 MCSS.               CALC:   Source Rmc.
 RMB .OHMM            .23:   Rm. at BHT
 BHT .F               115:   BHT.
 TCS .HRS               3:   Time Circ. stopped
 MRT .F               115:   Maximum recorded temp.
 LUN .            HL-6264:   Logging unit number
 LUL .           GILLETTE:   Logging unit location
 ENGI.     P. M. FASHSING:   Recorded By
 WITN.             STRONG:   Witnessed by
 ORIG.           5" PRINT:   Origin of data
 UWI .     49025111020000:   Unique Well ID
 DICO. A2D TECHNOLOGIES, INC.:   Digitizing Company
~OTHER INFORMATION
~A   DEPT      DEN       TEND       CORR       NPHI        SPR       RILM       RILD       RFOC       TENR         GRR      CALR   
# ...
 1090.0000  -999.2500  -999.2500  -999.2500  -999.2500   -85.2610     5.4160     6.2090     6.5550  -108.4830    97.7790    12.4070
 1090.5000  -999.2500  -999.2500  -999.2500  -999.2500   -84.6450     5.3510     6.2020     6.5230   -96.1210    96.1910    12.4050
 1091.0000  -999.2500  -999.2500  -999.2500  -999.2500   -84.4210     5.3940     6.2020     6.4890   -84.8430    96.7500    12.4020
 1091.5000  -999.2500  -999.2500  -999.2500  -999.2500   -84.9660     5.4320     6.2020     6.4540   -73.5650    99.5740    12.4000
 1092.0000  -999.2500  -999.2500  -999.2500  -999.2500   -85.5140     5.4690     6.2020     6.4350   -73.1250   101.4950    12.3980
 1092.5000  -999.2500  -999.2500  -999.2500  -999.2500   -86.0610     5.5070     6.2020     6.4570   -78.9250   104.9510    12.3950
 1093.0000  -999.2500  -999.2500  -999.2500  -999.2500   -86.4410     5.5450     6.2010     6.4830   -84.7250   106.9570    12.3930
 1093.5000  -999.2500  -999.2500  -999.2500  -999.2500   -86.3260     5.5820     6.2420     6.5230   -90.5260   103.5690    12.3900
 1094.0000  -999.2500  -999.2500  -999.2500  -999.2500   -86.2160     5.6200     6.3150     6.5730   -96.3260   101.1340    12.3920
 1094.5000  -999.2500  -999.2500  -999.2500  -999.2500   -86.1060     5.6560     6.3880     6.6240  -102.1260    99.8070    12.3940
 1095.0000  -999.2500  -999.2500  -999.2500  -999.2500   -85.9970     5.7210     6.4600     6.6740  -108.4830    99.7420    12.3960
 1095.5000  -999.2500  -999.2500  -999.2500  -999.2500   -85.8880     5.7820     6.5330     6.7250  -107.7880   101.4690    12.3990
 1096.0000  -999.2500  -999.2500  -999.2500  -999.2500   -85.7780     5.8680     6.6050     6.7750  -107.0190   103.3100    12.4010
 1096.5000  -999.2500  -999.2500  -999.2500  -999.2500   -85.6690     5.8450     6.6770     6.8260  -106.2500   102.6520    12.4030
 1097.0000  -999.2500  -999.2500  -999.2500  -999.2500   -85.5600     5.8060     6.6770     6.9270  -105.4800   101.8420    12.4050
 1097.5000  -999.2500  -999.2500  -999.2500  -999.2500   -85.4500     5.7670     6.5960     6.8350  -104.7110   101.0350    12.4080
 1098.0000  -999.2500  -999.2500  -999.2500  -999.2500   -85.3410     5.7270     6.5320     6.7490  -103.9420   100.2390    12.4100
 1098.5000  -999.2500  -999.2500  -999.2500  -999.2500   -85.2320     5.6880     6.4670     6.6620  -103.1730   100.8090    12.4190
 1099.0000  -999.2500  -999.2500  -999.2500  -999.2500   -85.1220     5.6490     6.4030     6.5750  -102.4030   102.6720    12.4300
 1099.5000  -999.2500  -999.2500  -999.2500  -999.2500   -85.0210     5.6100     6.3380     6.4880  -101.6340   106.1080    12.4420
 1100.0000  -999.2500  -999.2500  -999.2500  -999.2500   -84.9390     5.5710     6.3170     6.3760  -100.8650   105.3230    12.4530
 1100.5000  -999.2500  -999.2500  -999.2500  -999.2500   -84.8520     5.5480     6.3170     6.3960  -100.0950   102.6230    12.4650
 1101.0000  -999.2500  -999.2500  -999.2500  -999.2500   -85.0240     5.5400     6.3170     6.4350   -99.3260    99.8790    12.4770
 1101.5000  -999.2500  -999.2500  -999.2500  -999.2500   -85.2680     5.5320     6.3170     6.4730   -98.7240    99.6450    12.4880
 1102.0000  -999.2500  -999.2500  -999.2500  -999.2500   -85.5130     5.5240     6.3170     6.4940   -98.7240   100.9200    12.5000
 1102.5000  -999.2500  -999.2500  -999.2500  -999.2500   -85.7580     5.5160     6.3170     6.3760   -98.7240   104.3150    12.5110
 1103.0000  -999.2500  -999.2500  -999.2500  -999.2500   -86.0040     5.5080     6.3170     6.3850   -98.7240   107.2410    12.5230
 1103.5000  -999.2500  -999.2500  -999.2500  -999.2500   -86.2380     5.5000     6.3170     6.4020   -98.7240   107.2110    12.5290
 1104.0000  -999.2500  -999.2500  -999.2500  -999.2500   -86.2700     5.4920     6.3180     6.4190   -98.7240   105.6090    12.5250
 1104.5000  -999.2500  -999.2500  -999.2500  -999.2500   -86.2980     5.4840     6.3170     6.4350   -98.7240   104.2570    12.5220
 1105.0000  -999.2500  -999.2500  -999.2500  -999.2500   -86.3270     5.4760     6.2820     6.3920   -98.7240   104.9630    12.5180
 1105.5000  -999.2500  -999.2500  -999.2500  -999.2500   -86.3560     5.4680     6.2500     6.3520   -98.7240   104.1550    12.5150
 1106.0000  -999.2500  -999.2500  -999.2500  -999.2500   -86.3850     5.4600     6.2170     6.3130   -98.7240   101.3110    12.5110
 1106.5000  -999.2500  -999.2500  -999.2500  -999.2500   -86.4150     5.4530     6.1840     6.2730   -98.7240   100.2050    12.5110
 1107.0000  -999.2500  -999.2500  -999.2500  -999.2500   -86.4430     5.4450     6.1520     6.2480   -98.7240    99.8300    12.5120
 1107.5000  -999.2500  -999.2500  -999.2500  -999.2500   -86.2810     5.4370     6.1190     6.2310   -86.6220    99.4990    12.5130
 1108.0000  -999.2500  -999.2500  -999.2500  -999.2500   -86.0990     5.4290     6.0870     6.2140   -73.0620    97.9490    12.5140
 1108.5000  -999.2500  -999.2500  -999.2500  -999.2500   -85.9180     5.4210     6.0540     6.1980   -59.6850    94.4400    12.5150
 1109.0000  -999.2500  -999.2500  -999.2500  -999.2500   -85.7370     5.4130     6.0210     6.1810   -64.0060    94.3990    12.5160
 1109.5000  -999.2500  -999.2500  -999.2500  -999.2500   -85.5570     5.4050     5.9890     6.1640   -69.2660    96.9810    12.5170
 1110.0000  -999.2500  -999.2500  -999.2500  -999.2500   -85.4430     5.3860     5.9560     6.1470   -74.5260    99.6930    12.5180
 1110.5000  -999.2500  -999.2500  -999.2500  -999.2500   -85.5800     5.3570     5.9240     6.1300   -79.7860    99.9070    12.5190
 1111.0000  -999.2500  -999.2500  -999.2500  -999.2500   -85.7220     5.3280     5.8910     6.1130   -85.0470    99.0320    12.5200
 1111.5000  -999.2500  -999.2500  -999.2500  -999.2500   -85.8640     5.2990     5.8580     6.0960   -88.5580   100.3280    12.5210
 1112.0000  -999.2500  -999.2500  -999.2500  -999.2500   -86.0060     5.2710     5.8260     6.0790   -86.9690   103.0700    12.5220
 1112.5000  -999.2500  -999.2500  -999.2500  -999.2500   -86.1470     5.2420     5.7930     6.0630   -85.3800   103.4020    12.5230
 1113.0000  -999.2500  -999.2500  -999.2500  -999.2500   -86.2900     5.2130     5.7600     6.0460   -83.7910   102.0740    12.5250
 1113.5000  -999.2500  -999.2500  -999.2500  -999.2500   -86.4310     5.1840     5.7280     6.0270   -82.2020   100.6620    12.5260
 1114.0000  -999.2500  -999.2500  -999.2500  -999.2500   -86.4140     5.1580     5.6950     6.0020   -80.6130   103.5960    12.5270
 1114.5000  -999.2500  -999.2500  -999.2500  -999.2500   -86.3780     5.1310     5.6630     5.9770   -79.5240   106.5420    12.5280
 1115.0000  -999.2500  -999.2500  -999.2500  -999.2500   -86.3410     5.1070     5.6300     5.9520   -82.3490   107.3460    12.5290
 1115.5000  -999.2500  -999.2500  -999.2500  -999.2500   -86.3050     5.0820     5.6040     5.9220   -85.1740   104.6960    12.5300
 1116.0000  -999.2500  -999.2500  -999.2500  -999.2500   -86.2690     5.0630     5.6350     5.9340   -87.9990   101.2900    12.5280
 1116.5000  -999.2500  -999.2500  -999.2500  -999.2500   -86.2170     5.0980     5.6620     5.9540   -90.8240   101.1770    12.5190
 1117.0000  -999.2500  -999.2500  -999.2500  -999.2500   -86.1310     5.1250     5.6890     5.9730   -93.6490   102.4810    12.5110
 1117.5000  -999.2500  -999.2500  -999.2500  -999.2500   -86.0450     5.1530     5.7150     5.9930   -96.4740   102.6310    12.5030
 1118.0000  -999.2500  -999.2500  -999.2500  -999.2500   -85.9590     5.1810     5.7420     6.0120   -97.6890   101.9800    12.4940
 1118.5000  -999.2500  -999.2500  -999.2500  -999.2500   -85.8740     5.2090     5.7680     6.0310   -92.6040   102.3060    12.4860
 1119.0000  -999.2500  -999.2500  -999.2500  -999.2500   -85.7880     5.2370     5.7950     6.0510   -88.9640   102.9170    12.4780
 1119.5000  -999.2500  -999.2500  -999.2500  -999.2500   -85.7030     5.2640     5.8220     6.0700   -88.9640   101.1110    12.4690
 1120.0000  -999.2500  -999.2500  -999.2500  -999.2500   -85.6170     5.2920     5.8480     6.0900   -88.9640   100.2700    12.4610
