~VERSION INFORMATION
 VERS.                2.0:   CWLS LOG ASCII STANDARD - VERSION 2.0
 WRAP.                 NO:   ONE LINE PER DEPTH STEP
~WELL INFORMATION
#MNEM.UNIT      DATA TYPE    INFORMATION
#----------   ------------   ------------------------------
 STRT.F            0.0000:   START DEPTH
 STOP.F         5576.0000:   STOP DEPTH
 STEP.F            0.5000:   STEP LENGTH
 NULL.          -999.2500:   NO VALUE
 COMP.      FLUCOR DANIEL:   COMPANY
 WELL.  FLUCOR "X" #76-10:   WELL
 FLD .          N.P.R. #3:   FIELD
 LOC .      S10 T38N R78W:   LOCATION
 CNTY.            NATRONA:   COUNTY
 STAT.            WYOMING:   STATE
 CTRY. UNITED STATES OF AMERICA:   COUNTRY
 SRVC. ATLAS WIRELINE SERVICES:   SERVICE COMPANY
 DATE.        16-MAR-1995:   LOGDATE
 API .     49025226860000:   API NUMBER
~CURVE INFORMATION
#MNEM.UNIT       API CODE    CURVE DESCRIPTION
#----------   ------------   ------------------------------
 DEPT.F                  :   
 CNC .DEC    42 890 01 00:   NEUTRON POROSITY LIMESTONE
 CALD.IN     45 280 60 00:   CALIPER FROM DENSITY LOG
 ZDEN.G/C3   45 350 01 00:   BULK DENSITY
 ZCOR.G/C3   45 356 01 00:   DENSITY CORRECTION
 RILD.OHMM   07 120 46 00:   INDUCTION LOG DEEP RESISTIVITY
 RILM.OHMM   07 120 44 00:   INDUCTION LOG MEDIUM RESISTIVITY
 RS  .OHMM   11 220 10 00:   RESISTIVITY SHALLOW
 RD  .OHMM   11 220 09 00:   RESISTIVITY DEEP
 GRR .GAPI   07 310 01 00:   GAMMA RAY
 TENR.LBS    07 635 01 00:   TENSION FROM RESISTIVITY
~PARAMETER INFORMATION
#MNEM.UNIT          VALUE    DESCRIPTION
#----------   ------------   ------------------------------
 EKB .F         5191.0000:   Kelly bushing
 EGL .F         5101.0000:   Ground level
 EDF .F         5190.0000:   Drilling floor
 TD  .F         5582.0000:   Total depth
 CLNT.            A2DTECH:   Client Code
 SL  . 1896' FSL & 832' FEL:   Surface Location
 PD  .                 GL:   Permanent Datum
 EPD .F              5181:   Elevation Permanent Datum
 LMF .                 KB:   Log Measured From
 DMF .                 KB:   Drilling Measured From
 DAPD.F                10:   Feet Above Permanent Datum
 DATE.        16-MAR-1995:   Date Logged [DD-MMM-YYYY]
 DD  .F              5582:   Depth driller
 DL  .F              5578:   Depth logger
 BLI .F              5566:   Bottom log interval
 TLI .F               518:   Top log interval
 CS1 .IN            8.625:   Casing size
 CBD1.      8.625" @ 519':   Casing driller 1
 CBL1.F               518:   Casing logger 1
 BS1 .IN             8.75:   Bit size
 BSD1.F              5582:   Depth drilled with bit1
 DFT .               LSND:   Type fluid in hole
 DFD .               10.1:   Density
 DFV .                 52:   Viscosity
 DFPH.                9.5:   pH
 DFL .                7.2:   Fluid loss
 MSS .           FLOWLINE:   Source of sample
 RMS .OHMM          0.536:   Rm
 MST .F                70:   Rm Meas. temp.
 RMF .OHMM          0.415:   Rmf
 MFST.F                70:   Rmf Meas. temp.
 MFSS.               MEAS:   Source Rmf.
 RMC .OHMM          0.646:   Rmc
 MCST.F                70:   Rmc Meas. temp.
 MCSS.               MEAS:   Source Rmc.
 RMB .OHMM          0.228:   Rm. at BHT
 BHT .F               165:   BHT.
 TCS .HRS             6.5:   Time Circ. stopped
 MRT .F               165:   Maximum recorded temp.
 LUN .            HL-6530:   Logging unit number
 LUL .             CASPER:   Logging unit location
 ENGI.      PAT RASMUSSEN:   Recorded By
 WITN.        GARY STRONG:   Witnessed by
 ORIG.           5" PRINT:   Origin of data
 UWI .     49025226860000:   Unique Well ID
 DICO. A2D TECHNOLOGIES, INC.:   Digitizing Company
~OTHER INFORMATION
~A  DEPTH      CNC       CALD       ZDEN       ZCOR       RILD       RILM         RS         RD        GRR       TENR
# ...
 4824.0000     0.1039    10.3877     2.6194    -0.0254  -999.2500  -999.2500    21.6073    26.8006    65.7693   -84.1398
 4824.5000     0.1151    10.3870     2.6020    -0.0392  -999.2500  -999.2500    19.3239    23.3135    70.0060   -83.8567
 4825.0000     0.1351    10.3863     2.5861    -0.0333  -999.2500  -999.2500    17.7693    20.7079    76.9685   -83.5737
 4825.5000     0.1495    10.3856     2.5754     0.0240  -999.2500  -999.2500    16.5671    16.6855    82.7203   -83.2829
 4826.0000     0.1813    10.3847     2.5724     0.0421  -999.2500  -999.2500    14.0143    14.7179    92.7146   -82.9370
 4826.5000     0.1783    10.3840     2.5883     0.0132  -999.2500  -999.2500    13.7208    14.2111    94.2254   -82.6539
 4827.0000     0.1620    10.3833     2.6147    -0.0111  -999.2500  -999.2500    14.5348    14.6444    92.0945   -82.3708
 4827.5000     0.1447    10.3826     2.6343    -0.0202  -999.2500  -999.2500    17.0064    16.6671    86.9383   -82.0172
 4828.0000     0.1266    10.3818     2.6433    -0.0188  -999.2500  -999.2500    19.1338    18.8854    82.0840   -74.1698
 4828.5000     0.1248    10.3810     2.6441    -0.0174  -999.2500  -999.2500    20.6474    20.2407    81.4736   -73.8868
 4829.0000     0.1254    10.3803     2.6440    -0.0176  -999.2500  -999.2500    21.2196    20.8064    82.0727   -66.0362
 4829.5000     0.1339    10.3794     2.6440    -0.0177  -999.2500  -999.2500    20.6293    20.7996    84.2527   -65.6858
 4830.0000     0.1463    10.3787     2.6440    -0.0163  -999.2500  -999.2500    18.5779    19.9442    90.8474   -65.4027
 4830.5000     0.1496    10.3780     2.6392    -0.0165  -999.2500  -999.2500    16.9260    18.0575    96.2962   -57.5557
 4831.0000     0.1478    10.3773     2.6280    -0.0181  -999.2500  -999.2500    16.0388    16.6346    97.5040   -49.6374
 4831.5000     0.1427    10.3765     2.6220    -0.0197  -999.2500  -999.2500    15.8110    16.1739    96.8908   -49.3544
 4832.0000     0.1300    10.3757     2.6189    -0.0213  -999.2500  -999.2500    17.3008    17.0951    94.0927   -41.5073
 4832.5000     0.1149    10.3750     2.6204    -0.0230  -999.2500  -999.2500    20.2927    20.7645    89.3020   -48.7898
 4833.0000     0.1049    10.3742     2.6306    -0.0216  -999.2500  -999.2500    21.2970    22.5664    82.6296   -48.4872
 4833.5000     0.0952    10.3734     2.6453    -0.0187  -999.2500  -999.2500    22.6642    24.1858    75.9572   -55.7868
 4834.0000     0.0909    10.3727     2.6467    -0.0128  -999.2500  -999.2500    23.9658    25.9365    72.9211   -63.0680
 4834.5000     0.0895    10.3720     2.6399    -0.0114  -999.2500  -999.2500    25.1348    27.3960    71.6556   -54.4473
 4835.0000     0.0898    10.3711     2.6240    -0.0163  -999.2500  -999.2500    25.6574    28.1617    69.2718   -32.1035
 4835.5000     0.0898    10.3704     2.6186    -0.0297  -999.2500  -999.2500    26.3685    28.7481    66.5388   -16.6919
 4836.0000     0.0898    10.3697     2.6247    -0.0329  -999.2500  -999.2500    26.9114    29.3449    64.7148   -16.4088
 4836.5000     0.0931    10.3689     2.6360    -0.0315  -999.2500  -999.2500    27.0914    28.5321    65.6182   -23.6195
 4837.0000     0.1004    10.3682     2.6466    -0.0256  -999.2500  -999.2500    25.6124    27.3586    68.9443   -30.9713
 4837.5000     0.1067    10.3674     2.6526    -0.0211  -999.2500  -999.2500    23.2265    25.1610    69.8476    -0.3605
 4838.0000     0.1067    10.3666     2.6482    -0.0228  -999.2500  -999.2500    22.2662    23.1384    70.1449    15.0529
 4838.5000     0.1061    10.3658     2.6359    -0.0244  -999.2500  -999.2500    21.9500    22.8128    70.4436    15.4048
 4839.0000     0.1052    10.3651     2.6366    -0.0261  -999.2500  -999.2500    21.6383    22.8068    72.9053     0.4884
 4839.5000     0.1049    10.3797     2.6366    -0.0262  -999.2500  -999.2500    21.6296    23.1203    79.8232   -14.2966
 4840.0000     0.1043    10.3788     2.6366    -0.0231  -999.2500  -999.2500    21.6193    23.1128    81.9401   -13.9941
 4840.5000     0.1022    10.3932     2.6406    -0.0128  -999.2500  -999.2500    22.5320    23.9247    81.6298   -21.2848
 4841.0000     0.0950    10.3923     2.6516    -0.0084  -999.2500  -999.2500    24.8271    25.8205    77.0786   -13.3665
 4841.5000     0.0880    10.3757     2.6569    -0.0070  -999.2500  -999.2500    27.7365    29.2553    73.3466     2.0448
 4842.0000     0.0795    10.3752     2.6576    -0.0147  -999.2500  -999.2500    30.9900    32.9194    65.2475    17.5274
 4842.5000     0.0753    10.3898     2.6508    -0.0193  -999.2500  -999.2500    32.3014    36.5329    60.9993   -12.5177
 4843.0000     0.0762    10.4042     2.6409    -0.0180  -999.2500  -999.2500    32.2854    36.7760    60.3889   -42.4212
 4843.5000     0.0753    10.4337     2.6492    -0.0090  -999.2500  -999.2500    31.8240    37.0230    64.0181   -42.1331
 4844.0000     0.0738    10.4484     2.6665    -0.0016  -999.2500  -999.2500    32.0337    37.5296    64.9214   -41.7845
 4844.5000     0.0723    10.4629     2.6740    -0.0032  -999.2500  -999.2500    35.0520    40.2228    61.8839   -11.2442
 4845.0000     0.0714    10.4773     2.6763    -0.0079  -999.2500  -999.2500    39.7083    47.1864    57.9388   -10.9612
 4845.5000     0.0717    10.4766     2.6679    -0.0140  -999.2500  -999.2500    39.6928    46.1999    56.4179   -55.9933
 4846.0000     0.0781    10.4761     2.6626    -0.0157  -999.2500  -999.2500    38.0553    39.0859    57.0182   -70.9095
 4846.5000     0.0896    10.4760     2.6573    -0.0158  -999.2500  -999.2500    33.7589    30.7588    62.7685   -78.1907
 4847.0000     0.1074    10.4763     2.6490    -0.0159  -999.2500  -999.2500    25.2224    22.5473    70.0355   -70.2722
 4847.5000     0.1165    10.4765     2.6406    -0.0175  -999.2500  -999.2500    20.0410    21.4701    78.2116   -39.6619
 4848.0000     0.1249    10.4767     2.6315    -0.0207  -999.2500  -999.2500    19.6194    20.8755    79.4194   -31.8146
 4848.5000     0.1277    10.4769     2.6323    -0.0208  -999.2500  -999.2500    19.3389    19.4663    80.0182   -23.9672
 4849.0000     0.1307    10.4771     2.6345    -0.0164  -999.2500  -999.2500    19.1974    19.1924    80.9201   -23.6762
 4849.5000     0.1361    10.4773     2.6367    -0.0105  -999.2500  -999.2500    18.4054    18.9223    83.3386    -8.2019
 4850.0000     0.1431    10.4776     2.6375    -0.0212  -999.2500  -999.2500    17.1619    17.4023    86.3632    -7.9189
 4850.5000     0.1564    10.4778     2.6374    -0.0333  -999.2500  -999.2500    16.0204    16.0354    90.2968   -17.6719
 4851.0000     0.1655    10.4780     2.6374    -0.0318  -999.2500  -999.2500    14.7175    14.7242    95.2180   -34.9466
 4851.5000     0.1715    10.4782     2.6374    -0.0303  -999.2500  -999.2500    14.3099    14.4192   103.0111   -38.5797
 4852.0000     0.1727    10.4784     2.6381    -0.0259  -999.2500  -999.2500    14.3061    14.6203   104.5219   -30.7032
 4852.5000     0.1661    10.4786     2.6418    -0.0214  -999.2500  -999.2500    15.1209    15.2424   103.6057   -28.4750
 4853.0000     0.1570    10.4789     2.6448    -0.0169  -999.2500  -999.2500    17.3723    16.9175   101.7817   -22.6122
 4853.5000     0.1419    10.4791     2.6486    -0.0139  -999.2500  -999.2500    20.3813    19.3067    98.7450   -22.3263
 4854.0000     0.1247    10.4793     2.6508    -0.0185  -999.2500  -999.2500    21.6924    21.7290    90.5574   -14.5112
 4854.5000     0.1190    10.4795     2.6385    -0.0216  -999.2500  -999.2500    22.1441    23.2929    81.7364   -14.1638
 4855.0000     0.1219    10.4797     2.6266    -0.0217  -999.2500  -999.2500    22.2928    22.9692    80.5443    -6.3910
 4855.5000     0.1262    10.4798     2.6296    -0.0186  -999.2500  -999.2500    21.0792    20.8363    82.3567    -6.0726
 4856.0000     0.1253    10.4941     2.6386    -0.0141  -999.2500  -999.2500    19.7947    20.2632    85.3813    -5.7866
 4856.5000     0.1223    10.4935     2.6408    -0.0157  -999.2500  -999.2500    19.1130    21.1255    85.6799    -5.4289
 4857.0000     0.1199    10.4925     2.6363    -0.0188  -999.2500  -999.2500    19.9212    21.8714    85.3697    -5.1429
