~VERSION INFORMATION
 VERS.                2.0:   CWLS LOG ASCII STANDARD - VERSION 2.0
 WRAP.                 NO:   ONE LINE PER DEPTH STEP
~WELL INFORMATION
#MNEM.UNIT      DATA TYPE    INFORMATION
#----------   ------------   ------------------------------
 STRT.F          200.0000:   START DEPTH
 STOP.F         3050.0000:   STOP DEPTH
 STEP.F            0.5000:   STEP LENGTH
 NULL.          -999.2500:   NO VALUE
 COMP.     FENIX & SISSON:   COMPANY
 WELL. FENIX & SISSON "AX" #16-28:   WELL
 FLD .              NPR 3:   FIELD
 LOC .      S28 T39N R78W:   LOCATION
 CNTY.            NATRONA:   COUNTY
 STAT.            WYOMING:   STATE
 CTRY. UNITED STATES OF AMERICA:   COUNTRY
 SRVC.      DRESSER ATLAS:   SERVICE COMPANY
 DATE.        01-JUL-1977:   LOGDATE
 API .     49025103930000:   API NUMBER
~CURVE INFORMATION
#MNEM.UNIT       API CODE    CURVE DESCRIPTION
#----------   ------------   ------------------------------
 DEPT.F                  :   
 CALD.IN     45 280 60 00:   CALIPER FROM DENSITY LOG
 GRD .GAPI   45 310 01 00:   GAMMA RAY FROM DENSITY LOG
 CORR.G/C3   45 356 01 00:   DENSITY CORRECTION
 TEND.LBS    45 635 01 00:   TENSION FROM DENSITY LOG
 SPR .MV     07 010 01 00:   SPONTANEOUS POTENTIAL
 ILD .OHMM   07 120 46 00:   DEEP INDUCTION RESISTIVITY
 ILM .OHMM   07 120 44 00:   INDUCTION LOG MEDIUM RESISTIVITY
 SFL .OHMM   07 220 01 00:   SHALLOW FOCUSED LOG RESISTIVITY
 RHOB.G/C3   45 350 01 00:   BULK DENSITY
~PARAMETER INFORMATION
#MNEM.UNIT          VALUE    DESCRIPTION
#----------   ------------   ------------------------------
 EKB .F         5067.0000:   Kelly bushing
 EGL .F         5057.0000:   Ground level
 EDF .F         5066.0000:   Drilling floor
 EPD .F            0.0000:   Permanent datum
 TD  .F         3036.0000:   Total depth
 DATE.        01-JUL-1977:   Date logged
 CLNT.            A2DTECH:   Client Code
 SL  . 1220' FSL & 330' FWL:   Surface Location
 PD  .                 GL:   Permanent Datum
 DAPD.F                10:   Feet Above Permanent Datum
 DD  .F              3034:   Depth driller
 DL  .F              3036:   Depth logger
 BLI .F              3034:   Bottom log interval
 TLI .F               214:   Top log interval
 CS1 .IN            8.625:   Casing size
 CBD1.      8.625" @ 204':   Casing driller 1
 CBL1.F               214:   Casing logger 1
 BS1 .IN            7.875:   Bit size
 BSD1.F              3034:   Depth drilled with bit1
 DFT .                KCL:   Type fluid in hole
 DFD .                  9:   Density
 DFV .                 34:   Viscosity
 DFPH.                7.2:   pH
 DFL .                8.8:   Fluid loss
 MSS .         CIRCULATED:   Source of sample
 RMS .OHMM           .112:   Rm
 MST .F                75:   Rm Meas. temp.
 RMF .OHMM           .085:   Rmf
 MFST.F                75:   Rmf Meas. temp.
 RMC .OHMM           .141:   Rmc
 MCST.F                75:   Rmc Meas. temp.
 MFSS.               MEAS:   Source Rmf.
 MCSS.               MEAS:   Source Rmc.
 RMB .OHMM           .067:   Rm. at BHT
 BHT .F               124:   BHT.
 TCS .HRS               1:   Time Circ. stopped
 MRT .F               124:   Maximum recorded temp.
 LUN .               6134:   Logging unit number
 LUL .              GLTTE:   Logging unit location
 ENGI.              GOULD:   Recorded By
 WITN.         PETTINGILL:   Witnessed by
 ORIG.       2.5"5" PRINT:   Origin of data
 UWI .     49025103930000:   Unique Well ID
 DICO. A2D TECHNOLOGIES, INC.:   Digitizing Company
~OTHER INFORMATION
~A   DEPT     CALD         GRD      CORR       TEND        SPR        ILD        ILM        SFL       RHOB   
# ...
 1514.0000     8.0230    92.6540     0.0450   -34.3120   -66.1770     7.3130    10.4470    12.0420     2.5910
 1514.5000     8.0410    92.9820     0.0470   -37.3710   -65.9570     7.3480    10.1600    12.3180     2.5930
 1515.0000     8.0600    92.0390     0.0410   -39.8310   -65.9090     7.3830     9.7770    12.7840     2.5850
 1515.5000     8.0650    91.2190     0.0350   -42.2920   -65.8640     7.4180     9.3570    12.7140     2.5770
 1516.0000     8.0530    91.2000     0.0360   -44.7520   -65.8270     7.4530     9.3570    12.3740     2.5690
 1516.5000     8.0270    91.2100     0.0400   -46.6270   -65.7860     7.5070     9.1960    12.4420     2.5610
 1517.0000     8.0120    91.3920     0.0410   -46.6270   -65.7450     7.4760     9.0480    13.0210     2.5510
 1517.5000     8.0430    91.6280     0.0280   -46.6270   -65.7040     7.4100     8.9000    12.5180     2.5340
 1518.0000     8.0740    92.9240     0.0150   -46.6270   -65.6670     7.3430     8.6950    11.7460     2.5150
 1518.5000     8.0850    93.7480     0.0070   -43.0700   -65.6190     7.2770     8.9610    11.4510     2.4980
 1519.0000     8.0770    93.7390     0.0000   -39.5550   -65.5870     7.2330     9.3920    11.6690     2.4830
 1519.5000     8.0330    92.7930    -0.0010   -36.0400   -65.5790     7.2220     9.8230    12.2150     2.4700
 1520.0000     8.0080    91.4690     0.0000   -32.5260   -65.9440     7.2140    10.4470    12.7840     2.4620
 1520.5000     8.0160    91.1960     0.0090   -29.0110   -66.2460     7.2050    10.4100    14.0130     2.5050
 1521.0000     8.0230    91.6840     0.0250   -29.7950   -66.5770     7.1950    10.3440    13.6770     2.5590
 1521.5000     8.0300    92.3030     0.0220   -37.9960   -66.9280     7.1850    10.2780    12.7840     2.5440
 1522.0000     8.0370    92.2580     0.0160   -46.1970   -67.1100     7.1760    10.2120    13.2620     2.5290
 1522.5000     8.0430    92.0010     0.0100   -54.3980   -66.9620     7.1660    10.1450    12.9880     2.5320
 1523.0000     8.0640    92.6920     0.0050   -62.5990   -66.8490     7.1570    10.0700    12.4260     2.5290
 1523.5000     8.0880    93.3620     0.0070   -64.7350   -66.7280     7.1470    10.1840    11.8640     2.5330
 1524.0000     8.0970    92.5840     0.0080   -61.4550   -66.6040     7.1380    10.3160    11.6630     2.5320
 1524.5000     8.0690    91.7140     0.0100   -58.1750   -66.4850     7.1280    10.4470    11.6630     2.5280
 1525.0000     8.0460    91.9740     0.0120   -52.6320   -66.3630     7.1190    10.1840    12.3420     2.5250
 1525.5000     8.0700    91.7820     0.0140   -44.8620   -66.2420     7.1090     9.9260    13.0210     2.5340
 1526.0000     8.1190    90.7340     0.0200   -37.0930   -66.1210     7.1050     9.6680    12.1600     2.5350
 1526.5000     8.1440    90.2600     0.0260   -29.3230   -66.0000     7.1050     9.4100    11.2430     2.5320
 1527.0000     8.1120    90.3830     0.0320   -31.5190   -65.8920     7.1050     9.1870    11.2430     2.5430
 1527.5000     8.0750    91.7240     0.0400   -38.5490   -65.7950     7.1050     9.0710    11.7660     2.5510
 1528.0000     8.0380    93.3380     0.0440   -45.5780   -65.6980     7.1050     8.9690    12.5520     2.5560
 1528.5000     8.0260    92.7950     0.0440   -52.6080   -65.6020     7.1050     8.8560    12.4170     2.5600
 1529.0000     8.0260    92.1940     0.0400   -55.2750   -65.5030     7.1050     8.9360    11.9570     2.5570
 1529.5000     8.0260    93.2110     0.0350   -52.3810   -65.4080     7.1050     9.0270    11.2430     2.5500
 1530.0000     8.0260    94.2030     0.0320   -49.4860   -65.3140     7.1050     9.1620    11.3510     2.5600
 1530.5000     8.0260    94.5430     0.0350   -46.5920   -65.1960     7.1050     9.1410    11.5920     2.5700
 1531.0000     8.0260    93.7770     0.0430   -43.6970   -65.2980     7.1050     8.9420    11.8340     2.5810
 1531.5000     8.0260    93.0420     0.0510   -40.8030   -65.6910     7.1050     8.7420    12.0760     2.5850
 1532.0000     8.0260    92.5860     0.0570   -37.9080   -66.0530     7.1050     8.5370    12.3230     2.5990
 1532.5000     8.0260    92.8190     0.0570   -36.7060   -66.4330     7.1050     8.3810    12.2050     2.6000
 1533.0000     8.0260    93.4460     0.0530   -36.7060   -66.8030     7.1050     8.5050    12.0830     2.5910
 1533.5000     8.0220    93.3970     0.0490   -36.7060   -67.1010     7.1050     8.8580    11.8790     2.5940
 1534.0000     8.0180    93.0980     0.0450   -36.7060   -66.9200     7.1050     9.2120    12.0200     2.5850
 1534.5000     8.0140    92.7930     0.0410   -36.7060   -66.7570     7.1050     9.5310    12.6880     2.5750
 1535.0000     8.0100    92.5540     0.0360   -36.7060   -66.5720     7.1050     9.1470    12.5700     2.5700
 1535.5000     8.0060    93.8340     0.0340   -37.9630   -66.4050     7.0820     8.7980    11.8160     2.5780
 1536.0000     8.0060    94.9660     0.0410   -40.3060   -66.2590     7.0560     8.5370    10.6400     2.5870
 1536.5000     8.0060    93.9020     0.0430   -42.6490   -66.1240     7.0310     8.6410    10.9320     2.5890
 1537.0000     8.0060    92.5350     0.0380   -44.9920   -65.9950     7.0070     8.8780    11.4510     2.5750
 1537.5000     8.0060    91.8770     0.0340   -47.5570   -65.8660     6.9810     9.1150    11.4510     2.5780
 1538.0000     8.0060    92.5120     0.0290   -50.6320   -65.7380     7.1760     9.3530    11.4510     2.5560
 1538.5000     8.0060    92.3970     0.0270   -53.7080   -65.6040     7.3680     9.5900    12.4350     2.5550
 1539.0000     8.0060    92.0080     0.0290   -56.5480   -65.5460     7.5640     9.8870    13.9100     2.5570
 1539.5000     8.0060    91.7500     0.0330   -39.9930   -65.5510     7.7600     9.8820    13.7030     2.5670
 1540.0000     8.0060    91.6250     0.0350   -24.6160   -65.5520     7.9320     9.8660    13.5080     2.5730
 1540.5000     8.0060    92.1180     0.0320    -9.2390   -65.5490     7.9320     9.8500    13.5080     2.5690
 1541.0000     8.0060    92.9140     0.0270    -6.9440   -65.5510     7.8690     9.8340    13.5080     2.5620
 1541.5000     8.0060    92.9810     0.0230    -6.9440   -65.5550     7.7420     9.8180    12.8900     2.5560
 1542.0000     8.0060    93.2010     0.0260   -25.4870   -65.5360     7.6160     9.8030    12.3230     2.5580
 1542.5000     8.0060    93.7290     0.0330   -43.3800   -65.7050     7.4890     9.7870    11.6630     2.5680
 1543.0000     8.0060    92.3930     0.0320   -50.6550   -65.9890     7.3620     9.7710    12.0990     2.5730
 1543.5000     8.0060    92.4510     0.0250   -55.5750   -66.2540     7.2350     9.7540    12.0070     2.5640
 1544.0000     8.0060    92.8690     0.0230   -24.9600   -66.5160     7.1080     9.7390    11.8790     2.5690
 1544.5000     8.0060    92.1450     0.0270   -16.8650   -66.7270     6.9810     9.7250    13.2620     2.5730
 1545.0000     8.0060    91.4530     0.0240   -29.0180   -66.7320     6.8490     9.7090    12.8990     2.5500
 1545.5000     8.0050    91.0080     0.0060   -41.3190   -66.7320     6.8910     9.7890    11.2430     2.5050
 1546.0000     8.0040    91.9260    -0.0110   -45.5650   -66.7230     6.9350     9.8720    11.3570     2.4510
 1546.5000     8.0040    92.5700    -0.0280   -42.6700   -66.5210     6.9790     9.9560    11.6630     2.4080
 1547.0000     8.0030    91.7380    -0.0330   -39.7760   -66.2950     7.0230    10.0420    11.6630     2.4260
 1547.5000     8.0020    90.8480     0.0150   -36.7060   -66.0640     7.0670    10.1260    11.6630     2.5710
 1548.0000     8.0010    90.9560     0.0360   -42.1450   -65.8390     7.1110    10.2110    11.8790     2.5790
 1548.5000     8.0000    91.1250     0.0360   -47.9340   -65.6080     7.1540    10.3160    11.9650     2.5730
 1549.0000     7.9990    91.2840     0.0290   -53.7230   -65.3830     7.1980    10.4460    12.0640     2.5620
 1549.5000     7.9990    91.4330     0.0190   -52.5220   -65.1670     7.2420    10.5760    12.1640     2.5550
 1550.0000     7.9980    91.5890     0.0200   -44.6600   -65.2110     7.2860    10.7060    12.2630     2.5550
