~VERSION INFORMATION
 VERS.                2.0:   CWLS LOG ASCII STANDARD - VERSION 2.0
 WRAP.                 NO:   ONE LINE PER DEPTH STEP
~WELL INFORMATION
#MNEM.UNIT      DATA TYPE    INFORMATION
#----------   ------------   ------------------------------
 STRT.F          213.5000:   START DEPTH
 STOP.F         3198.0000:   STOP DEPTH
 STEP.F            0.5000:   STEP LENGTH
 NULL.          -999.2500:   NO VALUE
 COMP.    FENIX & SCISSON:   COMPANY
 WELL.   FENIX "AX" #14-2:   WELL
 FLD .              NPR-3:   FIELD
 LOC .       S2 T38N R78W:   LOCATION
 CNTY.            NATRONA:   COUNTY
 STAT.            WYOMING:   STATE
 CTRY. UNITED STATES OF AMERICA:   COUNTRY
 SRVC.              WELEX:   SERVICE COMPANY
 DATE.        14-MAY-1977:   LOGDATE
 API .     49025103620000:   API NUMBER
~CURVE INFORMATION
#MNEM.UNIT       API CODE    CURVE DESCRIPTION
#----------   ------------   ------------------------------
 DEPT.F                  :   
 GRD .GAPI   45 310 01 00:   GAMMA RAY FROM DENSITY LOG
 CALD.IN     45 280 60 00:   CALIPER FROM DENSITY LOG
 CORR.G/C3   45 356 01 00:   DENSITY CORRECTION
 RHOB.G/C3   45 350 01 00:   BULK DENSITY
 SPR .MV     07 010 01 00:   SPONTANEOUS POTENTIAL FROM RES.
 ILD .OHMM   07 120 46 00:   DEEP INDUCTION RESISTIVITY
 ILM .OHMM   07 120 44 00:   INDUCTION LOG MEDIUM RESISTIVITY
 SGRD.OHMM   07 220 05 00:   SHALLOW SHORT GUARD RESISTIVITY
~PARAMETER INFORMATION
#MNEM.UNIT          VALUE    DESCRIPTION
#----------   ------------   ------------------------------
 EKB .F         5119.0000:   Kelly bushing
 EGL .F         5110.0000:   Ground level
 TD  .F         3200.0000:   Total depth
 CLNT.            A2DTECH:   Client Code
 SL  . 2400' FNL & 150' FWL:   Surface Location
 PD  .                 GL:   Permanent Datum
 EPD .F              5110:   Elevation Permanent Datum
 LMF .                 KB:   Log Measured From
 DMF .                 KB:   Drilling Measured From
 DAPD.F                 9:   Feet Above Permanent Datum
 DATE.        14-MAY-1977:   Date Logged [DD-MMM-YYYY]
 DD  .F              3200:   Depth driller
 DL  .F              3199:   Depth logger
 BLI .F              3197:   Bottom log interval
 TLI .F               217:   Top log interval
 CS1 .IN            8.625:   Casing size
 BS1 .IN            7.875:   Bit size
 BSD1.F              3200:   Depth drilled with bit1
 DFT .            KCL MUD:   Type fluid in hole
 DFD .                8.8:   Density
 TCS .HRS             2.5:   Time Circ. stopped
 MRT .F               130:   Maximum recorded temp.
 ENGI.          T. JOYNER:   Recorded By
 WITN.      W. PETTINGILL:   Witnessed by
 ORIG.           5" PRINT:   Origin of data
 UWI .     49025103620000:   Unique Well ID
 DICO. A2D TECHNOLOGIES, INC.:   Digitizing Company
 DFV .                 31:   Viscosity
 DFPH.                7.5:   pH
 DFL .                6.4:   Fluid loss
 MSS .          FLOW LINE:   Source of sample
 RMS .OHMM            .13:   Rm
 MST .F               62.:   Rm Meas. temp.
 RMF .OHMM            .12:   Rmf
 MFST.F                62:   Rmf Meas. temp.
 MFSS.           FANN KIT:   Source Rmf.
 RMC .OHMM            .28:   Rmc
 MCST.F                62:   Rmc Meas. temp.
 RMB .OHMM            .06:   Rm. at BHT
 BHT .F               130:   BHT.
~OTHER INFORMATION
~A   DEPT      GRD       CALD       CORR       RHOB        SPR        ILD        ILM       SGRD   
# ...
 2967.5000   165.7979     8.1971     0.0767     2.5239   -51.7369     2.7902     3.7536     5.1398
 2968.0000   146.9394     8.1979     0.0783     2.5315   -51.7160     2.9793     3.8280     6.0292
 2968.5000   135.8962     8.1987     0.0754     2.5278   -51.8054     3.2581     4.0051     6.5562
 2969.0000   129.9353     8.1996     0.0725     2.5240   -51.8203     3.5506     4.2368     6.7513
 2969.5000   125.7681     8.2150     0.0728     2.5211   -51.6455     3.7330     4.4296     6.9881
 2970.0000   122.4978     8.2158     0.0772     2.5302   -51.4761     3.9126     4.6117     7.0422
 2970.5000   122.6804     8.2312     0.0818     2.5377   -51.4546     4.0227     4.7827     6.9506
 2971.0000   125.8256     8.2319     0.0879     2.5468   -51.4330     4.1074     4.9516     6.7678
 2971.5000   127.9364     8.2474     0.0864     2.5468   -51.2648     4.1577     4.9556     6.5612
 2972.0000   129.7483     8.2334     0.0850     2.5439   -51.2426     4.2234     4.9253     6.3260
 2972.5000   131.2612     8.2341     0.0851     2.5409   -51.2188     4.2237     4.9283     6.2002
 2973.0000   131.5783     8.2350     0.0852     2.5379   -51.1982     4.2871     4.8988     6.0790
 2973.5000   131.8954     8.2357     0.0853     2.5306   -51.1740     4.3195     4.8363     6.0851
 2974.0000   135.5011     8.2363     0.0854     2.5239   -51.0059     4.2353     4.8152     6.1432
 2974.5000   137.6271     8.2371     0.0855     2.5292   -50.9831     4.1518     4.7704     6.2656
 2975.0000   138.2279     8.2378     0.0856     2.5322   -50.9597     4.0420     4.6502     6.3871
 2975.5000   137.0548     8.2533     0.0857     2.5263   -50.9382     3.9348     4.5125     6.4689
 2976.0000   137.6709     8.2541     0.0858     2.5203   -50.9167     3.8014     4.3795     6.4566
 2976.5000   141.2765     8.2549     0.0859     2.5174   -50.8950     3.6537     4.2310     6.2800
 2977.0000   147.2737     8.2556     0.0860     2.5197   -50.8728     3.5325     4.1186     5.7702
 2977.5000   151.7762     8.2711     0.0845     2.5160   -50.8468     3.4391     4.0092     5.2624
 2978.0000   156.5776     8.2718     0.0816     2.5086   -50.8253     3.3481     3.9572     4.9152
 2978.5000   161.6780     8.2726     0.0787     2.5019   -50.8062     3.1926     3.8797     4.4969
 2979.0000   169.5596     8.2733     0.0743     2.4952   -50.7840     3.0443     3.8552     4.0298
 2979.5000   175.4707     8.2740     0.0699     2.4900   -50.7618     2.9637     3.7986     3.6615
 2980.0000   182.1187     8.2749     0.0700     2.4923   -50.7357     2.9662     3.7566     3.5026
 2980.5000   191.3640     8.2904     0.0731     2.5024   -50.7142     3.0333     3.6823     3.3512
 2981.0000   197.9697     8.2911     0.0762     2.5134   -50.6945     3.1408     3.6598     3.2645
 2981.5000   200.9881     8.3065     0.0823     2.5329   -50.6731     3.2317     3.6358     3.2897
 2982.0000   186.0716     8.3073     0.0884     2.5479   -50.6509     3.2794     3.6664     4.2214
 2982.5000   167.5653     8.3080     0.0899     2.5532   -50.4784     3.3510     4.0997     6.0496
 2983.0000   150.2548     8.3235     0.0885     2.5548   -50.4569     3.4718     4.5525     6.8085
 2983.5000   139.7299     8.3265     0.0856     2.5511   -50.2875     3.5721     5.0203     7.0048
 2984.0000   132.0835     8.3399     0.0827     2.5473   -50.2663     3.7009     5.3108     7.1079
 2984.5000   129.7207     8.3406     0.0798     2.5445   -50.2441     4.1088     5.5793     7.1137
 2985.0000   128.2547     8.3413     0.0769     2.5430   -50.2212     4.4404     5.7011     7.0717
 2985.5000   127.3795     8.3568     0.0770     2.5393   -50.1997     4.5351     5.8365     6.9716
 2986.0000   126.8104     8.3723     0.0771     2.5319   -50.0284     4.5389     6.1213     6.9365
 2986.5000   126.2485     8.3730     0.0771     2.5237   -50.0074     4.5742     6.2549     7.1379
 2987.0000   126.2780     8.3885     0.0818     2.5147   -49.9852     4.5781     6.3035     7.4458
 2987.5000   126.3133     8.4041     0.0868     2.5238   -49.9621     4.5819     6.2650     7.6077
 2988.0000   126.0360     8.4048     0.0970     2.5353   -49.9408     4.5858     6.1825     7.5094
 2988.5000   125.1751     8.4056     0.1015     2.5336   -49.9186     4.5896     6.1451     7.3614
 2989.0000   124.5988     8.4063     0.0956     2.5284   -49.8922     4.6254     6.1509     7.2163
 2989.5000   123.4390     8.4070     0.0897     2.5337   -49.8707     4.5974     6.1134     7.0754
 2990.0000   124.6637     8.4077     0.0898     2.5428   -49.8492     4.6022     6.1329     6.8408
 2990.5000   126.2331     8.3936     0.0989     2.5511   -49.8277     4.6061     6.1664     6.7738
 2991.0000   126.8212     8.3945     0.1050     2.5579   -49.8077     4.6099     6.1715     6.6944
 2991.5000   127.1490     8.3952     0.0961     2.5526   -49.7855     4.6138     6.2199     6.6703
 2992.0000   127.7757     8.4107     0.0931     2.5430   -49.7632     4.5849     6.3118     6.6764
 2992.5000   128.7014     8.4114     0.0902     2.5415   -49.7411     4.5572     6.4051     6.6814
 2993.0000   130.2249     8.4122     0.0903     2.5408   -49.7148     4.5304     6.5255     6.7127
 2993.5000   131.4953     8.4129     0.0919     2.5386   -49.6967     4.5031     6.7356     6.8334
 2994.0000   133.8772     8.4136     0.0950     2.5477   -49.6746     4.4758     6.7879     6.8389
 2994.5000   131.5144     8.4143     0.0998     2.5560   -49.6502     4.3885     6.9361     6.9396
 2995.0000   130.0484     8.4300     0.1072     2.5628   -49.6302     4.3611     6.9417     7.0417
 2995.5000   128.8814     8.4454     0.1178     2.5689   -49.6080     4.3048     6.5726     6.9989
 2996.0000   126.2197     8.4609     0.1239     2.5614   -49.5821     4.2787     6.2231     6.6281
 2996.5000   122.0631     8.4616     0.1210     2.5562   -49.5636     4.1655     5.9306     6.0177
 2997.0000   124.6659     8.4771     0.1091     2.5525   -49.5373     3.9728     5.5800     5.7837
 2997.5000   131.6945     8.4778     0.1016     2.5466   -49.3679     3.7363     5.1389     5.6307
 2998.0000   135.0046     8.4786     0.1062     2.5391   -49.3491     3.5382     4.5399     5.5186
 2998.5000   131.1542     8.5090     0.1003     2.5317   -49.3249     3.2545     3.8207     5.2999
 2999.0000   132.0799     8.5245     0.1079     2.5263   -49.3034     2.9821     3.3988     4.9846
 2999.5000   138.3867     8.5400     0.1125     2.5108   -49.4305     2.7661     3.1519     4.6558
 3000.0000   150.3737     8.5555     0.1081     2.4974   -49.4083     2.5656     3.0260     3.6593
 3000.5000   163.6030     8.5709     0.0977     2.4810   -49.3861     2.4972     2.8205     2.9788
 3001.0000   181.8428     8.6012     0.0858     2.4720   -49.5132     2.4821     2.6574     2.6128
 3001.5000   197.1259     8.6019     0.0738     2.5103   -49.4863     2.5721     2.8902     2.8022
 3002.0000   199.2550     8.6176     0.0890     2.5373   -49.7607     2.7019     3.5120     3.7476
 3002.5000   199.5905     8.6183     0.0966     2.5531   -49.7392     2.8580     3.9487     4.5818
 3003.0000   175.7106     8.6190     0.0997     2.5694   -49.7176     3.0904     4.0882     5.2279
 3003.5000   157.6882     8.6197     0.1023     2.5809   -49.6961     3.3918     4.2453     5.8428
 3004.0000   139.2694     8.6204     0.1053     2.5742   -49.6887     3.7014     5.0176     6.3085
 3004.5000   125.6049     8.6222     0.1047     2.5743   -49.6955     3.9424     5.3079     6.7692
 3005.0000   123.2497     8.6241     0.1018     2.5698   -49.7023     4.5940     5.4321     7.0074
 3005.5000   120.2966     8.6260     0.1004     2.5654   -49.7090     4.8258     5.5808     6.7769
 3006.0000   117.3436     8.6279     0.1006     2.5594   -49.7158     4.8634     5.6659     6.3980
 3006.5000   114.6895     8.6300     0.1022     2.5519   -49.7226     4.8675     5.7629     6.2032
 3007.0000   115.0248     8.6312     0.1038     2.5483   -49.7294     4.8380     5.7927     5.9971
 3007.5000   118.0508     8.6172     0.1084     2.5506   -49.7361     4.8087     5.7176     5.8480
