~VERSION INFORMATION
 VERS.                2.0:   CWLS LOG ASCII STANDARD - VERSION 2.0
 WRAP.                 NO:   ONE LINE PER DEPTH STEP
~WELL INFORMATION
#MNEM.UNIT      DATA TYPE    INFORMATION
#----------   ------------   ------------------------------
 STRT.F          540.0000:   START DEPTH
 STOP.F         4100.0000:   STOP DEPTH
 STEP.F            0.5000:   STEP LENGTH
 NULL.          -999.2500:   NO VALUE
 COMP. LAWRENCE ALISON & ASSOC.,WEST:   COMPANY
 WELL. LAWRENCE "X" #15-11:   WELL
 FLD .              N P R:   FIELD
 LOC .      S11 T38N R78W:   LOCATION
 CNTY.            NATRONA:   COUNTY
 STAT.            WYOMING:   STATE
 CTRY. UNITED STATES OF AMERICA:   COUNTRY
 SRVC.      DRESSER ATLAS:   SERVICE COMPANY
 DATE.        18-MAY-1985:   LOGDATE
 API .     49025110220000:   API NUMBER
~CURVE INFORMATION
#MNEM.UNIT       API CODE    CURVE DESCRIPTION
#----------   ------------   ------------------------------
 DEPT.F                  :   
 NPHI.DEC    42 890 03 00:   NEUTRON POROSITY SANDSTONE
 RHOB.G/C3   45 350 01 00:   BULK DENSITY
 CORR.G/C3   45 356 01 00:   DENSITY CORRECTION
 TEND.LBS    45 635 01 00:   TENSION FROM DENSITY LOG
 GRD .GAPI   45 310 01 00:   GAMMA RAY FROM DENSITY LOG
 CALD.IN     45 280 60 00:   CALIPER FROM DENSITY LOG
 SPR .MV     07 010 01 00:   SPONTANEOUS POTENTIAL
 RILD.OHMM   07 120 46 00:   DEEP INDUCTION RESISTIVITY
 RILM.OHMM   07 120 44 00:   INDUCTION LOG MEDIUM RESISTIVITY
 RFOC.OHMM   07 220 04 00:   RESISTIVITY FOCUSED LOG RES.
 TENR.LBS    07 635 01 00:   TENSION FROM RESISTIVITY
~PARAMETER INFORMATION
#MNEM.UNIT          VALUE    DESCRIPTION
#----------   ------------   ------------------------------
 EKB .F         5201.0000:   Kelly bushing
 EGL .F         5189.0000:   Ground level
 EDF .F         5200.0000:   Drilling floor
 TD  .F         4095.0000:   Total depth
 DATE.        18-MAY-1985:   Date logged
 CLNT.            A2DTECH:   Client Code
 SL  . 2203' FSL & 377' FWL:   Surface Location
 PD  .                 GL:   Permanent Datum
 EPD .F              5189:   Elevation Permanent Datum
 LMF .                 KB:   Log Measured From
 DMF .                 KB:   Drilling Measured From
 DAPD.F                12:   Feet Above Permanent Datum
 DD  .F              4095:   Depth driller
 DL  .F              4093:   Depth logger
 BLI .F              4091:   Bottom log interval
 TLI .F                 0:   Top log interval
 CS1 .IN            8.625:   Casing size
 CBD1.      8.625" @ 565':   Casing driller 1
 CBL1.F               565:   Casing logger 1
 BS1 .IN            7.875:   Bit size
 BSD1.F              4095:   Depth drilled with bit1
 DFT .            GEL KCL:   Type fluid in hole
 DFD .                9.2:   Density
 DFV .                 40:   Viscosity
 DFPH.                8.0:   pH
 DFL .                9.0:   Fluid loss
 MSS .            MUDTANK:   Source of sample
 RMS .OHMM            .57:   Rm
 MST .F                69:   Rm Meas. temp.
 RMF .OHMM            .49:   Rmf
 MFST.F                69:   Rmf Meas. temp.
 RMC .OHMM            .71:   Rmc
 MCST.F                69:   Rmc Meas. temp.
 MFSS.               MEAS:   Source Rmf.
 MCSS.               CALC:   Source Rmc.
 RMB .OHMM            .30:   Rm. at BHT
 BHT .F               139:   BHT.
 TCS .HRS               4:   Time Circ. stopped
 MRT .F               139:   Maximum recorded temp.
 LUN .            HL 6302:   Logging unit number
 LUL .               CODY:   Logging unit location
 ENGI.              GETTY:   Recorded By
 WITN.              FIVAS:   Witnessed by
 ORIG.           5" PRINT:   Origin of data
 UWI .     49025110220000:   Unique Well ID
 DICO. A2D TECHNOLOGIES, INC.:   Digitizing Company
~OTHER INFORMATION
~A   DEPT     NPHI       RHOB       CORR        TEND        GRD      CALD        SPR       RILD       RILM       RFOC       TENR   
# ...
 3803.5000     0.3090     2.6150     0.0520   -42.6780    94.5340     9.1670    -5.3630     3.1220     3.2510     6.1650   -55.8300
 3804.0000     0.2960     2.5990     0.0400   -45.5870    99.2590     9.1700    -5.4900     2.9410     3.0720     5.0520   -66.6500
 3804.5000     0.3150     2.5800     0.0280   -41.0680   104.6470     9.1740    -5.9490     2.7590     2.8920     3.6620   -52.0040
 3805.0000     0.3320     2.5630     0.0180   -35.2500   105.3190     9.1780    -6.3950     2.6860     2.7590     3.4040   -38.2940
 3805.5000     0.3420     2.5560     0.0170   -29.4320   105.8460     9.1490    -6.8360     2.6130     2.7590     3.4320   -24.5840
 3806.0000     0.3530     2.5540     0.0170   -26.1190   105.5510     9.1150    -7.2780     2.5880     2.8110     3.4930   -29.3860
 3806.5000     0.3610     2.5470     0.0170   -30.6630   104.9620     9.0810    -7.7390     2.5930     2.8600     3.5540   -38.7870
 3807.0000     0.3460     2.5340     0.0180   -36.1580   105.6910     9.0470    -7.6340     2.5990     2.9090     3.6150   -48.1880
 3807.5000     0.3340     2.5220     0.0240   -41.6530   108.0700     9.0130    -7.3360     2.6040     2.9580     3.7200   -57.5890
 3808.0000     0.3300     2.5200     0.0550   -55.9700   108.8350     8.9790    -7.0480     2.6100     2.9950     3.9630   -66.6500
 3808.5000     0.3370     2.5440     0.0670   -53.5240   105.5860     8.9630    -6.7530     2.6160     2.8910     4.1990   -45.3420
 3809.0000     0.3440     2.5830     0.0780   -32.9190   103.8950     8.9760    -6.4730     2.6210     2.7990     4.1990   -24.7770
 3809.5000     0.3420     2.5990     0.0890   -18.7400   104.2130     8.9880    -6.1930     2.6270     2.7090     4.1990   -23.6060
 3810.0000     0.3390     2.5820     0.0660   -32.4770   107.4780     9.0010    -5.9120     2.6360     2.7800     3.7160   -33.9970
 3810.5000     0.3540     2.5520     0.0580   -46.2130   109.1910     9.0130    -5.6900     2.6180     2.9140     3.2520   -44.3870
 3811.0000     0.3700     2.5650     0.0500   -59.9500   107.6420     9.0260    -6.1810     2.5750     2.8620     3.1640   -54.7780
 3811.5000     0.3780     2.5800     0.0430   -65.9200   105.9490     9.0390    -6.6600     2.5320     2.7770     3.5990   -48.9810
 3812.0000     0.3690     2.5950     0.0300   -65.9200   106.8860     9.0510    -7.1390     2.4890     2.6930     4.1990   -52.5060
 3812.5000     0.3560     2.6000     0.0150   -70.2410   108.5380     9.0640    -7.6310     2.4450     2.6090     4.0720   -56.0310
 3813.0000     0.3420     2.5820     0.0110   -78.0490   108.6620     9.0760    -7.5090     2.4120     2.5250     3.7540   -59.5570
 3813.5000     0.3290     2.5690     0.0170   -85.8580   108.3530     9.0890    -7.3400     2.3730     2.4060     3.4350   -63.0820
 3814.0000     0.3270     2.5610     0.0230   -93.6660   108.0750     9.1020    -7.1740     2.3330     2.4500     3.3220   -66.6500
 3814.5000     0.3320     2.5600     0.0300   -87.0480   109.7300     9.1140    -7.0080     2.2930     2.4290     3.2080   -64.2120
 3815.0000     0.3320     2.5640     0.0360   -70.5640   109.5130     9.1150    -6.8420     2.2370     2.3840     3.0940   -61.7440
 3815.5000     0.3250     2.5680     0.0430   -54.0800   107.8130     9.1070    -6.6770     2.2380     2.4160     3.0230   -59.2770
 3816.0000     0.3190     2.5720     0.0530   -47.8250   105.9650     9.0990    -6.5110     2.2420     2.4570     3.1530   -56.7390
 3816.5000     0.3180     2.5650     0.0740   -51.3570   105.3020     9.0920    -6.3450     2.2450     2.4980     3.2640   -56.7390
 3817.0000     0.3320     2.5550     0.0790   -54.8900   106.2950     9.0840    -6.1800     2.2480     2.5390     3.3420   -56.7390
 3817.5000     0.3440     2.5550     0.0690   -52.4880   107.2560     9.0760    -6.0140     2.2510     2.5650     3.3730   -48.0900
 3818.0000     0.3460     2.5690     0.0580   -45.4230   108.2130     9.0680    -5.8470     2.2540     2.5280     3.2920   -39.1160
 3818.5000     0.3420     2.5860     0.0530   -38.3580   108.9320     9.0610    -5.6700     2.2570     2.5100     3.2020   -39.7840
 3819.0000     0.3390     2.6020     0.0620   -40.8460   108.9300     9.0320    -5.8300     2.2080     2.4920     3.1070   -43.5810
 3819.5000     0.3520     2.6210     0.0960   -47.9100   107.7880     8.9950    -6.0630     2.1570     2.4730     3.1420   -47.3770
 3820.0000     0.3650     2.6400     0.1420   -54.9750   106.3620     8.9530    -6.2970     2.1060     2.4150     3.2220   -51.1740
 3820.5000     0.3780     2.6620     0.1510   -62.0400   109.1700     8.8110    -6.5310     2.0550     2.3550     3.1500   -54.9710
 3821.0000     0.3710     2.6440     0.0950   -66.3750   113.9680     8.6680    -6.7650     2.0420     2.2940     3.0230   -58.7670
 3821.5000     0.3490     2.6090     0.0530   -67.3850   119.3600     8.6200    -7.0000     2.0640     2.2160     2.8960   -62.5640
 3822.0000     0.3270     2.5740     0.0320   -68.3940   122.6420     8.6200    -7.2490     2.0800     2.2910     2.8100   -66.3600
 3822.5000     0.3110     2.5680     0.0230   -69.4030   125.9670     8.6200    -7.6520     2.0980     2.3930     2.8580   -70.1570
 3823.0000     0.3070     2.5730     0.0330   -70.4120   127.6620     8.6200    -8.0890     2.1790     2.4950     2.9500   -73.9540
 3823.5000     0.3040     2.5800     0.0510   -71.4210   125.7870     8.6170    -8.5270     2.2670     2.5970     3.0510   -77.7500
 3824.0000     0.3080     2.5970     0.0550   -72.4310   119.1600     8.5450    -8.9650     2.3630     2.7090     3.3330   -81.5470
 3824.5000     0.3100     2.6140     0.0590   -73.4400   112.6340     8.4690    -9.4030     2.6010     2.8790     3.6910   -85.3430
 3825.0000     0.2990     2.6170     0.0600   -74.4490   108.8230     8.4360    -9.8410     2.8640     3.1190     3.7980   -75.6320
 3825.5000     0.2860     2.6020     0.0570   -75.4580   111.5340     8.4270   -10.2790     3.1260     3.3590     3.6040   -60.2080
 3826.0000     0.2710     2.5860     0.0540   -64.1690   113.0110     8.4200   -10.7170     3.3890     3.6000     3.4980   -44.7840
 3826.5000     0.2570     2.5830     0.0460   -44.3880   108.9720     8.4200   -11.1550     3.6280     3.8400     4.5510   -37.8850
 3827.0000     0.2540     2.5960     0.0340   -37.2640   106.1160     8.4190   -11.5940     3.6780     4.0430     5.3650   -39.8590
 3827.5000     0.2570     2.6090     0.0210   -39.3240   103.3360     8.4180   -12.0310     3.7340     4.1230     5.6230   -41.8330
 3828.0000     0.2680     2.6070     0.0010   -41.3850   103.7140     8.4180   -12.4240     3.7910     4.1610     5.3630   -43.8080
 3828.5000     0.2860     2.5980     0.0100   -43.4450   106.8130     8.4170   -12.4840     3.7980     4.0610     5.0670   -45.7820
 3829.0000     0.2780     2.5970     0.0430   -45.5060   109.9160     8.4170   -12.5360     3.7390     3.9130     4.7710   -51.4670
 3829.5000     0.2630     2.5970     0.0540   -61.9260   111.2850     8.4160   -12.5850     3.6130     3.7640     4.4750   -61.3380
 3830.0000     0.2590     2.5930     0.0560   -83.1200   111.3170     8.4150   -12.5240     3.4870     3.6160     4.2750   -80.8970
 3830.5000     0.2720     2.5900     0.0570  -105.7210   112.4430     8.4150   -12.1370     3.3610     3.5350     4.1210  -111.7440
 3831.0000     0.2740     2.6040     0.0670  -109.9190   113.6960     8.4140   -11.7630     3.2350     3.4650     3.9750  -113.1880
 3831.5000     0.2730     2.6210     0.0870  -114.4140   113.7150     8.4140   -11.3890     3.1090     3.3950     3.9750  -109.6630
 3832.0000     0.2820     2.6390     0.0770  -118.9100   113.5570     8.4130   -11.0140     2.9830     3.3420     4.0910  -106.2930
 3832.5000     0.2920     2.6510     0.0560  -123.4060   114.7910     8.4130   -10.6400     2.8570     3.1490     4.1840  -111.4470
 3833.0000     0.2970     2.6190     0.0270  -112.3470   117.8210     8.4120   -10.2660     2.6850     2.9630     4.1990  -116.2040
 3833.5000     0.3020     2.5900     0.0170   -86.1660   121.2100     8.4110    -9.8910     2.6890     2.7090     3.9400   -77.8490
