~VERSION INFORMATION
 VERS.                2.0:   CWLS LOG ASCII STANDARD - VERSION 2.0
 WRAP.                 NO:   ONE LINE PER DEPTH STEP
~WELL INFORMATION
#MNEM.UNIT      DATA TYPE    INFORMATION
#----------   ------------   ------------------------------
 STRT.F          330.0000:   START DEPTH
 STOP.F         2880.0000:   STOP DEPTH
 STEP.F            0.5000:   STEP LENGTH
 NULL.          -999.2500:   NO VALUE
 COMP.   TESORO PETROLEUM:   COMPANY
 WELL. TESORO NPR "AX" #3-21:   WELL
 FLD .        TEAPOT DOME:   FIELD
 LOC .      S21 T39N R78W:   LOCATION
 CNTY.            NATRONA:   COUNTY
 STAT.            WYOMING:   STATE
 CTRY. UNITED STATES OF AMERICA:   COUNTRY
 SRVC.       SCHLUMBERGER:   SERVICE COMPANY
 DATE.        17-AUG-1972:   LOGDATE
 API .     49025102150000:   API NUMBER
~CURVE INFORMATION
#MNEM.UNIT       API CODE    CURVE DESCRIPTION
#----------   ------------   ------------------------------
 DEPT.F                  :   
 GRD .GAPI   45 310 01 00:   GAMMA RAY FROM DENSITY LOG
 CALD.IN     45 280 60 00:   CALIPER FROM DENSITY LOG
 CORR.G/C3   45 356 01 00:   DENSITY CORRECTION
 RHOB.G/C3   45 350 01 00:   BULK DENSITY
 SPR .MV     05 010 01 00:   SPONTANEOUS POTENTIAL FROM RES.
 ILD .OHMM   05 120 46 00:   INDUCTION LOG DEEP
 ASN .OHMM   05 041 16 00:   AMPLIFIED SHORT NORMAL 16"
~PARAMETER INFORMATION
#MNEM.UNIT          VALUE    DESCRIPTION
#----------   ------------   ------------------------------
 EKB .F         4985.0000:   Kelly bushing
 EGL .F         4975.0000:   Ground level
 EDF .F            0.0000:   Drilling floor
 EPD .F         4975.0000:   Permanent datum
 TD  .F         2880.0000:   Total depth
 CLNT.            A2DTECH:   Client Code
 DATE.        17-AUG-1972:   Date Logged [DD-MMM-YYYY]
 DD  .F              2875:   Depth driller
 DL  .F              2880:   Depth logger
 BLI .F              2879:   Bottom log interval
 TLI .F               330:   Top log interval
 CS1 .              10.75:   Casing size
 CBD1.       10.75" @ 327:   Casing driller 1
 CBL1.IN              330:   Casing logger 1
 BS1 .IN                9:   Bit size
 BSD1.F              2875:   Depth drilled with bit1
 DFT .           CHEM-GEL:   Type fluid in hole
 DFD .                9.3:   Density
 DFV .                 61:   Viscosity
 DFPH.                9.0:   pH
 DFL .                 66:   Fluid loss
 MSS .           FLOWLINE:   Source of sample
 RMS .OHMM           1.86:   Rm
 MST .F                76:   Rm Meas. temp.
 RMF .OHMM           1.58:   Rmf
 MFST.F                76:   Rmf Meas. temp.
 MFSS.               MEAS:   Source Rmf.
 RMB .OHMM           1.25:   Rm. at BHT
 BHT .F               113:   BHT.
 TCS .HRS               3:   Time Circ. stopped
 MRT .F               113:   Maximum recorded temp.
 LUN .               7037:   Logging unit number
 LUL .               CSPR:   Logging unit location
 ENGI.              GOLAS:   Recorded By
 WITN.                MAY:   Witnessed by
 ORIG.      1" 2.5" PRINT:   Origin of data
 UWI .     49025102150000:   Unique Well ID
 DICO. A2D TECHNOLOGIES, INC.:   Digitizing Company
~OTHER INFORMATION
~A   DEPT      GRD       CALD       CORR       RHOB        SPR          ILD        ASN 
# ...
 2013.5000   142.0369     9.5928     0.0306     2.5001   -16.8018     4.6296     6.9762
 2014.0000   142.8092     9.5933     0.0177     2.5023   -16.8050     4.6296     6.8896
 2014.5000   141.5317     9.5937     0.0091     2.4770   -16.8080     4.6296     6.8926
 2015.0000   140.3231     9.5942     0.0243     2.4801   -16.8111     4.6939     6.8955
 2015.5000   139.3954     9.5947     0.0519     2.5048   -16.8143     4.7840     6.8686
 2016.0000   138.4677     9.5951     0.0632     2.5002   -16.9617     4.7840     6.8111
 2016.5000   136.1629     9.5956     0.0408     2.4879   -17.1300     4.8599     6.8833
 2017.0000   134.0660     9.5960     0.0340     2.4741   -17.1331     5.1723     7.2358
 2017.5000   132.6653     9.5965     0.0477     2.4790   -17.1362     5.4012     7.2416
 2018.0000   131.9877     9.5969     0.0221     2.4957   -17.1393     5.5556     7.3381
 2018.5000   131.5216     9.5974     0.0156     2.4847   -17.1424     5.7099     7.8521
 2019.0000   130.8785     9.5979     0.0179     2.4772   -17.1461     5.7099     8.1134
 2019.5000   129.5020     9.5984     0.0188     2.4725   -16.8390     5.4012     8.1165
 2020.0000   129.2000     9.5988     0.0212     2.4737   -16.8426     5.4012     8.1194
 2020.5000   130.9003     9.5992     0.0267     2.4891   -16.8457     5.0926     8.1158
 2021.0000   129.5225     9.5997     0.0408     2.5016   -16.5387     5.0926     8.0141
 2021.5000   127.6832     9.6001     0.0344     2.5113   -16.5422     5.0926     7.7385
 2022.0000   126.7670     9.6006     0.0298     2.4915   -16.8548     5.4012     7.5855
 2022.5000   125.3892     9.6011     0.0191     2.4704   -16.8579     5.4012     7.5667
 2023.0000   125.8576     9.6015     0.0129     2.4544   -17.1706     5.7099     7.6892
 2023.5000   126.7875     9.6020     0.0130     2.4676   -17.1736     5.7099     7.9048
 2024.0000   127.2558     9.6025     0.0115     2.4665   -17.4863     5.7099     8.2252
 2024.5000   125.4165     9.6029    -0.0101     2.4429   -17.1797     5.4012     8.2949
 2025.0000   124.0387     9.6034    -0.0008     2.4202   -17.1828     5.0926     8.0497
 2025.5000   122.6610     9.6039     0.0085     2.4261   -17.1858     4.7840     7.6820
 2026.0000   122.1909     9.6044    -0.0007     2.4484   -16.8793     4.3210     7.4436
 2026.5000   124.5208     9.6048    -0.0068     2.4239   -16.8824     4.1667     7.1311
 2027.0000   127.3202     9.6053    -0.0006     2.4121   -16.8854     4.1692     6.4348
 2027.5000   130.0729     9.6057     0.0134     2.4151   -16.8886     4.4817     6.2179
 2028.0000   126.1736     9.6062     0.0319     2.4210   -16.8916     4.7840     5.9882
 2028.5000   120.6873     9.6066     0.0088     2.4132   -16.9232     4.7699     6.0807
 2029.0000   117.0631     9.6071    -0.0035     2.4331   -17.2436     4.3030     6.1135
 2029.5000   116.1893     9.6076    -0.0004     2.4736   -17.5201     3.9905     6.6538
 2030.0000   114.1077     9.6080     0.0136     2.4959   -17.2134     3.5494     7.4632
 2030.5000   114.9535     9.6394     0.0260     2.4894   -16.9068     3.3655     7.0781
 2031.0000   121.3915     9.6398     0.0197     2.4677   -16.9102     3.2072     6.2751
 2031.5000   125.2748     9.6403     0.0060     2.4587   -16.8385     3.0491     5.5019
 2032.0000   124.6890     9.6408     0.0184     2.4195   -16.5242     2.9321     4.7586
 2032.5000   121.2962     9.6722     0.0137     2.4088   -16.2999     2.7778     4.5452
 2033.0000   118.1725     9.6726     0.0192     2.4057   -16.2054     2.7289     4.2975
 2033.5000   115.5332     9.6421     0.0412     2.4535   -15.9964     2.6235     4.4571
 2034.0000   113.8400     9.6427     0.0525     2.4642   -16.0000     2.6235     4.5047
 2034.5000   113.0917     9.6431     0.0171     2.4459   -15.8819     2.6235     4.3404
 2035.0000   116.5617     9.6436     0.0063     2.4274   -15.6966     2.6235     4.3890
 2035.5000   122.0265     9.6131     0.0154     2.4151   -15.6997     2.7778     4.5885
 2036.0000   123.4831     9.6136     0.0265     2.4059   -15.7028     2.8498     4.5791
 2036.5000   124.6517     9.6449     0.0030     2.4152   -15.7059     2.9321     4.0762
 2037.0000   127.2275     9.6454     0.0019     2.4260   -15.8690     2.9321     4.1319
 2037.5000   131.4613     9.6459     0.0094     2.4399   -16.1894     2.9321     4.3140
 2038.0000   131.9418     9.6463     0.0184     2.4509   -16.3343     3.1739     4.4363
 2038.5000   127.7484     9.6468     0.0205     2.4246   -16.5207     3.3321     4.5288
 2039.0000   124.2336     9.6472     0.0080     2.4151   -16.6507     3.5494     4.5617
 2039.5000   127.4712     9.6477    -0.0041     2.4647   -16.6538     3.7037     4.5646
 2040.0000   131.6319     9.6481     0.0105     2.4832   -16.6569     4.0123     4.8955
 2040.5000   134.8695     9.6177     0.0124     2.4709   -16.3498     4.1667     5.1686
 2041.0000   136.2610     9.6182     0.0115     2.4586   -16.0433     4.4753     5.3523
 2041.5000   135.3447     9.6187     0.0122     2.4556   -15.7372     4.7840     5.5358
 2042.0000   131.6585     9.6191     0.0187     2.4742   -15.7403     4.9383     6.0060
 2042.5000   134.4353     9.5887     0.0062     2.4836   -15.7434     5.2469     6.4702
 2043.0000   137.2114     9.5892     0.0016     2.4898   -15.4368     5.4012     6.6149
 2043.5000   139.0644     9.5588    -0.0030     2.4958   -15.4399     5.4012     6.7672
 2044.0000   134.5485     9.5531    -0.0003     2.5007   -15.4429     5.5556     6.9194
 2044.5000   126.2945     9.5288     0.0044     2.5068   -15.7556     5.7099     7.2015
 2045.0000   120.0078     9.5216     0.0073     2.5082   -16.0682     5.7099     7.5672
 2045.5000   117.8621     9.4989     0.0058     2.4984   -16.6905     5.8642     8.0254
 2046.0000   117.4062     9.4685     0.0027     2.4923   -17.0031     5.7099     8.4478
 2046.5000   118.3373     9.4690     0.0012     2.4858   -17.0062     5.7099     8.3881
 2047.0000   121.5749     9.4695     0.0059     2.4836   -17.0093     5.5556     8.2687
 2047.5000   125.7356     9.4699     0.0137     2.4940   -17.0124     5.5492     8.1493
 2048.0000   129.4348     9.4704     0.0214     2.5030   -17.0155     5.4012     8.0896
 2048.5000   130.8262     9.4708     0.0276     2.5101   -17.0185     5.4154     8.0299
 2049.0000   127.1407     9.4574     0.0323     2.5301   -17.0217     5.7279     7.9701
 2049.5000   123.9168     9.4409     0.0308     2.5531   -17.0248     6.0185     8.0000
 2050.0000   122.0775     9.4413     0.0015     2.5115   -17.0278     6.3528     8.2687
 2050.5000   119.7766     9.4418    -0.0030     2.4992   -17.0310     6.6950     9.2060
 2051.0000   117.0142     9.4253    -0.0034     2.4904   -17.0340     7.1322     9.6328
 2051.5000   117.4826     9.4119     0.0094     2.4885   -17.0372     7.5991    10.0299
 2052.0000   120.2587     9.4124     0.0187     2.4976   -17.0402     7.8704    10.0863
 2052.5000   123.0348     9.4129     0.0218     2.4961   -17.0433     8.0697    10.1482
 2053.0000   125.3493     9.4134     0.0250     2.4819   -17.0465     8.3333    10.3581
 2053.5000   123.9551     9.3829     0.0219     2.4764   -17.0495     8.4877    10.6492
 2054.0000   120.2551     9.3834     0.0065     2.4702   -17.0527     8.4877    10.7860
 2054.5000   118.9083     9.3839     0.0143     2.4742   -17.0557     8.4877    10.7911
 2055.0000   118.4155     9.3843     0.0175     2.4874   -17.0588     8.4877    10.8209
 2055.5000   117.4382     9.3848     0.0172     2.4878   -17.0619     8.4877    10.9503
 2056.0000   116.1595     9.3852     0.0095     2.4800   -17.0650     8.4877    10.9552
 2056.5000   120.6129     9.3857     0.0037     2.4783   -17.0681     8.4877    10.9602
 2057.0000   124.0200     9.3861     0.0037     2.4981   -17.0712     8.6420    11.1145
 2057.5000   123.2775     9.3866     0.0043     2.4858   -16.9065     8.6420    11.1194
 2058.0000   120.3407     9.3871     0.0085     2.4735   -16.7678     8.7963    11.1244
 2058.5000   128.2097     9.3875    -0.0026     2.4643   -16.7709     8.7963    11.1294
