~VERSION INFORMATION
 VERS.                2.0:   CWLS LOG ASCII STANDARD - VERSION 2.0
 WRAP.                 NO:   ONE LINE PER DEPTH STEP
~WELL INFORMATION
#MNEM.UNIT      DATA TYPE    INFORMATION
#----------   ------------   ------------------------------
 STRT.F         2200.0000:   START DEPTH
 STOP.F         3200.0000:   STOP DEPTH
 STEP.F            0.5000:   STEP LENGTH
 NULL.          -999.2500:   NO VALUE
 COMP.   LAWRENCE ALLISON:   COMPANY
 WELL. LAWRENCE "X" #18-34:   WELL
 FLD .          NPR NO. 3:   FIELD
 LOC .      S34 T39N R78W:   LOCATION
 CNTY.            NATRONA:   COUNTY
 STAT.            WYOMING:   STATE
 CTRY. UNITED STATES OF AMERICA:   COUNTRY
 SRVC.      DRESSER ATLAS:   SERVICE COMPANY
 DATE.        14-MAY-1986:   LOGDATE
 API .     49025110720000:   API NUMBER
~CURVE INFORMATION
#MNEM.UNIT       API CODE    CURVE DESCRIPTION
#----------   ------------   ------------------------------
 DEPT.F                  :   
 CALD.IN     45 280 60 00:   CALIPER FROM DENSITY LOG
 GRD .GAPI   45 310 01 00:   GAMMA RAY FROM DENSITY LOG
 TEND.LBS    45 635 01 00:   TENSION FORM DENSITY LOG
 CORR.G/C3   45 356 01 00:   DENSITY CORRECTION
 DEN .G/C3   45 350 01 00:   BULK DENSITY
 CNC .DEC    42 890 03 00:   NEUTRON POROSITY SANDSTONE
~PARAMETER INFORMATION
#MNEM.UNIT          VALUE    DESCRIPTION
#----------   ------------   ------------------------------
 EKB .F         5192.0000:   Kelly bushing
 EGL .F         5181.0000:   Ground level
 EDF .F         5189.0000:   Drilling floor
 TD  .F         3195.0000:   Total depth
 CLNT.            A2DTECH:   Client Code
 SL  . 722' FWL & 239' FSL:   Surface Location
 PD  .                 GL:   Permanent Datum
 EPD .F              5181:   Elevation Permanent Datum
 LMF .                 KB:   Log Measured From
 DMF .                 KB:   Drilling Measured From
 DAPD.F                11:   Feet Above Permanent Datum
 DATE.        14-MAY-1986:   Date Logged [DD-MMM-YYYY]
 DD  .F              3195:   Depth driller
 DL  .F              3194:   Depth logger
 BLI .F              3192:   Bottom log interval
 TLI .F                 0:   Top log interval
 CS1 .IN            8.625:   Casing size
 CBD1.      8.625" @ 601':   Casing driller 1
 CBL1.F               596:   Casing logger 1
 BS1 .IN            7.875:   Bit size
 BSD1.F              3195:   Depth drilled with bit1
 DFT .        POLYMER-KCL:   Type fluid in hole
 DFD .                  9:   Density
 DFV .                 35:   Viscosity
 DFPH.                9.5:   pH
 DFL .               16.2:   Fluid loss
 MSS .           FLOWLINE:   Source of sample
 RMS .OHMM          0.378:   Rm
 MST .F                65:   Rm Meas. temp.
 RMF .OHMM          0.306:   Rmf
 MFST.F                65:   Rmf Meas. temp.
 MFSS.               MEAS:   Source Rmf.
 RMC .OHMM          0.472:   Rmc
 MCST.F                65:   Rmc Meas. temp.
 MCSS.               CALC:   Source Rmc.
 RMB .OHMM          0.208:   Rm. at BHT
 BHT .F               118:   BHT.
 TCS .HRS               3:   Time Circ. stopped
 MRT .F               118:   Maximum recorded temp.
 LUN .            HL-6274:   Logging unit number
 LUL .           GILLETTE:   Logging unit location
 ENGI.             RAUTIO:   Recorded By
 WITN.             STRONG:   Witnessed by
 ORIG.           5" PRINT:   Origin of data
 UWI .     49025110720000:   Unique Well ID
 DICO. A2D TECHNOLOGIES, INC.:   Digitizing Company
~OTHER INFORMATION
~A  DEPT        CALD      GRD        TEND        CORR        DEN        CNC 
# ...
 2512.0000    10.2648   117.6594    -0.3759    -0.0016     2.5347     0.2663
 2512.5000    10.2345   118.2511    -7.5451    -0.0106     2.5362     0.2847
 2513.0000    10.2344   117.9349    -7.0931     0.0241     2.5558     0.2932
 2513.5000    10.2192   116.7166    -6.7314     0.0391     2.5671     0.3050
 2514.0000    10.2039   114.8950   -13.9791     0.0451     2.5617     0.3011
 2514.5000    10.1887   113.3750   -21.0458     0.0285     2.5496     0.2657
 2515.0000    10.1734   114.8717   -20.6767    -0.0079     2.5421     0.2539
 2515.5000    10.1582   117.3400   -27.8413    -0.0140     2.5428     0.2473
 2516.0000    10.1581   120.8787   -27.3894     0.0207     2.5465     0.2497
 2516.5000    10.1428   123.8836   -34.6369     0.0101     2.5435     0.2570
 2517.0000    10.1276   125.9836   -34.1849    -0.0020     2.5459     0.2666
 2517.5000    10.1124   127.1815   -33.8345     0.0039     2.5563     0.2694
 2518.0000    10.0971   127.1669   -33.4586     0.0205     2.5562     0.2550
 2518.5000    10.0819   121.7254   -33.0827     0.0230     2.5600     0.2222
 2519.0000    10.0666   106.6525   -32.6480     0.0046     2.5765     0.1996
 2519.5000    10.0514    88.2150   -32.2863    -0.0265     2.6006     0.1944
 2520.0000    10.0513    80.6619   -31.9248    -0.0568     2.6353     0.1965
 2520.5000    10.0511    85.7785   -39.1723    -0.0115     2.6488     0.2150
 2521.0000    10.0510   102.6597   -38.7204     0.0307     2.6375     0.2353
 2521.5000    10.0508   119.2393   -38.3458     0.0472     2.6118     0.2591
 2522.0000    10.0658   124.0542   -37.9067     0.0472     2.5914     0.2761
 2522.5000    10.0807   125.5859   -37.5450     0.0302     2.5778     0.2824
 2523.0000    10.0805   127.6479   -37.1835     0.0244     2.5687     0.2776
 2523.5000    10.0955   127.0329   -36.8218     0.0274     2.5657     0.2737
 2524.0000    10.1104   121.2898   -36.4602     0.0273     2.5673     0.2740
 2524.5000    10.1253   118.8649   -36.0902     0.0318     2.5739     0.2734
 2525.0000    10.1403   118.5020   -35.6466     0.0453     2.5814     0.2677
 2525.5000    10.1552   119.1432   -35.2848     0.0437     2.5807     0.2622
 2526.0000    10.1701   119.4332   -27.4045     0.0282     2.5738     0.2689
 2526.5000    10.1850   125.4519   -27.0428     0.0134     2.5663     0.2858
 2527.0000    10.1849   136.9032   -19.1623     0.0043     2.5647     0.2976
 2527.5000    10.1848   146.8463   -19.4950     0.0178     2.5655     0.3055
 2528.0000    10.1997   153.4712   -20.5401     0.0314     2.5677     0.3073
 2528.5000    10.1995   151.3479   -21.5852     0.0389     2.5563     0.2904
 2529.0000    10.2004   141.3815   -22.6304     0.0282     2.5488     0.2595
 2529.5000    10.2143   123.6174   -23.6755     0.0174     2.5578     0.2520
 2530.0000    10.2292   107.5695   -24.4360     0.0100     2.5744     0.2526
 2530.5000    10.2291   103.6363   -24.0594     0.0280     2.5834     0.2593
 2531.0000    10.2441   105.1358   -23.6841     0.0416     2.5788     0.2617
 2531.5000    10.2590   106.3279   -23.2458     0.0521     2.5713     0.2608
 2532.0000    10.2588   107.5229   -22.8841     0.0581     2.5735     0.2599
 2532.5000    10.2738   109.0196   -22.5225     0.0429     2.5642     0.2520
 2533.0000    10.2736   107.6873   -22.1608     0.0056     2.5515     0.2420
 2533.5000    10.2885   104.7701   -21.8045    -0.0222     2.5462     0.2354
 2534.0000    10.2884   105.3618   -21.4286    -0.0358     2.5439     0.2493
 2534.5000    10.3033   111.3833   -28.5948    -0.0404     2.5371     0.2714
 2535.0000    10.3183   114.9916   -28.1427    -0.0329     2.5311     0.2808
 2535.5000    10.3332   113.7733   -27.7812    -0.0164     2.5318     0.2759
 2536.0000    10.3330   109.5384   -30.1992     0.0123     2.5404     0.2747
 2536.5000    10.3480   107.7164   -36.2649     0.0335     2.5589     0.2766
 2537.0000    10.3478   111.3222   -41.7293     0.0242     2.5566     0.2726
 2537.5000    10.3628   117.3437   -41.0291     0.0075     2.5498     0.2642
 2538.0000    10.3777   122.7619   -39.5372    -0.0137     2.5490     0.2599
 2538.5000    10.3775   123.0548   -38.0454    -0.0062     2.5384     0.2609
 2539.0000    10.3925   119.1187   -36.5535     0.0104     2.5369     0.2591
 2539.5000    10.3923   112.7722   -35.0616     0.0209     2.5418     0.2512
 2540.0000    10.4072   107.4305   -33.5697     0.0299     2.5557     0.2457
 2540.5000    10.4071   102.7913   -31.8841     0.0344     2.5707     0.2467
 2541.0000    10.3918   103.0842   -31.8234     0.0334     2.5782     0.2530
 2541.5000    10.3917   103.9746   -31.7628     0.0237     2.5790     0.2585
 2542.0000    10.3915   106.0775   -31.7021     0.0100     2.5694     0.2597
 2542.5000    10.3914   105.4596   -31.6414    -0.0082     2.5480     0.2591
 2543.0000    10.3912   106.9562   -31.5789    -0.0128     2.5404     0.2674
 2543.5000    10.3911   111.4161   -39.0388     0.0044     2.5321     0.2763
 2544.0000    10.3910   118.3931   -38.9630     0.0279     2.5305     0.2739
 2544.5000    10.3908   117.7781   -46.4363     0.0384     2.5388     0.2640
 2545.0000    10.3906   115.0515   -53.8944     0.0263     2.5395     0.2576
 2545.5000    10.3905   112.3249   -61.3525     0.0081     2.5371     0.2564
 2546.0000    10.3903   110.8050   -61.2767    -0.0056     2.5319     0.2579
 2546.5000    10.3902   110.4917   -68.7348    -0.0162     2.5394     0.2658
 2547.0000    10.3900   110.4796   -68.6717    -0.0178     2.5469     0.2697
 2547.5000    10.4050   108.3539   -68.5983    -0.0088     2.5552     0.2713
 2548.0000    10.4048   107.1356   -76.0716     0.0123     2.5635     0.2722
 2548.5000    10.4046   107.4285   -75.9957     0.0334     2.5649     0.2701
 2549.0000    10.3894   106.2073   -75.9351     0.0379     2.5633     0.2628
 2549.5000    10.3893   102.3580   -75.8772     0.0318     2.5468     0.2559
 2550.0000    10.3891   103.7707   -68.2949     0.0181     2.5354     0.2537
 2550.5000    10.3739   106.2256   -68.2331    -0.0005     2.5392     0.2562
 2551.0000    10.3694   107.6865   -68.1584    -0.0092     2.5465     0.2653
 2551.5000    10.3647   108.2869   -60.5789    -0.0213     2.5451     0.2677
 2552.0000    10.3596   117.6347   -22.9242     0.0271     2.5549     0.2816
 2552.5000    10.3446   117.3308    -7.8260     0.0073     2.5609     0.2961
 2553.0000    10.3297   118.5338    -7.7653    -0.0197     2.5602     0.2919
 2553.5000    10.3299   119.7455    -7.7046    -0.0122     2.5609     0.2780
 2554.0000    10.3149   118.8290   -15.1629    -0.0016     2.5578     0.2711
 2554.5000    10.2849   117.3178   -15.1003    -0.0152     2.5502     0.2735
 2555.0000    10.2851   118.2198   -15.0262    -0.0258     2.5400     0.2805
 2555.5000    10.2551   119.4243   -14.9655    -0.0017     2.5449     0.2793
 2556.0000    10.2552   119.1197   -14.9049     0.0527     2.5600     0.2699
 2556.5000    10.2540   120.9260   -14.8442     0.0421     2.5577     0.2666
 2557.0000    10.2555   122.7331   -22.3175     0.0119     2.5448     0.2757
 2557.5000    10.2557   123.9361   -22.2416    -0.0093     2.5380     0.2833
 2558.0000    10.2558   124.5372   -22.1804    -0.0063     2.5357     0.2872
 2558.5000    10.2560   123.9303   -29.6391    -0.0169     2.5372     0.2908
 2559.0000    10.2712   120.9108   -29.5632     0.0027     2.5417     0.2939
 2559.5000    10.2713   117.5896   -29.5026    -0.0018     2.5386     0.2953
 2560.0000    10.2866   116.3599   -21.9231     0.0210     2.5560     0.2915
 2560.5000    10.2867   117.0042   -14.3436    -0.0003     2.5605     0.2966
 2561.0000    10.3020   118.7868     0.7546    -0.0139     2.5604     0.2861
 2561.5000    10.3021   119.6888     0.8153    -0.0049     2.5604     0.2773
 2562.0000    10.3023   117.2727    -6.6428    -0.0094     2.5528     0.2722
 2562.5000    10.2873   117.2697    -6.5669    -0.0200     2.5437     0.2725
 2563.0000    10.2875   118.4735    -6.5062    -0.0155     2.5369     0.2776
 2563.5000    10.2876   119.3756     1.0732     0.0340     2.5452     0.2778
