~VERSION INFORMATION
 VERS.                2.0:   CWLS LOG ASCII STANDARD - VERSION 2.0
 WRAP.                 NO:   ONE LINE PER DEPTH STEP
~WELL INFORMATION
#MNEM.UNIT      DATA TYPE    INFORMATION
#----------   ------------   ------------------------------
 STRT.F          213.5000:   START DEPTH
 STOP.F         3198.0000:   STOP DEPTH
 STEP.F            0.5000:   STEP LENGTH
 NULL.          -999.2500:   NO VALUE
 COMP.    FENIX & SCISSON:   COMPANY
 WELL.   FENIX "AX" #14-2:   WELL
 FLD .              NPR-3:   FIELD
 LOC .       S2 T38N R78W:   LOCATION
 CNTY.            NATRONA:   COUNTY
 STAT.            WYOMING:   STATE
 CTRY. UNITED STATES OF AMERICA:   COUNTRY
 SRVC.              WELEX:   SERVICE COMPANY
 DATE.        14-MAY-1977:   LOGDATE
 API .     49025103620000:   API NUMBER
~CURVE INFORMATION
#MNEM.UNIT       API CODE    CURVE DESCRIPTION
#----------   ------------   ------------------------------
 DEPT.F                  :   
 GRD .GAPI   45 310 01 00:   GAMMA RAY FROM DENSITY LOG
 CALD.IN     45 280 60 00:   CALIPER FROM DENSITY LOG
 CORR.G/C3   45 356 01 00:   DENSITY CORRECTION
 RHOB.G/C3   45 350 01 00:   BULK DENSITY
 SPR .MV     07 010 01 00:   SPONTANEOUS POTENTIAL FROM RES.
 ILD .OHMM   07 120 46 00:   DEEP INDUCTION RESISTIVITY
 ILM .OHMM   07 120 44 00:   INDUCTION LOG MEDIUM RESISTIVITY
 SGRD.OHMM   07 220 05 00:   SHALLOW SHORT GUARD RESISTIVITY
~PARAMETER INFORMATION
#MNEM.UNIT          VALUE    DESCRIPTION
#----------   ------------   ------------------------------
 EKB .F         5119.0000:   Kelly bushing
 EGL .F         5110.0000:   Ground level
 TD  .F         3200.0000:   Total depth
 CLNT.            A2DTECH:   Client Code
 SL  . 2400' FNL & 150' FWL:   Surface Location
 PD  .                 GL:   Permanent Datum
 EPD .F              5110:   Elevation Permanent Datum
 LMF .                 KB:   Log Measured From
 DMF .                 KB:   Drilling Measured From
 DAPD.F                 9:   Feet Above Permanent Datum
 DATE.        14-MAY-1977:   Date Logged [DD-MMM-YYYY]
 DD  .F              3200:   Depth driller
 DL  .F              3199:   Depth logger
 BLI .F              3197:   Bottom log interval
 TLI .F               217:   Top log interval
 CS1 .IN            8.625:   Casing size
 BS1 .IN            7.875:   Bit size
 BSD1.F              3200:   Depth drilled with bit1
 DFT .            KCL MUD:   Type fluid in hole
 DFD .                8.8:   Density
 TCS .HRS             2.5:   Time Circ. stopped
 MRT .F               130:   Maximum recorded temp.
 ENGI.          T. JOYNER:   Recorded By
 WITN.      W. PETTINGILL:   Witnessed by
 ORIG.           5" PRINT:   Origin of data
 UWI .     49025103620000:   Unique Well ID
 DICO. A2D TECHNOLOGIES, INC.:   Digitizing Company
 DFV .                 31:   Viscosity
 DFPH.                7.5:   pH
 DFL .                6.4:   Fluid loss
 MSS .          FLOW LINE:   Source of sample
 RMS .OHMM            .13:   Rm
 MST .F               62.:   Rm Meas. temp.
 RMF .OHMM            .12:   Rmf
 MFST.F                62:   Rmf Meas. temp.
 MFSS.           FANN KIT:   Source Rmf.
 RMC .OHMM            .28:   Rmc
 MCST.F                62:   Rmc Meas. temp.
 RMB .OHMM            .06:   Rm. at BHT
 BHT .F               130:   BHT.
~OTHER INFORMATION
~A   DEPT      GRD       CALD       CORR       RHOB        SPR        ILD        ILM       SGRD   
  213.5000  -999.2500  -999.2500  -999.2500  -999.2500  -999.2500  -999.2500  1756.7170  -999.2500
  214.0000  -999.2500  -999.2500  -999.2500  -999.2500  -999.2500  1836.2556  1594.7626  -999.2500
  214.5000  -999.2500  -999.2500  -999.2500  -999.2500  -999.2500  1535.9893  1406.1851  -999.2500
  215.0000  -999.2500  -999.2500  -999.2500  -999.2500  -999.2500  1464.7469   768.2075     0.3457
  215.5000  -999.2500  -999.2500  -999.2500  -999.2500  -999.2500  1377.6393   396.3188     1.6155
  216.0000  -999.2500  -999.2500  -999.2500  -999.2500  -999.2500  1053.1395   233.0986     3.4339
  216.5000  -999.2500  -999.2500  -999.2500  -999.2500    -1.6330     0.6532    69.8785     4.5336
  217.0000  -999.2500  -999.2500  -999.2500  -999.2500    -6.4985     0.5577     1.9736     4.8611
  217.5000  -999.2500  -999.2500  -999.2500  -999.2500   -10.4796     0.4569     3.7581     4.7648
  218.0000   112.4232     9.0089     0.0484     2.0264   -14.4608     0.4094     4.3190     5.4773
  218.5000   111.8556     9.0263     0.0270     2.0087   -17.4065     0.3958     4.1182     5.8342
  219.0000   109.1910     9.0877     0.0211     2.0280   -20.5178     0.5445     3.3727     5.8397
  219.5000   112.5040     9.2082     0.0227     2.0842   -23.8471     0.8719     2.5954     5.8452
  220.0000   107.7573     9.4618     0.0304     2.1840   -26.8320     1.3960     2.1852     5.7703
  220.5000   110.1821     9.8190     0.0380     2.2291   -28.2983     2.2979     2.1591     5.3860
  221.0000   109.3159     9.9248     0.0502     2.2803   -29.3209     3.1773     3.9036     5.0699
  221.5000   108.4424    10.2228     0.0593     2.2901   -30.0476     3.2955     3.4707     5.0398
  222.0000   111.7628    10.3285     0.0624     2.2700   -30.6264     3.1855     2.7541     5.4066
  222.5000   112.0907    10.3751     0.0550     2.2476   -30.7618     3.1220     2.9543     5.5634
  223.0000   112.4185    10.3920     0.0401     2.2011   -30.8965     3.0831     3.1266     5.7246
  223.5000   110.9554    10.4090     0.0207     2.1787   -30.8831     3.0441     3.1069     5.9725
  224.0000   110.0893    10.3964    -0.0002     2.1323   -30.7195     2.9858     3.0459     6.1457
  224.5000   111.0149    10.2807    -0.0184     2.1164   -30.7066     2.9481     3.0058     6.3239
  225.0000   109.7513    10.1054    -0.0196     2.1831   -30.5457     2.8899     3.2697     6.3739
  225.5000   109.2819     9.8265     0.0047     2.2993   -30.2369     3.1448     5.9386     6.4254
  226.0000   111.7067     9.5920     0.0183     2.3722   -31.0791     3.9293    18.0133     6.4314
  226.5000   112.6316     9.3871     0.0094     2.3761   -31.7962     4.3644    86.9274     6.5270
  227.0000   112.0640     9.2413     0.0080     2.3754   -32.8091     4.7810    56.6605     6.6241
  227.5000   109.7053     9.1843     0.0081     2.3793   -33.8221     5.1296     4.5781     6.6747
  228.0000   112.4212     9.0829     0.0098     2.3817   -34.6871     5.3905     5.3005     6.4556
  228.5000   115.1372     9.0111     0.0039     2.3788   -35.8480     5.6256     5.7647     6.2843
  229.0000   117.8531     8.9537    -0.0066     2.3737   -36.8609     5.7901     5.7283     6.2481
  229.5000   116.9870     8.9103    -0.0140     2.3693   -37.8739     5.8787     5.7727     6.3425
  230.0000   115.2180     8.8703    -0.0168     2.3648   -38.7389     5.9665     5.4667     6.4368
  230.5000   115.8517     8.8423    -0.0167     2.3620   -39.3371     5.9249     5.5091     6.5325
  231.0000   117.3737     8.8154    -0.0181     2.3636   -39.8716     5.7965     5.9502     6.6755
  231.5000   116.5075     8.8023    -0.0195     2.3652   -40.1505     5.4727     5.9963     6.8691
  232.0000   115.9399     8.7896    -0.0209     2.3631   -40.4239     5.2197     5.9596     7.0195
  232.5000   116.5672     8.7776    -0.0223     2.3617   -40.8395     4.9440     5.9643     7.2230
  233.0000   116.5970     8.7649    -0.0221     2.3648   -40.9648     4.6828     5.8880     7.3886
  233.5000   117.2294     8.7518    -0.0220     2.3657   -40.9423     4.4974     5.8115     7.4927
  234.0000   118.1544     8.7545    -0.0219     2.3658   -40.9197     4.4099     8.2819     7.6568
  234.5000   118.4822     8.7567    -0.0203     2.3659   -41.1930     5.3968    14.2310     7.6640
  235.0000   117.6161     8.7589    -0.0186     2.3652   -41.7622     8.3003    15.2613     7.7244
  235.5000   116.7426     8.7611    -0.0170     2.3654   -42.4935     8.0827     8.3015     7.6766
  236.0000   115.2868     8.7637    -0.0169     2.3655   -43.1908     6.1767     6.5640     7.4761
  236.5000   114.4133     8.7506    -0.0168     2.3641   -43.6120     4.3566     5.9618     7.4316
  237.0000   114.4501     8.7533    -0.0166     2.3627   -44.1868     3.6483     5.9712     7.4388
  237.5000   114.7780     8.7554    -0.0165     2.3598   -44.7503     3.5125     6.3350     7.4989
  238.0000   115.1058     8.7576    -0.0164     2.3591   -44.7278     4.0121     6.9967     7.5060
  238.5000   113.9412     8.7598    -0.0148     2.3600   -44.7069     4.2162     7.7255     7.5130
  239.0000   110.9855     8.7768    -0.0117     2.3669   -44.6827     4.1629     8.1774     7.5201
  239.5000   109.2219     8.7789    -0.0085     2.3753   -44.6601     4.0538     8.1838     7.4736
  240.0000   108.3577     8.8107    -0.0054     2.3883   -44.5636     4.0292     8.2472     7.2784
  240.5000   109.9582     8.8277    -0.0038     2.3899   -44.3038     4.4457     8.1951     7.1357
  241.0000   112.9015     8.9055    -0.0022     2.3922   -44.1328     4.8031     7.9238     6.9906
  241.5000   113.8190     8.9372    -0.0036     2.3960   -43.9726     5.0473     7.5546     6.9064
  242.0000   111.7662     8.9541    -0.0019     2.3998   -43.8055     5.3780     7.2964     6.9145
  242.5000   109.4002     8.9560     0.0027     2.4022   -43.4865     5.6516     7.1584     6.8717
  243.0000   110.0339     8.9579     0.0059     2.4038   -43.3132     5.8980     7.7868     6.9275
  243.5000   108.2723     8.9602     0.0120     2.4120   -43.1427     6.1154     8.5277     6.9821
  244.0000   105.6151     8.9771     0.0166     2.4128   -42.8243     6.3385     8.8353     7.1350
  244.5000   106.5400     8.9790     0.0152     2.4098   -42.6100     6.4806     8.7206     7.2411
  245.0000   109.5544     8.9655     0.0108     2.4061   -42.1875     6.5866     8.6655     7.4050
  245.5000   111.9719     8.9678     0.0079     2.4010   -42.0608     6.8146     8.8563     7.6264
  246.0000   109.0162     8.9100     0.0051     2.3958   -41.8306     7.1118    10.5399     7.8367
  246.5000   108.4486     8.8522     0.0052     2.3988   -41.5244     7.4208    12.1165     8.0639
  247.0000   106.0895     8.8238     0.0038     2.4056   -41.3520     7.8536    12.7408     8.1838
  247.5000   107.0148     8.7814     0.0039     2.4049   -41.1815     8.2530    13.2037     8.2483
  248.0000   105.8030     8.7385     0.0041     2.4102   -40.9911     8.5535    10.6489     8.2560
  248.5000   103.1084     8.7255     0.0042     2.4142   -40.8406     8.8037     9.7372     8.2638
  249.0000   100.8343     8.6975     0.0043     2.4179   -40.6701     8.9987     9.6443     8.3290
  249.5000   101.4680     8.6845     0.0059     2.4134   -40.6481     9.1346     9.7545     8.3386
  250.0000   103.2811     8.6715     0.0075     2.4060   -40.4771     9.1449     9.7622     8.3465
  250.5000   101.2283     8.6589     0.0107     2.4083   -40.4466     9.1610     9.7699     8.3543
  251.0000    99.7578     8.6608     0.0153     2.4144   -40.2784     9.1824     9.7773     8.3622
  251.5000    98.8917     8.6627     0.0199     2.4189   -40.2559     9.2037     9.8533     8.4845
  252.0000    99.8239     8.6646     0.0245     2.4167   -40.0888     9.2251     9.9344     8.1697
  252.5000   101.3459     8.6516     0.0292     2.4130   -40.0656     9.2470    10.0766     8.0221
  253.0000   102.8678     8.6386     0.0338     2.4123   -40.0403     9.3188    10.0862     7.9192
  253.5000   104.0912     8.6405     0.0370     2.4154   -40.0177     9.3266     9.8845     7.9675
