~VERSION INFORMATION
 VERS.                2.0:   CWLS LOG ASCII STANDARD - VERSION 2.0
 WRAP.                 NO:   ONE LINE PER DEPTH STEP
~WELL INFORMATION
#MNEM.UNIT      DATA TYPE    INFORMATION
#----------   ------------   ------------------------------
 STRT.F           48.0000:   START DEPTH
 STOP.F         3235.5000:   STOP DEPTH
 STEP.F            0.5000:   STEP LENGTH
 NULL.          -999.2500:   NO VALUE
 COMP.    TESORO PEROLEUM:   COMPANY
 WELL. TESORO P46 T 28 N.P.R. #3-28:   WELL
 FLD .        TEAPOT DOME:   FIELD
 LOC .      S28 T39N R78W:   LOCATION
 CNTY.            NATRONA:   COUNTY
 STAT.            WYOMING:   STATE
 CTRY. UNITED STATES OF AMERICA:   COUNTRY
 SRVC.      DRESSER ATLAS:   SERVICE COMPANY
 DATE.        17-SEP-1975:   LOGDATE
 API .     49025102530000:   API NUMBER
~CURVE INFORMATION
#MNEM.UNIT       API CODE    CURVE DESCRIPTION
#----------   ------------   ------------------------------
 DEPT.F                  :   
 CALD.IN     45 280 60 00:   CALIPER FROM DENSITY LOG
 RHOB.G/C3   45 350 01 00:   BULK DENSITY
 CORR.G/C3   45 356 01 00:   DENSITY CORRECTION
 TEND.LBS    45 635 01 00:   TENSION FORM DENSITY LOG
 NPHI.DEC    42 890 03 00:   NEUTRON POROSITY SANDSTONE
 SPR .MV     07 010 01 00:   SPONTANEOUS POTENTIAL
 ILD .OHMM   07 120 46 00:   DEEP INDUCTION RESISTIVITY
 ILM .OHMM   07 120 44 00:   INDUCTION LOG MEDIUM RESISTIVITY
 SFL .OHMM   07 220 01 00:   SHALLOW FOCUSED LOG RESISTIVITY
 GRD .GAPI   45 310 01 00:   GAMMA RAY FROM DENSITY LOG
~PARAMETER INFORMATION
#MNEM.UNIT          VALUE    DESCRIPTION
#----------   ------------   ------------------------------
 EKB .F         5088.0000:   Kelly bushing
 EGL .F         5075.0000:   Ground level
 TD  .F         3218.0000:   Total depth
 CLNT.            A2DTECH:   Client Code
 SL  . 2310' FWL & 1650' FSL:   Surface Location
 PD  .                 GL:   Permanent Datum
 EPD .F              5075:   Elevation Permanent Datum
 LMF .                 KB:   Log Measured From
 DMF .                 KB:   Drilling Measured From
 DAPD.F                13:   Feet Above Permanent Datum
 DATE.        17-SEP-1975:   Date Logged [DD-MMM-YYYY]
 DD  .F              3218:   Depth driller
 DL  .F              3217:   Depth logger
 BLI .F              3215:   Bottom log interval
 TLI .F               395:   Top log interval
 CS1 .IN            8.625:   Casing size
 CBD1.      8.625" @ 393':   Casing driller 1
 CBL1.F               395:   Casing logger 1
 BS1 .IN            7.875:   Bit size
 BSD1.F              3218:   Depth drilled with bit1
 DFT .           CHEM GEL:   Type fluid in hole
 DFD .                9.5:   Density
 DFV .                 60:   Viscosity
 DFPH.                9.5:   pH
 DFL .                 11:   Fluid loss
 MSS .           FLOWLINE:   Source of sample
 RMS .OHMM           0.55:   Rm
 MST .F                60:   Rm Meas. temp.
 RMF .OHMM           0.48:   Rmf
 MFST.F                62:   Rmf Meas. temp.
 MFSS.               MEAS:   Source Rmf.
 RMC .OHMM            1.6:   Rmc
 MCST.F                62:   Rmc Meas. temp.
 MCSS.               MEAS:   Source Rmc.
 RMB .OHMM            0.3:   Rm. at BHT
 BHT .F               112:   BHT.
 TCS .HRS               5:   Time Circ. stopped
 MRT .F               112:   Maximum recorded temp.
 LUN .               6008:   Logging unit number
 LUL .              GLTTE:   Logging unit location
 ENGI.            MILHOAN:   Recorded By
 WITN.               WOLF:   Witnessed by
 ORIG.           5" PRINT:   Origin of data
 UWI .     49025102530000:   Unique Well ID
 DICO. A2DTECHNOLOGIES,INC.:   Digitizing Company
~OTHER INFORMATION
~A   DEPT     CALD       RHOB       CORR       TEND       NPHI         SPR         ILD        ILM        SFL      GRD   
# ...
 1689.5000  -999.2500  -999.2500  -999.2500  -999.2500  -999.2500   -29.8862     6.9542     7.3612     7.3584  -999.2500
 1690.0000  -999.2500  -999.2500  -999.2500  -999.2500  -999.2500   -29.8804     6.7214     7.2603     7.2088  -999.2500
 1690.5000  -999.2500  -999.2500  -999.2500  -999.2500  -999.2500   -29.5770     6.6320     7.0680     6.9708  -999.2500
 1691.0000  -999.2500  -999.2500  -999.2500  -999.2500  -999.2500   -29.5712     6.6376     6.9742     6.8799  -999.2500
 1691.5000  -999.2500  -999.2500  -999.2500  -999.2500  -999.2500   -29.5654     6.6421     6.8815     7.5925  -999.2500
 1692.0000  -999.2500  -999.2500  -999.2500  -999.2500  -999.2500   -29.5595     6.6466     6.8376     7.7576  -999.2500
 1692.5000  -999.2500  -999.2500  -999.2500  -999.2500  -999.2500   -29.7012     6.6512     6.8900     7.3445  -999.2500
 1693.0000  -999.2500  -999.2500  -999.2500  -999.2500  -999.2500   -29.8457     6.7489     6.9903     6.8082  -999.2500
 1693.5000  -999.2500  -999.2500  -999.2500  -999.2500  -999.2500   -29.8385     6.8489     7.0921     6.4894  -999.2500
 1694.0000  -999.2500  -999.2500  -999.2500  -999.2500  -999.2500   -29.9815     6.9013     7.0959     7.0120  -999.2500
 1694.5000  -999.2500  -999.2500  -999.2500  -999.2500  -999.2500   -30.1260     7.0514     7.1993     8.4217  -999.2500
 1695.0000  -999.2500  -999.2500  -999.2500  -999.2500  -999.2500   -30.4178     7.2550     7.2552     8.6561  -999.2500
 1695.5000  -999.2500  -999.2500  -999.2500  -999.2500  -999.2500   -30.4107     7.4644     7.4173     8.5432  -999.2500
 1696.0000     8.4917     2.5055    -0.0004  2543.9197  -999.2500   -30.4048     7.6799     7.6247     8.3169  -999.2500
 1696.5000     8.4917     2.5217     0.0259  2543.9197     0.2924   -30.3988     7.7926     7.7357     8.2068    88.3333
 1697.0000     8.5232     2.5383     0.0130  2543.9197     0.2917   -30.3918     7.7979     7.8484     8.0998    84.4130
 1697.5000     8.5250     2.5489     0.0140  2543.9197     0.2878   -30.3860     7.8034     7.8526     8.1081    82.3550
 1698.0000     8.5267     2.5535     0.0078  2528.7202     0.2899   -30.3803     7.7020     7.8569     8.1714    81.4277
 1698.5000     8.5134     2.5581     0.0155  2557.4771     0.2956   -30.3745     7.6539     7.8612     8.2352    80.5004
 1699.0000     8.5151     2.5612     0.0246  2571.1279     0.3001   -30.0711     7.6048     7.8109     8.3577    80.2713
 1699.5000     8.5169     2.5635     0.0263  2569.3093     0.2979   -30.0653     7.5050     7.7609     8.3661    80.0320
 1700.0000     8.5187     2.5643     0.0264  2552.7488     0.2976   -29.7619     7.5113     7.7652     8.2570    80.3652
 1700.5000     8.5205     2.5620     0.0205  2536.1885     0.2989   -29.7560     7.5688     7.7695     8.0366    82.0766
 1701.0000     8.5223     2.5577     0.0206  2527.3936     0.3035   -29.7489     7.6267     7.8836     7.7139    83.7879
 1701.5000     8.5241     2.5540     0.0222  2503.0212     0.2990   -29.7431     7.6318     7.8879     7.4041    85.0196
 1702.0000     8.5261     2.5511     0.0251  2501.2488     0.2981   -29.5886     7.7440     7.9473     9.0062    86.4943
 1702.5000     8.4978     2.5534     0.0241  2499.7939     0.3037   -29.5829     7.8588     8.0071     9.9437    87.0030
 1703.0000     8.4995     2.5573     0.0212  2498.3394     0.2998   -29.5771     7.8641     8.0115     9.6019    84.6445
 1703.5000     8.5017     2.5606     0.0243  2496.8845     0.3049   -29.7202     7.8177     8.0158     8.3551    82.4725
 1704.0000     8.5034     2.5838     0.0335  2495.4297     0.2991   -30.0218     7.7693     7.9083     8.6674    78.4747
 1704.5000     8.5051     2.5906     0.0397  2493.9578     0.2997   -30.3039     7.7213     7.5902     8.1473    75.8682
 1705.0000     8.5069     2.5854     0.0157  2492.1565     0.3012   -30.2967     7.6204     7.5943     7.5523    75.6525
 1705.5000     8.5086     2.5757     0.0037  2490.9365     0.3050   -30.5900     7.6274     7.6549     7.3493    77.6118
 1706.0000     8.5103     2.5622     0.0130  2487.8547     0.3032   -30.8804     7.6331     7.7092     7.5121    81.0313
 1706.5000     8.5125     2.5639     0.0100  2457.5801     0.3011   -30.7258     7.5859     7.7143     7.7307    83.9212
 1707.0000     8.5142     2.5692     0.0042  2456.1252     0.3007   -30.5712     7.6446     7.7185     7.9004    85.1528
 1707.5000     8.5159     2.5730     0.0043  2499.9878     0.2988   -30.5655     7.6515     7.7227     7.9069    85.7001
 1708.0000     8.5176     2.5738     0.0138  2513.6387     0.2983   -30.4107     7.6563     7.6809     7.8234    86.4839
 1708.5000     8.5194     2.5731     0.0167  2527.2898     0.3021   -30.2549     7.6628     7.6868     7.8287    87.2678
 1709.0000     8.5211     2.5717     0.0153  2540.9407     0.2985   -29.9515     7.6680     7.6914     7.8330    88.0516
 1709.5000     8.5232     2.5678     0.0124  2539.2749     0.2958   -29.9458     7.6742     7.6961     7.8372    88.9148
 1710.0000     8.5247     2.5576     0.0095  2522.5615     0.2921   -29.6424     7.7334     7.7007     7.7860    88.1957
 1710.5000     8.5267     2.5524     0.0112  2521.1069     0.2942   -29.6366     7.7931     7.8134     7.7361    86.3486
 1711.0000     8.5284     2.5494     0.0113  2519.6377     0.2908   -29.3332     7.7990     7.8193     7.7413    85.4213
 1711.5000     8.5301     2.5518     0.0114  2502.7278     0.2914   -29.3175     7.8061     7.8240     7.7997    84.7338
 1712.0000     8.5319     2.5556     0.0116  2494.7283     0.2977   -29.0227     7.8119     7.8288     7.8585    83.5667
 1712.5000     8.5340     2.5555     0.0087  2469.6067     0.3061   -29.0169     7.8176     7.8335     7.8629    83.3583
 1713.0000     8.5355     2.5482     0.0073  2468.1521     0.3018   -29.1599     7.7155     7.8383     7.8681    83.6318
 1713.5000     8.5375     2.5483     0.0090  2451.6616     0.3042   -29.3044     7.7212     7.8430     7.8723    83.6714
 1714.0000     8.5542     2.5484     0.0109  2465.2424     0.3042   -29.2972     7.6202     7.7394     7.8766    83.7036
 1714.5000     8.5559     2.5492     0.0116  2463.7463     0.2977   -29.2915     7.5208     7.6317     7.7708    83.4878
 1715.0000     8.5426     2.5493     0.0124  2462.2358     0.2936   -29.2857     7.4090     7.3304     7.7210    84.0079
 1715.5000     8.5448     2.5486     0.0080  2460.5144     0.2993   -29.2798     7.0278     6.9378     7.6724    84.7597
 1716.0000     8.5615     2.5457     0.0021  2459.0596     0.3031   -29.4230     6.4706     6.5207     7.5705    85.7779
 1716.5000     8.5632     2.5390     0.0007  2457.6047     0.3100   -29.4158     6.0409     6.0440     7.3591    86.7513
 1717.0000     8.5650     2.5383     0.0039  2456.1497     0.3058   -29.4100     5.4852     5.6413     6.9718    87.0233
 1717.5000     8.5817     2.5399     0.0101  2454.6826     0.3094   -29.5545     5.0854     5.2654     6.5062    87.0556
 1718.0000     8.5838     2.5415     0.0162  2468.3457     0.3148   -29.5473     4.9155     5.0177     5.9876    87.5675
 1718.5000     8.5853     2.5400     0.0194  2481.9968     0.3186   -29.5416     4.8844     4.9175     5.5103    88.7991
 1719.0000     8.5915     2.5386     0.0195  2510.7534     0.3174   -29.5258     4.8549     4.9212     4.4735    89.5825
 1719.5000     8.6189     2.5357     0.0242  2508.9348     0.3192   -29.2310     4.9273     4.9242     5.0037    90.0630
 1720.0000     8.6279     2.5297     0.0348  2522.9495     0.3275   -29.2252     4.9310     4.9962     7.0927    86.0253
 1720.5000     8.6375     2.5110     0.0440  2521.1311     0.3290   -28.9219     5.0385     5.0693     7.1481    83.6587
 1721.0000     8.6546     2.4471     0.0390  2504.5317     0.3170   -28.7673     5.2205     5.2155     6.6056    82.9632
 1721.5000     8.6713     2.3771     0.0021  2487.6462     0.3103   -28.9103     5.4467     5.5173     5.7651    83.0035
 1722.0000     8.6880     2.3953     0.0143  2471.0857     0.3082   -28.9048     5.6827     5.7603     5.0883    83.5870
 1722.5000     8.7047     2.4857     0.0506  2485.1006     0.3202   -28.8988     5.8498     6.0478     6.2746    85.4748
