~VERSION INFORMATION
 VERS.                2.0:   CWLS LOG ASCII STANDARD - VERSION 2.0
 WRAP.                 NO:   ONE LINE PER DEPTH STEP
~WELL INFORMATION
#MNEM.UNIT      DATA TYPE    INFORMATION
#----------   ------------   ------------------------------
 STRT.F          200.0000:   START DEPTH
 STOP.F         3209.0000:   STOP DEPTH
 STEP.F            0.5000:   STEP LENGTH
 NULL.          -999.2500:   NO VALUE
 COMP.    FENIX & SCISSON:   COMPANY
 WELL. FENIX & SCISSON "AX" #88-3:   WELL
 FLD .             NPR #3:   FIELD
 LOC .       S3 T38N R78W:   LOCATION
 CNTY.            NATRONA:   COUNTY
 STAT.            WYOMING:   STATE
 CTRY. UNITED STATES OF AMERICA:   COUNTRY
 SRVC.              WELEX:   SERVICE COMPANY
 DATE.        27-JUL-1977:   LOGDATE
 API .     49025104060000:   API NUMBER
~CURVE INFORMATION
#MNEM.UNIT       API CODE    CURVE DESCRIPTION
#----------   ------------   ------------------------------
 DEPT.F                  :   
 CALD.IN     45 280 60 00:   CALIPER FROM DENSITY LOG
 GRD .GAPI   45 310 01 00:   GAMMA RAY FROM DENSITY LOG
 RHOB.G/C3   45 350 01 00:   BULK DENSITY
 CORR.G/C3   45 356 01 00:   DENSITY CORRECTION
 NPHI.DEC    42 890 03 00:   NEUTRON POROSITY SANDSTONE
 SPR .MV     07 010 01 00:   SPONTANEOUS POTENTIAL
 SGRD.OHMM   07 220 05 00:   GUARD LOG RESISTIVITY
 FORX.OHMM   07 000 00 00:   
~PARAMETER INFORMATION
#MNEM.UNIT          VALUE    DESCRIPTION
#----------   ------------   ------------------------------
 EKB .F         5134.0000:   Kelly bushing
 EGL .F         5124.0000:   Ground level
 EDF .F            0.0000:   Drilling floor
 TD  .F         3211.0000:   Total depth
 CLNT.            A2DTECH:   Client Code
 SL  . 230' FSL & 380' FEL:   Surface Location
 PD  .                 GL:   Permanent Datum
 EPD .F              5124:   Elevation Permanent Datum
 LMF .                 KB:   Log Measured From
 DMF .                 KB:   Drilling Measured From
 DAPD.F                10:   Feet Above Permanent Datum
 DATE.        27-JUL-1977:   Date Logged [DD-MMM-YYYY]
 DD  .F              3200:   Depth driller
 DL  .F              3211:   Depth logger
 BLI .F              3210:   Bottom log interval
 TLI .F               200:   Top log interval
 CS1 .IN            8.625:   Casing size
 CBD1.      8.625" @ 218':   Casing driller 1
 CBL1.F               218:   Casing logger 1
 BS1 .IN            7.875:   Bit size
 BSD1.F              3200:   Depth drilled with bit1
 DFT .            KCL MUD:   Type fluid in hole
 DFD .                9.2:   Density
 DFV .                 36:   Viscosity
 DFPH.                9.5:   pH
 DFL .                9.6:   Fluid loss
 MSS .           FLOWLINE:   Source of sample
 RMS .OHMM           0.61:   Rm
 MST .F                85:   Rm Meas. temp.
 RMF .OHMM           0.53:   Rmf
 MFST.F                85:   Rmf Meas. temp.
 MFSS.               FANN:   Source Rmf.
 RMC .OHMM           0.48:   Rmc
 MCST.F                85:   Rmc Meas. temp.
 MCSS.                KIT:   Source Rmc.
 RMB .OHMM           0.42:   Rm. at BHT
 BHT .F               122:   BHT.
 TCS .HRS             2.5:   Time Circ. stopped
 MRT .F               122:   Maximum recorded temp.
 LUN .               8611:   Logging unit number
 LUL .             CASPER:   Logging unit location
 ENGI.            C. DOAK:   Recorded By
 WITN.      E. HARRINGTON:   Witnessed by
 ORIG.      2.5" 5" PRINT:   Origin of data
 UWI .     49025104060000:   Unique Well ID
 DICO. A2D TECHNOLOGIES, INC.:   Digitizing Company
~OTHER INFORMATION
~A   DEPT       CALD       GRD        RHOB      CORR        NPHI       SPR      SGRD         FORX 
# ...
 1374.5000    10.3419    96.2522     2.4046     0.0529     0.2843   -51.5659     5.9764     8.3222
 1375.0000    10.3687    96.2908     2.4175     0.0546     0.2820   -51.5964     6.1435     9.1728
 1375.5000    10.3795    96.6311     2.4318     0.0592     0.2759   -51.6515     6.2294     9.0287
 1376.0000    10.4094    97.1395     2.4387     0.0609     0.2694   -51.7029     6.2306     7.6256
 1376.5000    10.4342    97.6132     2.4447     0.0611     0.2639   -51.7540     6.1471     8.6274
 1377.0000    10.4515    98.5297     2.4479     0.0628     0.2602   -51.8061     6.2331     8.3967
 1377.5000    10.4682    99.1967     2.4518     0.0644     0.2596   -51.8575     6.2344     7.3247
 1378.0000    10.4999    99.8556     2.4546     0.0676     0.2560   -51.9091     5.9034     6.7491
 1378.5000    10.5023   100.5371     2.4584     0.0686     0.2584   -51.9608     5.6640     6.6590
 1379.0000    10.5041   101.0529     2.4642     0.0701     0.2643   -52.0124     5.5083     6.7527
 1379.5000    10.5061   100.9788     2.4710     0.0726     0.2720   -52.0641     5.4413     7.5360
 1380.0000    10.5230   100.5341     2.4801     0.0728     0.2782   -52.1154     5.4425     7.4355
 1380.5000    10.5253   100.0650     2.4866     0.0730     0.2708   -52.1674     5.5379     7.4325
 1381.0000    10.5272    99.3175     2.4909     0.0710     0.2655   -52.2189     5.6969     7.3384
 1381.5000    10.5293    98.8100     2.4701     0.0703     0.2636   -52.2693     5.8605     7.3256
 1382.0000    10.5314    98.2355     2.4613     0.0691     0.2617   -52.3256     5.8328     7.2425
 1382.5000    10.5336    97.7534     2.4584     0.0692     0.2596   -52.3584     5.6404     7.1460
 1383.0000    10.5356    97.5015     2.4608     0.0694     0.2608   -52.4058     5.6406     7.2467
 1383.5000    10.5527    97.2433     2.4653     0.0696     0.2632   -52.4583     5.8486     7.3840
 1384.0000    10.5694    96.9845     2.4671     0.0690     0.2703   -52.5124     5.9998     7.4929
 1384.5000    10.5867    97.0237     2.4587     0.0684     0.2841   -52.5647     6.0010     7.6607
 1385.0000    10.5887    97.0623     2.4464     0.0669     0.2859   -52.6179     5.9206     7.5587
 1385.5000    10.5905    97.1009     2.4398     0.0658     0.2836   -52.6709     5.9218     7.5042
 1386.0000    10.5926    97.1395     2.4288     0.0645     0.2762   -52.7239     5.9229     7.4600
 1386.5000    10.5947    97.1780     2.4379     0.0647     0.2768   -52.7769     5.8435     7.4624
 1387.0000    10.5967    97.2166     2.4492     0.0648     0.2774   -52.8299     5.6870     7.4644
 1387.5000    10.5991    97.2552     2.4561     0.0650     0.2809   -52.8829     5.6108     7.5693
 1388.0000    10.5944    97.4487     2.4630     0.0637     0.2853   -52.9361     5.6934     8.6817
 1388.5000    10.5881    97.6291     2.4684     0.0624     0.2821   -52.9888     5.8569     7.7835
 1389.0000    10.5904    97.6719     2.4685     0.0641     0.2703   -53.0422     6.0251     7.3708
 1389.5000    10.5720    98.0073     2.4656     0.0642     0.2634   -53.0955     6.1139     7.3728
 1390.0000    10.5646    98.0415     2.4650     0.0644     0.2467   -53.1366     6.2664     8.3414
 1390.5000    10.5519    98.0820     2.4693     0.0646     0.2497   -53.1369     6.2677     7.7813
 1391.0000    10.5539    98.4192     2.4758     0.0648     0.2547   -53.1377     6.0383     7.3787
 1391.5000    10.5562    98.4540     2.4822     0.0650     0.2619   -53.1373     5.7425     7.3808
 1392.0000    10.5429    98.7117     2.4875     0.0651     0.2679   -53.1373     5.6986     7.4031
 1392.5000    10.5307    99.1576     2.4934     0.0654     0.2708   -53.1374     5.6636     7.5898
 1393.0000    10.5173    99.4649     2.4891     0.0655     0.2724   -53.1373     5.7471     7.5918
 1393.5000    10.5198    99.4985     2.4788     0.0657     0.2716   -53.1373     6.0232     7.8046
 1394.0000    10.5070    99.5371     2.4699     0.0659     0.2704   -53.1373     6.2769     8.0471
 1394.5000    10.5091    99.5769     2.4715     0.0675     0.2716   -53.1373     6.2781     8.2483
 1395.0000    10.5112    99.6173     2.4911     0.0677     0.2728   -53.1373     6.2794     8.1392
 1395.5000    10.5132    99.3561     2.5065     0.0702     0.2740   -53.1373     6.0280     7.6972
 1396.0000    10.5002    99.0954     2.5206     0.0726     0.2804   -53.1373     5.9472     7.3990
 1396.5000    10.5029    98.8454     2.5334     0.0742     0.2865   -53.1373     5.7879     7.9256
 1397.0000    10.4893    98.8783     2.5425     0.0744     0.2929   -53.1373     5.7890     8.2599
 1397.5000    10.4846    98.8180     2.5516     0.0761     0.2964   -53.1372     5.7115     8.0391
 1398.0000    10.4790    98.6588     2.5630     0.0748     0.2929   -53.1370     5.7034     7.8239
 1398.5000    10.4815    98.1045     2.5641     0.0750     0.2869   -53.1374     5.6361     7.9340
 1399.0000    10.4835    98.1424     2.5489     0.0736     0.2822   -53.1367     5.9106     8.7340
 1399.5000    10.4853    97.8843     2.5387     0.0708     0.2808   -53.1371     6.2907     9.1025
 1400.0000    10.4874    97.9291     2.5282     0.0695     0.2797   -53.1383     6.0946     8.9812
 1400.5000    10.4895    97.8922     2.5180     0.0697     0.2790   -53.1323     6.0401     8.5993
 1401.0000    10.4916    97.6977     2.5122     0.0700     0.2799   -53.1868     5.9594     7.7093
 1401.5000    10.4937    97.7443     2.5138     0.0702     0.2799   -53.2861     5.9607     7.4212
 1402.0000    10.5001    97.7817     2.5311     0.0704     0.2811   -53.3786     5.9439     7.4438
 1402.5000    10.5065    97.7628     2.5416     0.0707     0.2823   -53.4708     5.9570     7.9254
 1403.0000    10.5130    97.7240     2.5447     0.0658     0.2823   -53.5647     6.0391     8.6341
 1403.5000    10.5194    97.6852     2.5366     0.0583     0.2811   -53.6573     5.9528     9.2481
 1404.0000    10.5258    97.6463     2.5255     0.0519     0.2807   -53.7504     5.7962     8.3685
 1404.5000    10.5322    97.6075     2.5149     0.0476     0.2807   -53.8435     5.7048     7.4100
 1405.0000    10.5386    97.5687     2.5057     0.0448     0.2807   -53.9365     5.6397     7.1363
 1405.5000    10.5450    97.5298     2.4982     0.0466     0.2819   -54.0301     5.6397     7.2368
 1406.0000    10.5514    97.4910     2.4960     0.0483     0.2837   -54.1221     5.6651     7.4669
 1406.5000    10.5579    97.4522     2.5039     0.0515     0.2872   -54.2172     5.7474     7.9295
 1407.0000    10.5643    97.4076     2.5172     0.0536     0.2903   -54.3091     5.8664     8.0803
 1407.5000    10.5707    96.7359     2.5285     0.0549     0.2920   -54.3970     6.0391     7.7762
 1408.0000    10.5750    96.0041     2.5308     0.0552     0.2913   -54.5087     6.1223     7.7037
 1408.5000    10.5776    95.4679     2.5273     0.0554     0.2886   -54.5694     6.0391     8.1501
 1409.0000    10.5801    96.1071     2.5218     0.0556     0.2765   -54.6474     5.9570     8.4140
 1409.5000    10.5828    96.7004     2.5154     0.0558     0.2687   -53.9566     5.8760     7.6611
 1410.0000    10.5854    97.4284     2.5098     0.0561     0.2633   -53.9392     5.8760     7.5244
 1410.5000    10.5883    97.9120     2.5044     0.0518     0.2631   -53.9080     5.9570     7.8779
 1411.0000    10.5908    98.0822     2.4994     0.0453     0.2649   -53.9267     6.0391     7.9886
 1411.5000    10.5939    98.1318     2.4936     0.0430     0.2680   -53.9211     5.9570     7.8819
 1412.0000    10.5961    97.8694     2.4876     0.0390     0.2716   -53.9202     5.8760     7.6713
 1412.5000    10.5988    97.6299     2.4856     0.0401     0.2754   -53.9221     5.8794     7.5690
 1413.0000    10.6015    97.2992     2.4848     0.0437     0.2772   -53.9210     5.9729     7.4682
 1413.5000    10.6042    96.8309     2.4953     0.0472     0.2783   -53.9216     6.2067     8.4494
 1414.0000    10.6073    96.8847     2.5134     0.0519     0.2789   -53.9216     6.1892     8.3292
 1414.5000    10.6098    96.6224     2.5180     0.0506     0.2789   -53.9216     6.1005     7.9910
