~VERSION INFORMATION
 VERS.                2.0:   CWLS LOG ASCII STANDARD - VERSION 2.0
 WRAP.                 NO:   ONE LINE PER DEPTH STEP
~WELL INFORMATION
#MNEM.UNIT      DATA TYPE    INFORMATION
#----------   ------------   ------------------------------
 STRT.F            4.0000:   START DEPTH
 STOP.F         3266.0000:   STOP DEPTH
 STEP.F            0.5000:   STEP LENGTH
 NULL.          -999.2500:   NO VALUE
 COMP. LAWRENCE ALLISON & ASSOSCIATES:   COMPANY
 WELL. LAWRENCE "X" #27-11:   WELL
 FLD .          N.P.R. #3:   FIELD
 LOC .      S11 T38N R78W:   LOCATION
 CNTY.            NATRONA:   COUNTY
 STAT.            WYOMING:   STATE
 CTRY. UNITED STATES OF AMERICA:   COUNTRY
 SRVC.      DRESSER ATLAS:   SERVICE COMPANY
 DATE.        22-AUG-1986:   LOGDATE
 API .     49025111070000:   API NUMBER
~CURVE INFORMATION
#MNEM.UNIT       API CODE    CURVE DESCRIPTION
#----------   ------------   ------------------------------
 DEPT.F                  :   
 SPR .MV     07 010 01 00:   SPONTANEOUS POTENTIAL
 TENR.LBS    06 635 01 00:   TENSION FROM RESISTIVITY
 GRR .GAPI   07 310 01 00:   GAMMA RAY FROM RESISTIVITY
 RILD.OHMM   07 120 46 00:   DEEP INDUCTION RESISTIVITY
 RILM.OHMM   07 120 44 00:   INDUCTION LOG MEDIUM RESISTIVITY
 RFOC.OHMM   07 220 04 00:   RESISTIVITY FOCUSED LOG RES.
 NPHI.DEC    42 890 03 00:   NEUTRON POROSITY SANDSTONE
 CALD.IN     45 280 60 00:   CALIPER FROM DENSITY LOG
 RHOB.G/C3   45 350 01 00:   BULK DENSITY
 CORR.G/C3   45 356 01 00:   DENSITY CORRECTION
 TEND.LBS    45 635 01 00:   TENSION FORM DENSITY LOG
~PARAMETER INFORMATION
#MNEM.UNIT          VALUE    DESCRIPTION
#----------   ------------   ------------------------------
 EKB .F         5206.0000:   Kelly bushing
 EGL .F         5194.0000:   Ground level
 EDF .F         5205.0000:   Drilling floor
 EPD .F         5194.0000:   Permanent datum
 TD  .F         3250.0000:   Total depth
 CLNT.            A2DTECH:   Client Code
 SL  . 1197' FSL & 1088' FWL:   Surface Location
 PD  .                 GL:   Permanent Datum
 DAPD.F                12:   Feet Above Permanent Datum
 DATE.        22-AUG-1986:   Date Logged [DD-MMM-YYYY]
 DD  .F              3250:   Depth driller
 DL  .F              3246:   Depth logger
 BLI .F              3243:   Bottom log interval
 TLI .F               683:   Top log interval
 CS1 .IN            8.625:   Casing size
 CBD1.      8.625" @ 672':   Casing driller 1
 CBL1.F               673:   Casing logger 1
 BS1 .IN            7.875:   Bit size
 BSD1.F              3250:   Depth drilled with bit1
 DFT .            KCL-GEL:   Type fluid in hole
 DFD .                8.9:   Density
 DFV .                 35:   Viscosity
 MSS .               TANK:   Source of sample
 RMS .OHMM           0.31:   Rm
 MST .F                70:   Rm Meas. temp.
 RMF .OHMM           0.29:   Rmf
 MFST.F                67:   Rmf Meas. temp.
 MFSS.               CALC:   Source Rmf.
 RMC .OHMM           0.46:   Rmc
 MCST.F                70:   Rmc Meas. temp.
 MCSS.               CALC:   Source Rmc.
 RMB .OHMM           0.16:   Rm. at BHT
 BHT .F               136:   BHT.
 TCS .HRS               4:   Time Circ. stopped
 MRT .F               136:   Maximum recorded temp.
 LUN .            HL-6426:   Logging unit number
 LUL .          RK. SPGS.:   Logging unit location
 ENGI.               RALL:   Recorded By
 WITN.             STRONG:   Witnessed by
 ORIG.           5" PRINT:   Origin of data
 UWI .     49025111070000:   Unique Well ID
 DICO. A2D TECHNOLOGIES, INC.:   Digitizing Company
~OTHER INFORMATION
~A    DEPT     SPR       TENR         GRR      RILD       RILM       RFOC       NPHI       CALD       RHOB       CORR       TEND   
# ...
 1712.0000   -72.6242   -83.5571   115.1746     7.7339     7.7441     8.6726  -999.2500  -999.2500  -999.2500  -999.2500  -999.2500
 1712.5000   -72.1539   -83.8490   117.3047     7.7318     7.6922     8.6755  -999.2500  -999.2500  -999.2500  -999.2500  -999.2500
 1713.0000   -71.6864   -76.5861   114.9985     7.7297     7.6961     8.8665  -999.2500  -999.2500  -999.2500  -999.2500  -999.2500
 1713.5000   -71.2206   -76.8882   109.7990     7.7271     7.6993     9.0548  -999.2500  -999.2500  -999.2500  -999.2500  -999.2500
 1714.0000   -70.7550   -77.2448   107.3012     7.7251     7.7024     9.1215  -999.2500  -999.2500  -999.2500  -999.2500  -999.2500
 1714.5000   -70.2886   -77.5367   105.5448     7.7230     7.7063     9.0609  -999.2500  -999.2500  -999.2500  -999.2500  -999.2500
 1715.0000   -69.8247   -77.8286   104.2044     7.6137     7.7095     9.0639  -999.2500  -999.2500  -999.2500  -999.2500  -999.2500
 1715.5000   -69.4521   -78.1205   103.9237     7.4913     7.7126     9.0030  -999.2500  -999.2500  -999.2500  -999.2500  -999.2500
 1716.0000   -69.2296   -78.4124   105.9450     7.3581     7.5548     8.8814  -999.2500  -999.2500  -999.2500  -999.2500  -999.2500
 1716.5000   -68.9506   -71.1480   110.2235     7.1103     7.4517     8.6921  -999.2500  -999.2500  -999.2500  -999.2500  -999.2500
 1717.0000   -68.8521   -70.7476   115.0089     7.0594     7.2999     8.2870  -999.2500  -999.2500  -999.2500  -999.2500  -999.2500
 1717.5000   -68.8499   -64.1824   116.8727     6.9600     7.2011     8.1167  -999.2500  -999.2500  -999.2500  -999.2500  -999.2500
 1718.0000   -68.8470   -56.9214   115.2817     6.9101     7.2555     8.1202  -999.2500  -999.2500  -999.2500  -999.2500  -999.2500
 1718.5000   -68.9757   -57.2863   109.9728     6.9084     7.3612     8.2954  -999.2500  -999.2500  -999.2500  -999.2500  -999.2500
 1719.0000   -69.1209   -65.1310   103.6751     7.2532     7.5210     8.5340  -999.2500  -999.2500  -999.2500  -999.2500  -999.2500
 1719.5000   -69.2666   -80.5287   100.3374     7.4054     7.6843     9.0923  -999.2500  -999.2500  -999.2500  -999.2500  -999.2500
 1720.0000   -69.4124   -88.3734   100.7529     7.5085     7.7417     9.2238  -999.2500  -999.2500  -999.2500  -999.2500  -999.2500
 1720.5000   -69.7604   -96.2236   103.5169     7.6656     7.7994     9.0357  -999.2500  -999.2500  -999.2500  -999.2500  -999.2500
 1721.0000   -70.2799   -88.9573   106.7793     7.7178     7.9131     8.7891  -999.2500  -999.2500  -999.2500  -999.2500  -999.2500
 1721.5000   -71.0055   -81.7693   109.4593     7.8248     7.9170     8.8538  -999.2500  -999.2500  -999.2500  -999.2500  -999.2500
 1722.0000   -71.8011   -82.0611   110.4904     7.8228     7.9202     9.1085  -999.2500  -999.2500  -999.2500  -999.2500  -999.2500
 1722.5000   -72.2869   -74.7272   109.3174     7.8765     7.9235     9.1748  -999.2500  -999.2500  -999.2500  -999.2500  -999.2500
 1723.0000   -72.6455   -75.0920   105.5920     7.8745     7.9267     8.9251  -999.2500  -999.2500  -999.2500  -999.2500  -999.2500
 1723.5000   -72.4008   -75.3840   105.8771     7.8729     7.9299     8.8658  -999.2500  -999.2500  -999.2500  -999.2500  -999.2500
 1724.0000   -72.2020   -75.6798   107.6615     7.8713     7.9331     8.9319  -999.2500  -999.2500  -999.2500  -999.2500  -999.2500
 1724.5000   -71.9954   -83.5936   104.9152     7.8149     7.9365     9.1247  -999.2500  -999.2500  -999.2500  -999.2500  -999.2500
 1725.0000   -71.6096   -83.8855   100.1183     7.7589     7.8840     9.1278  -999.2500  -999.2500  -999.2500  -999.2500  -999.2500
 1725.5000   -70.9269   -99.2832    99.9176     7.7033     7.8880     8.8786  -999.2500  -999.2500  -999.2500  -999.2500  -999.2500
 1726.0000   -70.2478  -107.1279   105.5657     7.6477     7.8352     8.7580  -999.2500  -999.2500  -999.2500  -999.2500  -999.2500
 1726.5000   -69.5689  -107.4198   111.5440     7.5401     7.7835     8.6998  -999.2500  -999.2500  -999.2500  -999.2500  -999.2500
 1727.0000   -69.1728  -107.7117   111.4126     7.4860     7.6250     8.7073  -999.2500  -999.2500  -999.2500  -999.2500  -999.2500
 1727.5000   -68.8333  -100.4508   110.6912     7.3292     7.4691     9.0168  -999.2500  -999.2500  -999.2500  -999.2500  -999.2500
 1728.0000   -68.4946   -85.7099   110.1288     7.2767     7.2591     9.0825  -999.2500  -999.2500  -999.2500  -999.2500  -999.2500
 1728.5000   -68.1572   -78.3759   107.5010     7.1743     7.2171     8.5312  -999.2500  -999.2500  -999.2500  -999.2500  -999.2500
 1729.0000   -67.8252   -71.1150   105.9780     6.9718     7.3746     7.9013  -999.2500  -999.2500  -999.2500  -999.2500  -999.2500
 1729.5000   -67.3618   -63.8540   108.6631     6.8287     7.5347     7.6849  -999.2500  -999.2500  -999.2500  -999.2500  -999.2500
 1730.0000   -67.2081   -64.2189   111.7247     6.7801     7.5909     7.8514  -999.2500  -999.2500  -999.2500  -999.2500  -999.2500
 1730.5000   -67.5973   -64.5107   113.5095     6.9220     7.5409     8.0816  -999.2500  -999.2500  -999.2500  -999.2500  -999.2500
 1731.0000   -68.1475   -72.3565   113.9121     7.0675     7.4911     8.1946  -999.2500  -999.2500  -999.2500  -999.2500  -999.2500
 1731.5000   -68.9878   -72.6586   114.6968     7.1655     7.5471     8.3131  -999.2500  -999.2500  -999.2500  -999.2500  -999.2500
 1732.0000   -69.8437   -73.0123   116.3944     7.2646     7.6577     8.4924  -999.2500  -999.2500  -999.2500  -999.2500  -999.2500
 1732.5000   -70.6830   -73.3042   117.9299     7.3140     7.7692     8.9222  -999.2500  -999.2500  -999.2500  -999.2500  -999.2500
 1733.0000   -71.4743   -73.5961   115.2540     7.3125     7.7724     9.2433  -999.2500  -999.2500  -999.2500  -999.2500  -999.2500
 1733.5000   -72.1988   -73.8880   112.7429     7.3107     7.6670     9.4428  -999.2500  -999.2500  -999.2500  -999.2500  -999.2500
 1734.0000   -72.5858   -74.1799   113.0980     7.3092     7.4576     9.0421  -999.2500  -999.2500  -999.2500  -999.2500  -999.2500
 1734.5000   -72.6661   -66.9185   115.1018     7.3077     7.4084     8.4474  -999.2500  -999.2500  -999.2500  -999.2500  -999.2500
 1735.0000   -73.0933   -67.2205   113.9952     7.2554     7.4115     8.3328  -999.2500  -999.2500  -999.2500  -999.2500  -999.2500
 1735.5000   -73.0715   -59.9499   113.0704     7.2539     7.4152     8.3363  -999.2500  -999.2500  -999.2500  -999.2500  -999.2500
 1736.0000   -72.7064   -60.3147   113.9926     7.2019     7.3655     8.3977  -999.2500  -999.2500  -999.2500  -999.2500  -999.2500
 1736.5000   -72.3666   -60.6066   114.4448     7.1470     7.2149     8.4596  -999.2500  -999.2500  -999.2500  -999.2500  -999.2500
 1737.0000   -72.2902   -60.8985   112.3734     7.0493     7.0178     8.7029  -999.2500  -999.2500  -999.2500  -999.2500  -999.2500
 1737.5000   -71.5634   -61.1904   111.5857     7.0478     6.9234     8.7059  -999.2500  -999.2500  -999.2500  -999.2500  -999.2500
 1738.0000   -70.9482   -61.4823   113.3983     6.9973     6.9262     8.5284  -999.2500  -999.2500  -999.2500  -999.2500  -999.2500
 1738.5000   -70.3020   -61.7825   115.6713     6.8988     6.9291     8.4710  -999.2500  -999.2500  -999.2500  -999.2500  -999.2500
 1739.0000   -69.6558   -62.1391   113.4107     6.8975     6.9325     8.4746  -999.2500  -999.2500  -999.2500  -999.2500  -999.2500
 1739.5000   -69.4982   -62.4310   108.8623     6.8961     6.9843     8.4775  -999.2500  -999.2500  -999.2500  -999.2500  -999.2500
 1740.0000   -68.8482   -62.7229   106.2068     6.8946     7.0364     8.3624  -999.2500  -999.2500  -999.2500  -999.2500  -999.2500
 1740.5000   -68.8630   -63.0148   105.9181     6.9415     7.0392     8.1341  -999.2500  -999.2500  -999.2500  -999.2500  -999.2500
 1741.0000   -68.8839   -63.3066   106.8828     6.9398     7.0917     8.0237  -999.2500  -999.2500  -999.2500  -999.2500  -999.2500
 1741.5000   -69.8972   -63.5986   108.1553     6.9384     7.0450     8.2551  -999.2500  -999.2500  -999.2500  -999.2500  -999.2500
 1742.0000   -69.6206   -63.8973   108.6566     6.8887     6.9015     8.9820  -999.2500  -999.2500  -999.2500  -999.2500  -999.2500
