~VERSION INFORMATION
 VERS.                2.0:   CWLS LOG ASCII STANDARD - VERSION 2.0
 WRAP.                 NO:   ONE LINE PER DEPTH STEP
~WELL INFORMATION
#MNEM.UNIT      DATA TYPE    INFORMATION
#----------   ------------   ------------------------------
 STRT.F           36.0000:   START DEPTH
 STOP.F         4960.0000:   STOP DEPTH
 STEP.F            0.5000:   STEP LENGTH
 NULL.          -999.2500:   NO VALUE
 COMP.   TESORO PETROLEUM:   COMPANY
 WELL. TESORO NPR 3 "DX" #55-23:   WELL
 FLD .        TEAPOT DOME:   FIELD
 LOC .      S23 T38N R78W:   LOCATION
 CNTY.            NATRONA:   COUNTY
 STAT.            WYOMING:   STATE
 CTRY. UNITED STATES OF AMERICA:   COUNTRY
 SRVC.           BIRDWELL:   SERVICE COMPANY
 DATE.        17-AUG-1975:   LOGDATE
 API .     49025102510000:   API NUMBER
~CURVE INFORMATION
#MNEM.UNIT       API CODE    CURVE DESCRIPTION
#----------   ------------   ------------------------------
 DEPT.F                  :   
 TEND.LBS    45 635 01 00:   TENSION FROM DENSITY LOG
 CALD.IN     45 280 60 00:   CALIPER FROM DENSITY LOG
 CORR.G/C3   45 356 01 00:   DENSITY CORRECTION
 GRD .GAPI   45 310 01 00:   GAMMA RAY FROM DENSITY LOG
 RHOB.G/C3   45 350 01 00:   BULK DENSITY
 SPR .MV     07 010 01 00:   SPONTANEOUS POTENTIAL
 ILM .OHMM   07 120 44 00:   INDUCTION LOG MEDIUM RESISTIVITY
 ILD .OHMM   07 120 46 00:   DEEP INDUCTION RESISTIVITY
 SFL .OHMM   07 220 01 00:   SHALLOW FOCUSED LOG RESISTIVITY
~PARAMETER INFORMATION
#MNEM.UNIT          VALUE    DESCRIPTION
#----------   ------------   ------------------------------
 EKB .F         5371.0000:   Kelly bushing
 EGL .F         5360.0000:   Ground level
 EDF .F            0.0000:   Drilling floor
 TD  .F         4955.0000:   Total depth
 DATE.        17-AUG-1975:   Date logged
 CLNT.            A2DTECH:   Client Code
 SL  . 1980' FSL & 2030' FEL:   Surface Location
 PD  .                 GL:   Permanent Datum
 DD  .F              4955:   Depth driller
 DL  .F              4945:   Depth logger
 BLI .F              4943:   Bottom log interval
 CS1 .IN            8.625:   Casing size
 CBD1.     8.625" @ 1450':   Casing driller 1
 CBL1.F              1457:   Casing logger 1
 BS1 .IN            7.875:   Bit size
 DFT .            KCL/GEL:   Type fluid in hole
 DFD .                9.5:   Density
 DFV .                 53:   Viscosity
 DFPH.                8.5:   pH
 DFL .                7.4:   Fluid loss
 MSS .           FLOWLINE:   Source of sample
 RMS .OHMM            1.2:   Rm
 MST .F                72:   Rm Meas. temp.
 RMF .OHMM            .94:   Rmf
 MFST.F                74:   Rmf Meas. temp.
 MFSS.               MEAS:   Source Rmf.
 RMB .OHMM            .71:   Rm. at BHT
 BHT .F               121:   BHT.
 TCS .HRS               4:   Time Circ. stopped
 MRT .F               121:   Maximum recorded temp.
 LUN .               6078:   Logging unit number
 LUL .              GLTTE:   Logging unit location
 ENGI.      NORDEN/SUTTON:   Recorded By
 WITN.          UNDERWOOD:   Witnessed by
 ORIG.           5" PRINT:   Origin of data
 UWI .     49025102510000:   Unique Well ID
 DICO. A2D TECHNOLOGIES, INC.:   Digitizing Company
 DAPD.F                11:   Feet Above Permanent Datum
 BSD1.F              5360:   Depth drilled with bit1
 EPD .F              5360:   Elevation Permanent Datum
 LMF .                 KB:   Log Measured From
 DMF .                 KB:   Drilling Measured From
 TLI .F              1457:   Top log interval
~OTHER INFORMATION
~A   DEPT     TEND       CALD       CORR        GRD       RHOB        SPR        ILM        ILD          SFL 
# ...
 4562.0000  2305.8821     9.0110     0.0170    67.1210     2.4870   -21.7040     6.6130     7.0000     7.5810
 4562.5000  2333.3569     9.0180     0.0170    67.4030     2.4830   -21.6760     6.6830     7.0660     7.7290
 4563.0000  2311.5229     9.0250     0.0180    67.0420     2.4800   -21.6470     6.7520     7.1330     8.0230
 4563.5000  2289.6880     9.0320     0.0200    66.6110     2.4800   -21.6140     6.8210     7.1990     8.3170
 4564.0000  2323.0310     9.0370     0.0180    68.9880     2.4810   -21.7150     6.8900     7.2660     8.5780
 4564.5000  2302.9641     9.0330     0.0150    71.6870     2.4800   -21.8330     6.9590     7.3320     8.3280
 4565.0000  2275.1741     9.0290     0.0120    73.5890     2.4770   -21.9530     7.0280     7.3990     8.1010
 4565.5000  2274.0979     9.0250     0.0100    75.3840     2.4720   -22.0180     7.0710     7.4650     8.0430
 4566.0000  2318.2451     9.0210     0.0080    77.1890     2.4680   -22.0300     7.1270     7.5320     8.3960
 4566.5000  2294.2700     9.0170     0.0080    77.8560     2.4650   -22.0420     7.1980     7.5980     8.9940
 4567.0000  2270.2949     9.0130     0.0080    77.6110     2.4660   -22.0540     7.2700     7.6650     9.5910
 4567.5000  2246.3201     9.0090     0.0090    78.1250     2.4690   -22.0660     7.3360     7.7520    10.0310
 4568.0000  2342.9709     9.0050     0.0140    78.8400     2.4730   -22.0790     7.3360     7.7350     9.4280
 4568.5000  2282.2200     9.0010     0.0210    80.7210     2.4760   -22.0910     7.2420     7.6990     8.8640
 4569.0000  2181.6770     8.9960     0.0280    82.6260     2.4730   -22.1030     7.1690     7.6500     8.2990
 4569.5000  2063.8091     8.9850     0.0350    84.5310     2.4820   -22.1150     7.0950     7.5910     8.0430
 4570.0000  2308.0759     8.9750     0.0420    84.7790     2.4900   -22.1270     7.0220     7.6110     8.0430
 4570.5000  2357.2000     8.9650     0.0440    83.1430     2.4800   -22.1390     6.8330     7.2230     8.2280
 4571.0000  2349.9221     8.9550     0.0420    86.0740     2.4630   -22.1510     6.3910     6.8270     8.5420
 4571.5000  2342.9709     8.9450     0.0390    89.4930     2.4260   -22.1630     5.9500     6.4310     8.8560
 4572.0000  2295.6460     8.9340     0.0370    93.0130     2.4030   -22.1750     5.5090     6.0350     9.1490
 4572.5000  2274.3311     8.9240     0.0390    95.9670     2.4010   -22.1870     5.0670     5.7810     7.8200
 4573.0000  2313.5210     8.9140     0.0430    94.5260     2.4080   -22.1990     4.7170     5.6810     5.5670
 4573.5000  2352.7109     8.9040     0.0470    91.3580     2.4460   -22.2140     4.6740     5.5810     5.6980
 4574.0000  2342.1240     8.8940     0.0500    84.9680     2.4850   -22.3020     4.8700     5.5160     5.9510
 4574.5000  2303.0911     8.8840     0.0500    80.3330     2.4870   -22.3910     5.4330     5.8250     6.3150
 4575.0000  2303.0911     8.8740     0.0440    78.9900     2.4790   -22.4800     5.9200     6.0940     8.0890
 4575.5000  2303.0911     8.8630     0.0430    79.0200     2.4690   -22.5680     6.0780     6.3640    10.5030
 4576.0000  2303.0911     8.8530     0.0490    80.3550     2.4650   -22.6770     6.2830     6.6800    10.0670
 4576.5000  2303.0911     8.8430     0.0560    82.1020     2.4640   -22.8040     6.8010     7.1420     9.0650
 4577.0000  2303.0911     8.8330     0.0590    83.9270     2.4660   -22.9290     7.0710     7.4040     8.3450
 4577.5000  2303.0911     8.8230     0.0630    85.7800     2.4670   -22.9560     6.7430     7.1520     8.6560
 4578.0000  2353.2510     8.8210     0.0660    88.2220     2.4540   -22.8200     6.0980     6.6460     9.1800
 4578.5000  2368.7339     8.8240     0.0630    90.7620     2.4390   -22.6860     5.0200     6.1410     9.0030
 4579.0000  2327.9761     8.8280     0.0580    91.7360     2.4270   -22.6910     4.4230     5.6920     8.0830
 4579.5000  2316.3181     8.8310     0.0540    91.1220     2.4290   -22.8710     4.5060     5.5160     6.5040
 4580.0000  2350.2820     8.8350     0.0510    86.8990     2.4270   -23.0490     4.7200     5.3650     4.2720
 4580.5000  2338.0190     8.8380     0.0520    83.8610     2.4110   -23.1750     4.9350     5.3970     5.0560
 4581.0000  2298.3940     8.8420     0.0540    82.9610     2.3930   -22.9270     5.1490     5.4350     6.6240
 4581.5000  2258.7681     8.8450     0.0590    85.2460     2.3640   -22.6660     5.2190     5.4740     7.8720
 4582.0000  2223.3301     8.8490     0.0780    86.9760     2.3050   -23.0600     5.1720     5.5160     8.4220
 4582.5000  2271.6140     8.8520     0.1020    88.2400     2.2390   -22.8190     5.4540     5.7490     8.2150
 4583.0000  2315.2830     8.8560     0.1270    89.3750     2.1930   -22.1870     5.7220     6.0050     7.7970
 4583.5000  2322.2549     8.8590     0.1410    90.5120     2.2160   -21.8570     5.7220     6.2620     7.3800
 4584.0000  2265.6479     8.8630     0.1410    91.5280     2.2760   -22.0480     5.8220     6.5690     6.8780
 4584.5000  2234.4680     8.8660     0.1420    92.2770     2.3380   -22.2330     5.9490     6.5180     7.0320
 4585.0000  2239.2820     8.8700     0.1430    91.5110     2.4020   -22.4210     6.0470     6.4540     7.4540
 4585.5000  2307.2119     8.8730     0.1130    91.5230     2.4280   -22.6110     6.0470     6.3900     7.8750
 4586.0000  2342.9709     8.8770     0.0670    92.3390     2.4360   -22.8010     6.0470     6.3320     8.2980
 4586.5000  2323.5120     8.8800     0.0520    94.2620     2.4440   -22.7950     5.9920     6.5020     8.0400
 4587.0000  2305.5300     8.8840     0.0480    94.7780     2.4580   -22.7660     5.9920     6.6600     7.6970
 4587.5000  2287.5491     8.8870     0.0520    93.9530     2.5120   -22.7390     6.3850     6.8170     7.3360
 4588.0000  2300.2549     8.8910     0.0630    92.0780     2.5510   -22.7110     6.6910     6.9740     7.2690
 4588.5000  2322.8979     8.8950     0.0730    90.1880     2.5480   -22.6840     6.7530     7.0710     8.1230
 4589.0000  2345.5410     8.8980     0.0750    89.4110     2.5450   -22.6560     6.7150     6.9770     9.0020
 4589.5000  2349.7290     8.8840     0.0920    91.5710     2.5260   -22.6300     6.5160     6.6530     9.8480
 4590.0000  2293.1211     8.8680     0.1040    93.2370     2.4810   -22.6540     5.8610     6.2160     9.3710
 4590.5000  2263.2100     8.8510     0.1050    94.9050     2.4310   -22.8280     5.3250     5.2450     8.9120
 4591.0000  2244.8650     8.8350     0.0890    96.5820     2.3820   -22.9990     4.7880     4.4470     8.4220
 4591.5000  2227.8831     8.8180     0.0820    98.3430     2.3460   -23.1790     4.3820     3.7130     8.3100
 4592.0000  2210.9009     8.8010     0.0990   101.4530     2.3790   -22.9180     4.3640     3.7130     7.2660
 4592.5000  2243.1699     8.8360     0.0780    97.4900     2.4310   -22.5470     4.3300     3.9590     3.5460
 4593.0000  2314.4971     8.8820     0.0490    90.2710     2.4820   -22.1710     4.2970     4.1730     4.4340
 4593.5000  2337.4060     8.9290     0.0210    84.9030     2.4870   -21.8210     4.2630     4.3880     6.8030
 4594.0000  2328.1431     8.9750     0.0180    87.9450     2.4850   -21.7610     4.2240     4.6020    10.0310
 4594.5000  2304.7661     9.0170     0.0170    90.5970     2.4830   -21.6870     4.4960     4.8050     8.9280
 4595.0000  2264.0081     9.0070     0.0210    91.0710     2.4940   -21.6110     4.8200     5.1640     7.6140
 4595.5000  2272.4661     8.9970     0.0250    90.4790     2.5090   -21.5350     5.1430     5.5050     6.9320
 4596.0000  2331.9041     8.9870     0.0210    86.6540     2.5190   -21.4590     5.4670     5.8450     6.4490
 4596.5000  2379.9399     8.9760     0.0130    82.1430     2.5220   -21.3830     5.6180     5.9370     6.9670
 4597.0000  2359.5610     8.9660     0.0160    80.9080     2.5250   -21.3060     5.5900     5.8860     8.3450
 4597.5000  2339.1819     8.9560     0.0190    82.2140     2.5290   -21.2260     5.5160     5.7440     8.0520
 4598.0000  2318.8040     8.9460     0.0220    83.6980     2.5320   -21.3180     5.3850     5.6030     7.2830
