~VERSION INFORMATION
 VERS.                2.0:   CWLS LOG ASCII STANDARD - VERSION 2.0
 WRAP.                 NO:   ONE LINE PER DEPTH STEP
~WELL INFORMATION
#MNEM.UNIT      DATA TYPE    INFORMATION
#----------   ------------   ------------------------------
 STRT.F          204.0000:   START DEPTH
 STOP.F         3040.0000:   STOP DEPTH
 STEP.F            0.5000:   STEP LENGTH
 NULL.          -999.2500:   NO VALUE
 COMP.    FENIX & SCISSON:   COMPANY
 WELL.   FENIX "A" #47-21:   WELL
 FLD .            N P R 3:   FIELD
 LOC .      S21 T39N R78W:   LOCATION
 CNTY.            NATRONA:   COUNTY
 STAT.            WYOMING:   STATE
 CTRY. UNITED STATES OF AMERICA:   COUNTRY
 SRVC.              WELEX:   SERVICE COMPANY
 DATE.        20-JUN-1977:   LOGDATE
 API .     49025103820000:   API NUMBER
~CURVE INFORMATION
#MNEM.UNIT       API CODE    CURVE DESCRIPTION
#----------   ------------   ------------------------------
 DEPT.F                  :   
 SPR .MV     07 010 01 00:   SPONTANEOUS POTENTIAL
 ILM .OHMM   07 120 44 00:   INDUCTION LOG MEDIUM RESISTIVITY
 ILD .OHMM   07 120 46 00:   DEEP INDUCTION RESISTIVITY
 SGRD.OHMM   07 220 05 00:   SHALLOW GUARD LOG RESISTIVITY
 GRD .GAPI   45 310 01 00:   GAMMA RAY FROM DENSITY LOG
 CALD.IN     45 280 60 00:   CALIPER FROM DENSITY LOG
 RHOB.G/C3   45 350 01 00:   BULK DENSITY
 CORR.G/C3   45 356 01 00:   DENSITY CORRECTION
~PARAMETER INFORMATION
#MNEM.UNIT          VALUE    DESCRIPTION
#----------   ------------   ------------------------------
 EKB .F         5010.0000:   Kelly bushing
 EGL .F         5000.0000:   Ground level
 EDF .F            0.0000:   Drilling floor
 TD  .F         3050.0000:   Total depth
 DATE.        20-JUN-1977:   Date logged
 CLNT.            A2DTECH:   Client Code
 SL  . 990' FSL & 2310' FWL:   Surface Location
 PD  .                 GL:   Permanent Datum
 DD  .F              3050:   Depth driller
 DL  .F              3039:   Depth logger
 BLI .F              3037:   Bottom log interval
 CS1 .IN            8.625:   Casing size
 CBD1.      8.625" @ 210':   Casing driller 1
 CBL1.F               215:   Casing logger 1
 BS1 .IN            7.875:   Bit size
 DFT .                KCL:   Type fluid in hole
 DFD .                9.3:   Density
 DFV .                 35:   Viscosity
 DFPH.                7.5:   pH
 DFL .                7.2:   Fluid loss
 MSS .             MUDPIT:   Source of sample
 RMS .OHMM            .22:   Rm
 MST .F                80:   Rm Meas. temp.
 RMF .OHMM            .19:   Rmf
 MFST.F                80:   Rmf Meas. temp.
 RMC .OHMM            .35:   Rmc
 MCST.F                80:   Rmc Meas. temp.
 MFSS.               MEAS:   Source Rmf.
 RMB .OHMM            .15:   Rm. at BHT
 BHT .F               111:   BHT.
 TCS .HRS               4:   Time Circ. stopped
 MRT .F               111:   Maximum recorded temp.
 LUN .               8766:   Logging unit number
 LUL .             CAPSER:   Logging unit location
 ENGI.          T. JOYNER:   Recorded By
 WITN.         PETTINGILL:   Witnessed by
 ORIG.           5" PRINT:   Origin of data
 UWI .     49025103820000:   Unique Well ID
 DICO. A2D TECHNOLOGIES, INC.:   Digitizing Company
 DAPD.                 10:   Feet Above Permanent Datum
 BSD1.               3050:   Depth drilled with bit1
 MCSS.               MEAS:   Source Rmc.
 EPD .               5000:   Elevation Permanent Datum
 LMF .                 KB:   Log Measured From
 DMF .                 KB:   Drilling Measured From
 TLI .                215:   Top log interval
~OTHER INFORMATION
~A   DEPT      SPR        ILM        ILD       SGRD         GRD        CALD       RHOB      CORR  
# ...
 1135.5000   -35.5880     9.1220     8.7180    10.4750    73.3990    13.1490     2.4730     0.0120
 1136.0000   -35.5740     9.0450     8.6140    10.2020    73.3300    13.1270     2.4740     0.0120
 1136.5000   -35.6600     8.9890     8.5100    10.2640    73.2680    13.1040     2.4750     0.0120
 1137.0000   -35.7460     8.9380     8.4060    10.3470    73.2010    13.0820     2.4760     0.0120
 1137.5000   -35.8300     8.8860     8.3110    10.4750    73.1370    13.0590     2.4770     0.0120
 1138.0000   -35.9150     8.8350     8.2410    10.4340    73.0700    13.0370     2.4770     0.0120
 1138.5000   -35.8980     8.7840     8.1710    10.3400    73.0080    13.0200     2.4780     0.0120
 1139.0000   -35.7900     8.7330     8.1020    10.2470    72.9420    13.0070     2.4780     0.0120
 1139.5000   -35.6810     8.6810     8.1130    10.1770    72.8670    12.9940     2.4790     0.0120
 1140.0000   -35.5740     8.6390     8.1240    10.1430    72.8500    12.9810     2.4790     0.0120
 1140.5000   -35.6490     8.6690     8.1350    10.1090    72.5920    12.9680     2.4810     0.0130
 1141.0000   -35.7540     8.6930     8.1460    10.0760    72.0740    12.9540     2.4840     0.0140
 1141.5000   -35.8600     8.7180     8.1560    10.0420    71.5490    12.9560     2.4860     0.0160
 1142.0000   -35.9660     8.7430     8.1670    10.0050    71.2980    12.9730     2.4880     0.0170
 1142.5000   -36.0710     8.7670     8.1850    10.1830    71.5580    12.9880     2.4900     0.0180
 1143.0000   -36.1770     8.7920     8.2600    10.4750    71.7870    13.0030     2.4930     0.0200
 1143.5000   -36.2830     8.9020     8.3350    10.4050    71.9010    13.0190     2.4920     0.0200
 1144.0000   -36.3880     9.0510     8.4050    10.2620    72.7710    13.0340     2.4900     0.0190
 1144.5000   -36.5030     9.1990     8.5780    10.0980    73.9270    13.0490     2.4870     0.0190
 1145.0000   -36.6150     9.3480     8.7400    10.1910    75.0920    13.0660     2.4850     0.0180
 1145.5000   -36.7270     9.4960     8.9020    10.7420    74.6070    13.0670     2.4830     0.0170
 1146.0000   -36.8400     9.6450     9.0650    11.4680    74.0030    13.0670     2.4820     0.0160
 1146.5000   -36.9520     9.7930     9.1410    11.4040    73.3000    13.0670     2.4820     0.0150
 1147.0000   -37.0640     9.8370     9.1620    11.2760    72.6830    13.0650     2.4810     0.0140
 1147.5000   -37.1760     9.8540     9.1820    11.1700    72.0940    13.0860     2.4800     0.0140
 1148.0000   -37.2890     9.8710     9.2120    11.5870    72.3110    13.1350     2.4790     0.0130
 1148.5000   -37.4010     9.8890     9.2030    11.4340    72.5380    13.1810     2.4780     0.0120
 1149.0000   -37.5130     9.9140     9.1870    11.1560    72.7950    13.2270     2.4760     0.0110
 1149.5000   -37.6270     9.8530     9.1700    10.8780    73.0330    13.2740     2.4760     0.0100
 1150.0000   -37.7400     9.7360     9.1540    10.5720    73.2860    13.3200     2.4780     0.0110
 1150.5000   -37.4780     9.6200     9.1370    10.6330    73.5050    13.3680     2.4800     0.0110
 1151.0000   -37.1770     9.5030     9.0960    10.7020    73.8460    13.4130     2.4820     0.0120
 1151.5000   -36.9640     9.3860     9.0290    10.7670    74.2620    13.4590     2.4830     0.0120
 1152.0000   -37.0450     9.2920     8.9610    10.6330    74.6130    13.4600     2.4850     0.0130
 1152.5000   -37.1180     9.2700     8.8940    10.5060    75.1240    13.4570     2.4870     0.0130
 1153.0000   -37.1900     9.2480     8.8270    10.3790    74.5380    13.3940     2.4890     0.0140
 1153.5000   -37.2630     9.2260     8.6330    10.4420    73.9180    13.3300     2.4910     0.0140
 1154.0000   -37.3380     9.2030     8.3550    10.5030    73.5390    13.2630     2.4930     0.0150
 1154.5000   -37.3230     9.1810     8.1770    10.5650    73.1540    13.1990     2.4920     0.0150
 1155.0000   -37.2900     9.1590     8.1900    10.6270    72.8000    13.1310     2.4920     0.0160
 1155.5000   -37.2560     9.1370     8.2010    10.6690    72.4050    13.0690     2.4900     0.0160
 1156.0000   -37.2220     9.1150     8.2120    10.5430    72.0400    12.9960     2.4870     0.0160
 1156.5000   -37.1880     9.0930     8.2240    10.4490    71.7050    12.9730     2.4850     0.0150
 1157.0000   -37.1510     9.0700     8.2350    10.3540    71.3050    12.9280     2.4820     0.0150
 1157.5000   -37.0410     9.0480     8.2460    10.1910    71.7830    12.8880     2.4790     0.0140
 1158.0000   -36.9230     9.0450     8.2580    10.4920    72.4340    12.8440     2.4770     0.0130
 1158.5000   -36.8050     9.0450     8.2690    10.7670    73.0980    12.8040     2.4740     0.0120
 1159.0000   -36.6870     9.0450     8.2800    10.6760    73.7630    12.7550     2.4720     0.0120
 1159.5000   -36.5690     9.0450     8.2910    10.4580    74.3870    12.7670     2.4690     0.0110
 1160.0000   -36.4510     9.0450     8.3030    10.1910    75.1450    12.8050     2.4690     0.0100
 1160.5000   -36.3330     9.0450     8.3130    10.4380    75.0760    12.8430     2.4690     0.0090
 1161.0000   -36.2150     9.0450     8.3250    10.7560    74.7750    12.8810     2.4690     0.0080
 1161.5000   -36.0970     9.0450     8.4380    10.9670    74.4780    12.9190     2.4680     0.0080
 1162.0000   -35.9760     9.0440     8.5860    10.5630    74.1490    12.9480     2.4680     0.0070
 1162.5000   -35.9990     9.0630     8.7190    10.0980    73.8760    12.9450     2.4680     0.0070
 1163.0000   -36.0500     9.0990     8.6920    10.3290    73.7320    12.9410     2.4670     0.0060
 1163.5000   -36.1020     9.1340     8.6680    10.5900    74.9990    12.9360     2.4670     0.0050
 1164.0000   -36.1530     9.1690     8.6390    10.6690    76.1290    12.9320     2.4680     0.0050
 1164.5000   -36.2050     9.2050     8.6630    10.5800    76.9790    12.9270     2.4720     0.0050
 1165.0000   -36.2570     9.2400     8.6910    10.4750    77.2740    12.9230     2.4750     0.0070
 1165.5000   -36.3090     9.2760     8.7180    10.3700    77.6600    12.9180     2.4780     0.0080
 1166.0000   -36.3610     9.3370     8.7460    10.2850    78.0210    12.9140     2.4810     0.0090
 1166.5000   -36.4120     9.4370     8.7740    10.5720    78.4100    12.9100     2.4850     0.0110
 1167.0000   -36.4640     9.5370     8.8010    10.9560    78.7540    12.9090     2.4880     0.0120
 1167.5000   -36.5160     9.6360     8.8290    11.3770    79.0310    12.8960     2.4910     0.0130
 1168.0000   -36.5680     9.7360     8.8570    11.2290    77.8130    12.8800     2.4940     0.0140
 1168.5000   -36.6200     9.8360     8.8840    11.0720    76.5330    12.8630     2.4970     0.0150
 1169.0000   -36.6700     9.9360     8.9120    10.8670    75.1170    12.8480     2.5000     0.0160
 1169.5000   -36.7200    10.0360     8.9390    10.9580    74.4000    12.8310     2.5030     0.0160
 1170.0000   -36.4350    10.1910     8.9670    11.0910    75.4310    12.8240     2.5010     0.0160
 1170.5000   -36.2660    10.1080     8.9950    11.2580    76.3500    12.7390     2.4990     0.0160
 1171.0000   -36.4370     9.9240     9.0220    11.1770    77.3850    12.6700     2.4950     0.0160
 1171.5000   -36.6080     9.7410     9.0500    10.9880    78.3440    12.5940     2.4920     0.0160
 1172.0000   -36.7550     9.5570     9.0780    11.3770    79.0070    12.5170     2.4880     0.0150
 1172.5000   -36.7350     9.5250     9.1050    12.9360    77.5940    12.4770     2.4850     0.0150
 1173.0000   -36.7200     9.4930     9.1280    12.2930    76.4730    12.5660     2.4820     0.0140
 1173.5000   -36.7050     9.4610     9.1090    10.9670    75.2660    12.6470     2.4790     0.0140
 1174.0000   -36.6900     9.4290     9.0920    11.0760    75.4590    12.7400     2.4750     0.0140
 1174.5000   -36.6750     9.3970     9.0750    11.3770    75.6750    12.7830     2.4770     0.0130
 1175.0000   -36.6600     9.3650     9.0580    11.2240    75.9420    12.7970     2.4790     0.0130
 1175.5000   -36.6440     9.3330     9.0410    10.7670    76.1790    12.8000     2.4790     0.0130
