~VERSION INFORMATION
 VERS.                2.0:   CWLS LOG ASCII STANDARD - VERSION 2.0
 WRAP.                 NO:   ONE LINE PER DEPTH STEP
~WELL INFORMATION
#MNEM.UNIT      DATA TYPE    INFORMATION
#----------   ------------   ------------------------------
 STRT.F            2.0000:   START DEPTH
 STOP.F         3008.0000:   STOP DEPTH
 STEP.F            0.5000:   STEP LENGTH
 NULL.          -999.2500:   NO VALUE
 COMP.       FLUOR DANIEL:   COMPANY
 WELL.   FLUOR "X" #25-23:   WELL
 FLD .          N.P.R. #3:   FIELD
 LOC .      S23 T38N R78W:   LOCATION
 CNTY.            NATRONA:   COUNTY
 STAT.            WYOMING:   STATE
 CTRY. UNITED STATES OF AMERICA:   COUNTRY
 SRVC.      WESTERN ATLAS:   SERVICE COMPANY
 DATE.        21-APR-1995:   LOGDATE
 API .     49025227090000:   API NUMBER
~CURVE INFORMATION
#MNEM.UNIT       API CODE    CURVE DESCRIPTION
#----------   ------------   ------------------------------
 DEPT.F                  :   
 GRR .GAPI   07 310 01 00:   GAMMA RAY FROM RESISTIVITY
 TENR.LBS    07 635 01 00:   TENSION FROM RESISTIVITY
 RILD.OHMM   07 120 46 00:   RESISTIVITY INDUCTION LOG DEEP
 RILM.OHMM   07 120 44 00:   RESISTIVITY INDUCTION LOG MEDIUM
~PARAMETER INFORMATION
#MNEM.UNIT          VALUE    DESCRIPTION
#----------   ------------   ------------------------------
 EKB .F         5285.0000:   Kelly bushing
 EGL .F         5275.0000:   Ground level
 EDF .F         5284.0000:   Drilling floor
 TD  .F         3000.0000:   Total depth
 CLNT.            A2DTECH:   Client Code
 SL  . 2343' FSL & 1264' FWL:   Surface Location
 PD  .                 GL:   Permanent Datum
 EPD .F              5275:   Elevation Permanent Datum
 DMF .                 KB:   Drilling Measured From
 DAPD.                 10:   Feet Above Permanent Datum
 DATE.        21-APR-1995:   Date Logged [DD-MMM-YYYY]
 DD  .F              3000:   Depth driller
 DL  .F              3000:   Depth logger
 BLI .F              2999:   Bottom log interval
 TLI .F                 0:   Top log interval
 CS1 .IN            9.625:   Casing size
 CBD1.       9.625" @ 53':   Casing driller 1
 CBL1.F                53:   Casing logger 1
 BS1 .IN             6.25:   Bit size
 BSD1.F              3000:   Depth drilled with bit1
 DFT .                OIL:   Type fluid in hole
 MRT .F               114:   Maximum recorded temp.
 LUN .            HL 6530:   Logging unit number
 LUL .             CASPER:   Logging unit location
 ENGI.        VERN RAUTIO:   Recorded By
 WITN.        GARY STRONG:   Witnessed by
 ORIG.         2.5" PRINT:   Origin of data
 UWI .     49025227090000:   Unique Well ID
 DICO. A2D TECHNOLOGIES,INC.:   Digitizing Company
 LMF .                 KB:   Log Measured From
~OTHER INFORMATION
~A    DEPT      GRR      TENR       RILD       RILM   
# ...
 1608.0000   107.4434   -22.3530     7.4771     7.6991
 1608.5000   112.4082   -21.9118     7.4731     7.6960
 1609.0000   111.7923   -21.4706     7.5709     7.6929
 1609.5000   112.0040   -21.0295     7.5663     7.6898
 1610.0000   114.7181   -20.5883     7.6655     7.6866
 1610.5000   116.1167   -20.1471     7.6616     7.6829
 1611.0000   114.0803   -19.7059     7.6575     7.6800
 1611.5000   116.4345   -19.2648     7.6534     7.6770
 1612.0000   116.4148   -18.8236     7.6492     7.6740
 1612.5000   115.7517   -18.3824     7.6451     7.6711
 1613.0000   113.4065   -17.9412     7.6410     7.7884
 1613.5000   113.3857   -17.5000     7.7401     7.8757
 1614.0000   113.1472   -17.0589     7.8417     7.8721
 1614.5000   111.5934   -16.5412     7.8376     7.8689
 1615.0000   110.9454   -16.6460     7.8336     7.9729
 1615.5000   111.5192   -16.7727     7.8295     7.9692
 1616.0000   112.0930   -16.8994     7.9464     7.9662
 1616.5000   109.6994   -17.0260     8.0363     7.9631
 1617.0000   110.2732   -17.1527     8.0315     7.9600
 1617.5000   110.1038   -17.2794     8.0271     7.9703
 1618.0000   107.7192   -17.4061     8.0228     8.0623
 1618.5000   107.2467   -17.5328     8.0178     8.0587
 1619.0000   110.0713   -17.6594     8.0136     8.1653
 1619.5000   113.7993   -17.7861     8.0095     8.1620
 1620.0000   116.0798   -17.9128     8.0054     8.1581
 1620.5000   116.0601   -18.0395     8.0011     8.0453
 1621.0000   115.4469   -18.1662     7.9967     8.0422
 1621.5000   113.0533   -18.2928     7.9924     8.0391
 1622.0000   108.8190   -18.4195     7.9881     8.0358
 1622.5000   107.6727   -18.5462     7.9837     7.9245
 1623.0000   109.8066   -18.6729     7.9787     7.9213
 1623.5000   110.5964   -18.7996     7.9746     7.8728
 1624.0000   109.9428   -18.9263     7.9705     7.8084
 1624.5000   109.1553   -19.0529     7.9664     7.8046
 1625.0000   109.9407   -19.1796     7.9621     7.8016
 1625.5000   110.5134   -19.3063     7.9578     7.7986
 1626.0000   111.6792   -19.4330     7.9535     7.7956
 1626.5000   111.0653   -19.5597     7.9492     7.7925
 1627.0000   111.0445   -19.6863     7.9449     7.7893
 1627.5000   110.8508   -19.8219     7.9398     7.8172
 1628.0000   109.5787   -20.0757     7.9358     7.8898
 1628.5000   107.7131   -20.3486     7.9317     7.9406
 1629.0000   105.6164   -20.6216     7.9276     7.8822
 1629.5000   105.5967   -20.8946     7.9234     7.7731
 1630.0000   107.3574   -21.1675     7.9191     7.7701
 1630.5000   115.0528   -21.4405     7.8567     7.5595
 1631.0000   114.9438   -21.7134     7.6991     7.4499
 1631.5000   112.5439   -21.9864     7.5412     7.3516
 1632.0000   111.4329   -22.2593     7.4845     7.3486
 1632.5000   112.2255   -22.5323     7.3800     7.3086
 1633.0000   113.7428   -22.8052     7.2770     7.1464
 1633.5000   113.9842   -23.0782     7.2732     7.1430
 1634.0000   112.5312   -23.3511     7.2694     7.1402
 1634.5000   111.9180   -23.6241     7.2655     7.1375
 1635.0000   110.7113   -23.8970     7.2616     7.1347
 1635.5000   109.4596   -24.1700     7.2227     7.1319
 1636.0000   107.6242   -24.4429     7.1561     7.0331
 1636.5000   107.0914   -24.7159     7.1522     6.9357
 1637.0000   108.7002   -24.9888     7.1478     6.9329
 1637.5000   112.3395   -25.2618     7.2419     6.9300
 1638.0000   118.4609   -25.2941     7.2378     6.9272
 1638.5000   119.4688   -24.8233     7.2341     6.9240
 1639.0000   118.8525   -24.4104     7.2302     7.0157
 1639.5000   115.8654   -23.9706     7.2262     7.0130
 1640.0000   114.6588   -23.5294     7.2223     7.1059
 1640.5000   114.6380   -23.0882     7.2184     7.1030
 1641.0000   114.6172   -22.6471     7.2145     7.1001
 1641.5000   113.4241   -36.9118     7.2100     7.1287
 1642.0000   108.7204   -36.4321     7.3045     7.2892
 1642.5000   108.0267   -50.7249     7.4003     7.2862
 1643.0000   109.1894   -50.2941     7.3965     7.2827
 1643.5000   112.1371   -49.8529     7.3926     7.2799
 1644.0000   113.3043   -49.4118     7.3886     7.2771
 1644.5000   112.6912   -48.9706     7.3846     7.2743
 1645.0000   112.0771   -33.7478     7.3806     7.2714
 1645.5000   112.0564   -18.6290     7.3766     7.2684
 1646.0000   113.3414   -18.2160     7.3719     7.2655
 1646.5000   115.8180   -17.1574     7.2690     7.1648
 1647.0000   115.2482     0.0059     7.1675     7.1619
 1647.5000   111.3761    12.4347     6.9723     7.1585
 1648.0000   108.3891   -16.4706     6.9562     7.0595
 1648.5000   107.7759   -15.9448     6.7787     7.0568
 1649.0000   111.3170   -15.5318     6.7750     6.8655
 1649.5000   118.5565   -15.1188     6.6803     6.8628
 1650.0000   121.3666   -14.7059     6.5868     6.8600
 1650.5000   119.8306   -14.2647     6.5826     6.7400
 1651.0000   118.9496   -13.8235     6.5792     6.6712
 1651.5000   121.0009   -13.3824     6.4874     6.6244
 1652.0000   121.2819   -12.9412     6.3968     6.4872
 1652.5000   117.1040   -27.2059     6.3935     6.4847
 1653.0000   111.7430   -41.4706     6.3900     6.3950
 1653.5000   110.5364   -41.0204     6.3865     6.3065
 1654.0000   116.5097   -40.5882     6.3831     6.3040
 1654.5000   118.8055   -40.1470     6.3796     6.2167
 1655.0000   116.8545   -25.0000     6.4624     6.1306
 1655.5000   115.3699   -17.1560     6.5477     6.1281
 1656.0000   114.3105    -9.3374     6.6331     6.2486
 1656.5000   114.2253    -8.9245     6.7202     6.2912
 1657.0000   116.3233    -8.5115     6.9010     6.4610
 1657.5000   119.2709    -8.0883     6.9915     6.4585
 1658.0000   121.0317    -7.6471     6.9875     6.6334
 1658.5000   120.4086    -7.2059     6.9838     6.8128
 1659.0000   116.6981    -6.7647     6.9800     6.8100
 1659.5000   114.3084    -6.2402     6.9762     6.8072
 1660.0000   113.8279    -5.8273     6.9718     6.8045
 1660.5000   112.6895    -5.4143     6.9682     6.8017
 1661.0000   111.4125    -5.0000     6.9647     6.7989
 1661.5000   113.7622    -4.5588     6.9611     6.7957
 1662.0000   116.1164    -4.1176     6.9573     6.8858
 1662.5000   115.5032    -3.6765     6.8600     6.8831
 1663.0000   112.5162    -3.2353     6.9798     6.8804
 1663.5000   113.1434    -2.7301     7.0407     6.8777
 1664.0000   114.4923    -2.3172     7.2302     6.9689
 1664.5000   116.0179    -1.9042     7.4240     6.9951
 1665.0000   110.8501    -1.4706     7.4202     7.1547
 1665.5000   108.5399    -1.0294     7.6200     7.4002
 1666.0000   111.2011    -0.5882     7.6161     7.5463
 1666.5000   116.5227    -0.1471     7.7237     7.8557
 1667.0000   118.2834   -14.3388     7.8172     7.9600
 1667.5000   120.6376   -13.9259     7.8126     8.1752
 1668.0000   119.9840     1.1930     7.9580     8.1719
 1668.5000   119.4112   -13.1000     8.1304     8.1881
 1669.0000   119.9850   -12.6471     8.2341     8.3086
 1669.5000   118.3343   -12.2059     8.2291     8.3867
 1670.0000   115.1929   -11.7647     8.2249     8.3827
 1670.5000   115.7656   -11.2416     8.2206     8.4935
 1671.0000   115.7420   -10.8286     8.2163     8.4896
 1671.5000   106.2268   -10.4157     8.2119     8.3722
 1672.0000   103.8332   -10.0000     8.2373     8.3690
 1672.5000   103.8135    -9.5588     8.3573     8.3657
 1673.0000   104.6525   -13.3347     8.4237     8.3623
 1673.5000   107.1989   -23.4698     8.4182     8.3589
 1674.0000   110.8760   -22.9412     8.5293     8.3555
 1674.5000   110.8516   -22.4374     8.5242     8.3521
 1675.0000   110.8268   -22.0245     8.5199     8.3480
 1675.5000   114.9614   -21.6114     8.5154     8.3448
 1676.0000   116.1306   -21.1765     8.4956     8.3416
 1676.5000   114.9219   -20.7353     8.3918     8.2262
 1677.0000   110.7478   -20.2941     8.3872     8.1124
 1677.5000   110.9497   -19.8529     8.1586     7.8924
 1678.0000   113.0824   -19.3402     8.0920     7.8891
 1678.5000   111.2789   -18.9272     7.9313     7.6752
 1679.0000   111.7921   -18.5143     7.7154     7.6256
 1679.5000   113.9427   -18.0882     7.6077     7.4640
 1680.0000   114.1840   -17.6470     7.5015     7.4605
 1680.5000   115.3479   -17.2059     7.3858     7.3573
