~VERSION INFORMATION
 VERS.                2.0:   CWLS LOG ASCII STANDARD - VERSION 2.0
 WRAP.                 NO:   ONE LINE PER DEPTH STEP
~WELL INFORMATION
#MNEM.UNIT      DATA TYPE    INFORMATION
#----------   ------------   ------------------------------
 STRT.F           36.0000:   START DEPTH
 STOP.F         3014.5000:   STOP DEPTH
 STEP.F            0.5000:   STEP LENGTH
 NULL.          -999.2500:   NO VALUE
 COMP.    TESRO PETROLEUM:   COMPANY
 WELL. TESORO N.P.R. "A" #6-21:   WELL
 FLD .             TEAPOT:   FIELD
 LOC .      S21 T39N R78W:   LOCATION
 CNTY.            NATRONA:   COUNTY
 STAT.            WYOMING:   STATE
 CTRY. UNITED STATES OF AMERICA:   COUNTRY
 SRVC.              WELEX:   SERVICE COMPANY
 DATE.        16-JUL-1968:   LOGDATE
 API .     49025100180000:   API NUMBER
~CURVE INFORMATION
#MNEM.UNIT       API CODE    CURVE DESCRIPTION
#----------   ------------   ------------------------------
 DEPT.F                  :   
 SPR .MV     05 010 01 00:   SPONTANEOUS POTENTIAL FROM RES.
 ASN .OHMM   05 041 18 00:   AMPLIFIED SHORT NORMAL 18"
 IL  .OHMM   05 120 00 00:   INDUCTION LOG
 GRD .GAPI   45 310 01 00:   GAMMA RAY FROM DENSITY LOG
 CALD.IN     45 280 60 00:   CALIPER FROM DENSITY LOG
 GDEN.CPS    45 350 30 00:   GAMMA DENS
~PARAMETER INFORMATION
#MNEM.UNIT          VALUE    DESCRIPTION
#----------   ------------   ------------------------------
 EKB .F         5002.0000:   Kelly bushing
 EGL .F         4991.0000:   Ground level
 EDF .F         5001.0000:   Drilling floor
 TD  .F         3025.0000:   Total depth
 DATE.        16-JUL-1968:   Date logged
 CLNT.            A2DTECH:   Client Code
 PD  .                 GL:   Permanent Datum
 EPD .F              4991:   Elevation Permanent Datum
 LMF .                 KB:   Log Measured From
 DMF .                 KB:   Drilling Measured From
 DD  .F              3025:   Depth driller
 DL  .F              3019:   Depth logger
 BLI .F              3014:   Bottom log interval
 TLI .F              2670:   Top log interval
 CS1 .IN            10.75:   Casing size
 CBD1.      10.75" @ 325':   Casing driller 1
 CBL1.F               325:   Casing logger 1
 BS1 .IN                9:   Bit size
 BSD1.F              3025:   Depth drilled with bit1
 DFT .     WATER BASE MUD:   Type fluid in hole
 DFD .                9.7:   Density
 DFV .                 60:   Viscosity
 DFL .                6.4:   Fluid loss
 MSS .              CIRC.:   Source of sample
 RMS .OHMM            2.2:   Rm
 MST .F                84:   Rm Meas. temp.
 RMF .OHMM            1.6:   Rmf
 MFST.F                70:   Rmf Meas. temp.
 RMC .OHMM            3.3:   Rmc
 MCST.F                68:   Rmc Meas. temp.
 MFSS.               MEAS:   Source Rmf.
 RMB .OHMM           1.55:   Rm. at BHT
 BHT .F               120:   BHT.
 MRT .F               120:   Maximum recorded temp.
 LUN .               6869:   Logging unit number
 LUL .                 NC:   Logging unit location
 ENGI.          H. STEITZ:   Recorded By
 WITN.                MAY:   Witnessed by
 ORIG.           5" PRINT:   Origin of data
 UWI .     49025100180000:   Unique Well ID
 DICO. A2D TECHNOLOGIES, INC.:   Digitizing Company
~OTHER INFORMATION
~A   DEPT      SPR        ASN           IL      GRD       CALD       GDEN   
# ...
 2220.0000   -27.7960     9.4950     7.7680  -999.2500  -999.2500  -999.2500
 2220.5000   -27.7140     9.2690     7.4640  -999.2500  -999.2500  -999.2500
 2221.0000   -27.8700     8.8550     7.1580  -999.2500  -999.2500  -999.2500
 2221.5000   -28.0370     8.4330     6.8330  -999.2500  -999.2500  -999.2500
 2222.0000   -28.1980     8.1680     6.6520  -999.2500  -999.2500  -999.2500
 2222.5000   -28.5170     8.1150     6.6280  -999.2500  -999.2500  -999.2500
 2223.0000   -28.4770     8.2360     6.6630  -999.2500  -999.2500  -999.2500
 2223.5000   -28.3490     8.4110     6.7970  -999.2500  -999.2500  -999.2500
 2224.0000   -28.2250     8.5880     6.9270  -999.2500  -999.2500  -999.2500
 2224.5000   -28.1020     8.7810     7.0560  -999.2500  -999.2500  -999.2500
 2225.0000   -27.9790     8.7940     7.1080  -999.2500  -999.2500  -999.2500
 2225.5000   -27.9040     8.7580     6.8410  -999.2500  -999.2500  -999.2500
 2226.0000   -28.0320     8.4970     6.5830  -999.2500  -999.2500  -999.2500
 2226.5000   -28.1770     8.1410     6.3250  -999.2500  -999.2500  -999.2500
 2227.0000   -28.3230     7.8120     6.0670  -999.2500  -999.2500  -999.2500
 2227.5000   -28.4730     7.4850     6.0260  -999.2500  -999.2500  -999.2500
 2228.0000   -28.3800     7.6000     6.0220  -999.2500  -999.2500  -999.2500
 2228.5000   -28.2260     7.9890     6.0140  -999.2500  -999.2500  -999.2500
 2229.0000   -28.0700     8.5830     6.4060  -999.2500  -999.2500  -999.2500
 2229.5000   -27.9120     9.2430     6.9170  -999.2500  -999.2500  -999.2500
 2230.0000   -27.7500     9.8680     7.4300  -999.2500  -999.2500  -999.2500
 2230.5000   -27.7820     9.9910     7.9450  -999.2500  -999.2500  -999.2500
 2231.0000   -27.8750     9.9840     8.4620  -999.2500  -999.2500  -999.2500
 2231.5000   -27.9700     9.8340     8.7190  -999.2500  -999.2500  -999.2500
 2232.0000   -28.0650     9.8310     8.7060  -999.2500  -999.2500  -999.2500
 2232.5000   -28.1600     9.8830     8.3150  -999.2500  -999.2500  -999.2500
 2233.0000   -28.2560     9.7660     7.8970  -999.2500  -999.2500  -999.2500
 2233.5000   -28.3040     9.5870     7.6930  -999.2500  -999.2500  -999.2500
 2234.0000   -28.3040     9.3120     7.5380  -999.2500  -999.2500  -999.2500
 2234.5000   -28.3120     9.0280     7.3830  -999.2500  -999.2500  -999.2500
 2235.0000   -28.3660     8.9660     7.2290  -999.2500  -999.2500  -999.2500
 2235.5000   -28.4190     8.9160     7.1390  -999.2500  -999.2500  -999.2500
 2236.0000   -28.4730     8.9120     6.9910  -999.2500  -999.2500  -999.2500
 2236.5000   -28.5010     8.9440     6.8420  -999.2500  -999.2500  -999.2500
 2237.0000   -28.5010     8.9320     6.9570  -999.2500  -999.2500  -999.2500
 2237.5000   -28.5000     8.7870     7.1610  -999.2500  -999.2500  -999.2500
 2238.0000   -28.3720     8.9500     7.3670  -999.2500  -999.2500  -999.2500
 2238.5000   -28.0030     9.1670     7.5730  -999.2500  -999.2500  -999.2500
 2239.0000   -27.6250     9.3880     7.7780  -999.2500  -999.2500  -999.2500
 2239.5000   -27.5410     9.7910     7.9840  -999.2500  -999.2500  -999.2500
 2240.0000   -27.5860    10.6670     8.1910  -999.2500  -999.2500  -999.2500
 2240.5000   -27.6340    10.6600     8.4040  -999.2500  -999.2500  -999.2500
 2241.0000   -27.6820    10.5440     8.4160  -999.2500  -999.2500  -999.2500
 2241.5000   -27.8110    10.4300     8.3900  -999.2500  -999.2500  -999.2500
 2242.0000   -28.0850    10.4630     8.2080  -999.2500  -999.2500  -999.2500
 2242.5000   -28.3570    10.4320     8.0260  -999.2500  -999.2500  -999.2500
 2243.0000   -28.5170    10.0470     7.8450  -999.2500  -999.2500  -999.2500
 2243.5000   -28.5460     9.9400     7.8320  -999.2500  -999.2500  -999.2500
 2244.0000   -28.5770     9.8140     7.8840  -999.2500  -999.2500  -999.2500
 2244.5000   -28.6080     9.7550     7.9350  -999.2500  -999.2500  -999.2500
 2245.0000   -28.6390     9.8430     7.9870  -999.2500  -999.2500  -999.2500
 2245.5000   -28.6700    10.0050     8.0390  -999.2500  -999.2500  -999.2500
 2246.0000   -28.6990     9.9560     8.0900  -999.2500  -999.2500  -999.2500
 2246.5000   -28.6970     9.8270     8.1100  -999.2500  -999.2500  -999.2500
 2247.0000   -28.5090     9.6980     7.9560  -999.2500  -999.2500  -999.2500
 2247.5000   -28.2980     9.5680     7.8050  -999.2500  -999.2500  -999.2500
 2248.0000   -28.0860     9.4390     7.6530  -999.2500  -999.2500  -999.2500
 2248.5000   -27.8750     9.4030     7.5020  -999.2500  -999.2500  -999.2500
 2249.0000   -27.6660     9.3760     7.3520  -999.2500  -999.2500  -999.2500
 2249.5000   -27.5520     9.3660     7.2020  -999.2500  -999.2500  -999.2500
 2250.0000   -27.7390     9.1800     7.1290  -999.2500  -999.2500  -999.2500
 2250.5000   -27.9210     8.9620     7.0150  -999.2500  -999.2500  -999.2500
 2251.0000   -28.1020     8.7750     6.8690  -999.2500  -999.2500  -999.2500
 2251.5000   -28.2830     8.6490     6.7390  -999.2500  -999.2500  -999.2500
 2252.0000   -28.4650     8.5730     6.8910  -999.2500  -999.2500  -999.2500
 2252.5000   -28.5000     8.7430     7.0410  -999.2500  -999.2500  -999.2500
 2253.0000   -28.5010     8.9350     7.1910  -999.2500  -999.2500  -999.2500
 2253.5000   -28.5010     9.1270     7.3400  -999.2500  -999.2500  -999.2500
 2254.0000   -28.5010     9.3080     7.4890  -999.2500  -999.2500  -999.2500
 2254.5000   -28.5010     9.3160     7.6390  -999.2500  -999.2500  -999.2500
 2255.0000   -28.5010     9.2290     7.7240  -999.2500  -999.2500  -999.2500
 2255.5000   -28.5010     9.1300     7.6310  -999.2500  -999.2500  -999.2500
 2256.0000   -28.5010     9.1330     7.5300  -999.2500  -999.2500  -999.2500
 2256.5000   -28.4980     9.1560     7.4290  -999.2500  -999.2500  -999.2500
 2257.0000   -28.3870     9.1820     7.3280  -999.2500  -999.2500  -999.2500
 2257.5000   -28.2680     9.1910     7.2260  -999.2500  -999.2500  -999.2500
 2258.0000   -28.1480     9.1060     7.2080  -999.2500  -999.2500  -999.2500
 2258.5000   -28.1170     9.0130     7.1940  -999.2500  -999.2500  -999.2500
 2259.0000   -28.3670     8.9190     7.1810  -999.2500  -999.2500  -999.2500
 2259.5000   -28.6190     8.8260     7.1670  -999.2500  -999.2500  -999.2500
 2260.0000   -28.8700     8.7350     7.1540  -999.2500  -999.2500  -999.2500
 2260.5000   -29.0920     8.6770     7.1410  -999.2500  -999.2500  -999.2500
 2261.0000   -29.0330     8.6310     7.1290  -999.2500  -999.2500  -999.2500
 2261.5000   -28.9160     8.5550     6.9830  -999.2500  -999.2500  -999.2500
 2262.0000   -28.7990     8.4630     6.7740  -999.2500  -999.2500  -999.2500
 2262.5000   -28.6830     8.3500     6.5650  -999.2500  -999.2500  -999.2500
 2263.0000   -28.5670     8.2150     6.3550  -999.2500  -999.2500  -999.2500
 2263.5000   -28.4990     8.0650     6.1440  -999.2500  -999.2500  -999.2500
 2264.0000   -28.6000     7.8210     5.9170  -999.2500  -999.2500  -999.2500
 2264.5000   -28.8260     7.5750     5.7230  -999.2500  -999.2500  -999.2500
 2265.0000   -29.0500     7.4330     5.7290  -999.2500  -999.2500  -999.2500
 2265.5000   -29.2780     7.5110     5.8350  -999.2500  -999.2500  -999.2500
 2266.0000   -29.2590     7.5410     5.9470  -999.2500  -999.2500  -999.2500
 2266.5000   -29.0370     7.6830     6.0580  -999.2500  -999.2500  -999.2500
 2267.0000   -28.8120     7.8540     6.1690  -999.2500  -999.2500  -999.2500
 2267.5000   -28.5850     8.0260     6.2800  -999.2500  -999.2500  -999.2500
 2268.0000   -28.5400     8.1200     6.3920  -999.2500  -999.2500  -999.2500
 2268.5000   -28.6020     8.0800     6.5030  -999.2500  -999.2500  -999.2500
 2269.0000   -28.6650     8.0240     6.6120  -999.2500  -999.2500  -999.2500
 2269.5000   -28.6990     8.0040     6.7190  -999.2500  -999.2500  -999.2500
 2270.0000   -28.6980     8.0720     6.6150  -999.2500  -999.2500  -999.2500
 2270.5000   -28.6980     8.1390     6.5140  -999.2500  -999.2500  -999.2500
 2271.0000   -28.6810     8.1200     6.4140  -999.2500  -999.2500  -999.2500
 2271.5000   -28.5550     8.0060     6.3150  -999.2500  -999.2500  -999.2500
