~VERSION INFORMATION
 VERS.                2.0:   CWLS LOG ASCII STANDARD - VERSION 2.0
 WRAP.                 NO:   ONE LINE PER DEPTH STEP
~WELL INFORMATION
#MNEM.UNIT      DATA TYPE    INFORMATION
#----------   ------------   ------------------------------
 STRT.F          470.0000:   START DEPTH
 STOP.F         3791.5000:   STOP DEPTH
 STEP.F            0.5000:   STEP LENGTH
 NULL.          -999.2500:   NO VALUE
 COMP.    FENIX & SCISSON:   COMPANY
 WELL.   FENIX MDX #44-10:   WELL
 FLD .                NPR:   FIELD
 LOC .      S10 T38N R78W:   LOCATION
 CNTY.            NATRONA:   COUNTY
 STAT.            WYOMING:   STATE
 CTRY. UNITED STATES OF AMERICA:   COUNTRY
 SRVC.       SCHLUMBERGER:   SERVICE COMPANY
 DATE.        25-OCT-1977:   LOGDATE
 API .     49025104310000:   API NUMBER
~CURVE INFORMATION
#MNEM.UNIT       API CODE    CURVE DESCRIPTION
#----------   ------------   ------------------------------
 DEPT.F                  :   
 DT  .US/F   60 520 00 00:   DELTA TIME
 SPR .MV     11 010 01 00:   SPONTANEOUS POTENTIAL FROM RES.
 LLS .OHMM   11 220 09 00:   LATEROLOG LOG SHALLOW
 LLD .OHMM   11 220 10 00:   LATEROLOG LOG DEEP
 MSFL.OHMM   11 270 04 00:   MICRO SPHERICALLY FOCUSED
 NPOR.DEC    42 890 03 00:   ALPHA PROCESSED NEUTRON POROSITY
 RHOB.G/C3   45 350 01 00:   BULK DENSITY
 CORR.G/C3   45 356 01 00:   DENSITY CORRECTION
 GRD .GAPI   45 310 01 00:   GAMMA RAY FROM DENSITY LOG
 CALD.IN     45 280 60 00:   CALIPER FROM DENSITY LOG
~PARAMETER INFORMATION
#MNEM.UNIT          VALUE    DESCRIPTION
#----------   ------------   ------------------------------
 EKB .F         5239.0000:   Kelly bushing
 EGL .F         5229.0000:   Ground level
 EDF .F            0.0000:   Drilling floor
 EPD .F           10.0000:   Permanent datum
 TD  .F         3802.0000:   Total depth
 DATE.        25-OCT-1977:   Date logged
 CLNT.            A2DTECH:   Client Code
 SL  . 2640' FNL & 2640' FEL:   Surface Location
 PD  .                 GL:   Permanent Datum
 DD  .F              3802:   Depth driller
 DL  .F              3791:   Depth logger
 BLI .F              3789:   Bottom log interval
 TLI .F               505:   Top log interval
 CS1 .IN            8.625:   Casing size
 CBD1.       8.625 @ 505':   Casing driller 1
 CBL1.F               505:   Casing logger 1
 BS1 .IN            7.875:   Bit size
 DFT .            KCL MUD:   Type fluid in hole
 DFD .                9.1:   Density
 DFV .                 45:   Viscosity
 DFPH.               10.5:   pH
 DFL .                  8:   Fluid loss
 MSS .             MUDPIT:   Source of sample
 RMS .OHMM           .209:   Rm
 MST .F                72:   Rm Meas. temp.
 RMF .OHMM           .179:   Rmf
 MFST.F                72:   Rmf Meas. temp.
 RMC .OHMM           .314:   Rmc
 MCST.F                72:   Rmc Meas. temp.
 MFSS.               MEAS:   Source Rmf.
 RMB .OHMM           .122:   Rm. at BHT
 BHT .F               123:   BHT.
 TCS .HRS            1400:   Time Circ. stopped
 MRT .F               123:   Maximum recorded temp.
 LUN .               5642:   Logging unit number
 LUL .               CSPR:   Logging unit location
 ENGI.             SAYLER:   Recorded By
 WITN.         PETTINGILL:   Witnessed by
 ORIG.           5" PRINT:   Origin of data
 UWI .     49025104310000:   Unique Well ID
 DICO. A2D TECHNOLOGIES, INC.:   Digitizing Company
 DAPD.                 10:   Feet Above Permanent Datum
 BSD1.               3802:   Depth drilled with bit1
 MCSS.               CALC:   Source Rmc.
~OTHER INFORMATION
~A   DEPT        DT       SPR        LLS        LLD       MSFL       NPOR       RHOB       CORR        GRD       CALD   
# ...
 2245.5000    93.9500   -61.4980     8.9830     7.5690    11.2160     0.3230     2.4950    -0.0060    95.6360     9.5290
 2246.0000    92.8920   -61.4510     9.0160     7.5690    10.9400     0.3220     2.4980     0.0060    93.6510     9.5310
 2246.5000    93.1780   -61.4040     9.7610     8.6690    12.5220     0.3180     2.4920    -0.0070    91.6680     9.5340
 2247.0000    93.7770   -61.3570    11.0460     9.6390    14.7330     0.3130     2.4840    -0.0090    89.6840     9.5360
 2247.5000    93.4500   -61.3100    12.4460    10.6090    15.8140     0.3070     2.4800     0.0100    88.0460     9.5390
 2248.0000    92.5420   -61.1680    12.4460    11.6690    15.0180     0.3010     2.4850    -0.0030    88.0070     9.5410
 2248.5000    91.5080   -60.9360    12.5610    11.7770    13.8970     0.2810     2.4930     0.0070    90.4230     9.5440
 2249.0000    90.4720   -60.7050    10.7400     9.6910    12.7760     0.2810     2.4980    -0.0040    92.8380     9.5480
 2249.5000    89.7890   -60.4740     9.3550     8.3760    11.9960     0.2850     2.5020     0.0040    94.5750     9.5520
 2250.0000    90.4750   -60.2430     9.3550     8.4530    11.8860     0.2890     2.5010    -0.0090    96.9440     9.5550
 2250.5000    90.4780   -60.0120    10.3940     9.1280    11.8860     0.2950     2.4860    -0.0150    98.8930     9.5590
 2251.0000    90.0500   -59.7810    11.5490    10.5500    13.0430     0.3010     2.4720     0.0010    99.0400     9.5630
 2251.5000    91.0500   -59.5490    12.7040    12.2640    15.6140     0.3040     2.4580    -0.0080    98.5740     9.5660
 2252.0000    90.8250   -59.3150    13.5220    12.4460    18.1560     0.3050     2.4510     0.0030    98.2190     9.5700
 2252.5000    90.5180   -59.1600    13.2050    11.3390    16.8220     0.3050     2.4530    -0.0050    99.3160     9.5740
 2253.0000    90.6550   -59.3000    12.1170    10.4830    14.8910     0.3020     2.4610    -0.0090   101.4940     9.5770
 2253.5000    90.6790   -59.3080    11.6690     9.6260    13.7730     0.2990     2.4690    -0.0020   103.5690     9.5810
 2254.0000    90.4440   -59.3070    12.0980     9.5290    13.7730     0.2980     2.4710    -0.0120   105.5520     9.5850
 2254.5000    90.2090   -59.3070    12.4460    10.4480    17.0230     0.2940     2.4580    -0.0050   107.5460     9.5880
 2255.0000    89.9500   -59.3070    11.2880     9.6770    16.5590     0.2940     2.4590     0.0040   109.5450     9.5920
 2255.5000    89.6000   -59.3070    10.2190     8.5450    12.8180     0.2970     2.4510     0.0080   111.7440     9.5960
 2256.0000    89.2500   -59.3070     9.1490     7.4990    10.5450     0.3060     2.4470    -0.0050   113.6870     9.5990
 2256.5000    90.2580   -59.3070     8.9340     7.4990    10.7100     0.3170     2.4530     0.0080   114.1060     9.5980
 2257.0000    91.1750   -59.3070     9.2490     8.3550    13.3850     0.3170     2.4510    -0.0010   114.6250     9.5930
 2257.5000    92.0920   -59.3050     9.9170     9.4410    14.6480     0.3110     2.4450     0.0050   117.9060     9.5880
 2258.0000    93.2600   -59.2610    10.5840     9.4410    15.3830     0.3080     2.4470    -0.0050   122.2830     9.5820
 2258.5000    92.7850   -59.2170    10.9400     8.4410    13.3700     0.3060     2.4500    -0.0030   127.3750     9.5770
 2259.0000    91.8350   -59.1730    10.0710     7.6520    10.0700     0.3160     2.4540     0.0120   130.0780     9.5720
 2259.5000    91.8000   -59.1290     9.2970     6.9320     9.9780     0.3270     2.4570     0.0090   132.7560     9.5660
 2260.0000    92.4390   -59.0860     8.5230     6.2920    10.5450     0.3330     2.4510     0.0190   135.6530     9.5620
 2260.5000    93.2170   -59.0420     7.7490     5.6890    10.4480     0.3400     2.4390     0.0060   137.1400     9.5670
 2261.0000    95.1300   -58.9990     7.6390     5.5850     9.0170     0.3400     2.4280     0.0130   136.5370     9.5730
 2261.5000    95.4420   -58.9550     9.2400     6.1340     8.2990     0.3260     2.4310     0.0130   132.9300     9.5770
 2262.0000    96.3500   -58.9120    11.4660     6.9720     8.5320     0.3150     2.4330    -0.0020   131.1020     9.5670
 2262.5000    95.4000   -58.8680    13.6920     8.3830    15.5550     0.2970     2.4280     0.0110   134.1400     9.5100
 2263.0000    93.4500   -58.8240    15.9180    13.6470    20.6550     0.2860     2.4220     0.0030   138.5320     9.5020
 2263.5000    91.9500   -58.7810    16.5590    12.5970    20.0570     0.2980     2.4200     0.0170   143.5990     9.5420
 2264.0000    90.5500   -58.7360    14.5340    10.9740    17.4500     0.3060     2.4260     0.0070   149.0510     9.5810
 2264.5000    89.2560   -58.6410    12.5980     9.9780    14.8260     0.3110     2.4330     0.0240   154.7060     9.5980
 2265.0000    89.0500   -58.4780    10.6620     8.6810    15.5250     0.3180     2.4470     0.0130   154.9840     9.5940
 2265.5000    89.6170   -58.3160     9.4190     7.0310    14.1200     0.3190     2.4470     0.0020   154.8990     9.5890
 2266.0000    90.3500   -58.1530     8.9900     6.9670    10.7410     0.3190     2.4460    -0.0030   152.3950     9.5840
 2266.5000    89.9000   -57.9900     8.9490     7.0160    12.1910     0.3130     2.4360     0.0070   152.5830     9.5860
 2267.0000    90.5500   -57.8280     8.4670     7.0960    13.3980     0.3070     2.4230    -0.0060   153.9130     9.5950
 2267.5000    89.9500   -57.6650     7.7300     6.8580    10.5230     0.3030     2.4300     0.0050   151.3970     9.6020
 2268.0000    90.9140   -57.5030     6.8810     5.8880     7.8570     0.3000     2.4540     0.0050   148.2320     9.6510
 2268.5000    91.7500   -57.3400     5.6500     3.9590     5.7420     0.3080     2.4840    -0.0090   135.8400     9.7500
 2269.0000    92.1200   -57.1770     5.1410     3.6230     5.7420     0.3230     2.4880     0.0030   131.3470     9.8490
 2269.5000    92.8500   -57.0150     5.0940     4.0150     6.5970     0.3280     2.4850    -0.0050   127.5040     9.9490
 2270.0000    94.0000   -56.8520     5.1500     4.2910     7.1620     0.3140     2.4900     0.0080   124.8630    10.0370
 2270.5000    95.1500   -56.6900     5.2040     4.4360     6.7490     0.2990     2.4940    -0.0010   122.3240    10.0380
 2271.0000    95.0500   -56.5270     5.2360     4.1480     6.3540     0.3040     2.4910     0.0060   120.4400    10.0440
 2271.5000    94.9500   -56.3640     5.1400     4.0460     6.3540     0.3170     2.4870    -0.0020   118.6960    10.0530
 2272.0000    94.1500   -56.2020     5.0940     4.2030     7.0290     0.3190     2.4930     0.0040   116.8460    10.0620
 2272.5000    94.9000   -56.0390     5.2010     4.4930     7.2950     0.3010     2.5000    -0.0100   120.2830    10.0710
 2273.0000    96.2500   -55.8750     5.2750     4.7830     7.2950     0.3000     2.5080     0.0030   121.5550    10.0800
 2273.5000    95.8410   -55.7120     5.3340     5.0020     7.2950     0.3010     2.5100     0.0020   119.4230    10.0890
 2274.0000    95.0230   -55.5490     5.3260     5.1200     7.2950     0.3040     2.5030    -0.0120   118.0260    10.0980
 2274.5000    94.3500   -55.3850     5.2880     5.2360     7.2950     0.3060     2.4960    -0.0010   119.6770    10.1070
 2275.0000    93.7210   -55.2220     5.2500     5.3340     7.2950     0.3110     2.4890    -0.0020   118.3700    10.1170
 2275.5000    93.4800   -55.0580     5.2110     4.6220     7.2520     0.3150     2.4840    -0.0130   116.0450    10.1150
 2276.0000    94.0500   -54.8950     5.1880     4.4770     7.0340     0.3190     2.4830    -0.0050   113.6890    10.1120
 2276.5000    93.8500   -54.7320     5.1930     4.4770     6.8400     0.3250     2.4800    -0.0170   112.5190    10.1100
 2277.0000    93.6500   -54.5680     5.2050     4.8000     6.8400     0.3240     2.4810    -0.0050   113.2820    10.1070
 2277.5000    94.0500   -54.4050     5.2170     5.0830     7.2950     0.3080     2.4880    -0.0090   114.1380    10.1050
 2278.0000    94.3620   -54.2410     5.2290     5.3660     7.2280     0.3080     2.4970     0.0060   115.0020    10.1020
 2278.5000    94.6750   -54.0780     5.2360     5.5340     7.5100     0.3130     2.5110    -0.0070   115.8600    10.0990
