~VERSION INFORMATION
 VERS.                2.0:   CWLS LOG ASCII STANDARD - VERSION 2.0
 WRAP.                 NO:   ONE LINE PER DEPTH STEP
~WELL INFORMATION
#MNEM.UNIT      DATA TYPE    INFORMATION
#----------   ------------   ------------------------------
 STRT.F           31.0000:   START DEPTH
 STOP.F         2926.0000:   STOP DEPTH
 STEP.F            0.5000:   STEP LENGTH
 NULL.          -999.2500:   NO VALUE
 COMP. LAWERNCE ALLISON AND ASSOCIATES:   COMPANY
 WELL.   FENIX "X" #17-21:   WELL
 FLD .             NPR #3:   FIELD
 LOC .      S21 T39N R78W:   LOCATION
 CNTY.            NATRONA:   COUNTY
 STAT.            WYOMING:   STATE
 CTRY. UNITED STATES OF AMERICA:   COUNTRY
 SRVC.      WESTERN ATLAS:   SERVICE COMPANY
 DATE.        02-NOV-1987:   LOGDATE
 API .     49025111960000:   API NUMBER
~CURVE INFORMATION
#MNEM.UNIT       API CODE    CURVE DESCRIPTION
#----------   ------------   ------------------------------
 DEPT.F                  :   
 CALD.IN     45 280 60 00:   CALIPER FROM DENSITY LOG
 TEND.LBS    45 635 01 00:   TENSION FROM DENSITY LOG
 CORR.G/C3   45 356 01 00:   DENSITY CORRECTION
 RHOB.G/C3   45 350 01 00:   BULK DENSITY
 CNC .DEC    42 890 03 00:   NEUTRON POROSITY SANDSTONE
 SPR .MV     07 010 01 00:   SPONTANEOUS POTENTIAL
 GRR .GAPI   07 310 01 00:   GAMMA RAY FROM RESISTIVITY
 TENR.LBS    07 635 01 00:   TENSION FROM RESISTIVITY
 RFOC.OHMM   07 220 04 00:   RESISTIVITY FOCUSED LOG RES.
 RILD.OHMM   07 120 46 00:   DEEP INDUCTION RESISTIVITY
 RILM.OHMM   07 120 44 00:   INDUCTION LOG MEDIUM RESISTIVITY
~PARAMETER INFORMATION
#MNEM.UNIT          VALUE    DESCRIPTION
#----------   ------------   ------------------------------
 EKB .F         5006.0000:   Kelly bushing
 EGL .F         4995.0000:   Ground level
 EDF .F            0.0000:   Drilling floor
 TD  .F         2915.0000:   Total depth
 DATE.        02-NOV-1987:   Date logged
 CLNT.            A2DTECH:   Client Code
 SL  . 1824' FSL & 399' FWL:   Surface Location
 PD  .                 GL:   Permanent Datum
 DD  .F              2911:   Depth driller
 DL  .F              2915:   Depth logger
 BLI .F              2913:   Bottom log interval
 CS1 .IN            8.625:   Casing size
 CBD1.      8.625" @ 350':   Casing driller 1
 CBL1.F               350:   Casing logger 1
 BS1 .IN            7.875:   Bit size
 DFT .        KCL-POLYMER:   Type fluid in hole
 DFD .                8.8:   Density
 DFV .                 42:   Viscosity
 DFPH.                9.5:   pH
 DFL .                 11:   Fluid loss
 MSS .           FLOWLINE:   Source of sample
 RMS .OHMM           0.41:   Rm
 MST .F                78:   Rm Meas. temp.
 RMF .OHMM           0.29:   Rmf
 MFST.F                78:   Rmf Meas. temp.
 RMC .OHMM           0.51:   Rmc
 MCST.F                78:   Rmc Meas. temp.
 MFSS.               MEAS:   Source Rmf.
 RMB .OHMM           0.29:   Rm. at BHT
 BHT .F               108:   BHT.
 TCS .HRS               5:   Time Circ. stopped
 MRT .F               108:   Maximum recorded temp.
 LUN .            HL-6274:   Logging unit number
 LUL .           GILLETTE:   Logging unit location
 WITN.             STRONG:   Witnessed by
 ORIG.           5" PRINT:   Origin of data
 UWI .     49025111960000:   Unique Well ID
 DICO. A2D TECHNOLOGIES, INC.:   Digitizing Company
 DAPD.                 11:   Feet Above Permanent Datum
 BSD1.               2911:   Depth drilled with bit1
 MCSS.               CALC:   Source Rmc.
 EPD .               4995:   Elevation Permanent Datum
 LMF .                 KB:   Log Measured From
 DMF .                 KB:   Drilling Measured From
 TLI .                 11:   Top log interval
~OTHER INFORMATION
~A   DEPT     CALD       TEND       CORR       RHOB        CNC        SPR         GRR      TENR       RFOC       RILD       RILM   
# ...
 1373.0000  -999.2500  -999.2500  -999.2500  -999.2500  -999.2500   -28.5320   103.6050   -65.5340     7.8700     8.2700     8.1830
 1373.5000  -999.2500  -999.2500  -999.2500  -999.2500  -999.2500   -28.5600   102.8320   -65.5340     7.8270     8.2170     8.1060
 1374.0000  -999.2500  -999.2500  -999.2500  -999.2500  -999.2500   -28.5910   100.0040   -65.5340     7.7840     8.1630     8.0280
 1374.5000  -999.2500  -999.2500  -999.2500  -999.2500  -999.2500   -28.5320    95.7860   -65.5340     7.7410     8.1100     7.9500
 1375.0000  -999.2500  -999.2500  -999.2500  -999.2500  -999.2500   -28.4360    98.5190   -65.5340     7.6980     8.0570     7.8720
 1375.5000  -999.2500  -999.2500  -999.2500  -999.2500  -999.2500   -28.3410   102.2840   -65.5340     7.6550     8.0040     7.7950
 1376.0000  -999.2500  -999.2500  -999.2500  -999.2500  -999.2500   -28.2470   107.3280   -65.5340     7.6140     7.9500     7.7510
 1376.5000  -999.2500  -999.2500  -999.2500  -999.2500  -999.2500   -28.1530   111.5750   -65.5340     7.6140     7.8910     7.8400
 1377.0000  -999.2500  -999.2500  -999.2500  -999.2500  -999.2500   -28.0580   113.3850   -65.5340     7.7190     8.0560     7.9730
 1377.5000  -999.2500  -999.2500  -999.2500  -999.2500  -999.2500   -27.9640   110.6250   -65.5340     7.8380     8.1000     8.1060
 1378.0000  -999.2500  -999.2500  -999.2500  -999.2500  -999.2500   -27.8700   106.6930   -65.5340     8.1050     8.1440     8.2390
 1378.5000  -999.2500  -999.2500  -999.2500  -999.2500  -999.2500   -27.7740    96.0690   -65.5340     8.4910     8.1880     8.3720
 1379.0000  -999.2500  -999.2500  -999.2500  -999.2500  -999.2500   -27.6820    94.8360   -65.5340     8.9440     8.2330     8.4760
 1379.5000  -999.2500  -999.2500  -999.2500  -999.2500  -999.2500   -27.5880    97.3170   -65.5340     8.7400     8.2770     8.4760
 1380.0000  -999.2500  -999.2500  -999.2500  -999.2500  -999.2500   -27.4790   100.1760   -65.5340     8.4940     8.3260     8.3130
 1380.5000  -999.2500  -999.2500  -999.2500  -999.2500  -999.2500   -27.5210   101.0490   -65.5340     8.2480     8.1790     8.1580
 1381.0000  -999.2500  -999.2500  -999.2500  -999.2500  -999.2500   -27.8200   101.5310   -65.5340     8.0340     8.1620     8.0030
 1381.5000  -999.2500  -999.2500  -999.2500  -999.2500  -999.2500   -28.1010   104.1370   -65.5340     8.0340     8.1390     7.8470
 1382.0000  -999.2500  -999.2500  -999.2500  -999.2500  -999.2500   -28.3940   108.5350   -65.5340     7.7510     8.1150     7.7510
 1382.5000  -999.2500  -999.2500  -999.2500  -999.2500  -999.2500   -28.6730   107.5510   -65.5340     7.6140     8.0920     7.7510
 1383.0000  -999.2500  -999.2500  -999.2500  -999.2500  -999.2500   -28.9690   106.7610   -65.5340     7.7510     8.0690     7.8530
 1383.5000  -999.2500  -999.2500  -999.2500  -999.2500  -999.2500   -28.9870   105.2230   -65.5340     7.9650     8.0460     7.9760
 1384.0000  -999.2500  -999.2500  -999.2500  -999.2500  -999.2500   -28.9960   103.1360   -65.5340     8.1700     8.0340     8.0990
 1384.5000  -999.2500  -999.2500  -999.2500  -999.2500  -999.2500   -28.9470   101.6770   -65.5340     8.3740     8.1590     8.2220
 1385.0000  -999.2500  -999.2500  -999.2500  -999.2500  -999.2500   -28.7580   102.2320   -65.5340     8.5780     8.2720     8.3260
 1385.5000  -999.2500  -999.2500  -999.2500  -999.2500  -999.2500   -28.5700   102.6290   -65.5340     8.7850     8.3850     8.3260
 1386.0000  -999.2500  -999.2500  -999.2500  -999.2500  -999.2500   -28.3770   102.9330   -65.5340     8.7030     8.4990     8.3260
 1386.5000  -999.2500  -999.2500  -999.2500  -999.2500  -999.2500   -28.1820   101.4430   -65.5340     8.3260     8.6120     8.3260
 1387.0000  -999.2500  -999.2500  -999.2500  -999.2500  -999.2500   -27.9970    98.6830   -65.5340     8.3740     8.7260     8.4770
 1387.5000  -999.2500  -999.2500  -999.2500  -999.2500  -999.2500   -27.8030    97.3210   -65.5340     8.5560     8.8390     8.6210
 1388.0000  -999.2500  -999.2500  -999.2500  -999.2500  -999.2500   -27.5930    96.1420   -65.5340     8.7380     8.9520     8.7650
 1388.5000  -999.2500  -999.2500  -999.2500  -999.2500  -999.2500   -27.4810    96.7470   -65.5340     8.9200     9.0660     9.1050
 1389.0000  -999.2500  -999.2500  -999.2500  -999.2500  -999.2500   -27.1230    98.3000   -65.5340     9.2690     9.1790     9.0320
 1389.5000  -999.2500  -999.2500  -999.2500  -999.2500  -999.2500   -27.2230    97.7290   -65.5340     9.1050     9.2690     8.8350
 1390.0000  -999.2500  -999.2500  -999.2500  -999.2500  -999.2500   -27.4120    98.8380   -65.5340     8.8550     9.1070     8.6380
 1390.5000  -999.2500  -999.2500  -999.2500  -999.2500  -999.2500   -27.6310   101.8680   -65.5340     8.5490     8.9090     8.4420
 1391.0000  -999.2500  -999.2500  -999.2500  -999.2500  -999.2500   -27.8240   106.6680   -65.5340     8.2430     8.7100     8.2450
 1391.5000  -999.2500  -999.2500  -999.2500  -999.2500  -999.2500   -28.0260   106.0970   -65.5340     8.0340     8.5120     8.0340
 1392.0000  -999.2500  -999.2500  -999.2500  -999.2500  -999.2500   -28.2030   103.8770   -65.5340     8.0340     8.3130     8.0340
 1392.5000  -999.2500  -999.2500  -999.2500  -999.2500  -999.2500   -28.2080   103.2420   -65.5340     7.8910     8.1150     8.0340
 1393.0000  -999.2500  -999.2500  -999.2500  -999.2500  -999.2500   -28.2130   103.5090   -65.5340     7.8910     8.0340     8.0340
 1393.5000  -999.2500  -999.2500  -999.2500  -999.2500  -999.2500   -28.2470   105.1040   -65.5340     7.9520     8.0340     8.0340
 1394.0000  -999.2500  -999.2500  -999.2500  -999.2500  -999.2500   -28.2990   104.1940   -65.5340     8.0960     8.0340     8.3260
 1394.5000  -999.2500  -999.2500  -999.2500  -999.2500  -999.2500   -28.3500   102.6040   -65.5340     8.2390     8.0880     8.3390
 1395.0000  -999.2500  -999.2500  -999.2500  -999.2500  -999.2500   -28.3990   104.4390   -65.5340     8.3830     8.1510     8.3670
 1395.5000  -999.2500  -999.2500  -999.2500  -999.2500  -999.2500   -28.4500   105.3210   -65.5340     8.5260     8.2130     8.3950
 1396.0000  -999.2500  -999.2500  -999.2500  -999.2500  -999.2500   -28.5000   101.9720   -65.5340     8.6700     8.2760     8.4220
 1396.5000  -999.2500  -999.2500  -999.2500  -999.2500  -999.2500   -28.5500   101.0290   -65.5340     8.7850     8.3260     8.4500
 1397.0000  -999.2500  -999.2500  -999.2500  -999.2500  -999.2500   -28.5990   102.1790   -65.5340     8.5990     8.2500     8.4760
 1397.5000  -999.2500  -999.2500  -999.2500  -999.2500  -999.2500   -28.5590   101.7080   -65.5340     8.3690     8.1560     8.4760
 1398.0000  -999.2500  -999.2500  -999.2500  -999.2500  -999.2500   -28.3920   101.8920   -65.5340     8.1400     8.0620     8.1490
 1398.5000  -999.2500  -999.2500  -999.2500  -999.2500  -999.2500   -28.2260   102.5170   -65.5340     7.8910     8.0340     8.0340
 1399.0000  -999.2500  -999.2500  -999.2500  -999.2500  -999.2500   -28.0600   105.4640   -65.5340     8.0340     8.1910     8.0730
 1399.5000  -999.2500  -999.2500  -999.2500  -999.2500  -999.2500   -27.8870   107.5300   -65.5340     8.1560     8.3620     8.1480
 1400.0000  -999.2500  -999.2500  -999.2500  -999.2500  -999.2500   -27.8130   105.5170   -65.5340     8.2630     8.5330     8.1790
 1400.5000  -999.2500  -999.2500  -999.2500  -999.2500  -999.2500   -27.8480   103.3020   -65.5340     8.5710     8.7040     8.5300
 1401.0000  -999.2500  -999.2500  -999.2500  -999.2500  -999.2500   -27.9180   101.5550   -65.5340     9.2690     8.8750     8.8250
 1401.5000  -999.2500  -999.2500  -999.2500  -999.2500  -999.2500   -27.9860   101.7580   -65.5340     9.2690     9.0460     9.1050
 1402.0000  -999.2500  -999.2500  -999.2500  -999.2500  -999.2500   -28.0560    99.7920   -65.5340     9.1050     9.1050     9.1050
 1402.5000  -999.2500  -999.2500  -999.2500  -999.2500  -999.2500   -28.1250    96.5740   -65.5340     9.1050     9.1050     9.1050
 1403.0000  -999.2500  -999.2500  -999.2500  -999.2500  -999.2500   -28.1940    94.5660   -65.5340     9.1050     9.1050     8.8470
