~VERSION INFORMATION
 VERS.                2.0:   CWLS LOG ASCII STANDARD - VERSION 2.0
 WRAP.                 NO:   ONE LINE PER DEPTH STEP
~WELL INFORMATION
#MNEM.UNIT      DATA TYPE    INFORMATION
#----------   ------------   ------------------------------
 STRT.F          200.0000:   START DEPTH
 STOP.F         3135.5000:   STOP DEPTH
 STEP.F            0.5000:   STEP LENGTH
 NULL.          -999.2500:   NO VALUE
 COMP.    FENOX & SCISSON:   COMPANY
 WELL. FENIX NPR 23 "AX" #3-11:   WELL
 FLD .                NPR:   FIELD
 LOC .      S11 T38N R78W:   LOCATION
 CNTY.            NATRONA:   COUNTY
 STAT.            WYOMING:   STATE
 CTRY. UNITED STATES OF AMERICA:   COUNTRY
 SRVC.       SCHLUMBERGER:   SERVICE COMPANY
 DATE.        06-NOV-1977:   LOGDATE
 API .     49025104320000:   API NUMBER
~CURVE INFORMATION
#MNEM.UNIT       API CODE    CURVE DESCRIPTION
#----------   ------------   ------------------------------
 DEPT.F                  :   
 CALD.IN     45 280 60 00:   CALIPER FROM DENSITY LOG
 GRD .GAPI   45 310 01 00:   GAMMA RAY FROM DENSITY LOG
 RHOB.G/C3   45 350 01 00:   BULK DENSITY
 CORR.G/C3   45 356 01 00:   DENSITY CORRECTION
 SPR .MV     07 010 01 00:   SPONTANEOUS POTENTIAL
 LL8 .OHMM   07 220 08 00:   LATEROLOG-8 RES.
 ILD .OHMM   07 120 46 00:   DEEP INDUCTION RESISTIVITY
 ILM .OHMM   07 120 44 00:   INDUCTION LOG MEDIUM RESISTIVITY
~PARAMETER INFORMATION
#MNEM.UNIT          VALUE    DESCRIPTION
#----------   ------------   ------------------------------
 EKB .F         5176.0000:   Kelly bushing
 EGL .F         5171.0000:   Ground level
 TD  .F         3138.0000:   Total depth
 DATE.        06-NOV-1977:   Date logged
 CLNT.            A2DTECH:   Client Code
 SL  . 1650' FNL & 750' FWL:   Surface Location
 PD  .                 GL:   Permanent Datum
 EPD .F              5171:   Elevation Permanent Datum
 LMF .                 KB:   Log Measured From
 DMF .                 KB:   Drilling Measured From
 DAPD.F                 5:   Feet Above Permanent Datum
 DD  .F              3138:   Depth driller
 DL  .F              3135:   Depth logger
 BLI .F              3134:   Bottom log interval
 TLI .F               196:   Top log interval
 CS1 .IN            8.625:   Casing size
 CBD1.      8.625" @ 205':   Casing driller 1
 CBL1.F               205:   Casing logger 1
 BS1 .IN            7.875:   Bit size
 BSD1.F              3138:   Depth drilled with bit1
 DFT .            KCL/MUD:   Type fluid in hole
 DFD .                8.8:   Density
 DFV .                 34:   Viscosity
 DFPH.                 11:   pH
 DFL .                  6:   Fluid loss
 MSS .            MUD/PIT:   Source of sample
 RMS .OHMM           0.27:   Rm
 MST .F                48:   Rm Meas. temp.
 RMF .OHMM           0.29:   Rmf
 MFST.F                48:   Rmf Meas. temp.
 RMC .OHMM           0.39:   Rmc
 MCST.F                48:   Rmc Meas. temp.
 MFSS.               MEAS:   Source Rmf.
 MCSS.               CALC:   Source Rmc.
 RMB .OHMM           0.12:   Rm. at BHT
 BHT .F               104:   BHT.
 TCS .HRS            1500:   Time Circ. stopped
 TLAB.HRS            1930:   Time logger at bottom
 MRT .F               104:   Maximum recorded temp.
 LUN .               7711:   Logging unit number
 LUL .               CSPR:   Logging unit location
 ENGI.       CRAIG/SAYLER:   Recorded By
 WITN.         PETTINGILL:   Witnessed by
 ORIG.           5" PRINT:   Origin of data
 UWI .     49025104320000:   Unique Well ID
 DICO. A2D TECHNOLOGIES, INC.:   Digitizing Company
~OTHER INFORMATION
~A   DEPT     CALD        GRD       RHOB       CORR        SPR        LL8        ILD        ILM   
# ...
 2306.0000     8.2537   119.3471     2.4997     0.0085   -90.7663     9.8161     8.0576     6.7984
 2306.5000     8.2541   121.1614     2.4948     0.0145   -90.7590     8.3248     7.2844     6.8007
 2307.0000     8.2545   122.3733     2.4878     0.0175   -90.9490     8.1020     7.1539     6.7425
 2307.5000     8.2750   121.4756     2.4808     0.0126   -91.1427     7.9940     6.7722     6.2103
 2308.0000     8.2754   117.5648     2.4668    -0.0004   -91.1336     7.1305     6.3526     5.8798
 2308.5000     8.2755   119.3779     2.4639     0.0036   -91.1244     6.0466     6.1821     5.7753
 2309.0000     8.2762   120.5886     2.4669     0.0066   -91.1153     5.6207     6.1842     5.6725
 2309.5000     8.2766   120.8957     2.4689     0.0087   -91.1061     4.9446     6.4195     5.6221
 2310.0000     8.2770   119.6969     2.4619     0.0167   -91.0970     4.9467     6.4223     5.6254
 2310.5000     8.2774   116.9921     2.4520     0.0237   -90.8850     6.4596     5.8059     5.6278
 2311.0000     8.2778   113.6849     2.4570     0.0167   -91.0787     8.2765     5.7551     5.6812
 2311.5000     8.2782   110.9801     2.4760     0.0098   -91.0696     9.9549     5.7576     5.7370
 2312.0000     8.2586   110.0824     2.4810     0.0018   -91.0604     9.5594     6.0315     4.9256
 2312.5000     8.2589   112.4979     2.4780    -0.0052   -91.0513     6.9633     5.9234     4.7930
 2313.0000     8.2794   118.5289     2.4730    -0.0022   -91.0421     4.4544     5.6592     4.7946
 2313.5000     8.2597   120.9467     2.4671     0.0019   -91.2359     4.0533     5.4072     4.4563
 2314.0000     8.2802   121.2527     2.4451     0.0059   -91.2267     3.7084     5.0261     4.0659
 2314.5000     8.2806   118.2467     2.4191     0.0109   -91.4205     3.9468     4.5846     4.1052
 2315.0000     8.2609   111.3240     2.4362     0.0149   -91.4113     4.4902     4.3403     4.1826
 2315.5000     8.2814   109.2216     2.4472     0.0149   -91.1993     5.1557     4.3421     4.2625
 2316.0000     8.2818   110.4323     2.4542    -0.0150   -91.1901     5.6018     4.3838     4.2643
 2316.5000     8.2822   112.5465     2.4682     0.0130   -91.3839     4.5793     4.5089     4.2274
 2317.0000     8.2826   113.7572     2.4622     0.0120   -91.1719     4.7092     4.5108     4.0761
 2317.5000     8.2830   114.0644     2.4622     0.0010   -91.3656     4.4178     4.7691     3.8943
 2318.0000     8.2634   118.2870     2.4682     0.0191   -91.1554     3.8864     5.2623     3.7206
 2318.5000     8.2638   121.0037     2.4733     0.0181   -91.1481     3.8880     5.2641     3.6542
 2319.0000     8.2642   121.9143     2.4723     0.0101   -91.1353     4.5054     5.2186     4.0345
 2319.5000     8.3047   122.5227     2.4763     0.0131   -90.9232     5.0789     4.9421     4.2652
 2320.0000     8.2652   124.0346     2.4973     0.0171   -90.7112     4.8978     5.5190     4.5508
 2320.5000     8.2653   126.1488     2.5143     0.0192   -90.4991     5.0079     5.9423     4.5939
 2321.0000     8.2657   127.6607     2.5003     0.0132   -90.4900     5.2934     6.6392     6.1114
 2321.5000     8.2660   127.9678     2.4904     0.0102   -90.2779     6.3674     6.6409     6.6409
 2322.0000     8.2665   129.7809     2.4954     0.0162   -90.4698     6.5486     6.8293     6.8293
 2322.5000     8.2669   129.7869     2.5244     0.0162   -90.2578     6.4318     7.1177     6.8322
 2323.0000     8.2674   127.9856     2.5134     0.0103   -90.2486     7.3563     7.1866     7.3563
 2323.5000     8.2678   125.8832     2.5144     0.0093   -90.0366     8.1433     7.3905     7.9206
 2324.0000     8.2682   121.6724     2.5244     0.0113   -90.0274     8.8474     7.5318     7.7797
 2324.5000     8.2687   119.8712     2.5245     0.0014   -89.8153     9.0984     7.6751     7.7830
 2325.0000     8.2691   119.8771     2.5175    -0.0006   -89.8062     8.6930     7.8582     7.8582
 2325.5000     8.2695   121.9926     2.5085     0.0034   -89.7970     7.8615     7.8983     7.8615
 2326.0000     8.2857   125.6129     2.5065     0.0084   -89.5849     7.4069     7.9734     7.5811
 2326.5000     8.2854   126.8236     2.5281     0.0094   -89.7787     7.1420     8.0506     7.5150
 2327.0000     8.2852   126.8295     2.5386     0.0095   -89.5666     7.1450     8.0540     7.5876
 2327.5000     8.2850   126.2330     2.5156     0.0095   -89.3545     7.9476     7.9836     7.9476
 2328.0000     8.2848   124.1306     2.5146     0.0085   -89.1424     8.7166     7.9870     8.7986
 2328.5000     8.2846   122.3294     2.5156     0.0075   -89.1332     8.8008     8.2143     9.2145
 2329.0000     8.2844   120.5281     2.5236     0.0046   -88.9211     9.7408     8.9678     9.8298
 2329.5000     8.2842   118.7269     2.5267     0.0056   -88.9101    10.2030     9.0529    10.4881
 2330.0000     8.2839   116.3233     2.5107     0.0076   -88.6980    11.0871     9.5708    10.5894
 2330.5000     8.2837   116.3292     2.4917     0.0106   -88.4859    11.7204     9.7541    10.5930
 2331.0000     8.2835   117.5399     2.4887     0.0076   -88.4767    11.8336     9.6682    10.5975
 2331.5000     8.2833   120.5625     2.4908     0.0027   -88.4676    11.8386     9.6723    10.6029
 2332.0000     8.2831   118.4566     2.4918     0.0057   -88.2554    11.1060     9.7657    10.6102
 2332.5000     8.2829   114.8470     2.4888     0.0097   -88.2463    11.0092     9.8592    10.6111
 2333.0000     8.2827   112.4457     2.4878    -0.0003   -88.0341    11.1155     9.7740    10.6165
 2333.5000     8.2824   112.4517     2.5028     0.0058   -87.4161    11.8589     9.7749    10.6210
 2334.0000     8.2822   112.4576     2.5179     0.0108   -88.0158    12.8866     9.6929    10.6256
 2334.5000     8.2820   112.7647     2.5084     0.0058   -88.0066    12.8921     9.7865    10.6301
 2335.0000     8.2818   118.1909     2.4989    -0.0002   -87.7945    12.5459     9.8811    10.5338
 2335.5000     8.2816   121.5100     2.4919    -0.0022   -87.7853    12.0995     9.7949    10.5410
 2336.0000     8.2814   124.2267     2.4997     0.0029   -87.5731    11.6709     9.9808    10.4490
 2336.5000     8.2812   127.2457     2.5080     0.0039   -87.7669    11.8475     9.8937    10.4155
 2337.0000     8.2809   131.1671     2.5080     0.0039   -87.7577    11.4237     9.7284    10.5146
 2337.5000     8.2807   132.0766     2.5060    -0.0011   -87.7485    10.8139     9.7219    10.7147
 2338.0000     8.2805   131.4802     2.5030     0.0010   -87.5364    12.6986     9.7260    10.9187
 2338.5000     8.2803   131.1849     2.5020     0.0030   -87.5272    13.6706     9.8174    10.9234
 2339.0000     8.2801   132.6968     2.5021     0.0010   -87.5180    13.6765     9.3830    10.8278
 2339.5000     8.2799   133.0039     2.4891    -0.0030   -87.1029    13.3906     9.3870    10.7340
 2340.0000     8.2796   133.6123     2.4861     0.0010   -87.0937    12.4444     9.6518    10.7386
 2340.5000     8.2794   133.3170     2.4911     0.0041   -87.0827    11.5650     9.6576    10.7432
 2341.0000     8.2792   129.7086     2.4961     0.0021   -87.0735    10.7478     9.6617    10.8473
 2341.5000     8.2790   123.0883     2.4982     0.0011   -86.8613    10.6538     9.6658    11.0538
 2342.0000     8.2788   114.6608     2.4942    -0.0029   -86.8521    12.1259     9.4071    11.2642
 2342.5000     8.2786   109.8477     2.4832    -0.0018   -86.6399    12.5134     9.2397    11.4139
 2343.0000     8.2784   106.2393     2.4862     0.0022   -86.6307    12.5187     9.2436    11.2118
 2343.5000     8.2781   103.5345     2.4912     0.0052   -86.4185    12.7563     9.3305    11.2147
 2344.0000     8.2779   100.2273     2.4703    -0.0078   -86.2063    13.3618     9.6873    11.2204
 2344.5000     8.2777   100.8356     2.4633    -0.0058   -86.1971    13.4909     9.5647    11.2262
 2345.0000     8.2775   103.8534     2.4753     0.0013   -86.1879    13.4955     9.6557    11.1283
 2345.5000     8.2773   104.7630     2.5043     0.0083   -86.1787    13.0152     9.6590    11.1321
 2346.0000     8.2771   105.6725     2.4913     0.0143   -86.1695    11.7690     9.7518    11.0368
