~VERSION INFORMATION
 VERS.                2.0:   CWLS LOG ASCII STANDARD - VERSION 2.0
 WRAP.                 NO:   ONE LINE PER DEPTH STEP
~WELL INFORMATION
#MNEM.UNIT      DATA TYPE    INFORMATION
#----------   ------------   ------------------------------
 STRT.F          198.0000:   START DEPTH
 STOP.F         3252.0000:   STOP DEPTH
 STEP.F            0.5000:   STEP LENGTH
 NULL.          -999.2500:   NO VALUE
 COMP. FENIX & SCISSON - U.S. NAVY:   COMPANY
 WELL.   FENIX A X #21-33:   WELL
 FLD .              NPR-3:   FIELD
 LOC .      S33 T39N R78W:   LOCATION
 CNTY.            NATRONA:   COUNTY
 STAT.            WYOMING:   STATE
 CTRY. UNITED STATES OF AMERICA:   COUNTRY
 SRVC.              WELEX:   SERVICE COMPANY
 DATE.        06-JUN-1977:   LOGDATE
 API .     49025103750000:   API NUMBER
~CURVE INFORMATION
#MNEM.UNIT       API CODE    CURVE DESCRIPTION
#----------   ------------   ------------------------------
 DEPT.F                  :   
 CALD.IN     45 280 60 00:   CALIPER FROM DENSITY LOG
 GRD .GAPI   45 310 01 00:   GAMMA RAY FROM DENSITY LOG
 RHOB.G/C3   45 350 01 00:   BULK DENSITY
 CORR.G/C3   45 356 01 00:   DENSITY CORRECTION
 NPHI.DEC    42 890 01 00:   NEUTRON POROSITY LIMESTONE
 SPR .MV     07 010 01 00:   SPONTANEOUS POTENTIAL
 GURD.OHMM   07 220 05 00:   GUARD LOG RESISTIVITY
 FORX.OHMM   07 220 00 00:   FORMATION FACTOR
~PARAMETER INFORMATION
#MNEM.UNIT          VALUE    DESCRIPTION
#----------   ------------   ------------------------------
 EKB .F         5147.0000:   Kelly bushing
 EGL .F         5137.0000:   Ground level
 EDF .F            0.0000:   Drilling floor
 EPD .F            0.0000:   Permanent datum
 TD  .F         3254.0000:   Total depth
 CLNT.            A2DTECH:   Client Code
 SL  . 660' FNL & 1320' FWL:   Surface Location
 PD  .                 GL:   Permanent Datum
 DAPD.F                10:   Feet Above Permanent Datum
 DATE.        06-JUN-1977:   Date Logged [DD-MMM-YYYY]
 DD  .F              3249:   Depth driller
 DL  .F              3254:   Depth logger
 BLI .F              3252:   Bottom log interval
 TLI .F               200:   Top log interval
 CS1 .IN            8.625:   Casing size
 CBD1.      8.625" @ 204':   Casing driller 1
 CBL1.F               221:   Casing logger 1
 BS1 .IN            7.875:   Bit size
 BSD1.F              3249:   Depth drilled with bit1
 DFT .            KCL MUD:   Type fluid in hole
 DFD .                  9:   Density
 DFV .                134:   Viscosity
 DFPH.                7.5:   pH
 DFL .                7.8:   Fluid loss
 MSS .           FLOWLINE:   Source of sample
 RMS .OHMM           0.64:   Rm
 MST .F                85:   Rm Meas. temp.
 RMF .OHMM           0.61:   Rmf
 MFST.F                85:   Rmf Meas. temp.
 MFSS.           FANN KIT:   Source Rmf.
 RMC .OHMM              1:   Rmc
 MCST.F                85:   Rmc Meas. temp.
 MCSS.           FANN KIT:   Source Rmc.
 RMB .OHMM           0.46:   Rm. at BHT
 BHT .F               116:   BHT.
 TCS .HRS             2.5:   Time Circ. stopped
 MRT .F               116:   Maximum recorded temp.
 LUN .               8611:   Logging unit number
 LUL .             CASPER:   Logging unit location
 ENGI.            C. DOAK:   Recorded By
 WITN.      B. HARRINGTON:   Witnessed by
 ORIG.           5" PRINT:   Origin of data
 UWI .     49025103750000:   Unique Well ID
 DICO. A2D TECHNOLOGIES, INC.:   Digitizing Company
~OTHER INFORMATION
~A   DEPT     CALD         GRD      RHOB       CORR       NPHI        SPR       GURD       FORX   
# ...
 1777.5000     8.9851    95.1524     2.5027     0.0313     0.3215   -41.4473     9.2891     5.2956
 1778.0000     8.9869    93.4073     2.5066     0.0314     0.3202   -41.5032    10.7966     5.1905
 1778.5000     8.9887    94.6385     2.5037     0.0315     0.3227   -41.5581    12.2813     4.9493
 1779.0000     8.9905    97.3578     2.4970     0.0301     0.3251   -41.6129    10.8843     4.1111
 1779.5000     8.9923   101.3339     2.4903     0.0287     0.3263   -41.6677     8.1975     4.4373
 1780.0000     8.9792   105.7725     2.4838     0.0288     0.3272   -41.7225    11.0639     5.4607
 1780.5000     8.9810   101.9543     2.4816     0.0260     0.3266   -41.7775    10.3849     5.0656
 1781.0000     8.9976    99.9116     2.4810     0.0244     0.3275   -41.8295     9.8874     5.0331
 1781.5000     8.9994    97.8588     2.4788     0.0217     0.3287   -41.8332     9.5487     5.0369
 1782.0000     9.0015   102.9692     2.4782     0.0203     0.3311   -41.8390     9.4189     5.0747
 1782.5000     9.0033   105.6783     2.4738     0.0205     0.3311   -41.4310     9.6997     5.1482
 1783.0000     9.0050   103.0505     2.4664     0.0191     0.3292   -41.2744     9.8460     5.2227
 1783.5000     9.0217   103.6865     2.4792     0.0222     0.3292   -41.4654     9.8532     5.2620
 1784.0000     9.0383   105.8105     2.4875     0.0238     0.3301   -41.4342     9.4481     5.0075
 1784.5000     9.0549   107.6387     2.4869     0.0254     0.3310   -41.4362     9.3880     4.8849
 1785.0000     9.0567   109.7917     2.4817     0.0256     0.3325   -41.4370    10.0382     4.8535
 1785.5000     9.0733   108.9189     2.4851     0.0272     0.3334   -41.4370    10.5376     4.9245
 1786.0000     9.0601   107.4613     2.4909     0.0273     0.3340   -41.4370    10.1766     5.2786
 1786.5000     9.0619   110.1907     2.4903     0.0274     0.3346   -41.4370     9.7583     5.3183
 1787.0000     9.0637   112.3147     2.4859     0.0260     0.3350   -41.4370     9.4240     5.3215
 1787.5000     9.0804   111.4626     2.4830     0.0262     0.3357   -41.4370     9.1012     5.2519
 1788.0000     9.0825   110.0152     2.4801     0.0248     0.3357   -41.4370     8.9774     5.1467
 1788.5000     9.0842   107.9725     2.4966     0.0309     0.3354   -41.4370     8.9856     5.0063
 1789.0000     9.0860   111.2870     2.5162     0.0370     0.3344   -41.4371     9.4516     4.9454
 1789.5000     9.0724   113.7086     2.5305     0.0434     0.3334   -41.4337     9.9420     4.9833
 1790.0000     9.0593   114.9601     2.5298     0.0447     0.3325   -41.4444    10.1638     5.0207
 1790.5000     9.0317   116.5673     2.5202     0.0448     0.3312   -41.0141    10.1729     5.0584
 1791.0000     9.0181   120.0909     2.5158     0.0449     0.3299   -40.9658    10.1063     5.0965
 1791.5000     9.0203   124.2982     2.5137     0.0451     0.3281   -40.8960     9.9018     5.1702
 1792.0000     9.0220   122.2556     2.5078     0.0437     0.3277   -40.8237     8.8425     5.2091
 1792.5000     9.0238   119.3201     2.4929     0.0408     0.3283   -40.7520     9.1045     5.2482
 1793.0000     9.0256   115.7893     2.4758     0.0394     0.3302   -40.6802     9.5087     5.1752
 1793.5000     9.0124   112.8538     2.4580     0.0396     0.3323   -40.6085     9.3146     4.9058
 1794.0000     9.0146   110.5135     2.4431     0.0382     0.3344   -40.5368     8.6810     4.7101
 1794.5000     9.0010   108.7685     2.4215     0.0338     0.3359   -40.4651     8.0905     4.7783
 1795.0000     9.0032   108.2140     2.3872     0.0295     0.3371   -40.3930     6.2267     4.8809
 1795.5000     9.0050   108.2560     2.3922     0.0206     0.3380   -40.3249     2.3632     4.8171
 1796.0000     9.0065   108.3055     2.4423     0.0207     0.3386   -40.2693     8.7701     3.8142
 1796.5000     9.0083   108.3462     2.4795     0.0284     0.3389   -40.0640     8.3500     3.0620
 1797.0000     9.0101   108.0791     2.4620     0.0359     0.3395   -40.0662     7.7820     2.2477
 1797.5000     9.0119   106.9394     2.4401     0.0360     0.3407   -40.1744     7.3566     3.0179
 1798.0000     9.0137   104.3016     2.4282     0.0331     0.3425   -40.2828     7.8476     3.9038
 1798.5000     9.0155   101.0583     2.4200     0.0288     0.3443   -40.3901     2.7393     4.0708
 1799.0000     9.0173   104.0853     2.4456     0.0304     0.3453   -40.4973     8.2621     4.0176
 1799.5000     9.0190   105.9117     2.4771     0.0335     0.3458   -40.6045     9.5330     3.6256
 1800.0000     9.0208   106.5476     2.4937     0.0396     0.3457   -40.7117     9.0774     2.6610
 1800.5000     9.0274   107.2131     2.4997     0.0442     0.3446   -40.8189     8.3407     3.2739
 1801.0000     9.0356   111.4011     2.5021     0.0488     0.3438   -40.9261     7.7737     4.4962
 1801.5000     9.0245   117.0965     2.4984     0.0473     0.3438   -41.0335     6.1499     4.4990
 1802.0000     9.0257   120.1134     2.4970     0.0475     0.3438   -41.1409     8.3008     4.2482
 1802.5000     9.0268   121.9398     2.5009     0.0460     0.3437   -41.2389     8.7316     4.0860
 1803.0000     9.0280   123.4686     2.5032     0.0446     0.3434   -41.2407     8.2547     4.0102
 1803.5000     9.0292   124.3919     2.5033     0.0462     0.3434   -41.2403     8.0276     3.9493
 1804.0000     9.0304   115.5443     2.5049     0.0478     0.3436   -41.2405     9.2647     4.1746
 1804.5000     9.0467   112.3139     2.5072     0.0524     0.3439   -41.2414     9.2829     4.2068
 1805.0000     9.0478   111.7513     2.5103     0.0555     0.3439   -41.2346     8.3989     4.1488
 1805.5000     9.0639   110.9127     2.5119     0.0615     0.3441   -41.0893     7.7173     4.3954
 1806.0000     9.0799   109.1704     2.5135     0.0707     0.3466   -40.9546     6.9412     4.6350
 1806.5000     9.1108   107.1306     2.5114     0.0783     0.3497   -40.8737     6.8973     4.3885
 1807.0000     9.1269   105.6859     2.4815     0.0842     0.3522   -40.7917     6.9571     4.2124
 1807.5000     9.1429   104.2413     2.4450     0.0858     0.3548   -40.7088     7.0072     3.8797
 1808.0000     9.1441   102.4722     2.3965     0.0829     0.3554   -40.6259     7.0137     3.8276
 1808.5000     9.1452   101.0652     2.2892     0.0740     0.3566   -40.5430     6.3534     3.8292
 1809.0000     9.1464   100.8002     2.2336     0.0592     0.3578   -40.4601     4.3293     3.7522
 1809.5000     9.1327   100.5460     2.1851     0.0324     0.3565   -40.3772     1.0891     3.6265
 1810.0000     9.1190   101.7908     2.3137     0.0205     0.3556   -40.2943     4.1253     3.3401
 1810.5000     9.0904   101.2390     2.4338     0.0236     0.3571   -40.2111     7.1928     2.8130
 1811.0000     9.0621    95.9253     2.4886     0.0520     0.3589   -40.1284     8.3589     1.7865
 1811.5000     9.0632    92.3973     2.4818     0.0536     0.3598   -40.0580     8.1306     2.2275
 1812.0000     9.0492    91.8452     2.4695     0.0537     0.3604   -40.0655     7.2610     3.6077
 1812.5000     9.0507    92.1875     2.4574     0.0568     0.3575   -40.0190     6.6717     4.0292
 1813.0000     9.0518    92.8361     2.4545     0.0629     0.3550   -39.7107     6.8697     3.8889
 1813.5000     9.0530    92.8796     2.4396     0.0630     0.3519   -39.2694     7.2966     3.6297
 1814.0000     9.0542    92.9230     2.4203     0.0586     0.3509   -38.8835     1.8571     3.2810
 1814.5000     9.0404    92.6689     2.4047     0.0512     0.3500   -38.9923     5.1064     3.0850
 1815.0000     9.0419    91.8195     2.3816     0.0408     0.3496   -39.5542     7.6130     2.5450
 1815.5000     9.0279    90.9592     2.3645     0.0319     0.3487   -39.6746     3.9916     1.9331
 1816.0000     9.0293    93.6921     2.3392     0.0201     0.3483   -39.6670     2.1478     2.7471
 1816.5000     9.0153    97.0093     2.3778     0.0082     0.3477   -39.7232     5.5920     3.1320
 1817.0000     9.0016    98.8611     2.4486     0.0098     0.3473   -39.8043     7.5286     3.0063
 1817.5000     8.9879   100.0833     2.4517     0.0143     0.3463   -39.8860     7.7535     2.0173
