~VERSION INFORMATION
 VERS.                2.0:   CWLS LOG ASCII STANDARD - VERSION 2.0
 WRAP.                 NO:   ONE LINE PER DEPTH STEP
~WELL INFORMATION
#MNEM.UNIT      DATA TYPE    INFORMATION
#----------   ------------   ------------------------------
 STRT.F            5.5000:   START DEPTH
 STOP.F         3261.0000:   STOP DEPTH
 STEP.F            0.5000:   STEP LENGTH
 NULL.          -999.2500:   NO VALUE
 COMP. LAWRENCE ALLISON & ASSOCIATES:   COMPANY
 WELL. LAWRENCE "X" #12-14:   WELL
 FLD .              NPR 3:   FIELD
 LOC .      S14 T38N R78W:   LOCATION
 CNTY.            NATRONA:   COUNTY
 STAT.            WYOMING:   STATE
 CTRY. UNITED STATES OF AMERICA:   COUNTRY
 SRVC.      DRESSER ATLAS:   SERVICE COMPANY
 DATE.        18-AUG-1986:   LOGDATE
 API .     49025111080000:   API NUMBER
~CURVE INFORMATION
#MNEM.UNIT       API CODE    CURVE DESCRIPTION
#----------   ------------   ------------------------------
 DEPT.F                  :   
 RILM.OHMM   07 120 44 00:   INDUCTION LOG MEDIUM RESISTIVITY
 GRR .GAPI   07 310 01 00:   GAMMA RAY FROM RESISTIVITY
 SPR .MV     07 010 01 00:   SPONTANEOUS POTENTIAL
 NPHI.DEC    42 890 03 00:   NEUTRON POROSITY SANDSTONE
 CALD.IN     45 280 60 00:   CALIPER FROM DENSITY LOG
 TEND.LBS    45 635 01 00:   TENSION FORM DENSITY LOG
 DRHO.G/C3   45 356 01 00:   DENSITY CORRECTION
 DEN .G/C3   45 350 01 00:   BULK DENSITY
 RILD.OHMM   07 120 46 00:   DEEP INDUCTION RESISTIVITY
 RFOC.OHMM   07 220 04 00:   RESISTIVITY FOCUSED LOG RES.
~PARAMETER INFORMATION
#MNEM.UNIT          VALUE    DESCRIPTION
#----------   ------------   ------------------------------
 EKB .F         5245.0000:   Kelly bushing
 EGL .F         5234.0000:   Ground level
 TD  .F         3250.0000:   Total depth
 CLNT.            A2DTECH:   Client Code
 SL  . 901' FNL & 485' FWL:   Surface Location
 PD  .                 GL:   Permanent Datum
 EPD .F              5234:   Elevation Permanent Datum
 LMF .                 KB:   Log Measured From
 DMF .                 KB:   Drilling Measured From
 DAPD.F                11:   Feet Above Permanent Datum
 DATE.        18-AUG-1986:   Date Logged [DD-MMM-YYYY]
 DD  .F              3250:   Depth driller
 DL  .F              3246:   Depth logger
 BLI .F              3244:   Bottom log interval
 TLI .F                 0:   Top log interval
 CS1 .IN            8.625:   Casing size
 CBD1.      8.625" @ 733':   Casing driller 1
 CBL1.F               735:   Casing logger 1
 BS1 .IN            7.875:   Bit size
 BSD1.F              3250:   Depth drilled with bit1
 DFT .            KCL-GEL:   Type fluid in hole
 DFD .                8.8:   Density
 DFV .                 36:   Viscosity
 DFPH.                8.5:   pH
 DFL .               12.8:   Fluid loss
 MSS .           FLOWLINE:   Source of sample
 RMS .OHMM          0.292:   Rm
 MST .F                73:   Rm Meas. temp.
 RMF .OHMM          0.224:   Rmf
 MFST.F                73:   Rmf Meas. temp.
 MFSS.               MEAS:   Source Rmf.
 RMC .OHMM          0.365:   Rmc
 MCST.F                73:   Rmc Meas. temp.
 MCSS.               CALC:   Source Rmc.
 RMB .OHMM          0.154:   Rm. at BHT
 BHT .F               138:   BHT.
 TCS .HRS               5:   Time Circ. stopped
 MRT .F               138:   Maximum recorded temp.
 LUN .            HL-6214:   Logging unit number
 LUL .           GILLETTE:   Logging unit location
 ENGI.             RAUTIO:   Recorded By
 WITN.             STRONG:   Witnessed by
 ORIG.        2" 5" PRINT:   Origin of data
 UWI .     49025111080000:   Unique Well ID
 DICO. A2D TECHNOLOGIES, INC.:   Digitizing Company
~OTHER INFORMATION
~A    DEPT    RILM         GRR       SPR       NPHI       CALD       TEND       DRHO        DEN       RILD       RFOC   
# ...
 2752.5000    12.1836    80.4616    -7.3254     0.2033     8.9083   -69.1630     0.0606     2.4101    16.4066    12.8990
 2753.0000    12.5288    79.6074    -7.3152     0.2166     8.9082   -69.0906     0.0304     2.4078    17.1075    12.6332
 2753.5000    12.6177    79.9268    -7.2289     0.2286     8.9080   -38.9431     0.0304     2.4078    17.2282    12.5456
 2754.0000    12.4450    82.3509    -7.8313     0.2401     8.9079   -38.8708     0.0484     2.4138    17.2293    12.9848
 2754.5000    12.1049    84.4738    -8.2831     0.2410     8.9077   -38.7970     0.0685     2.4229    16.8744    13.6338
 2755.0000    11.8562    83.8855    -8.1325     0.2371     8.8909   -38.7079     0.0740     2.4229    16.9937    13.6338
 2755.5000    11.7750    82.9628    -7.8313     0.2329     8.9058   -53.6913     0.0755     2.4078    17.2331    12.7162
 2756.0000    11.9416    79.4004    -7.8313     0.2280     8.9054   -76.1572     0.0785     2.3927    17.1144    12.1956
 2756.5000    12.0263    76.7041    -7.9819     0.2213     8.9203   -98.6594     0.0785     2.3874    17.1158    12.2915
 2757.0000    11.9443    76.1125    -8.4337     0.2199     8.9048  -128.6441     0.0649     2.3942    17.1170    12.6279
 2757.5000    11.9459    78.8415    -8.8855     0.2232     8.8894  -157.5146     0.0361     2.4047    17.2377    12.6279
 2758.0000    11.8641    81.1705    -9.1867     0.2262     8.8890  -188.2399     0.0422     2.4139    16.7654    12.6279
 2758.5000    11.7832    81.4782    -9.0361     0.2250     8.8888  -202.3389     0.0693     2.4147    16.7668    12.6279
 2759.0000    11.7848    79.3806    -9.1867     0.2178     8.8885  -187.1210     0.0829     2.4094    16.7680    12.3667
 2759.5000    11.7862    77.5821    -9.1867     0.1954     8.9034  -171.9391     0.0723     2.4041    16.6525    12.3757
 2760.0000    11.7057    75.7836    -9.3373     0.1912     8.9030  -179.3137     0.0662     2.4018    16.3094    12.4532
 2760.5000    11.6258    73.6838    -9.4880     0.1966     8.9179  -186.6917     0.0584     2.4018    15.9736    12.3667
 2761.0000    11.7904    71.8170    -9.6386     0.2054     8.9328  -186.5414     0.0525     2.4018    15.7538    12.3667
 2761.5000    11.9569    70.0868   -10.2410     0.2081     8.9476  -186.3637     0.0601     2.4050    15.6456    12.3667
 2762.0000    12.0417    69.7943   -11.1446     0.2081     8.9625  -178.7006     0.0706     2.4154    15.7562    12.3667
 2762.5000    12.2973    72.2148   -12.1988     0.2045     8.9621  -171.0376     0.0630     2.4124    15.8673    12.3667
 2763.0000    12.4755    75.5367   -12.9518     0.2020     8.9618  -170.8934     0.0237     2.4048    16.3165    12.5403
 2763.5000    12.8297    77.9550   -13.7048     0.1970     8.9615  -155.7115     0.0116     2.3958    16.8956    12.7162
 2764.0000    13.3787    77.0601   -14.3072     0.1906     8.9915  -155.5639     0.0071     2.3920    17.1336    13.1670
 2764.5000    13.9513    75.8662   -14.9347     0.1893     8.9609  -155.3870     0.0055     2.3905    17.7420    14.0190
 2765.0000    14.7522    74.9691   -15.5120     0.1972     8.9606  -155.2427     0.0070     2.3912    18.4612    14.7197
 2765.5000    16.5446    74.9799   -15.9639     0.2002     8.9603  -155.0985     0.0176     2.3943    19.2487    13.9217
 2766.0000    17.1976    75.2899   -16.4157     0.1972     8.9600  -154.9542     0.0281     2.4245    19.9305    15.8921
 2766.5000    16.2700    76.2022   -16.8675     0.1893     8.9596  -154.8100     0.0266     2.4464    20.3511    19.5863
 2767.0000    15.4993    78.3193   -17.4699     0.1872     8.9593  -154.6617     0.0295     2.4736    19.7922    20.5652
 2767.5000    14.9720    78.9759   -17.7711     0.1927     8.9742  -146.9666     0.0446     2.4819    20.0769    19.5863
 2768.0000    14.5636    80.1461   -17.9217     0.2014     8.9739  -154.3773     0.0627     2.4441    20.2099    18.1414
 2768.5000    14.0681    81.9620   -18.2229     0.2141     8.9888  -176.7533     0.0777     2.4124    20.2099    13.9986
 2769.0000    13.8766    83.1755   -18.5241     0.2205     8.9986  -184.1639     0.0868     2.4011    19.6549    13.3150
 2769.5000    13.5923    84.6902   -18.8253     0.2217     9.0122  -183.9837     0.0943     2.4071    18.2060    13.8251
 2770.0000    13.1298    88.0122   -19.4277     0.2150     9.0182  -183.8346     0.0807     2.4199    17.1003    14.1171
 2770.5000    12.8603    92.2792   -19.8795     0.2102     9.0330  -183.6591     0.0716     2.4351    16.2835    14.3151
 2771.0000    12.6847    93.1522   -20.1807     0.2153     9.0630  -183.5149     0.0670     2.4456    15.7297    14.5160
 2771.5000    12.3392    93.1609   -20.4819     0.2299     9.0779  -198.4082     0.0655     2.4471    15.2978    14.2048
 2772.0000    12.0864    93.1696   -20.7831     0.2392     9.1230  -198.2639     0.0640     2.4441    14.9816    13.1670
 2772.5000    11.9219    93.4795   -21.0843     0.2404     9.1404  -198.1197     0.0624     2.4366    14.5701    13.2591
 2773.0000    11.8407    94.3918   -21.0843     0.2253     9.1830  -213.0130     0.0639     2.4358    14.2690    13.2591
 2773.5000    11.5986    95.3225   -21.0843     0.2123     9.1827  -212.8327     0.0473     2.4350    14.1690    13.0756
 2774.0000    11.2822    98.0259   -21.0843     0.2081     9.1976  -212.6885     0.0397     2.4290    13.5903    12.7162
 2774.5000    11.0510    96.5285   -21.3855     0.2166     9.2276  -212.5442     0.0563     2.4230    13.1254    12.4532
 2775.0000    11.0529    95.6314   -21.8373     0.2226     9.2576  -212.4000     0.0721     2.4222    12.9439    12.3667
 2775.5000    11.2101    97.1483   -23.1928     0.2262     9.2876  -212.2556     0.0841     2.4260    12.6764    12.1956
 2776.0000    11.2902   101.3739   -24.2470     0.2280     9.3176  -212.0754     0.0660     2.4298    12.4144    12.0269
 2776.5000    11.2921   104.0934   -24.8494     0.2268     9.3778  -211.9312     0.0524     2.4267    12.3283    12.0269
 2777.0000    11.2940   104.1024   -25.0000     0.2226     9.4382  -211.7869     0.0494     2.4245    12.3283    12.2809
 2777.5000    11.2959   100.1973   -25.3012     0.2183     9.4833  -211.6427     0.0539     2.4260    12.3283    13.0756
 2778.0000    11.2978    94.1819   -25.3012     0.2135     9.5133  -211.4985     0.0690     2.4411    12.4144    13.9217
 2778.5000    11.0668    92.9836   -25.3012     0.2141     9.4979  -219.0406     0.0690     2.4653    12.3283    12.9848
 2779.0000    10.9152    98.1150   -25.4518     0.2163     9.4975  -226.2476     0.0599     2.4736    12.3283    12.3667
 2779.5000    10.7662   103.2442   -25.4267     0.2232     9.4972  -226.0673     0.0357     2.4653    12.3283    12.3667
 2780.0000    10.7685   103.8554   -24.8494     0.2423     9.4818  -225.9230     0.0266     2.4592    12.3283    12.4532
 2780.5000    10.7703   103.5628   -24.5482     0.2389     9.4967  -225.7788     0.0417     2.4653    12.3283    12.3667
 2781.0000    10.6974   102.0676   -24.2470     0.2377     9.4964  -225.6345     0.0523     2.4683    12.3283    12.1956
 2781.5000    10.6992   101.1705   -24.0964     0.2395     9.4960  -225.4887     0.0568     2.4562    12.2427    12.2809
 2782.0000    10.7761   100.5768   -24.0964     0.2383     9.4957  -225.3100     0.0477     2.4418    12.1578    12.1956
 2782.5000    11.0052   100.2861   -24.0964     0.2259     9.4803  -225.1657     0.0417     2.4419    12.2427    12.1956
 2783.0000    11.2392    99.9940   -24.0964     0.2268     9.4800  -232.5763     0.0416     2.4396    12.2427    12.1110
 2783.5000    11.3195    99.0014   -24.0964     0.2314     9.4645  -239.9509     0.0477     2.4366    12.2427    12.0174
 2784.0000    11.2429    96.7003   -24.2470     0.2320     9.4642  -224.7330     0.0567     2.4373    12.5011    13.1048
 2784.5000    11.0825    96.1044   -24.3976     0.2308     9.4488  -148.4491     0.0750     2.4411    13.4024    13.7291
 2785.0000    10.6384    97.9225   -24.5482     0.2299     9.4333   -43.9573     0.0989     2.4396    13.7809    13.4451
 2785.5000     9.9251    98.2324   -24.6988     0.2293     9.4330   -13.7379     0.1261     2.4275    12.5884    11.6151
