~VERSION INFORMATION
 VERS.                2.0:   CWLS LOG ASCII STANDARD - VERSION 2.0
 WRAP.                 NO:   ONE LINE PER DEPTH STEP
~WELL INFORMATION
#MNEM.UNIT      DATA TYPE    INFORMATION
#----------   ------------   ------------------------------
 STRT.F           46.5000:   START DEPTH
 STOP.F         3160.0000:   STOP DEPTH
 STEP.F            0.5000:   STEP LENGTH
 NULL.          -999.2500:   NO VALUE
 COMP. LAWRENCE ALLISON & WEST:   COMPANY
 WELL. LAWRENCE NPR 3 "AX" #42-34:   WELL
 FLD .                NPR:   FIELD
 LOC .      S34 T39N R78W:   LOCATION
 CNTY.            NATRONA:   COUNTY
 STAT.            WYOMING:   STATE
 CTRY. UNITED STATES OF AMERICA:   COUNTRY
 SRVC.      WESTERN ATLAS:   SERVICE COMPANY
 DATE.        19-OCT-1987:   LOGDATE
 API .     49025111830000:   API NUMBER
~CURVE INFORMATION
#MNEM.UNIT       API CODE    CURVE DESCRIPTION
#----------   ------------   ------------------------------
 DEPT.F                  :   
 CALD.IN     45 280 60 00:   CALIPER FROM DENSITY LOG
 DEN .LBS    45 635 01 00:   BUCK DENSITY
 CORR.G/C3   45 356 01 00:   DENSITY CORRECTION
 NPOR.DEC    42 890 03 00:   ALPHA PROCESSED NEUTRON POROSITY
 SPR .MV     07 010 01 00:   SPONTANEOUS POTENTIAL
 GRR .GAPI   07 310 01 00:   GAMMA RAY FROM RESISTIVITY
 RFOC.OHMM   07 220 04 00:   RESISTIVITY FOCUSED LOG RES.
 RILD.OHMM   07 120 46 00:   DEEP INDUCTION RESISTIVITY
 RILM.OHMM   07 120 44 00:   INDUCTION LOG MEDIUM RESISTIVITY
 TENR.LBS    07 635 01 00:   TENSION FROM RESISTIVITY
~PARAMETER INFORMATION
#MNEM.UNIT          VALUE    DESCRIPTION
#----------   ------------   ------------------------------
 EKB .F         5088.0000:   Kelly bushing
 EGL .F         5077.0000:   Ground level
 EDF .F         5087.0000:   Drilling floor
 TD  .F         3151.0000:   Total depth
 DATE.        19-OCT-1987:   Date logged
 CLNT.            A2DTECH:   Client Code
 SL  . 1032' FNL & 2316' FWL:   Surface Location
 PD  .                 GL:   Permanent Datum
 EPD .F              5077:   Elevation Permanent Datum
 LMF .                 KB:   Log Measured From
 DMF .                 KB:   Drilling Measured From
 DAPD.F                11:   Feet Above Permanent Datum
 DD  .F              3151:   Depth driller
 DL  .F              3151:   Depth logger
 BLI .F              3149:   Bottom log interval
 TLI .F                50:   Top log interval
 CS1 .IN            8.625:   Casing size
 CBD1.      8.625" @ 693':   Casing driller 1
 CBL1.F               693:   Casing logger 1
 BS1 .IN            7.875:   Bit size
 BSD1.F              3151:   Depth drilled with bit1
 DFT .        KCL/POLYMER:   Type fluid in hole
 DFD .                9.2:   Density
 DFV .                 53:   Viscosity
 DFPH.                9.5:   pH
 DFL .               11.8:   Fluid loss
 MSS .            MUD/PIT:   Source of sample
 RMS .OHMM           .441:   Rm
 MST .F                66:   Rm Meas. temp.
 RMF .OHMM           .336:   Rmf
 MFST.F                66:   Rmf Meas. temp.
 RMC .OHMM           .711:   Rmc
 MCST.F                66:   Rmc Meas. temp.
 MFSS.               MEAS:   Source Rmf.
 MCSS.               MEAS:   Source Rmc.
 RMB .OHMM           .244:   Rm. at BHT
 BHT .F               119:   BHT.
 TCS .HRS               3:   Time Circ. stopped
 MRT .F               119:   Maximum recorded temp.
 LUN .            HL-6343:   Logging unit number
 LUL .               CODY:   Logging unit location
 ENGI.               JULL:   Recorded By
 WITN.             STRONG:   Witnessed by
 ORIG.           5" PRINT:   Origin of data
 UWI .     49025111830000:   Unique Well ID
 DICO. A2D TECHNOLOGIES, INC.:   Digitizing Company
~OTHER INFORMATION
~A   DEPT     CALD        DEN       CORR       NPOR        SPR         GRR      RFOC       RILD       RILM       TENR   
# ...
 1520.5000  -999.2500  -999.2500  -999.2500  -999.2500   -21.4300   111.8701     5.9829     5.3170     4.9215   -79.7835
 1521.0000  -999.2500  -999.2500  -999.2500  -999.2500   -21.4352   107.0090     5.9265     5.2670     4.8752   -89.6555
 1521.5000  -999.2500  -999.2500  -999.2500  -999.2500   -21.6425   102.1497     6.1500     5.1688     4.8292   -89.4580
 1522.0000  -999.2500  -999.2500  -999.2500  -999.2500   -21.8498   101.7346     6.0920     5.0726     4.7837   -89.2605
 1522.5000  -999.2500  -999.2500  -999.2500  -999.2500   -22.0571   104.1447     6.0346     5.0249     4.7386   -89.0630
 1523.0000  -999.2500  -999.2500  -999.2500  -999.2500   -22.0581   109.7928     6.0336     4.9775     4.7378   -88.8654
 1523.5000  -999.2500  -999.2500  -999.2500  -999.2500   -23.0780   108.9736     5.9214     4.9302     4.6066   -88.6679
 1524.0000  -999.2500  -999.2500  -999.2500  -999.2500   -23.0832   106.9416     5.5472     4.8837     4.5633   -98.5791
 1524.5000  -999.2500  -999.2500  -999.2500  -999.2500   -23.0884   100.4631     5.1010     4.8829     4.5202   -98.3815
 1525.0000  -999.2500  -999.2500  -999.2500  -999.2500   -23.0936   101.2606     5.0529     4.8368     4.5194   -98.1840
 1525.5000  -999.2500  -999.2500  -999.2500  -999.2500   -23.0998   103.2709     5.4422     4.8812     4.5187   -87.8779
 1526.0000  -999.2500  -999.2500  -999.2500  -999.2500   -23.1050   103.6642     5.7002     4.8804     4.5179   -87.6804
 1526.5000  -999.2500  -999.2500  -999.2500  -999.2500   -23.1102   105.6745     6.0262     4.8796     4.5593   -87.4434
 1527.0000  -999.2500  -999.2500  -999.2500  -999.2500   -22.9102   109.7061     5.9141     4.8788     4.6012   -87.2459
 1527.5000  -999.2500  -999.2500  -999.2500  -999.2500   -22.5143   112.9293     5.7505     4.9694     4.6435   -87.0484
 1528.0000  -999.2500  -999.2500  -999.2500  -999.2500   -22.3173   106.8525     5.5396     5.0152     4.7297   -86.8509
 1528.5000  -999.2500  -999.2500  -999.2500  -999.2500   -22.5247   102.3948     5.3519     5.0614     4.8177   -86.6534
 1529.0000  -999.2500  -999.2500  -999.2500  -999.2500   -22.9341    99.5540     5.3015     5.2035     4.9994   -86.4559
 1529.5000  -999.2500  -999.2500  -999.2500  -999.2500   -23.1414    99.1432     5.4505     5.2378     5.1397   -86.2584
 1530.0000  -999.2500  -999.2500  -999.2500  -999.2500   -23.7531   107.2133     5.6397     5.2995     5.2353   -86.0609
 1530.5000  -999.2500  -999.2500  -999.2500  -999.2500   -23.5561   110.8474     5.7444     5.4996     5.3825   -75.7554
 1531.0000  -999.2500  -999.2500  -999.2500  -999.2500   -23.7624   108.0044     5.9610     5.7072     5.4827   -75.5580
 1531.5000  -999.2500  -999.2500  -999.2500  -999.2500   -24.4563   101.1164     6.0719     5.7596     5.6367   -85.4290
 1532.0000  -999.2500  -999.2500  -999.2500  -999.2500   -24.7857   101.1055     6.1848     5.8670     5.7415   -75.1236
 1532.5000  -999.2500  -999.2500  -999.2500  -999.2500   -25.1952   103.1160     6.3586     5.9206     5.8482   -85.0340
 1533.0000  -999.2500  -999.2500  -999.2500  -999.2500   -25.6047   101.0815     6.7222     6.0308     5.9570   -84.8366
 1533.5000  -999.2500  -999.2500  -999.2500  -999.2500   -25.8121    98.6448     6.8472     6.2578     6.0116   -84.6391
 1534.0000  -999.2500  -999.2500  -999.2500  -999.2500   -26.0194    98.2295     6.7827     6.2103     6.0105   -94.5493
 1534.5000  -999.2500  -999.2500  -999.2500  -999.2500   -26.0247    99.8358     6.8448     6.1986     6.0095   -84.2441
 1535.0000  -999.2500  -999.2500  -999.2500  -999.2500   -26.2321   103.0593     6.9721     6.1973     6.0646   -94.1542
 1535.5000  -999.2500  -999.2500  -999.2500  -999.2500   -26.2331   106.2830     7.1014     6.1960     6.0634   -93.9567
 1536.0000  -999.2500  -999.2500  -999.2500  -999.2500   -26.6468   108.6980     7.1002     6.1952     6.0625   -93.7592
 1536.5000  -999.2500  -999.2500  -999.2500  -999.2500   -27.0574   110.3045     7.0333     6.1939     6.0613   -73.2679
 1537.0000  -999.2500  -999.2500  -999.2500  -999.2500   -27.2649   113.1239     6.9670     6.1931     6.0602   -93.3247
 1537.5000  -999.2500  -999.2500  -999.2500  -999.2500   -27.4723   115.5391     6.9014     6.1920     6.1158   -93.1272
 1538.0000  -999.2500  -999.2500  -999.2500  -999.2500   -27.4775   114.3153     6.9002     6.1909     6.1152   -82.8224
 1538.5000  -999.2500  -999.2500  -999.2500  -999.2500   -27.6849   110.2611     6.8352     6.1897     6.1137   -92.7322
 1539.0000  -999.2500  -999.2500  -999.2500  -999.2500   -27.8944   105.3960     6.8978     6.1313     6.1127   -82.4275
 1539.5000  -999.2500  -999.2500  -999.2500  -999.2500   -27.8987   105.3851     6.9610     6.1305     6.1116   -92.3372
 1540.0000  -999.2500  -999.2500  -999.2500  -999.2500   -27.9028   107.8003     6.9598     6.1292     6.1106   -92.1397
 1540.5000  -999.2500  -999.2500  -999.2500  -999.2500   -27.9081   107.3851     6.9586     6.1284     6.0530   -91.9422
 1541.0000  -999.2500  -999.2500  -999.2500  -999.2500   -27.9133   107.7786     6.9574     6.1269     6.0518   -91.7447
 1541.5000  -999.2500  -999.2500  -999.2500  -999.2500   -27.7164   109.7896     7.0210     6.1258     6.0509   -91.5472
 1542.0000  -999.2500  -999.2500  -999.2500  -999.2500   -27.5205   111.8006     6.8905     6.1248     6.0499   -91.3102
 1542.5000  -999.2500  -999.2500  -999.2500  -999.2500   -27.1214   111.3854     7.0185     6.1812     6.0487   -91.1127
 1543.0000  -999.2500  -999.2500  -999.2500  -999.2500   -26.9244   109.3527     7.2158     6.2377     6.0476   -80.8085
 1543.5000  -999.2500  -999.2500  -999.2500  -999.2500   -26.9276   106.5112     7.2819     6.2951     6.0466   -80.6110
 1544.0000  -999.2500  -999.2500  -999.2500  -999.2500   -26.7327   104.4784     7.2133     6.3527     6.0456   -90.5203
 1544.5000  -999.2500  -999.2500  -999.2500  -999.2500   -26.7380   104.4653     6.9486     6.4110     6.1010   -80.2162
 1545.0000  -999.2500  -999.2500  -999.2500  -999.2500   -26.5410   101.6236     6.9085     6.4103     6.1569   -90.1253
 1545.5000  -999.2500  -999.2500  -999.2500  -999.2500   -26.3440    99.9951     6.9464     6.4687     6.2133  -100.0343
 1546.0000  -999.2500  -999.2500  -999.2500  -999.2500   -26.3493   101.1974     7.4121     6.5282     6.2123   -99.8368
 1546.5000  -999.2500  -999.2500  -999.2500  -999.2500   -26.5599   101.5909     7.7633     6.5881     6.2112  -109.7457
 1547.0000  -999.2500  -999.2500  -999.2500  -999.2500   -26.5635   107.2417     7.6190     6.5868     6.2103   -99.4417
 1547.5000  -999.2500  -999.2500  -999.2500  -999.2500   -26.7694   114.1037     7.2716     6.6472     6.2091   -78.9921
 1548.0000  -999.2500  -999.2500  -999.2500  -999.2500   -26.7746   113.6906     7.4759     6.6458     6.2080   -68.6885
 1548.5000  -999.2500  -999.2500  -999.2500  -999.2500   -27.1853   109.2312     7.5444     6.6447     6.2067   -78.5973
 1549.0000  -999.2500  -999.2500  -999.2500  -999.2500   -27.1906   105.9806     7.7563     6.6438     6.2057   -88.5060
 1549.5000  -999.2500  -999.2500  -999.2500  -999.2500   -27.3970   103.9519     7.6456     6.5199     6.2048   -88.3086
 1550.0000  -999.2500  -999.2500  -999.2500  -999.2500   -27.5206   104.3454     7.5407     6.3989     6.2038   -98.2172
 1550.5000  -999.2500  -999.2500  -999.2500  -999.2500   -27.6108   109.5922     7.1303     6.5173     6.2217   -87.9137
 1551.0000  -999.2500  -999.2500  -999.2500  -999.2500   -27.8182   114.8392     7.1291     6.3372     6.2210   -87.7162
 1551.5000  -999.2500  -999.2500  -999.2500  -999.2500   -27.8235   113.6129     7.3293     6.2775     6.1993   -87.5188
 1552.0000  -999.2500  -999.2500  -999.2500  -999.2500   -27.8287   111.1753     7.1266     6.2183     6.1776   -97.4272
 1552.5000  -999.2500  -999.2500  -999.2500  -999.2500   -27.8308   108.3333     7.1254     6.2170     6.1560   -97.1902
 1553.0000  -999.2500  -999.2500  -999.2500  -999.2500   -28.4459   106.7046     6.8640     6.1584     6.1345  -107.0984
 1553.5000  -999.2500  -999.2500  -999.2500  -999.2500   -28.4512   105.0759     6.7993     6.1003     6.1130  -106.9009
