~VERSION INFORMATION
 VERS.                2.0:   CWLS LOG ASCII STANDARD - VERSION 2.0
 WRAP.                 NO:   ONE LINE PER DEPTH STEP
~WELL INFORMATION
#MNEM.UNIT      DATA TYPE    INFORMATION
#----------   ------------   ------------------------------
 STRT.F            0.5000:   START DEPTH
 STOP.F         3195.0000:   STOP DEPTH
 STEP.F            0.5000:   STEP LENGTH
 NULL.          -999.2500:   NO VALUE
 COMP.   TESORO PETROLEUM:   COMPANY
 WELL. TESORO NPR 3 "A" #15-10:   WELL
 FLD .        TEAPOT DOME:   FIELD
 LOC .      S10 T38N R78W:   LOCATION
 CNTY.            NATRONA:   COUNTY
 STAT.            WYOMING:   STATE
 CTRY. UNITED STATES OF AMERICA:   COUNTRY
 SRVC.       SCHLUMBERGER:   SERVICE COMPANY
 DATE.        03-JUL-1969:   LOGDATE
 API .     49025600130000:   API NUMBER
~CURVE INFORMATION
#MNEM.UNIT       API CODE    CURVE DESCRIPTION
#----------   ------------   ------------------------------
 DEPT.F                  :   
 SPR .MV     05 010 01 00:   SPONTANEOUS POTENTIAL FROM RES.
 ASN .OHMM   05 041 16 00:   AMPLIFIED SHORT NORMAL 16"
 ILD .OHMM   05 120 46 00:   INDUCTION LOG DEEP
 CALD.IN     45 280 60 00:   CALIPER FROM DENSITY LOG
 GRD .GAPI   45 310 01 00:   GAMMA RAY FROM DENSITY LOG
 RHOB.G/C3   45 350 01 00:   BULK DENSITY
~PARAMETER INFORMATION
#MNEM.UNIT          VALUE    DESCRIPTION
#----------   ------------   ------------------------------
 EKB .F         5250.0000:   Kelly bushing
 EGL .F         5237.0000:   Ground level
 EDF .F            0.0000:   Drilling floor
 TD  .F         3200.0000:   Total depth
 CLNT.            A2DTECH:   Client Code
 SL  . 990' FWL & 1980' FSL:   Surface Location
 PD  .                 GL:   Permanent Datum
 EPD .F              5237:   Elevation Permanent Datum
 LMF .                 KB:   Log Measured From
 DMF .                 KB:   Drilling Measured From
 DAPD.F                13:   Feet Above Permanent Datum
 DATE.        03-JUL-1969:   Date Logged [DD-MMM-YYYY]
 DD  .F              3200:   Depth driller
 DL  .F              3196:   Depth logger
 BLI .F              3195:   Bottom log interval
 TLI .F               676:   Top log interval
 CS1 .IN            10.75:   Casing size
 CBD1.      10.75" @ 675':   Casing driller 1
 CBL1.F               676:   Casing logger 1
 BS1 .IN            6.125:   Bit size
 BSD1.F              3200:   Depth drilled with bit1
 DFT .      FRESH GEL MUD:   Type fluid in hole
 DFD .                9.5:   Density
 DFV .                 46:   Viscosity
 DFPH.                9.5:   pH
 DFL .                6.4:   Fluid loss
 MSS .           FLOWLINE:   Source of sample
 RMS .OHMM           2.05:   Rm
 MST .F                76:   Rm Meas. temp.
 RMF .OHMM           1.49:   Rmf
 MFST.F                78:   Rmf Meas. temp.
 MFSS.               MEAS:   Source Rmf.
 RMB .OHMM           1.34:   Rm. at BHT
 BHT .F               116:   BHT.
 TCS .HRS               2:   Time Circ. stopped
 MRT .F               116:   Maximum recorded temp.
 LUN .               4507:   Logging unit number
 LUL .               CSPR:   Logging unit location
 ENGI.             KNOBEL:   Recorded By
 WITN.                MAY:   Witnessed by
 ORIG.        2" 5" PRINT:   Origin of data
 UWI .     49025600130000:   Unique Well ID
 DICO. A2D TECHNOLOGIES, INC.:   Digitizing Company
~OTHER INFORMATION
~A    DEPT     SPR          ASN      ILD       CALD        GRD       RHOB   
# ...
 1664.5000   -26.2705     8.6967     7.2421    11.0190    89.5324     2.5589
 1665.0000   -26.4469     8.6978     7.1735    11.0338    91.7420     2.5476
 1665.5000   -26.2966     8.7591     7.1814    11.0487    93.2942     2.5371
 1666.0000   -26.4280     8.9109     7.2627    11.0929    94.4059     2.5326
 1666.5000   -26.4892     8.8068     7.1941    11.1372    95.0770     2.5244
 1667.0000   -26.2800     8.7625     7.2020    11.1374    92.2265     2.5184
 1667.5000   -26.0735     8.7338     7.2084    11.0934    89.3735     2.5349
 1668.0000   -26.0785     8.8255     7.2147    11.0045    86.0798     2.5499
 1668.5000   -26.1342     8.8867     7.2961    10.9025    83.8699     2.5551
 1669.0000   -26.4317     8.9179     7.4539    10.8438    82.1384     2.5551
 1669.5000   -26.4253     8.9811     7.7601    10.7999    83.0298     2.5529
 1670.0000   -26.5355     9.0708     7.9164    10.7706    84.1415     2.5431
 1670.5000   -26.8670     9.1622     7.9228    10.7560    85.7172     2.5649
 1671.0000   -26.9270     9.3438     7.8557    10.7562    87.0282     2.5641
 1671.5000   -26.8615     9.5256     7.7855    10.7710    87.4791     2.5611
 1672.0000   -26.8222     9.6170     7.6419    10.8006    86.8287     2.5626
 1672.5000   -26.6779     9.5580     7.5749    10.8155    86.6188     2.5334
 1673.0000   -26.4595     9.4680     7.5062    10.8156    86.6317     2.5221
 1673.5000   -26.3169     9.3800     7.5142    10.8304    86.6421     2.5359
 1674.0000   -26.1873     9.2909     7.3706    10.8453    87.0930     2.5281
 1674.5000   -26.0806     9.1868     7.3771    10.8749    87.3238     2.5206
 1675.0000   -26.0828     9.0529     7.2349    10.9338    87.7771     2.5169
 1675.5000   -26.0861     8.9936     7.2413    10.9943    88.6685     2.5251
 1676.0000   -26.2331     8.9499     7.1711    11.0665    91.3220     2.5371
 1676.5000   -26.2925     8.9059     7.2541    11.0519    92.8950     2.5491
 1677.0000   -26.4899     8.9073     7.3369    10.9932    92.4466     2.5491
 1677.5000   -26.4793     8.9986     7.4182    10.9493    89.3733     2.5401
 1678.0000   -26.3738     9.1501     7.4245    10.9641    86.5202     2.5101
 1678.5000   -26.3739     9.2415     7.5889    10.9937    84.0608     2.5506
 1679.0000   -26.4785     9.2730     7.7386    11.0232    81.4774     2.5701
 1679.5000   -26.5405     9.2588     7.7450    11.0528    79.7257     2.5896
 1680.0000   -26.6118     9.2752     7.6764    11.0824    79.0749     2.6002
 1680.5000   -26.6802     9.3217     7.5328    11.1119    80.7073     2.5809
 1681.0000   -26.7490     9.3529     7.5407    11.1573    83.2836     2.5656
 1681.5000   -26.8176     9.3841     7.6970    11.1858    84.1750     2.5656
 1682.0000   -26.8688     9.4159     7.8533    11.2006    83.5245     2.5701
 1682.5000   -26.8817     9.5220     8.0197    11.2154    83.2857     2.5904
 1683.0000   -26.6618     9.6434     8.1674    11.2303    83.1047     2.5881
 1683.5000   -26.6700     9.7348     8.2487    11.2599    83.3379     2.5731
 1684.0000   -26.4573     9.7058     8.1049    11.3188    84.2294     2.5663
 1684.5000   -26.3096     9.7674     7.9508    11.3631    83.9874     2.5656
 1685.0000   -26.4237     9.8133     7.9695    11.2897    81.8297     2.5686
 1685.5000   -26.4776     9.4990     7.9758    11.3487    82.0604     2.5739
 1686.0000   -26.5262     9.5755     7.9822    11.5841    84.2734     2.5521
 1686.5000   -26.6589     9.8624     7.8386    11.8674    87.8105     2.5281
 1687.0000   -26.5200     9.8783     7.6950    12.3197    89.3628     2.5199
 1687.5000   -26.4734     9.6654     7.5514    12.4081    90.2542     2.5098
 1688.0000   -26.3669     9.4300     7.5593    12.2171    88.2821     2.5041
 1688.5000   -26.2874     9.2657     7.4923    12.0812    86.9709     2.5394
 1689.0000   -26.2733     9.1615     7.4987    11.9968    87.4244     2.5417
 1689.5000   -26.1677     9.1175     7.5800    11.9528    88.7563     2.5311
 1690.0000   -26.1113     9.0886     7.6613    12.0118    87.6654     2.5604
 1690.5000   -26.3119     9.1201     7.8941    12.2766    83.7136     2.5461
 1691.0000   -26.5090     9.1813     8.0504    12.2915    82.6226     2.5514
 1691.5000   -26.7054     9.2730     8.1317    12.1740    82.6330     2.5581
 1692.0000   -26.8804     9.3643     8.2130    11.7771    81.5420     2.5701
 1692.5000   -26.9145     9.4557     8.1444    11.9243    79.1294     2.5799
 1693.0000   -26.9523     9.3967     8.0773    11.8803    79.1424     2.5844
 1693.5000   -26.9906     9.4582     8.0087    12.1599    80.4743     2.5514
 1694.0000   -27.0298     9.7104     7.8651    12.8713    82.4671     2.5341
 1694.5000   -27.0619     9.7011     7.6466    12.7043    83.3611     2.5649
 1695.0000   -26.9165     9.4017     7.5030    12.5132    82.7106     2.5881
 1695.5000   -26.7629     9.1322     7.4344    12.4987    81.3994     2.5911
 1696.0000   -26.6102     8.9829     7.3673    12.5577    80.5287     2.5746
 1696.5000   -26.4574     8.9540     7.2987    12.6166    80.0985     2.5694
 1697.0000   -26.3032     8.9704     7.3816    12.6609    80.9925     2.5491
 1697.5000   -26.2791     9.0768     7.4629    12.6169    81.8839     2.5229
 1698.0000   -26.2792     9.1982     7.6942    12.1759    82.7754     2.5251
 1698.5000   -26.2794     9.4703     8.0020    11.9849    83.6694     2.5416
 1699.0000   -26.2782     9.6519     8.1582    11.6909    83.2392     2.5326
 1699.5000   -26.3289     9.7129     8.3145    11.2314    81.2672     2.5373
 1700.0000   -26.3863     9.7594     8.3958    11.1030    79.9559     2.5161
 1700.5000   -26.4687     9.4737     8.6286    11.0884    79.3055     2.5071
 1701.0000   -26.3561     9.9248     8.6350    11.0444    79.7590     2.5011
 1701.5000   -26.4813     9.9248     8.6413    10.9374    80.8707     2.4921
 1702.0000   -26.4594     9.8496     8.2725    10.7065    82.6461     2.4891
 1702.5000   -26.6147     9.7744     8.0555    10.3390    85.0790     2.4891
 1703.0000   -26.4599     9.9672     7.7619    10.3097    86.6312     2.4988
 1703.5000   -26.4868     9.8434     7.9196    10.3540    87.3023     2.5108
 1704.0000   -26.5921     9.7504     8.0009    10.4130    87.3127     2.5401
 1704.5000   -26.3072     9.8071     8.1570    10.4572    85.3433     2.5581
 1705.0000   -26.0692     9.9246     8.1634    10.4721    82.7105     2.5521
 1705.5000   -26.0876     9.9819     8.1711    10.3546    82.4980     2.5371
 1706.0000   -26.2353    10.0092     8.0275    10.2959    82.9515     2.5160
 1706.5000   -26.4210    10.0214     7.8838    10.2372    83.4049     2.4943
 1707.0000   -26.3307    10.0029     7.8151    10.1458    83.4153     2.4898
 1707.5000   -26.2342     9.9092     7.8979     9.9287    83.2028     2.5115
 1708.0000   -26.0990     9.7560     8.0541     9.9141    82.9955     2.5490
 1708.5000   -26.0779     9.8134     8.0620    10.0466    82.5679     2.5693
 1709.0000   -26.2430     9.9168     8.2181    10.1791    82.1351     2.5610
 1709.5000   -26.0844     9.9281     8.2244    10.2528    81.7075     2.5302
 1710.0000   -26.0811     9.9635     8.2309    10.2971    81.2774     2.5460
 1710.5000   -26.0825    10.0439     8.0870    10.3560    80.8498     2.5842
 1711.0000   -26.0825     9.7484     7.9434    10.3709    80.8601     2.5932
 1711.5000   -26.0811     9.6033     7.8013    10.3563    81.3110     2.5812
 1712.0000   -26.0844     9.4595     7.7341    10.3417    81.7797     2.5730
 1712.5000   -26.2438     9.4648     7.8154    10.3125    82.4356     2.5692
 1713.0000   -26.0743     9.4700     7.8216    10.3127    83.3271     2.5639
 1713.5000   -26.0860     9.5518     7.9044    10.3422    84.6590     2.5624
 1714.0000   -25.9999     9.6322     7.9107    10.3571    86.4523     2.5519
 1714.5000   -26.1903     9.6375     7.9168    10.3572    87.7660     2.5422
 1715.0000   -26.3031     9.7932     7.9998    10.3574    89.0980     2.5459
 1715.5000   -26.4796     9.8749     8.0052    10.3428    90.8704     2.5587
 1716.0000   -26.6424     9.9553     8.0123    10.3429    91.3213     2.5669
