~VERSION INFORMATION
 VERS.                2.0:   CWLS LOG ASCII STANDARD - VERSION 2.0
 WRAP.                 NO:   ONE LINE PER DEPTH STEP
~WELL INFORMATION
#MNEM.UNIT      DATA TYPE    INFORMATION
#----------   ------------   ------------------------------
 STRT.F            2.0000:   START DEPTH
 STOP.F         3008.0000:   STOP DEPTH
 STEP.F            0.5000:   STEP LENGTH
 NULL.          -999.2500:   NO VALUE
 COMP.       FLUOR DANIEL:   COMPANY
 WELL.   FLUOR "X" #25-23:   WELL
 FLD .          N.P.R. #3:   FIELD
 LOC .      S23 T38N R78W:   LOCATION
 CNTY.            NATRONA:   COUNTY
 STAT.            WYOMING:   STATE
 CTRY. UNITED STATES OF AMERICA:   COUNTRY
 SRVC.      WESTERN ATLAS:   SERVICE COMPANY
 DATE.        21-APR-1995:   LOGDATE
 API .     49025227090000:   API NUMBER
~CURVE INFORMATION
#MNEM.UNIT       API CODE    CURVE DESCRIPTION
#----------   ------------   ------------------------------
 DEPT.F                  :   
 GRR .GAPI   07 310 01 00:   GAMMA RAY FROM RESISTIVITY
 TENR.LBS    07 635 01 00:   TENSION FROM RESISTIVITY
 RILD.OHMM   07 120 46 00:   RESISTIVITY INDUCTION LOG DEEP
 RILM.OHMM   07 120 44 00:   RESISTIVITY INDUCTION LOG MEDIUM
~PARAMETER INFORMATION
#MNEM.UNIT          VALUE    DESCRIPTION
#----------   ------------   ------------------------------
 EKB .F         5285.0000:   Kelly bushing
 EGL .F         5275.0000:   Ground level
 EDF .F         5284.0000:   Drilling floor
 TD  .F         3000.0000:   Total depth
 CLNT.            A2DTECH:   Client Code
 SL  . 2343' FSL & 1264' FWL:   Surface Location
 PD  .                 GL:   Permanent Datum
 EPD .F              5275:   Elevation Permanent Datum
 DMF .                 KB:   Drilling Measured From
 DAPD.                 10:   Feet Above Permanent Datum
 DATE.        21-APR-1995:   Date Logged [DD-MMM-YYYY]
 DD  .F              3000:   Depth driller
 DL  .F              3000:   Depth logger
 BLI .F              2999:   Bottom log interval
 TLI .F                 0:   Top log interval
 CS1 .IN            9.625:   Casing size
 CBD1.       9.625" @ 53':   Casing driller 1
 CBL1.F                53:   Casing logger 1
 BS1 .IN             6.25:   Bit size
 BSD1.F              3000:   Depth drilled with bit1
 DFT .                OIL:   Type fluid in hole
 MRT .F               114:   Maximum recorded temp.
 LUN .            HL 6530:   Logging unit number
 LUL .             CASPER:   Logging unit location
 ENGI.        VERN RAUTIO:   Recorded By
 WITN.        GARY STRONG:   Witnessed by
 ORIG.         2.5" PRINT:   Origin of data
 UWI .     49025227090000:   Unique Well ID
 DICO. A2D TECHNOLOGIES,INC.:   Digitizing Company
 LMF .                 KB:   Log Measured From
~OTHER INFORMATION
~A    DEPT      GRR      TENR       RILD       RILM   
# ...
   75.0000   122.1239   -19.7368     6.7234     6.7072
   75.5000   117.3901   -19.6637     7.4456     7.0730
   76.0000   111.4792   -19.5906     7.5510     7.2384
   76.5000   110.2880   -19.5175     7.3526     7.2360
   77.0000   111.4567   -19.4325     7.3568     7.3324
   77.5000   115.0147   -19.3629     7.5644     7.6345
   78.0000   117.3340   -19.2934     7.8002     8.0574
   78.5000   110.8948   -19.2238     8.2119     8.5038
   79.0000   106.3048   -19.1520     8.2163     8.9806
   79.5000   103.8112   -19.0789     8.2208     8.9349
   80.0000   101.9469   -19.0058     8.2252     8.4364
   80.5000   106.0629   -18.9327     8.2304     8.1844
   81.0000   110.1814   -18.8596     8.1239     7.9399
   81.5000   108.9903   -18.7865     8.0184     7.4142
   82.0000   107.7991   -18.7021     7.7034     7.2142
   82.5000   109.0266   -18.6325     7.4005     7.0196
   83.0000   110.9971   -18.5630     7.2064     6.8303
   83.5000   115.1465   -18.4934     7.0174     6.6427
   84.0000   117.1938   -18.4211     6.8009     6.4413
   84.5000   115.7699   -18.3480     6.6550     6.2921
   85.0000   111.7798   -18.2731     6.4806     6.1751
   85.5000   113.6147   -18.2018     6.3114     6.0426
   86.0000   118.3232   -18.1287     6.3147     5.9551
   86.5000   121.8518   -18.0556     6.1491     5.7945
   87.0000   123.6105   -17.9825     6.0695     5.7930
   87.5000   124.1893   -17.9094     5.9909     5.7136
   88.0000   120.8968   -17.8363     5.9943     5.7900
   88.5000   116.7434   -17.7514     6.0212     5.8101
   89.0000   118.0020   -17.6818     6.1655     5.9657
   89.5000   121.1878   -17.6123     6.2530     6.1076
   90.0000   117.0479   -17.5427     6.3424     6.2284
   90.5000   114.6768   -17.4708     6.5199     6.2717
   91.0000   115.8455   -17.3977     6.6122     6.4421
   91.5000   117.0142   -31.9539     6.7058     6.5280
   92.0000   115.2095   -31.8713     6.8948     6.6154
   92.5000   110.8161   -31.7982     7.0867     6.7968
   93.0000   108.7198   -31.7251     7.2852     6.9801
   93.5000   110.2694   -31.6409     7.2892     6.9781
   94.0000   113.5811   -46.1988     7.2931     6.8823
   94.5000   114.5841   -46.1216     7.2971     6.8805
   95.0000   113.3903   -31.4322     7.3017     6.8786
   95.5000   112.1991   -16.7398     7.3055     6.9705
   96.0000   111.0079   -16.6667     7.4089     6.9684
   96.5000   110.4068    -1.9837     7.5138     7.1580
   97.0000   108.5703   -16.5340     7.6251     7.3540
   97.5000   105.8997   -30.8239     7.7442     7.5767
   98.0000   101.0738   -45.6140     7.9449     7.7580
   98.5000   100.3324   -30.9104     8.1675     7.7557
   99.0000   105.2626   -16.2210     8.0714     7.7070
   99.5000   108.0511   -16.1514     7.9578     7.5443
  100.0000   110.5211   -16.0819     7.7494     7.3404
  100.5000   112.0855   -16.0088     7.6497     7.1423
  101.0000   111.4356   -15.9357     7.5504     7.1405
  101.5000   112.0664   -17.7517     7.7620     7.3347
  102.0000   115.5978   -20.7208     7.9881     7.7411
  102.5000   117.3599   -23.6900     8.2030     7.8676
  103.0000   114.4010   -26.6592     7.9492     7.9495
  103.5000   111.9518   -29.6284     7.9471     7.9944
  104.0000   109.6637   -32.5976     8.0041     8.0533
  104.5000   108.9007   -35.5667     7.9424     7.9424
  105.0000   108.2399   -38.5359     7.9404     7.9404
  105.5000   108.7453   -41.5051     7.7262     7.8315
  106.0000   111.3965   -43.5672     7.6203     7.7242
  106.5000   111.9794   -14.1619     7.5157     7.7121
  107.0000   113.1496   -14.0231     7.3129     7.5137
  107.5000   113.1412     0.7356     7.3109     7.3109
  108.0000   111.9370   -14.3278     7.1692     7.2670
  108.5000   109.4444   -28.7349     7.1117     7.1117
  109.0000   107.8053   -29.5412     7.0138     6.9194
  109.5000   114.6382   -30.3476     6.9176     6.7328
  110.0000   120.1770   -31.1539     6.7310     6.7310
  110.5000   120.1681   -31.9603     6.6388     6.5495
  111.0000   118.9779   -32.7666     6.5401     6.5477
  111.5000   118.9694   -33.5730     6.3710     6.5459
  112.0000   123.6808   -34.3793     6.3693     6.5172
  112.5000   120.7225   -35.1857     6.3675     6.4182
  113.0000   115.8820   -35.9921     6.3658     6.3658
  113.5000   116.9725   -36.7984     6.3638     6.2782
  114.0000   121.2873   -37.6048     6.2766     6.1921
  114.5000   121.2773   -38.4111     6.1905     6.1905
  115.0000   118.9479   -39.2175     6.1889     6.1889
  115.5000   112.4083   -40.0238     6.1873     6.1873
  116.0000   110.0400   -34.6001     6.1701     6.1856
  116.5000   111.8015   -11.2573     6.0187     6.0764
  117.0000   115.3329   -11.0852     6.0170     6.0170
  117.5000   116.5045   -10.9464     5.8932     5.9324
  118.0000   116.6293   -40.0474     5.8528     5.8528
  118.5000   118.3854   -39.9086     5.9311     6.0119
  119.0000   120.3992   -39.7661     6.0105     6.1754
  119.5000   122.3687   -39.6199     6.1739     6.3434
  120.0000   122.9105   -39.4737     6.3533     6.5278
  120.5000   114.0899   -39.3275     6.6188     6.8006
  121.0000   109.3618   -17.5438     6.8089     6.9290
  121.5000   105.8135    -9.7666     7.0621     7.1387
  122.0000   105.8051    -9.6278     7.1086     7.2537
  122.5000   105.7620    -9.4890     7.2514     7.2514
  123.0000   104.6077    -9.3502     7.0558     7.2495
  123.5000   103.4189   -38.4512     6.9591     7.1501
  124.0000   105.4710   -34.7954     6.8637     7.0521
  124.5000   110.4297    -8.9181     6.6684     6.8619
  125.0000   115.1900    -8.7719     6.4693     6.6617
  125.5000   118.1314    -8.6257     6.2761     6.4484
  126.0000   118.7139    -8.4795     6.0886     6.1522
  126.5000   118.7046    -8.3093     5.9067     5.9067
  127.0000   118.6962    -8.1705     5.6686     5.5924
  127.5000   118.7512    -8.0317     5.5157     5.4415
  128.0000   120.1101   -22.5128     5.3669     5.3669
  128.5000   122.5850   -36.9939     5.3656     5.3656
  129.0000   124.2419   -36.8421     5.3641     5.4408
  129.5000   116.7817   -36.6959     5.3858     5.6614
  130.0000   115.1017   -36.5497     5.5488     5.8363
  130.5000   113.9134   -36.4035     5.7947     6.0350
  131.0000   112.7250   -36.2305     6.0514     6.2175
  131.5000   111.5367   -21.4718     6.3020     6.3023
  132.0000   113.5181    -6.7131     6.3004     6.3004
  132.5000   121.1455    -6.5743     6.2988     6.2988
  133.0000   122.1309    -6.4327     6.2971     6.2124
  133.5000   120.0718    -6.2865     6.1272     6.1272
  134.0000   110.9971    -6.1403     6.1256     6.1135
  134.5000   108.6263     8.6257     6.1239     5.9603
  135.0000   113.8335    23.3918     6.0402     6.0701
  135.5000   118.5448    23.5380     6.1206     6.1604
  136.0000   116.7665     9.0643     6.1186     6.2870
  136.5000   116.7571    -5.4094     6.2005     6.4579
  137.0000   118.5801    -5.2558     6.2836     6.7237
  137.5000   119.6911    -5.1170     6.4544     7.0007
  138.0000   120.2727    -4.9708     6.8168     7.1937
  138.5000   120.0157    -4.8246     7.1190     7.4143
  139.0000   119.1013    -4.6784     7.4094     7.7959
  139.5000   122.0132   -19.1520     7.6596     8.0079
  140.0000   126.7245   -11.2086     7.9480     8.0054
  140.5000   127.8968    -4.2148     8.0662     8.0032
  141.0000   130.2475    10.5439     8.0007     8.0007
  141.5000   130.0106    -3.9372     7.9987     7.9987
  142.0000   119.6106    -3.7984     7.7829     7.9966
  142.5000   119.6018   -32.8994     7.5730     7.8852
  143.0000   120.3972   -32.7485     7.3686     7.7525
  143.5000   125.4090   -32.6023     7.2443     7.5210
  144.0000   132.7276   -32.4561     7.1678     7.2963
  144.5000   134.5054   -32.3099     7.1658     7.1218
  145.0000   133.7159   -17.5161     7.0136     6.9724
  145.5000   128.9877    -2.7574     6.9702     6.9702
  146.0000   124.8495    -2.6186     6.7822     6.8747
  146.5000   121.7748    -2.4798     6.7805     6.7805
  147.0000   119.2822    -2.3392     6.5976     6.5976
  147.5000   118.3346    -2.1930     6.4195     6.4195
