~VERSION INFORMATION
 VERS.                2.0:   CWLS LOG ASCII STANDARD - VERSION 2.0
 WRAP.                 NO:   ONE LINE PER DEPTH STEP
~WELL INFORMATION
#MNEM.UNIT      DATA TYPE    INFORMATION
#----------   ------------   ------------------------------
 STRT.F           50.0000:   START DEPTH
 STOP.F         2832.5000:   STOP DEPTH
 STEP.F            0.5000:   STEP LENGTH
 NULL.          -999.2500:   NO VALUE
 COMP.    FENIX & SCISSON:   COMPANY
 WELL. FENIX NPR 3 "AX" #87-20:   WELL
 FLD .              N P R:   FIELD
 LOC .      S20 T39N R78W:   LOCATION
 CNTY.            NATRONA:   COUNTY
 STAT.            WYOMING:   STATE
 CTRY. UNITED STATES OF AMERICA:   COUNTRY
 SRVC.           BIRDWELL:   SERVICE COMPANY
 DATE.        01-AUG-1978:   LOGDATE
 API .     49025106780000:   API NUMBER
~CURVE INFORMATION
#MNEM.UNIT       API CODE    CURVE DESCRIPTION
#----------   ------------   ------------------------------
 DEPT.F                  :   
 CALD.IN     45 280 60 00:   CALIPER FROM DENSITY LOG
 CORR.G/C3   45 356 01 00:   DENSITY CORRECTION
 GRD .GAPI   45 310 01 00:   GAMMA RAY FROM DENSITY LOG
 RHOB.G/C3   45 350 01 00:   BULK DENSITY
 SPR .MV     05 010 01 00:   SPONTANEOUS POTENTIAL
 ILD .OHMM   05 120 46 00:   DEEP INDUCTION RESISTIVITY
 SN  .OHMM   05 040 00 00:   SHORT NORMAL
~PARAMETER INFORMATION
#MNEM.UNIT          VALUE    DESCRIPTION
#----------   ------------   ------------------------------
 EKB .F         5007.0000:   Kelly bushing
 EGL .F         4997.0000:   Ground level
 EDF .F            0.0000:   Drilling floor
 EPD .F            0.0000:   Permanent datum
 TD  .F         2832.0000:   Total depth
 DATE.        01-AUG-1978:   Date logged
 CLNT.            A2DTECH:   Client Code
 SL  . 940' FSL & 200' FEL:   Surface Location
 PD  .                 GL:   Permanent Datum
 DD  .F              2825:   Depth driller
 DL  .F              2832:   Depth logger
 BLI .F              2826:   Bottom log interval
 CS1 .IN            8.625:   Casing size
 CBD1.      8.625" @ 140':   Casing driller 1
 CBL1.F               240:   Casing logger 1
 BS1 .IN            7.875:   Bit size
 DFT .            KCL/GEL:   Type fluid in hole
 DFD .                  9:   Density
 DFV .                 34:   Viscosity
 DFL .                  8:   Fluid loss
 MSS .           FLOWLINE:   Source of sample
 RMS .OHMM            1.5:   Rm
 MST .F                70:   Rm Meas. temp.
 RMF .OHMM            .70:   Rmf
 MFST.F                72:   Rmf Meas. temp.
 RMC .OHMM            2.2:   Rmc
 MCST.F                75:   Rmc Meas. temp.
 MFSS.               MEAS:   Source Rmf.
 TCS .HRS               6:   Time Circ. stopped
 LUN .               3007:   Logging unit number
 LUL .               CASP:   Logging unit location
 ENGI.            POINTER:   Recorded By
 WITN.              AMEND:   Witnessed by
 ORIG.           5" PRINT:   Origin of data
 UWI .     49025106780000:   Unique Well ID
 DICO. A2D TECHNOLOGIES, INC.:   Digitizing Company
 DAPD.                 10:   Feet Above Permanent Datum
 BSD1.F              2825:   Depth drilled with bit1
 LMF .                 KB:   Log Measured From
 DMF .                 KB:   Drilling Measured From
 TLI .F               140:   Top log interval
~OTHER INFORMATION
~A   DEPT     CALD       CORR         GRD      RHOB        SPR        ILD         SN   
# ...
  323.0000    10.3330     0.1890    88.6200     2.3970   -24.5510     7.2090     7.5160
  323.5000    11.5300     0.2650    90.1670     2.5030   -24.9390     7.2350     7.5350
  324.0000    10.1410     0.1650    91.7430     2.6430   -25.2440     7.2610     7.5540
  324.5000    10.2530     0.0980    91.7350     2.5920   -25.2510     7.2870     7.5740
  325.0000    10.2170     0.0880    92.7180     2.5210   -25.2480     7.3130     7.8120
  325.5000    10.2110     0.0870    95.1060     2.5160   -25.2470     7.9480     8.3850
  326.0000    10.2080     0.1060    89.8110     2.4970   -25.2320     8.5830     8.9590
  326.5000    10.2060     0.1120    84.8920     2.5220   -25.1950     9.1920     9.5320
  327.0000    10.2030     0.1140    84.0190     2.5260   -25.1570     9.4180     9.6510
  327.5000    10.2000     0.1160    84.9520     2.5240   -25.1190     9.5980     9.7170
  328.0000    10.2050     0.1180    82.5490     2.5220   -25.0770     9.7370     9.7820
  328.5000    10.2140     0.1180    81.4430     2.5270   -25.0860     9.8750     9.8480
  329.0000    10.2230     0.1180    85.5070     2.5350   -25.8060     9.8890     9.9130
  329.5000    10.2320     0.1180    89.1280     2.5370   -25.8730     9.8890     9.9790
  330.0000    10.2400     0.1180    91.8750     2.5260   -25.9050     9.8890    10.0440
  330.5000    10.2080     0.1180    94.8740     2.5310   -25.9390     9.8750    10.1100
  331.0000    10.1790     0.1180    94.7280     2.5360   -25.9750     9.8480    10.1650
  331.5000    10.1800     0.1180    94.5760     2.5400   -26.0110     9.8210    10.1260
  332.0000    10.1800     0.1180    93.1660     2.5460   -26.0480     9.7990    10.0860
  332.5000    10.1800     0.1160    91.6170     2.5420   -25.8390     9.7770    10.0470
  333.0000    10.1700     0.1120    90.2520     2.5420   -25.4440     9.7490    10.0070
  333.5000    10.1300     0.1080    90.9530     2.5420   -24.8950     9.7210     9.9670
  334.0000    10.0900     0.1050    91.7320     2.5240   -25.0540     9.6930     9.9270
  334.5000    10.0800     0.1080    92.5080     2.5090   -25.3820     9.6650     9.8880
  335.0000    10.0750     0.1110    93.3610     2.4940   -26.0330     9.6370     9.8480
  335.5000    10.0710     0.1250    88.2680     2.4960   -26.0420     9.6090     9.8080
  336.0000    10.0660     0.1430    82.5660     2.5100   -26.0400     9.5810     9.7690
  336.5000    10.0600     0.1480    83.1910     2.5280   -26.0400     9.5530     9.7290
  337.0000    10.1380     0.1490    83.0110     2.5360   -26.0320     9.5340     9.5810
  337.5000    10.1990     0.1510    82.7340     2.5370   -26.4130     9.7850     9.3380
  338.0000    10.1950     0.1460    82.6390     2.5410   -26.8410     9.9800     9.0940
  338.5000    10.1910     0.1410    82.9180     2.5440   -26.5910     8.9810     8.8500
  339.0000    10.1880     0.1410    83.0160     2.5270   -26.3380     8.7270     8.7010
  339.5000    10.1840     0.1450    83.0370     2.5120   -26.0820     8.4740     8.3020
  340.0000    10.1810     0.1570    82.9140     2.5070   -26.1220     8.2200     7.9000
  340.5000    10.1760     0.1650    89.8310     2.5130   -26.2180     7.9670     7.4970
  341.0000    10.1710     0.1640    92.1280     2.5150   -26.3170     7.7250     7.0950
  341.5000    10.1660     0.1610    94.6340     2.5170   -26.4500     7.2350     6.7970
  342.0000    10.1600     0.1470    97.3590     2.5150   -25.9000     6.5580     6.2170
  342.5000    10.1470     0.1320    97.6460     2.4920   -26.3110     5.6470     5.6700
  343.0000    10.1210     0.1010    97.6370     2.4000   -26.4950     4.7360     5.0720
  343.5000    10.1190     0.0520    98.7110     2.2990   -25.3040     3.7510     4.4450
  344.0000    10.1110    -0.0030   100.1980     2.1980   -25.1160     3.3690     3.8160
  344.5000    10.6380    -0.0380    97.5860     2.1370   -24.9570     3.0400     3.5400
  345.0000    11.0980     0.0740    99.0360     2.2400   -24.7920     2.9030     3.3920
  345.5000    10.4740     0.1700   100.8210     2.3420   -24.6390     2.9380     3.2700
  346.0000    10.2660     0.2660   102.5160     2.4430   -24.9760     2.9750     3.2700
  346.5000    11.7810     0.3630   101.8510     2.5440   -24.9150     3.0120     3.4020
  347.0000    10.1480     0.4120   101.0920     2.6450   -24.7540     3.2410     3.6610
  347.5000    10.0730     0.2340   101.4040     2.7470   -24.7210     3.6190     3.9190
  348.0000    10.0610     0.1350   102.7780     2.7610   -24.8800     4.2730     5.0260
  348.5000    10.0440     0.1370   103.8800     2.5220   -25.0370     5.7160     6.3040
  349.0000    10.0410     0.1360   100.8270     2.5200   -25.2020     6.5310     6.9650
  349.5000    10.0380     0.1360    97.4450     2.5220   -25.2460     7.0270     7.3110
  350.0000    10.0340     0.1360    97.2790     2.5430   -25.1630     7.3170     7.6580
  350.5000    10.0310     0.1220    99.2760     2.5510   -25.0670     7.7250     8.0040
  351.0000    10.0270     0.1060    99.4520     2.5370   -24.9710     7.7250     8.2360
  351.5000    10.0240     0.0920    99.6030     2.5310   -24.8730     7.7250     8.2600
  352.0000    10.0220     0.1170    97.8930     2.4700   -24.7360     7.7740     8.2850
  352.5000    10.0280     0.1440    94.7810     2.4670   -24.5350     7.8390     8.3100
  353.0000    10.0350     0.1420    95.1080     2.5250   -24.0910     7.9030     8.3340
  353.5000    10.0410     0.1340    95.6570     2.5510   -23.8620     7.9440     8.3590
  354.0000    10.0480     0.1260    94.1910     2.5520   -23.8600     7.9600     8.3840
  354.5000    10.0540     0.1190    91.9340     2.5160   -23.6810     7.9760     8.3880
  355.0000    10.0600     0.1230    92.8860     2.5090   -23.2650     7.9930     8.3940
  355.5000    10.0670     0.1300    93.8120     2.5020   -22.8490     8.0090     8.4000
  356.0000    10.0750     0.1360    95.7610     2.5080   -22.4800     8.0250     8.4050
  356.5000    10.0830     0.1340    95.7800     2.5230   -22.8570     8.0410     8.4110
  357.0000    10.0910     0.1270    92.8570     2.5240   -23.0780     8.0580     8.4170
  357.5000    10.0990     0.1250    90.6360     2.5180   -23.1220     8.0750     8.4220
  358.0000    10.1130     0.1230    90.7640     2.5170   -23.1630     8.0110     8.4280
  358.5000    10.1280     0.1230    91.6750     2.5200   -23.2030     8.0160     8.4330
  359.0000    10.1410     0.1240    93.7360     2.5240   -23.2450     8.0140     8.4390
  359.5000    10.1510     0.1250    95.7930     2.5240   -23.3980     8.0130     8.4450
  360.0000    10.1610     0.1250    95.9500     2.5280   -23.6800     8.0130     8.4500
  360.5000    10.1710     0.1190    94.2940     2.5340   -23.4370     8.0130     8.4560
  361.0000    10.1810     0.1120    95.4560     2.5330   -23.1540     8.0130     8.4620
  361.5000    10.1910     0.1090    98.5890     2.5270   -23.0930     8.0130     8.4650
  362.0000    10.2150     0.1100   101.7700     2.5150   -23.1350     8.0130     8.4030
  362.5000    10.2140     0.1110   102.6740     2.5130   -23.1810     8.0130     8.3550
  363.0000    10.2050     0.1120   103.9080     2.5110   -23.2240     8.0130     8.3080
  363.5000    10.1960     0.1160   105.5980     2.5150   -23.2770     8.0130     8.2600
  364.0000    10.1880     0.1230   106.5840     2.5280   -23.9290     8.0130     8.2120
  364.5000    10.1800     0.1240    98.8740     2.5410   -24.6330     8.0140     8.1650
  365.0000    10.1850     0.1240   100.0360     2.5460   -24.5180     8.0130     8.1170
  365.5000    10.1910     0.1240    97.1440     2.5440   -23.8860     7.9370     8.0690
  366.0000    10.1970     0.1230    97.0570     2.5410   -22.6320     7.8640     8.0220
  366.5000    10.2030     0.1230    97.1930     2.5370   -22.6730     7.7910     7.9740
  367.0000    10.2090     0.1230    96.4180     2.5360   -22.6790     7.7200     7.9260
  367.5000    10.2150     0.1230    93.7620     2.5360   -22.9380     7.6690     7.8790
  368.0000    10.2190     0.1210    92.9420     2.5360   -23.4450     7.6190     7.8310
