~VERSION INFORMATION
 VERS.                2.0:   CWLS LOG ASCII STANDARD - VERSION 2.0
 WRAP.                 NO:   ONE LINE PER DEPTH STEP
~WELL INFORMATION
#MNEM.UNIT      DATA TYPE    INFORMATION
#----------   ------------   ------------------------------
 STRT.F           81.0000:   START DEPTH
 STOP.F          910.0000:   STOP DEPTH
 STEP.F            0.5000:   STEP LENGTH
 NULL.          -999.2500:   NO VALUE
 COMP.         U. S. NAVY:   COMPANY
 WELL. US NAVY NPR 3 "S" #37-35:   WELL
 FLD .             TEAPOT:   FIELD
 LOC .      S35 T39N R78W:   LOCATION
 CNTY.            NATRONA:   COUNTY
 STAT.            WYOMING:   STATE
 CTRY. UNITED STATES OF AMERICA:   COUNTRY
 SRVC.       SCHLUMBERGER:   SERVICE COMPANY
 DATE.        22-JUL-1963:   LOGDATE
 API .     49025065040000:   API NUMBER
~CURVE INFORMATION
#MNEM.UNIT       API CODE    CURVE DESCRIPTION
#----------   ------------   ------------------------------
 DEPT.F                  :   
 SPR .MV     05 010 01 00:   SPONTANEOUS POTENTIAL FROM RES.
 ASN .OHMM   05 041 16 00:   AMPLIFIED SHORT NORMAL 16"
 ILD .OHMM   05 120 46 00:   INDUCTION LOG DEEP
~PARAMETER INFORMATION
#MNEM.UNIT          VALUE    DESCRIPTION
#----------   ------------   ------------------------------
 EKB .F         5113.0000:   Kelly bushing
 EGL .F         5108.0000:   Ground level
 TD  .F          900.0000:   Total depth
 DATE.        22-JUL-1963:   Date logged
 CLNT.            A2DTECH:   Client Code
 PD  .                 GL:   Permanent Datum
 EPD .F              5108:   Elevation Permanent Datum
 LMF .                 KB:   Log Measured From
 DMF .                 KB:   Drilling Measured From
 DAPD.F                 5:   Feet Above Permanent Datum
 DD  .F               900:   Depth driller
 DL  .F               900:   Depth logger
 BLI .F               899:   Bottom log interval
 TLI .F                81:   Top log interval
 BS1 .IN            7.875:   Bit size
 BSD1.F               900:   Depth drilled with bit1
 DFT .                GEL:   Type fluid in hole
 DFD .                9.6:   Density
 DFV .                 67:   Viscosity
 DFPH.                  9:   pH
 DFL .                4.8:   Fluid loss
 MSS .           FLOWLINE:   Source of sample
 RMS .OHMM            3.4:   Rm
 MST .F                77:   Rm Meas. temp.
 RMF .OHMM            3.3:   Rmf
 MFST.F                77:   Rmf Meas. temp.
 RMC .OHMM            3.8:   Rmc
 MCST.F                77:   Rmc Meas. temp.
 MFSS.                 FP:   Source Rmf.
 TCS .HRS               1:   Time Circ. stopped
 LUN .               2523:   Logging unit number
 LUL .               CSPR:   Logging unit location
 ENGI.            GIFFORD:   Recorded By
 WITN.          JORGENSON:   Witnessed by
 ORIG.           5" PRINT:   Origin of data
 UWI .     49025065040000:   Unique Well ID
 DICO. A2D TECHNOLOGIES, INC.:   Digitizing Company
~OTHER INFORMATION
~A   DEPT      SPR        ASN        ILD   
# ...
  627.0000   -40.6950     8.0380     7.1930
  627.5000   -40.7350     8.1330     7.2450
  628.0000   -40.7740     8.2320     7.2970
  628.5000   -40.8140     8.2650     7.3490
  629.0000   -40.8540     8.2950     7.4000
  629.5000   -40.8940     8.3250     7.4520
  630.0000   -40.9330     8.3560     7.5060
  630.5000   -40.9730     8.3970     7.5030
  631.0000   -41.0130     8.4720     7.4810
  631.5000   -41.0530     8.5450     7.4590
  632.0000   -41.0920     8.6180     7.4360
  632.5000   -41.1320     8.6810     7.4140
  633.0000   -41.1690     8.6780     7.3910
  633.5000   -41.1700     8.6370     7.3680
  634.0000   -41.1270     8.6030     7.3460
  634.5000   -41.0280     8.5690     7.3230
  635.0000   -40.9280     8.5350     7.3000
  635.5000   -40.8290     8.5000     7.2780
  636.0000   -40.7300     8.4710     7.2550
  636.5000   -40.6290     8.4520     7.2280
  637.0000   -40.5280     8.4330     7.1430
  637.5000   -40.4350     8.4170     7.1430
  638.0000   -40.1640     8.4330     7.2290
  638.5000   -40.2610     8.4480     7.3130
  639.0000   -40.3460     8.4620     7.3960
  639.5000   -40.4280     8.4830     7.4790
  640.0000   -40.5090     8.6210     7.6020
  640.5000   -40.5900     8.7550     7.7660
  641.0000   -40.6720     8.8880     7.9290
  641.5000   -40.7530     9.0390     8.0930
  642.0000   -40.8350     9.2090     8.2570
  642.5000   -40.9160     9.3780     8.4200
  643.0000   -40.9970     9.5480     8.5840
  643.5000   -41.0790     9.7170     8.7480
  644.0000   -41.1600     9.8870     8.9120
  644.5000   -41.1360    10.0560     9.0750
  645.0000   -41.0970    10.2080     9.2390
  645.5000   -41.0580    10.2730     9.4030
  646.0000   -41.0200    10.3430     9.5670
  646.5000   -40.9810    10.4170     9.7310
  647.0000   -40.9420    10.6170     9.9020
  647.5000   -40.9030    10.8090     9.9780
  648.0000   -40.8640    10.9050    10.0510
  648.5000   -40.8250    10.9040    10.1240
  649.0000   -40.7850    10.9080    10.1980
  649.5000   -40.7440    10.7970    10.2720
  650.0000   -40.7010    10.8050    10.3050
  650.5000   -40.6580    10.8070    10.2400
  651.0000   -40.6150    10.8070    10.1780
  651.5000   -40.5750    10.8070    10.1160
  652.0000   -40.6430    10.8060    10.0540
  652.5000   -40.7380    10.8050     9.9920
  653.0000   -40.8340    10.8080     9.9300
  653.5000   -40.9290    10.6990     9.8680
  654.0000   -41.0240    10.7170     9.8060
  654.5000   -41.1170    10.6150     9.7430
  655.0000   -41.1100    10.5030     9.6810
  655.5000   -40.8700    10.4260     9.6190
  656.0000   -40.6350    10.3230     9.5570
  656.5000   -40.4010    10.2220     9.5080
  657.0000   -40.1670    10.1210     9.4980
  657.5000   -39.9330    10.0260     9.4860
  658.0000   -39.6990     9.9960     9.4750
  658.5000   -39.4560    10.2010     9.4640
  659.0000   -39.4610    10.2140     9.4520
  659.5000   -39.6130    10.2180     9.4410
  660.0000   -39.7670    10.2210     9.4290
  660.5000   -39.9210    10.2240     9.4180
  661.0000   -40.0750    10.2260     9.3730
  661.5000   -40.2300    10.1980     9.2870
  662.0000   -40.3770    10.1150     9.2020
  662.5000   -40.2650    10.0360     9.1160
  663.0000   -40.1360     9.9550     9.0300
  663.5000   -40.0050     9.8910     8.9450
  664.0000   -39.8750     9.8280     8.8590
  664.5000   -39.7450     9.7660     8.7730
  665.0000   -39.6150     9.6910     8.6880
  665.5000   -39.4850     9.5990     8.6020
  666.0000   -39.3830     9.5070     8.5160
  666.5000   -39.3300     9.4150     8.4310
  667.0000   -39.2450     9.3240     8.3450
  667.5000   -39.1600     9.2530     8.2590
  668.0000   -39.0750     9.2890     8.1740
  668.5000   -38.9890     9.2200     8.0880
  669.0000   -38.9040     9.1490     8.0020
  669.5000   -38.8190     9.0840     7.9220
  670.0000   -38.7330     9.0480     7.9570
  670.5000   -38.6480     9.0340     7.9960
  671.0000   -38.5630     9.0340     8.0340
  671.5000   -38.4770     9.0160     8.0720
  672.0000   -38.3980     8.9280     8.1100
  672.5000   -38.4740     8.9640     8.1480
  673.0000   -38.5540     9.0220     8.1850
  673.5000   -38.6350     9.0820     8.1880
  674.0000   -38.7150     9.0310     8.0320
  674.5000   -38.7950     8.9330     7.8780
  675.0000   -38.8740     8.8420     7.7240
  675.5000   -38.9530     8.5490     7.5710
  676.0000   -38.9850     8.2230     7.4170
  676.5000   -38.6860     7.9800     7.2640
  677.0000   -38.1950     7.8540     7.1100
  677.5000   -37.7040     7.6820     6.9570
  678.0000   -37.2100     7.5100     6.8020
  678.5000   -36.7090     7.4650     6.6450
  679.0000   -36.7270     7.4310     6.4620
  679.5000   -36.9140     7.3780     6.5590
  680.0000   -37.1050     7.5340     6.6340
  680.5000   -37.2970     7.6210     6.7040
  681.0000   -37.4900     7.6200     6.7740
  681.5000   -37.6820     7.6200     6.8440
  682.0000   -37.8730     7.6610     6.9130
  682.5000   -37.9970     7.7750     6.9830
  683.0000   -37.9710     7.8890     7.0530
  683.5000   -37.9030     7.8920     7.1230
  684.0000   -37.8360     7.8130     7.1920
  684.5000   -37.7690     7.8010     7.2610
  685.0000   -37.7010     7.8410     7.3230
  685.5000   -37.6340     7.9820     7.3210
  686.0000   -37.5660     8.1310     7.3210
  686.5000   -37.4990     8.2800     7.3210
  687.0000   -37.4310     8.3990     7.3210
  687.5000   -37.3910     8.4730     7.3210
  688.0000   -37.3580     8.5010     7.3200
  688.5000   -37.3260     8.5160     7.3210
  689.0000   -37.2940     8.5100     7.3010
  689.5000   -37.2620     8.4880     7.2660
  690.0000   -37.2300     8.4500     7.2300
  690.5000   -37.2030     8.3630     7.1950
  691.0000   -37.2020     8.2790     7.1590
  691.5000   -37.2020     8.1950     7.1240
  692.0000   -37.2020     8.1110     7.1650
  692.5000   -37.2020     8.0410     7.2120
  693.0000   -37.2020     8.1700     7.2580
  693.5000   -37.2020     8.3120     7.3050
  694.0000   -37.2020     8.4540     7.3510
  694.5000   -37.2010     8.5990     7.3980
  695.0000   -37.1640     8.6550     7.4290
  695.5000   -36.8700     8.6260     7.4450
  696.0000   -36.5720     8.5710     7.4620
  696.5000   -36.2760     8.5160     7.4780
  697.0000   -35.9790     8.4590     7.4950
  697.5000   -35.6830     8.4470     7.5110
  698.0000   -35.4350     8.4380     7.4860
  698.5000   -35.5580     8.3630     7.4220
  699.0000   -35.6880     8.2190     7.3570
  699.5000   -35.8160     8.0750     7.2920
  700.0000   -35.9440     7.9260     7.2260
  700.5000   -36.0720     7.9260     7.1330
  701.0000   -36.2010     7.9440     7.0090
  701.5000   -36.3290     7.9510     6.8850
  702.0000   -36.4570     7.8220     6.7600
  702.5000   -36.5850     7.6960     6.6360
  703.0000   -36.7130     7.5650     6.5110
  703.5000   -36.8050     7.4580     6.3860
  704.0000   -36.6290     7.3460     6.2580
  704.5000   -36.4320     7.2350     6.1220
  705.0000   -36.2340     7.0310     5.9130
  705.5000   -36.0360     6.7890     5.7070
  706.0000   -35.8380     6.5460     5.4990
  706.5000   -35.6400     6.3940     5.2830
  707.0000   -35.4420     6.3330     5.3550
  707.5000   -35.2440     6.1850     5.5240
  708.0000   -35.0480     5.9770     5.6970
  708.5000   -35.0700     6.1750     5.8700
  709.0000   -35.1730     6.8760     6.0430
  709.5000   -35.2770     6.9740     6.2160
  710.0000   -35.3810     6.9900     6.3890
  710.5000   -35.4850     7.0090     6.5620
  711.0000   -35.5900     7.0520     6.7350
  711.5000   -35.6940     7.1650     6.8200
  712.0000   -35.7980     7.2770     6.7880
  712.5000   -35.9020     7.3910     6.7570
  713.0000   -36.0060     7.4110     6.7230
  713.5000   -36.1090     7.2450     6.5730
  714.0000   -36.2050     7.1700     6.4080
  714.5000   -36.0380     7.1700     6.2420
  715.0000   -35.6470     6.9410     6.0760
  715.5000   -35.2600     6.7180     5.9100
  716.0000   -34.8720     6.4980     5.7440
  716.5000   -34.4820     6.2780     5.5730
  717.0000   -34.0930     6.0580     5.5300
  717.5000   -34.0320     5.9550     5.5310
