~VERSION INFORMATION
 VERS.                2.0:   CWLS LOG ASCII STANDARD - VERSION 2.0
 WRAP.                 NO:   ONE LINE PER DEPTH STEP
~WELL INFORMATION
#MNEM.UNIT      DATA TYPE    INFORMATION
#----------   ------------   ------------------------------
 STRT.F           95.0000:   START DEPTH
 STOP.F          866.5000:   STOP DEPTH
 STEP.F            0.5000:   STEP LENGTH
 NULL.          -999.2500:   NO VALUE
 COMP.          U.S. NAVY:   COMPANY
 WELL. U.S NAVY RES 3 TEAPOT DOM "SX" #41-2:   WELL
 FLD .        TEAPOT DOME:   FIELD
 LOC .       S2 T38N R78W:   LOCATION
 CNTY.            NATRONA:   COUNTY
 STAT.            WYOMING:   STATE
 CTRY. UNITED STATES OF AMERICA:   COUNTRY
 SRVC.       SCHLUMBERGER:   SERVICE COMPANY
 DATE.        20-JUL-1953:   LOGDATE
 API .     49025064770000:   API NUMBER
~CURVE INFORMATION
#MNEM.UNIT       API CODE    CURVE DESCRIPTION
#----------   ------------   ------------------------------
 DEPT.F                  :   
 SPR .MV     05 010 01 00:   SPONTANEOUS POTENTIAL FROM RES.
 ASN .OHMM   05 041 16 00:   AMPLIFIED SHORT NORMAL 16"
 ILD .OHMM   05 120 46 00:   INDUCTION LOG DEEP
 GR  .GAPI   30 310 01 00:   GAMMA RAY
~PARAMETER INFORMATION
#MNEM.UNIT          VALUE    DESCRIPTION
#----------   ------------   ------------------------------
 EKB .F         5140.0000:   Kelly bushing
 EGL .F         5135.0000:   Ground level
 TD  .F          862.0000:   Total depth
 DATE.        20-JUL-1953:   Date logged
 CLNT.            A2DTECH:   Client Code
 DD  .F               862:   Depth driller
 DL  .F               855:   Depth logger
 BLI .F               654:   Bottom log interval
 TLI .F                50:   Top log interval
 CS1 .IN            8.625:   Casing size
 CBD1.       8.625" @ 10':   Casing driller 1
 BS1 .IN             6.75:   Bit size
 BSD1.F               862:   Depth drilled with bit1
 DFT .            GEL-OIL:   Type fluid in hole
 DFD .                9.4:   Density
 DFV .                 50:   Viscosity
 DFPH.                8.0:   pH
 DFL .                3.1:   Fluid loss
 RMS .OHMM           1.83:   Rm
 MST .F                96:   Rm Meas. temp.
 RMF .OHMM           1.56:   Rmf
 MFST.F                96:   Rmf Meas. temp.
 TCS .HRS               1:   Time Circ. stopped
 LUN .               4507:   Logging unit number
 LUL .               CSPR:   Logging unit location
 ENGI.            WINKLER:   Recorded By
 WITN.          JORGENSON:   Witnessed by
 ORIG.           5" PRINT:   Origin of data
 UWI .     49025064770000:   Unique Well ID
 DICO. A2D TECHNOLOGIES, INC.:   Digitizing Company
 MSS .           FLOWLINE:   Source of sample
~OTHER INFORMATION
~A  DEPTH      SPR        ASN        ILD         GR
# ...
  460.0000   -61.3394     8.7276     7.5448  -999.2500
  460.5000   -61.4899     8.6245     7.3291  -999.2500
  461.0000   -61.6401     8.4613     7.1059  -999.2500
  461.5000   -61.7904     8.1484     6.9574  -999.2500
  462.0000   -61.7918     8.0301     6.8091  -999.2500
  462.5000   -61.7932     8.0163     6.8097  -999.2500
  463.0000   -61.7946     8.0182     6.7358  -999.2500
  463.5000   -61.7964     8.0197     6.7366  -999.2500
  464.0000   -61.7976     8.0211     6.8121  -999.2500
  464.5000   -61.7993     8.0226     6.8874  -999.2500
  465.0000   -61.8007     8.0240     6.8881  -999.2500
  465.5000   -61.8022     8.0257     6.9634  -999.2500
  466.0000   -61.8036     8.0421     7.0388  -999.2500
  466.5000   -61.8053     8.0586     7.1143  -999.2500
  467.0000   -61.9556     8.1049     7.1149  -999.2500
  467.5000   -61.9570     8.1513     7.1904  -999.2500
  468.0000   -62.1073     8.1829     7.1910  -999.2500
  468.5000   -62.1577     8.1993     7.1919  -999.2500
  469.0000   -62.2590     8.2157     7.1927  -999.2500
  469.5000   -62.2619     8.2322     7.1933  -999.2500
  470.0000   -62.4109     8.2635     7.2687  -999.2500
  470.5000   -62.4123     8.2802     7.3440  -999.2500
  471.0000   -62.4138     8.3116     7.3787  -999.2500
  471.5000   -62.4152     8.3879     7.4203  -999.2500
  472.0000   -62.4169     8.4492     7.4209  -999.2500
  472.5000   -62.4184     8.5105     7.4217  -999.2500
  473.0000   -62.4198     8.5419     7.4971  -999.2500
  473.5000   -62.4213     8.5586     7.4979  -999.2500
  474.0000   -62.4226     8.6648     7.6479  -999.2500
  474.5000   -62.4241     8.7860     7.7232  -999.2500
  475.0000   -62.4258     8.8174     7.9478  -999.2500
  475.5000   -62.4273     8.8491     8.0978  -999.2500
  476.0000   -62.5775     8.9403     8.3971  -999.2500
  476.5000   -62.5790     9.1064     8.5471  -999.2500
  477.0000   -62.5804     9.3025     8.6971  -999.2500
  477.5000   -62.5821     9.5287     8.8471  -999.2500
  478.0000   -62.5836     9.5452     8.8479  -999.2500
  478.5000   -62.5850     9.5312     8.8486  -999.2500
  479.0000   -62.7353     9.5179     8.7746  -999.2500
  479.5000   -62.8855     9.5045     8.7754  -999.2500
  480.0000   -63.1848     9.5063     8.7762  -999.2500
  480.5000   -63.6327     9.5077     8.7770  -999.2500
  481.0000   -63.9318     9.5391     8.7776  -999.2500
  481.5000   -64.0820     9.6154     8.7785  -999.2500
  482.0000   -64.0835     9.7666     8.8538  -999.2500
  482.5000   -64.0849     9.8282     8.9291  -999.2500
  483.0000   -64.0866     9.7547     9.0046  -999.2500
  483.5000   -64.0880     9.8678     9.1546  -999.2500
  484.0000   -63.9407     9.9985     9.3046  -999.2500
  484.5000   -63.9421    10.1333     9.4545  -999.2500
  485.0000   -63.9436    10.2847     9.5802  -999.2500
  485.5000   -63.9452    10.2880     9.7546  -999.2500
  486.0000   -63.9467    10.4373     9.9046  -999.2500
  486.5000   -63.7988    10.5883    10.0546  -999.2500
  487.0000   -63.8008    10.7396    10.1299  -999.2500
  487.5000   -63.8022    10.8910    10.1306  -999.2500
  488.0000   -63.8036    11.0419    10.1315  -999.2500
  488.5000   -63.8053    11.1184    10.0573  -999.2500
  489.0000   -63.8068    11.1947     9.9837  -999.2500
  489.5000   -63.8082    11.1961     9.9097  -999.2500
  490.0000   -63.8097    11.1976     9.9106  -999.2500
  490.5000   -63.8111    11.1240     9.9113  -999.2500
  491.0000   -63.8126    11.0508     9.9119  -999.2500
  491.5000   -63.8142    10.9583     9.9128  -999.2500
  492.0000   -63.8157    10.7546     9.9134  -999.2500
  492.5000   -63.6683    10.6812     9.9142  -999.2500
  493.0000   -63.6698    10.6075     9.8403  -999.2500
  493.5000   -63.3736    10.5656     9.8411  -999.2500
  494.0000   -63.2262    10.5071     9.8419  -999.2500
  494.5000   -63.2279    10.4440     9.8425  -999.2500
  495.0000   -63.0801    10.3146     9.8433  -999.2500
  495.5000   -62.9329    10.3159     9.8440  -999.2500
  496.0000   -62.9346    10.2424     9.8449  -999.2500
  496.5000   -62.9361    10.2733     9.8455  -999.2500
  497.0000   -62.9378    10.3204     9.8463  -999.2500
  497.5000   -62.7899    10.3967     9.8471  -999.2500
  498.0000   -62.7918    10.3984     9.8479  -999.2500
  498.5000   -62.7933    10.3998     9.8486  -999.2500
  499.0000   -63.0924    10.2514     9.8493  -999.2500
  499.5000   -63.3917    10.1780     9.7008  -999.2500
  500.0000   -63.3930    10.1045     9.6267  -999.2500
  500.5000   -63.3962    10.2419     9.6995  -999.2500
  501.0000   -63.3991    10.3306     9.6966  -999.2500
  501.5000   -63.4020    10.3312     9.6198  -999.2500
  502.0000   -63.4053    10.3318     9.6176  -999.2500
  502.5000   -63.2584    10.3324     9.6157  -999.2500
  503.0000   -63.1767    10.2580     9.6133  -999.2500
  503.5000   -62.9675    10.2588     9.6111  -999.2500
  504.0000   -62.9063    10.1096     9.6086  -999.2500
  504.5000   -62.7780    10.0352     9.5321  -999.2500
  505.0000   -62.6780     9.9610     9.4550  -999.2500
  505.5000   -62.6815     9.9539     9.3605  -999.2500
  506.0000   -62.5354     9.9241     9.2267  -999.2500
  506.5000   -62.3895     9.8943     9.0003  -999.2500
  507.0000   -62.2436     9.8645     8.8489  -999.2500
  507.5000   -62.2474     9.8347     8.6228  -999.2500
  508.0000   -62.2500     9.7402     8.4714  -999.2500
  508.5000   -62.2531     9.4414     8.3739  -999.2500
  509.0000   -62.2565     9.0228     8.3178  -999.2500
  509.5000   -62.2594     8.7689     8.2407  -999.2500
  510.0000   -62.2619     8.5750     8.2385  -999.2500
  510.5000   -62.1163     8.5007     8.2363  -999.2500
  511.0000   -62.1190     8.4712     8.2341  -999.2500
  511.5000   -61.9263     8.5468     8.2320  -999.2500
  512.0000   -61.8155     8.7869     8.3790  -999.2500
  512.5000   -61.6815     9.2066     8.5261  -999.2500
  513.0000   -61.5357     9.4767     8.6732  -999.2500
  513.5000   -61.3499     9.5222     8.9692  -999.2500
  514.0000   -61.2431     9.5677     9.1912  -999.2500
  514.5000   -61.0976     9.6282     9.4129  -999.2500
  515.0000   -61.1015     9.6587     9.5597  -999.2500
  515.5000   -61.1042     9.6444     9.4825  -999.2500
  516.0000   -61.1072     9.6151     9.3311  -999.2500
  516.5000   -61.1106     9.5558     9.1050  -999.2500
  517.0000   -61.1134     9.4895     8.9536  -999.2500
  517.5000   -61.2651     9.4371     8.8018  -999.2500
  518.0000   -61.4168     9.3928     8.7250  -999.2500
  518.5000   -61.5685     9.4234     8.6482  -999.2500
  519.0000   -61.5718     9.4689     8.6460  -999.2500
  519.5000   -61.5747     9.5144     8.6440  -999.2500
  520.0000   -61.5774     9.5644     8.6417  -999.2500
  520.5000   -61.5804     9.6504     8.6391  -999.2500
  521.0000   -61.5833     9.7109     8.7123  -999.2500
  521.5000   -61.5863     9.7576     8.7097  -999.2500
  522.0000   -61.5895     9.8318     8.7821  -999.2500
  522.5000   -61.5923     9.8923     8.7799  -999.2500
  523.0000   -61.5953     9.9827     8.7776  -999.2500
  523.5000   -61.4489    10.0582     8.7754  -999.2500
  524.0000   -61.4527    10.0438     8.7728  -999.2500
  524.5000   -61.3063     9.9845     8.7709  -999.2500
  525.0000   -61.3096     9.8503     8.7685  -999.2500
  525.5000   -61.1632     9.7760     8.8413  -999.2500
  526.0000   -61.1671     9.7317     8.8388  -999.2500
  526.5000   -61.1699     9.7173     8.8362  -999.2500
  527.0000   -61.0235     9.7629     8.8343  -999.2500
  527.5000   -61.0273     9.8084     8.8321  -999.2500
  528.0000   -61.6255     9.8539     8.8297  -999.2500
  528.5000   -61.7771     9.8844     8.8276  -999.2500
  529.0000   -61.9288     9.8999     8.8254  -999.2500
  529.5000   -61.7824     9.8257     8.8228  -999.2500
  530.0000   -61.7862     9.7366     8.8209  -999.2500
  530.5000   -61.9379     9.6773     8.8185  -999.2500
  531.0000   -62.0896     9.6329     8.8164  -999.2500
  531.5000   -62.2413     9.6186     8.8142  -999.2500
  532.0000   -62.2446     9.6192     8.8119  -999.2500
  532.5000   -62.2470     9.6348     8.8094  -999.2500
