~VERSION INFORMATION
 VERS.                2.0:   CWLS LOG ASCII STANDARD - VERSION 2.0
 WRAP.                 NO:   ONE LINE PER DEPTH STEP
~WELL INFORMATION
#MNEM.UNIT      DATA TYPE    INFORMATION
#----------   ------------   ------------------------------
 STRT.F          200.0000:   START DEPTH
 STOP.F         3060.0000:   STOP DEPTH
 STEP.F            0.5000:   STEP LENGTH
 NULL.          -999.2500:   NO VALUE
 COMP.    FENIX & SCISSON:   COMPANY
 WELL. FENIX & SCISSON NPR "AX" #81-10:   WELL
 FLD .                NPR:   FIELD
 LOC .      S10 T38N R78W:   LOCATION
 CNTY.            NATRONA:   COUNTY
 STAT.            WYOMING:   STATE
 CTRY. UNITED STATES OF AMERICA:   COUNTRY
 SRVC.              WELEX:   SERVICE COMPANY
 DATE.        28-NOV-1977:   LOGDATE
 API .     49025104400000:   API NUMBER
~CURVE INFORMATION
#MNEM.UNIT       API CODE    CURVE DESCRIPTION
#----------   ------------   ------------------------------
 DEPT.F                  :   
 CALD.IN     45 280 60 00:   CALIPER FROM DENSITY LOG
 GRD .GAPI   45 310 01 00:   GAMMA RAY FROM DENSITY LOG
 RHOB.G/C3   45 350 01 00:   BULK DENSITY
 CORR.G/C3   45 356 01 00:   DENSITY CORRECTION
 TEND.LBS    45 635 01 00:   TENSION FROM DENSITY LOG
 NPHI.DEC    42 890 03 00:   NEUTRON POROSITY SANDSTONE
 SPR .MV     07 010 01 00:   SPONTANEOUS POTENTIAL
 IL  .OHMM   07 120 00 00:   INDUCTION LOG RES.
 ASGR.OHMM   07 221 05 00:   AMPLIFIED SHALLOW GUARD
 SNP .DEC    41 890 00 00:   SIDEWALL NEUTRON POROSITY
~PARAMETER INFORMATION
#MNEM.UNIT          VALUE    DESCRIPTION
#----------   ------------   ------------------------------
 EKB .F         5147.0000:   Kelly bushing
 EGL .F         5137.0000:   Ground level
 EDF .F            0.0000:   Drilling floor
 TD  .F         3058.0000:   Total depth
 DATE.        28-NOV-1977:   Date logged
 CLNT.            A2DTECH:   Client Code
 PD  .                 GL:   Permanent Datum
 EPD .F              5137:   Elevation Permanent Datum
 LMF .                 KB:   Log Measured From
 DMF .                 KB:   Drilling Measured From
 DD  .F              3055:   Depth driller
 DL  .F              3058:   Depth logger
 BLI .F              3055:   Bottom log interval
 TLI .F               200:   Top log interval
 CS1 .IN            8.625:   Casing size
 CBD1.      8.625" @ 205':   Casing driller 1
 CBL1.F               215:   Casing logger 1
 BSD1.F              3055:   Depth drilled with bit1
 DFT .            KCL/MUD:   Type fluid in hole
 ENGI.            BENTSEN:   Recorded By
 WITN.         HARRINGTON:   Witnessed by
 ORIG.           5" PRINT:   Origin of data
 UWI .     49025104400000:   Unique Well ID
 DICO. A2D TECHNOLOGIES, INC.:   Digitizing Company
 DAPD.                 10:   Feet Above Permanent Datum
 BS1 .IN            7.875:   Bit size
 DFD .                8.9:   Density
 DFV .                 35:   Viscosity
 MSS .           FLOWLINE:   Source of sample
 RMS .OHMM            .17:   Rm
 MST .F                75:   Rm Meas. temp.
 RMF .OHMM            .12:   Rmf
 MFST.F                75:   Rmf Meas. temp.
 MFSS.               FANN:   Source Rmf.
 RMC .OHMM            .50:   Rmc
 MCST.F                75:   Rmc Meas. temp.
 MCSS.                KIT:   Source Rmc.
 RMB .OHMM           .113:   Rm. at BHT
 BHT .F               113:   BHT.
 TCS .HRS             2.5:   Time Circ. stopped
 MRT .F               113:   Maximum recorded temp.
 LUN .               9685:   Logging unit number
 LUL .             CASPER:   Logging unit location
 SL  . 601' FNL & 200' FEL:   Surface Location
~OTHER INFORMATION
~A   DEPT       CALD      GRD       RHOB       CORR        TEND        NPHI       SPR        IL       ASGR        SNP   
# ...
 2813.0000     8.4670   141.5810     2.5110     0.0180  1135.2390     0.1400   -68.0660     3.5030     4.6280     0.2300
 2813.5000     8.4650   141.4250     2.5160     0.0150  1135.1030     0.1410   -68.2550     3.5700     4.6400     0.2310
 2814.0000     8.4640   141.4850     2.5210     0.0130  1134.9670     0.1410   -68.4450     3.6360     4.6540     0.2310
 2814.5000     8.4620   141.5360     2.5250     0.0150  1134.8311     0.1390   -68.5580     3.7030     4.7190     0.2360
 2815.0000     8.4610   141.7780     2.5300     0.0160  1134.6949     0.1390   -68.6500     3.7690     4.8310     0.2410
 2815.5000     8.4590   141.4110     2.5360     0.0180  1134.5590     0.1410   -68.7420     3.8350     4.9430     0.2450
 2816.0000     8.4580   140.9800     2.5410     0.0190  1134.4230     0.1440   -68.8330     3.9020     5.0500     0.2550
 2816.5000     8.4560   140.5500     2.5460     0.0200  1134.2870     0.1470   -68.9250     3.9670     5.0050     0.2550
 2817.0000     8.4540   140.1680     2.5440     0.0220  1134.1520     0.1470   -69.0170     3.9700     5.0910     0.2470
 2817.5000     8.4530   140.4400     2.5400     0.0230  1134.0160     0.1430   -69.1080     3.9700     5.0500     0.2390
 2818.0000     8.4510   140.9000     2.5360     0.0240  1133.8800     0.1400   -69.2000     3.9700     5.0640     0.2320
 2818.5000     8.4500   141.3590     2.5330     0.0250  1133.7440     0.1380   -69.2910     3.9700     5.2310     0.2280
 2819.0000     8.4480   141.7770     2.5370     0.0260  1133.6080     0.1370   -69.3830     3.9700     5.1870     0.2280
 2819.5000     8.4470   141.1530     2.5500     0.0270  1133.4720     0.1360   -69.4740     3.9700     5.1170     0.2270
 2820.0000     8.4450   140.3080     2.5620     0.0280  1133.3361     0.1350   -69.5660     3.9700     5.0590     0.2270
 2820.5000     8.4440   139.4320     2.5680     0.0260  1133.2000     0.1350   -69.6570     3.9700     5.3300     0.2280
 2821.0000     8.4420   139.6290     2.5470     0.0230  1133.0640     0.1340   -69.7490     3.9690     5.6330     0.2300
 2821.5000     8.4400   140.4620     2.5310     0.0200  1132.9280     0.1370   -69.8400     3.9330     5.8570     0.2320
 2822.0000     8.4390   141.2950     2.5140     0.0170  1132.7920     0.1390   -69.9320     3.8570     5.7130     0.2340
 2822.5000     8.4370   141.8000     2.4980     0.0140  1132.6560     0.1400   -70.0240     3.7800     5.4020     0.2350
 2823.0000     8.4360   141.9480     2.4930     0.0110  1132.5200     0.1390   -70.1150     3.7040     5.0930     0.2350
 2823.5000     8.4340   141.9560     2.4950     0.0080  1132.3850     0.1400   -70.2070     3.6270     4.8040     0.2320
 2824.0000     8.4330   141.3640     2.5020     0.0050  1132.2490     0.1410   -70.2980     3.5510     4.5600     0.2270
 2824.5000     8.4310   139.9320     2.5090     0.0070  1132.1130     0.1370   -70.3900     3.4750     4.5550     0.2200
 2825.0000     8.4300   138.5110     2.5160     0.0080  1131.9771     0.1340   -70.4810     3.3980     4.6460     0.2120
 2825.5000     8.4280   137.0880     2.5230     0.0090  1131.8409     0.1310   -70.5730     3.4460     4.7670     0.2050
 2826.0000     8.4260   135.6640     2.5300     0.0110  1131.7050     0.1290   -70.6630     3.5730     4.8840     0.1980
 2826.5000     8.4250   134.2400     2.5380     0.0120  1131.5690     0.1260   -70.5680     3.7010     5.1070     0.1920
 2827.0000     8.4230   132.8190     2.5450     0.0140  1131.4330     0.1230   -70.4460     3.8290     5.3400     0.1860
 2827.5000     8.4220   131.3940     2.5510     0.0150  1131.2970     0.1190   -70.3230     3.9580     5.3130     0.1810
 2828.0000     8.4200   130.2450     2.5530     0.0170  1131.1610     0.1170   -70.2000     4.0870     5.2360     0.1760
 2828.5000     8.4190   130.2060     2.5560     0.0180  1131.0250     0.1170   -70.0780     4.2150     5.1600     0.1710
 2829.0000     8.4170   131.2240     2.5560     0.0200  1130.8890     0.1160   -69.9550     4.3440     5.0810     0.1680
 2829.5000     8.4160   132.2600     2.5540     0.0220  1130.7531     0.1160   -69.8320     4.4730     5.2900     0.1660
 2830.0000     8.4140   133.2940     2.5500     0.0230  1130.6169     0.1110   -69.7060     4.6010     5.6550     0.1610
 2830.5000     8.4130   134.1750     2.5450     0.0250  1130.4821     0.1050   -69.7400     4.7310     5.6460     0.1550
 2831.0000     8.4110   133.9690     2.5410     0.0260  1130.3459     0.1070   -69.8110     4.8580     5.5790     0.1530
 2831.5000     8.4090   133.8750     2.5360     0.0290  1130.2100     0.1080   -69.8840     4.8100     5.4590     0.1550
 2832.0000     8.4080   133.8120     2.5320     0.0280  1130.0740     0.1090   -69.9570     4.7380     5.3320     0.1580
 2832.5000     8.4060   134.5780     2.5270     0.0250  1129.9380     0.1110   -70.0290     4.6650     5.3530     0.1610
 2833.0000     8.4050   135.2630     2.5230     0.0230  1129.8020     0.1100   -70.0810     4.5920     5.4340     0.1640
 2833.5000     8.4030   135.3680     2.5180     0.0210  1129.6660     0.1110   -70.0790     4.5190     5.5170     0.1690
 2834.0000     8.4020   136.4520     2.5140     0.0180  1129.5300     0.1130   -70.0790     4.4460     5.5950     0.1740
 2834.5000     8.4000   138.9200     2.5150     0.0170  1129.3940     0.1150   -70.0790     4.3720     5.6120     0.1790
 2835.0000     8.3990   141.3710     2.5150     0.0170  1129.2581     0.1160   -70.0220     4.2990     5.3980     0.1840
 2835.5000     8.3970   143.8240     2.5160     0.0170  1129.1219     0.1180   -69.8990     4.1300     5.1120     0.1890
 2836.0000     8.3950   146.2790     2.5170     0.0170  1128.9860     0.1200   -69.7770     3.9000     4.8240     0.1970
 2836.5000     8.3940   148.7350     2.5120     0.0180  1128.8500     0.1210   -69.6540     3.6690     4.5350     0.2060
 2837.0000     8.3920   151.1540     2.5040     0.0180  1128.7140     0.1280   -69.5310     3.4370     4.3050     0.2190
 2837.5000     8.3910   153.4760     2.4950     0.0180  1128.5790     0.1360   -69.4090     3.2040     4.1260     0.2360
 2838.0000     8.3890   156.7730     2.4870     0.0180  1128.4430     0.1480   -69.2860     2.9720     3.6030     0.2660
 2838.5000     8.3810   160.9190     2.4790     0.0180  1128.3070     0.1530   -69.1630     2.7850     3.0500     0.2660
 2839.0000     8.3730   161.8640     2.4700     0.0180  1128.1710     0.1530   -69.0400     2.6360     2.9080     0.2530
 2839.5000     8.3650   160.0040     2.4630     0.0180  1128.0350     0.1480   -68.9170     2.6200     2.7660     0.2300
 2840.0000     8.3570   154.4270     2.4760     0.0180  1127.8990     0.1400   -68.7950     2.7280     2.4250     0.2100
 2840.5000     8.3490   148.3800     2.4920     0.0180  1127.7629     0.1260   -68.6730     2.8350     3.2290     0.1830
 2841.0000     8.3400   142.0140     2.5070     0.0180  1127.6270     0.1120   -68.5500     2.9430     4.2270     0.1630
 2841.5000     8.3320   136.2750     2.5210     0.0180  1127.4910     0.0990   -68.5140     3.0510     4.7700     0.1460
 2842.0000     8.3240   130.5510     2.5190     0.0180  1127.3550     0.0900   -68.5600     3.2320     5.0940     0.1340
 2842.5000     8.3160   129.3110     2.5160     0.0170  1127.2190     0.0940   -68.6070     3.4230     4.8890     0.1290
 2843.0000     8.3080   129.9410     2.5130     0.0170  1127.0830     0.0960   -68.6530     3.6140     5.0720     0.1310
 2843.5000     8.2990   130.6340     2.5100     0.0170  1126.9470     0.0960   -68.7000     3.8060     5.2470     0.1340
 2844.0000     8.2910   130.9310     2.5060     0.0170  1126.8120     0.0950   -68.7470     3.9970     5.4120     0.1370
 2844.5000     8.2830   130.6370     2.5030     0.0170  1126.6760     0.0960   -68.7940     4.1880     5.3500     0.1400
 2845.0000     8.2750   131.1830     2.5000     0.0170  1126.5400     0.1000   -68.8410     4.3810     5.1820     0.1430
 2845.5000     8.2680   132.6720     2.4970     0.0170  1126.4041     0.1030   -68.8840     4.5640     5.0170     0.1470
 2846.0000     8.2610   134.1610     2.4940     0.0170  1126.2679     0.1060   -68.8350     4.4760     4.8500     0.1520
