~VERSION INFORMATION
 VERS.                2.0:   CWLS LOG ASCII STANDARD - VERSION 2.0
 WRAP.                 NO:   ONE LINE PER DEPTH STEP
~WELL INFORMATION
#MNEM.UNIT      DATA TYPE    INFORMATION
#----------   ------------   ------------------------------
 STRT.F           63.5000:   START DEPTH
 STOP.F         4112.0000:   STOP DEPTH
 STEP.F            0.5000:   STEP LENGTH
 NULL.          -999.2500:   NO VALUE
 COMP. LAWRENCE-ALLISON & ASSOC:   COMPANY
 WELL. LAWRENCE "X" #34-34:   WELL
 FLD .           N.P.R.#3:   FIELD
 LOC .      S34 T39N R78W:   LOCATION
 CNTY.            NATRONA:   COUNTY
 STAT.            WYOMING:   STATE
 CTRY. UNITED STATES OF AMERICA:   COUNTRY
 SRVC.      DRESSER ATLAS:   SERVICE COMPANY
 DATE.        19-OCT-1983:   LOGDATE
 API .     49025109440000:   API NUMBER
~CURVE INFORMATION
#MNEM.UNIT       API CODE    CURVE DESCRIPTION
#----------   ------------   ------------------------------
 DEPT.F                  :   
 AC  .US/F   60 250 00 00:   ACCOUSTIC
 TENS.LBS    60 635 01 00:   TENSION FROM SONIC
 ILD .OHMM   07 120 46 00:   DEEP INDUCTION RESISTIVITY
 ILM .OHMM   07 120 44 00:   INDUCTION LOG MEDIUM RESISTIVITY
 RFOC.OHMM   07 220 04 00:   RESISTIVITY FOCUSED LOG RES.
 TENR.LBS    07 635 01 00:   TENSION FROM RESISTIVITY
 SPR .MV     07 010 01 00:   SPONTANEOUS POTENTIAL
 GRR .GAPI   07 310 01 00:   GAMMA RAY FROM RESISTIVITY
 CALD.IN     45 280 60 00:   CALIPER FROM DENSITY LOG
 RHOB.G/C3   45 350 01 00:   BULK DENSITY
 CORR.G/C3   45 356 01 00:   DENSITY CORRECTION
 TEND.LBS    45 635 01 00:   TENSION FROM DENSITY LOG
 NPHI.DEC    42 890 03 00:   NEUTRON POROSITY SANDSTONE
~PARAMETER INFORMATION
#MNEM.UNIT          VALUE    DESCRIPTION
#----------   ------------   ------------------------------
 EKB .F         5100.0000:   Kelly bushing
 EGL .F         5090.0000:   Ground level
 TD  .F         4107.0000:   Total depth
 DATE.        19-OCT-1983:   Date logged
 CLNT.            A2DTECH:   Client Code
 SL  . 1997' FNL & 1661' FWL:   Surface Location
 PD  .                 GL:   Permanent Datum
 EPD .F              5090:   Elevation Permanent Datum
 LMF .                 KB:   Log Measured From
 DMF .                 KB:   Drilling Measured From
 DAPD.F                10:   Feet Above Permanent Datum
 DD  .F              4107:   Depth driller
 DL  .F              4102:   Depth logger
 BLI .F              4100:   Bottom log interval
 CS1 .IN            9.625:   Casing size
 CBD1.      9.625" @ 695':   Casing driller 1
 CBL1.F               696:   Casing logger 1
 BS1 .IN            7.875:   Bit size
 BSD1.F              4107:   Depth drilled with bit1
 DFT .            GEL-KCL:   Type fluid in hole
 DFD .                  9:   Density
 DFV .                 43:   Viscosity
 DFPH.                  9:   pH
 DFL .                 11:   Fluid loss
 MSS .           FLOWLINE:   Source of sample
 RMS .OHMM          0.313:   Rm
 MST .F                72:   Rm Meas. temp.
 RMF .OHMM          0.265:   Rmf
 MFST.F                68:   Rmf Meas. temp.
 RMC .OHMM          0.598:   Rmc
 MCST.F                68:   Rmc Meas. temp.
 MFSS.               MEAS:   Source Rmf.
 MCSS.               MEAS:   Source Rmc.
 RMB .OHMM          0.173:   Rm. at BHT
 BHT .F               130:   BHT.
 TCS .HRS               4:   Time Circ. stopped
 MRT .F               130:   Maximum recorded temp.
 LUN .               6774:   Logging unit number
 LUL .               GLTE:   Logging unit location
 ENGI.           FAHLEING:   Recorded By
 WITN.           JENNINGS:   Witnessed by
 ORIG.           5" PRINT:   Origin of data
 UWI .     49025109440000:   Unique Well ID
 DICO. A2D TECHNOLOGIES, INC.:   Digitizing Company
~OTHER INFORMATION
~A   DEPT       AC       TENS        ILD        ILM       RFOC       TENR        SPR         GRR      CALD       RHOB       CORR       TEND       NPHI   
# ...
 3833.5000    77.2000  -101.4850     7.8850     8.1000    11.0070   -35.2710   -38.4480   120.2400     7.6260     2.5620     0.0220   -11.4310     0.2130
 3834.0000    76.5230  -100.8100     8.3000     8.5160    11.3980   -35.3650   -38.6180   117.4390     7.6240     2.5560     0.0340   -12.3980     0.2110
 3834.5000    75.8460   -99.5100     8.8630     9.1370    11.5780   -35.4600   -38.7970   113.2710     7.6220     2.5500     0.0460   -13.3650     0.2070
 3835.0000    75.1680   -98.2090     9.4270     9.7590    12.0830   -35.5550   -39.0720   107.7930     7.6210     2.5510     0.0310   -14.3330     0.2040
 3835.5000    74.4910   -96.9090     9.9470    10.3860    13.3340   -35.6490   -39.1130   102.2680     7.6190     2.5610     0.0140   -15.3000     0.1990
 3836.0000    73.8140   -95.6080    10.3460    11.0310    14.8780   -35.7440   -39.1100    97.6060     7.6180     2.5680    -0.0060   -16.2670     0.1950
 3836.5000    73.1370   -94.3080    10.7460    11.6760    16.2710   -35.8390   -39.1060    92.8480     7.6160     2.5620     0.0330   -17.2340     0.1920
 3837.0000    72.4590   -93.0070    11.1450    11.7500    17.2800   -35.9330   -39.1130    93.7480     7.6150     2.5570     0.0170   -18.2020     0.1930
 3837.5000    71.7820   -91.7060    11.4250    11.2140    17.3880   -36.0280   -39.4280    97.0260     7.6130     2.5570    -0.0080   -19.1690     0.2040
 3838.0000    72.0920   -90.4060    11.4080    11.2140    16.8290   -36.1230   -39.7700    99.6090     7.6120     2.5660    -0.0320   -20.1360     0.2140
 3838.5000    72.5870   -89.1050    11.2490    10.7480    15.9940   -36.2170   -40.1120   103.3270     7.6100     2.5750    -0.0320   -21.1040     0.2160
 3839.0000    73.0830   -87.8050    11.0700    10.1890    14.7400   -36.3120   -40.4760   106.8630     7.6090     2.5830    -0.0190   -22.0360     0.2160
 3839.5000    73.5790   -86.5040    10.7480     9.9560    13.3060   -36.4070   -40.8840   110.2880     7.6070     2.5930    -0.0060   -19.9950     0.2180
 3840.0000    74.0750   -85.2040    10.4260     9.7220    12.6240   -36.5010   -41.1430   112.8230     7.6060     2.5920     0.0070   -18.0230     0.2220
 3840.5000    74.5700   -83.9030    10.0570     9.5120    12.0830   -36.5960   -41.1400   112.5840     7.6040     2.5880     0.0200   -16.0510     0.2220
 3841.0000    74.9350   -82.6020     9.6010     9.3450    12.1740   -36.6910   -41.1400   110.1040     7.6030     2.5830     0.0230   -14.0790     0.2170
 3841.5000    74.8690   -81.3020     9.2180     8.9700    12.7660   -36.7850   -41.1400   107.9510     7.6060     2.5800     0.0150   -12.1070     0.2130
 3842.0000    74.8030   -80.0010     8.6490     8.5280    13.6420   -36.8800   -41.1400   106.8410     7.6080     2.5890     0.0060   -10.1360     0.2110
 3842.5000    74.7520   -78.7010     8.0580     8.0370    13.3900   -36.9750   -41.1730   109.6290     7.6110     2.6000    -0.0030    -8.1640     0.2150
 3843.0000    74.7520   -77.4000     7.4670     7.3220    12.4900   -37.0690   -41.3460   114.8960     7.6140     2.6070    -0.0100    -6.1920     0.2220
 3843.5000    75.7640   -76.0990     6.8760     6.6060    10.9400   -37.1640   -41.5160   118.5540     7.6160     2.6030     0.0010    -4.2200     0.2310
 3844.0000    77.3240   -74.7990     6.2880     5.8900     9.3900   -37.2590   -41.6870   121.8010     7.6190     2.5960     0.0130    -2.2480     0.2420
 3844.5000    79.3200   -73.4980     5.7330     5.2610     7.9540   -37.3530   -41.7950   125.5700     7.6220     2.5890     0.0240    -2.5670     0.2520
 3845.0000    81.3160   -72.1980     5.1800     4.7580     7.1210   -37.4480   -41.8680   129.6390     7.6240     2.5810     0.0250    -3.6130     0.2620
 3845.5000    83.3120   -70.8970     4.6270     4.2550     6.5270   -37.5430   -41.9330   132.8220     7.6270     2.5740     0.0230    -4.6600     0.2720
 3846.0000    85.3080   -69.5970     4.0930     3.8560     5.9330   -37.6370   -42.2010   134.8680     7.6290     2.5670     0.0010    -5.7060     0.2830
 3846.5000    87.3040   -68.2960     3.7460     3.7230     5.3650   -37.7320   -42.4910   136.1400     7.6320     2.5720    -0.0040    -6.7520     0.2930
 3847.0000    89.3000   -66.9950     3.4280     3.5490     5.0610   -37.8270   -42.7640   136.3690     7.6350     2.5760     0.0080    -7.7980     0.3020
 3847.5000    90.3960   -65.6950     3.2620     3.3750     5.0260   -37.9210   -42.8570   135.4700     7.6370     2.5790     0.0110    -8.8450     0.3030
 3848.0000    90.9620   -64.3940     3.1030     3.2010     5.0260   -38.0160   -42.9410   134.5540     7.6400     2.5760     0.0030    -9.8910     0.3070
 3848.5000    91.3860   -63.0940     2.9450     3.0270     4.9220   -38.1110   -43.0260   133.6770     7.6430     2.5730     0.0010   -10.9370     0.3120
 3849.0000    92.5660   -61.8810     2.8010     2.8530     4.7700   -38.2050   -43.1110   135.7330     7.6450     2.5720     0.0100   -11.9830     0.3140
 3849.5000    93.5530   -62.1140     2.6580     2.6790     4.5500   -38.3000   -43.1960   140.1270     7.6480     2.5710     0.0040   -13.0300     0.3160
 3850.0000    94.5400   -62.3320     2.5160     2.5350     4.3220   -38.3950   -43.2820   143.4920     7.6510     2.5660    -0.0040   -14.0760     0.3180
 3850.5000    95.5270   -62.5500     2.3600     2.4230     4.0930   -38.4890   -43.3720   144.0360     7.6530     2.5600    -0.0120   -15.1220     0.3150
 3851.0000    96.5140   -62.7680     2.2980     2.3110     3.8640   -38.5840   -43.4530   143.0930     7.6560     2.5540    -0.0100   -16.1680     0.3100
 3851.5000    97.5010   -62.9860     2.2300     2.1980     3.7610   -38.6790   -43.5350   142.1360     7.6580     2.5470    -0.0040   -17.2150     0.3200
 3852.0000    98.5070   -63.2040     2.1540     2.0860     3.7080   -38.7730   -43.5100   140.9130     7.6610     2.5410    -0.0030   -18.2610     0.3320
 3852.5000    99.7030   -63.4220     2.0140     2.0330     3.6390   -38.8680   -43.2660   137.9440     7.6640     2.5350    -0.0110   -19.3070     0.3450
 3853.0000   100.2300   -63.6400     1.9660     2.0330     3.5590   -38.9630   -43.0240   134.9460     7.6660     2.5380    -0.0100   -20.3530     0.3500
 3853.5000   100.8910   -63.8590     1.9140     2.0150     3.5180   -39.0570   -42.9700   133.7380     7.6680     2.5440     0.0050   -21.4000     0.3480
 3854.0000   101.0530   -64.0770     1.8630     1.9950     3.4740   -39.1520   -42.9680   134.0780     7.6700     2.5520     0.0210   -22.4460     0.3480
 3854.5000   101.2260   -64.2950     1.8110     1.9450     3.4300   -39.2470   -43.0270   134.7720     7.6720     2.5430     0.0220   -23.4920     0.3540
 3855.0000   101.5680   -64.5130     1.7650     1.9030     3.3870   -39.3410   -43.1310   135.7370     7.6740     2.5260     0.0150   -24.5380     0.3670
 3855.5000   102.0000   -64.7310     1.7530     1.8520     3.3430   -39.4360   -43.2360   136.6010     7.6760     2.5100    -0.0110   -25.5850     0.3800
 3856.0000   102.4320   -64.9490     1.7350     1.8720     3.2990   -39.5310   -43.3410   136.9490     7.6780     2.4920    -0.0300   -26.6310     0.3870
 3856.5000   102.8650   -65.1670     1.8220     1.9070     3.2720   -39.6250   -43.4450   137.3120     7.6800     2.4840    -0.0080   -27.6770     0.3750
 3857.0000   103.2670   -65.3850     1.9740     2.0340     3.2720   -39.7200   -43.5500   137.5680     7.6820     2.4840     0.0130   -28.7230     0.3490
 3857.5000   102.8400   -65.6030     2.1250     2.2280     3.2980   -39.8150   -43.6550   134.3810     7.6830     2.4920     0.0350   -29.7700     0.3260
 3858.0000   102.2170   -65.8210     2.2770     2.4210     3.4330   -39.9090   -43.7670   126.8610     7.6820     2.5270     0.0440   -30.8160     0.3060
 3858.5000    97.5010   -66.0390     2.4290     2.6140     3.7320   -40.0040   -43.6100   115.6620     7.6800     2.5690     0.0300   -31.8620     0.2770
 3859.0000    91.6210   -66.2570     2.5810     2.8080     5.0860   -40.0990   -43.3990   104.4380     7.6780     2.5980    -0.0050   -31.4430     0.2600
