~VERSION INFORMATION
 VERS.                2.0:   CWLS LOG ASCII STANDARD - VERSION 2.0
 WRAP.                 NO:   ONE LINE PER DEPTH STEP
~WELL INFORMATION
#MNEM.UNIT      DATA TYPE    INFORMATION
#----------   ------------   ------------------------------
 STRT.F         2290.0000:   START DEPTH
 STOP.F         2806.5000:   STOP DEPTH
 STEP.F            0.5000:   STEP LENGTH
 NULL.          -999.2500:   NO VALUE
 COMP.  FENIX AND SCISSON:   COMPANY
 WELL. FENIX & SCISSON INC "A" #405-20:   WELL
 FLD .                NPR:   FIELD
 LOC .      S20 T39N R78W:   LOCATION
 CNTY.            NATRONA:   COUNTY
 STAT.            WYOMING:   STATE
 CTRY. UNITED STATES OF AMERICA:   COUNTRY
 SRVC.         McCULLOUGH:   SERVICE COMPANY
 DATE.        23-NOV-1977:   LOGDATE
 API .     49025104440000:   API NUMBER
~CURVE INFORMATION
#MNEM.UNIT       API CODE    CURVE DESCRIPTION
#----------   ------------   ------------------------------
 DEPT.F                  :   
 GRN .GAPI   35 310 01 00:   GAMMA RAY
 NEUT.NAPI   35 330 01 00:   NEUTRON
~PARAMETER INFORMATION
#MNEM.UNIT          VALUE    DESCRIPTION
#----------   ------------   ------------------------------
 EDF .F         4974.0000:   Drilling floor
 TD  .F         2807.0000:   Total depth
 DATE.        23-NOV-1977:   Date logged
 CLNT.            A2DTECH:   Client Code
 CTRY.                USA:   Country
 PD  .                 DF:   Permanent Datum
 EPD .F              4974:   Elevation Permanent Datum
 LMF .                 GL:   Log Measured From
 DMF .                 GL:   Drilling Measured From
 DD  .F              2800:   Depth driller
 DL  .F              2807:   Depth logger
 BLI .F              2806:   Bottom log interval
 TLI .F              2300:   Top log interval
 CS1 .IN                7:   Casing size
 CBD1.         7" @ 2624':   Casing driller 1
 CBL1.F              2624:   Casing logger 1
 BSD1.F              2800:   Depth drilled with bit1
 DFT .        WATER & OIL:   Type fluid in hole
 ENGI.             CONLEY:   Recorded By
 WITN.          WOLVERTON:   Witnessed by
 ORIG.           5" PRINT:   Origin of data
 UWI .     49025104440000:   Unique Well ID
 DICO. A2D TECHNOLOGIES, INC.:   Digitizing Company
~OTHER INFORMATION
~A  DEPT        GRN      NEUT   
# ...
 2411.5000    44.2300   509.0080
 2412.0000    44.2010   507.8460
 2412.5000    43.2850   506.7560
 2413.0000    42.3270   499.4620
 2413.5000    42.6720   487.7390
 2414.0000    42.6480   466.6580
 2414.5000    40.4550   449.8440
 2415.0000    38.2600   440.5500
 2415.5000    37.2330   409.5120
 2416.0000    38.3890   386.8980
 2416.5000    39.9040   388.6780
 2417.0000    41.4710   391.1270
 2417.5000    42.6510   396.9020
 2418.0000    41.7380   403.8800
 2418.5000    42.0050   409.8430
 2419.0000    43.0430   413.7290
 2419.5000    41.6120   417.6490
 2420.0000    40.2980   420.0090
 2420.5000    39.4810   420.0010
 2421.0000    39.3050   420.0190
 2421.5000    39.5920   420.0300
 2422.0000    39.7490   420.0780
 2422.5000    36.7150   422.2140
 2423.0000    34.5710   426.2980
 2423.5000    33.6700   431.9240
 2424.0000    33.1010   437.5400
 2424.5000    32.5960   443.1620
 2425.0000    32.9750   448.7510
 2425.5000    34.5640   453.7180
 2426.0000    36.2190   455.4490
 2426.5000    38.5550   457.2630
 2427.0000    40.0730   459.0950
 2427.5000    39.8260   460.9140
 2428.0000    39.3850   462.7480
 2428.5000    33.6540   464.6160
 2429.0000    32.2780   466.1000
 2429.5000    32.4680   452.5370
 2430.0000    32.8740   440.6180
 2430.5000    30.5570   434.1510
 2431.0000    28.3310   417.3140
 2431.5000    27.9330   394.9370
 2432.0000    26.7710   377.2460
 2432.5000    27.0800   355.0180
 2433.0000    26.1910   352.3070
 2433.5000    24.6600   353.0010
 2434.0000    25.7690   353.6950
 2434.5000    24.2620   356.9370
 2435.0000    23.8180   360.4960
 2435.5000    23.8040   364.0930
 2436.0000    25.1900   369.2480
 2436.5000    26.3930   381.3990
 2437.0000    24.4180   395.6040
 2437.5000    22.6430   413.0940
 2438.0000    23.1690   424.1760
 2438.5000    24.2850   433.4550
 2439.0000    27.3460   440.7290
 2439.5000    29.8710   443.2270
 2440.0000    32.3180   447.7850
 2440.5000    33.8630   452.6520
 2441.0000    30.5600   457.5250
 2441.5000    26.7340   461.7010
 2442.0000    25.1050   460.5900
 2442.5000    24.3420   436.1110
 2443.0000    24.5950   425.4750
 2443.5000    24.4910   418.6590
 2444.0000    24.3240   420.9410
 2444.5000    24.0720   423.4050
 2445.0000    23.7180   426.5000
 2445.5000    22.3910   431.7730
 2446.0000    23.6000   436.9170
 2446.5000    29.7640   441.9800
 2447.0000    28.7130   441.7110
 2447.5000    28.1230   433.6160
 2448.0000    27.9710   433.6670
 2448.5000    27.5640   419.6300
 2449.0000    27.4340   415.2820
 2449.5000    24.9210   415.0530
 2450.0000    25.0430   411.3030
 2450.5000    25.2230   407.0640
 2451.0000    25.9460   402.7600
 2451.5000    27.2290   401.8620
 2452.0000    27.6240   402.9160
 2452.5000    27.4050   409.2910
 2453.0000    28.4030   415.6860
 2453.5000    29.5200   421.4000
 2454.0000    29.3410   417.5630
 2454.5000    28.2040   400.9090
 2455.0000    25.7300   392.3750
 2455.5000    24.0680   384.2400
 2456.0000    25.1680   367.0600
 2456.5000    26.3180   350.0860
 2457.0000    26.8360   350.4020
 2457.5000    27.8820   350.8570
 2458.0000    29.6990   353.1000
 2458.5000    30.3170   359.5550
 2459.0000    28.4680   366.5320
 2459.5000    27.2440   366.9310
 2460.0000    26.2940   366.9200
 2460.5000    24.8880   367.9600
 2461.0000    25.3080   369.8390
 2461.5000    28.7430   371.7060
 2462.0000    30.6840   373.7090
 2462.5000    30.6480   379.0810
 2463.0000    31.2800   384.4700
 2463.5000    31.0610   387.9870
 2464.0000    30.0920   391.2280
 2464.5000    29.5710   394.4530
 2465.0000    29.5910   397.6190
 2465.5000    29.8970   402.9200
 2466.0000    28.8250   408.7180
 2466.5000    28.1940   414.6400
 2467.0000    28.6020   416.8830
 2467.5000    29.5260   409.4120
 2468.0000    29.6470   407.4710
 2468.5000    29.4270   406.3640
 2469.0000    29.1250   405.2610
 2469.5000    28.8000   404.1510
 2470.0000    27.6910   403.0890
 2470.5000    25.2020   402.1910
 2471.0000    25.5040   394.9510
 2471.5000    27.0560   388.8180
 2472.0000    30.3360   391.2520
 2472.5000    31.8570   393.4600
 2473.0000    31.3220   394.5290
 2473.5000    29.7180   386.5560
 2474.0000    28.3130   373.5020
 2474.5000    29.4620   363.1020
 2475.0000    30.0600   357.5080
 2475.5000    27.1830   355.3720
 2476.0000    25.9670   356.6930
 2476.5000    26.8960   359.8880
 2477.0000    26.7140   365.1870
 2477.5000    26.5880   370.7830
 2478.0000    27.7800   376.3420
 2478.5000    29.0190   379.5490
 2479.0000    30.2140   370.9320
 2479.5000    29.9360   357.6740
 2480.0000    29.7940   356.4310
 2480.5000    30.5670   357.6710
 2481.0000    30.5490   359.1900
 2481.5000    30.0960   361.5140
 2482.0000    29.2490   363.3920
 2482.5000    27.9760   360.4550
 2483.0000    27.1040   357.5510
 2483.5000    26.6540   354.7270
 2484.0000    25.3400   346.3630
 2484.5000    25.0840   334.5790
 2485.0000    25.3020   317.2300
 2485.5000    26.0870   300.3590
 2486.0000    27.9140   289.1720
 2486.5000    30.0880   289.6890
 2487.0000    30.8160   290.4510
 2487.5000    30.0280   291.2140
 2488.0000    28.2510   291.9160
 2488.5000    28.7120   296.4670
 2489.0000    31.2150   303.6240
 2489.5000    32.5390   309.9450
 2490.0000    34.3890   301.8020
 2490.5000    35.7930   295.5610
 2491.0000    34.3470   296.3530
 2491.5000    31.6020   297.0300
 2492.0000    28.4930   297.6700
 2492.5000    28.0030   298.3170
 2493.0000    28.2150   298.9720
 2493.5000    28.4600   299.6280
 2494.0000    31.1210   300.2780
 2494.5000    31.9150   302.5100
 2495.0000    33.3040   305.5790
 2495.5000    35.9110   309.4680
 2496.0000    34.7900   314.3090
 2496.5000    34.1370   314.4350
 2497.0000    33.5000   313.2130
 2497.5000    32.8790   313.0530
 2498.0000    32.5920   318.7260
 2498.5000    33.7790   319.9810
 2499.0000    33.7890   314.9880
 2499.5000    33.8160   310.7180
 2500.0000    41.9790   314.3090
 2500.5000    39.6820   317.9380
 2501.0000    35.6960   321.5400
 2501.5000    34.0560   325.1250
 2502.0000    33.1310   328.6980
 2502.5000    32.4010   332.2660
 2503.0000    31.9700   333.5270
 2503.5000    31.5940   329.9880
 2504.0000    32.3760   311.4900
 2504.5000    33.8570   296.7490
 2505.0000    33.8660   297.1200
 2505.5000    34.0000   300.0170
 2506.0000    35.3330   303.8420
 2506.5000    35.8360   308.9650
 2507.0000    34.2350   315.8520
 2507.5000    33.3040   325.2020
 2508.0000    32.2920   341.0490
 2508.5000    31.5200   357.0800
 2509.0000    31.5530   362.7390
 2509.5000    33.7840   368.6540
 2510.0000    36.3430   373.1110
 2510.5000    36.5330   377.1920
 2511.0000    34.6880   381.2330
 2511.5000    33.6030   385.2410
 2512.0000    33.1080   391.0220
 2512.5000    31.9770   398.0320
 2513.0000    30.6670   401.7080
 2513.5000    26.9110   404.2880
 2514.0000    26.0930   409.8480
 2514.5000    29.1020   416.5970
 2515.0000    32.7200   423.4600
 2515.5000    35.8890   423.9030
 2516.0000    37.5290   412.4620
 2516.5000    38.2170   401.4520
 2517.0000    38.2970   400.9980
 2517.5000    38.3920   400.3030
 2518.0000    39.6780   401.5820
 2518.5000    40.0430   403.6760
 2519.0000    40.0890   405.7870
 2519.5000    38.4360   407.8620
 2520.0000    37.4540   411.6790
 2520.5000    36.5210   415.8980
 2521.0000    35.7290   422.2590
 2521.5000    32.1370   431.9900
 2522.0000    30.7310   442.3900
 2522.5000    30.2840   454.3700
 2523.0000    30.2800   464.4030
 2523.5000    30.2710   474.9750
 2524.0000    30.3130   485.7010
 2524.5000    31.8000   488.8020
 2525.0000    33.3920   489.9410
 2525.5000    34.8850   490.9910
 2526.0000    36.3050   493.8120
 2526.5000    37.0280   497.5470
 2527.0000    37.9460   501.2810
 2527.5000    40.3230   505.4920
 2528.0000    42.6830   520.7920
 2528.5000    42.9560   535.8400
 2529.0000    44.7830   550.8100
 2529.5000    48.2380   572.9680
 2530.0000    56.0530   644.6030
 2530.5000    65.2350   718.3210
 2531.0000    66.1460   792.0460
 2531.5000    66.7420   837.1640
 2532.0000    66.8650   849.1260
 2532.5000    66.6160   852.1750
