~VERSION INFORMATION
 VERS.                2.0:   CWLS LOG ASCII STANDARD - VERSION 2.0
 WRAP.                 NO:   ONE LINE PER DEPTH STEP
~WELL INFORMATION
#MNEM.UNIT      DATA TYPE    INFORMATION
#----------   ------------   ------------------------------
 STRT.F          290.0000:   START DEPTH
 STOP.F         2884.0000:   STOP DEPTH
 STEP.F            0.5000:   STEP LENGTH
 NULL.          -999.2500:   NO VALUE
 COMP.   FENNIX & SCISSON:   COMPANY
 WELL. FENIX & SCISSON AX #22-28:   WELL
 FLD .             NPR #3:   FIELD
 LOC .      S28 T39N R78W:   LOCATION
 CNTY.            NATRONA:   COUNTY
 STAT.            WYOMING:   STATE
 CTRY. UNITED STATES OF AMERICA:   COUNTRY
 SRVC.              WELEX:   SERVICE COMPANY
 DATE.        29-DEC-1979:   LOGDATE
 API .     49025107930000:   API NUMBER
~CURVE INFORMATION
#MNEM.UNIT       API CODE    CURVE DESCRIPTION
#----------   ------------   ------------------------------
 DEPT.F                  :   
 GRD .GAPI   45 310 01 00:   GAMMA RAY FROM DENSITY LOG
 CALD.IN     45 280 60 00:   CALIPER FROM DENSITY LOG
 CORR.G/C3   45 356 01 00:   DENSITY CORRECTION
 RHOB.G/C3   45 350 01 00:   BULK DENSITY
 NPHI.DEC    42 890 03 00:   NEUTRON POROSITY SANDSTONE
 SPR .MV     07 010 01 00:   SPONTANEOUS POTENTIAL
 TENR.LBS    07 635 01 00:   TENSION FROM RESISTIVITY
 ILD .OHMM   07 120 46 00:   DEEP INDUCTION RESISTIVITY
 ILM .OHMM   07 120 44 00:   INDUCTION LOG MEDIUM RESISTIVITY
 SGRD.OHMM   07 220 08 00:   LATEROLOG-8 RES.
~PARAMETER INFORMATION
#MNEM.UNIT          VALUE    DESCRIPTION
#----------   ------------   ------------------------------
 EKB .F         4988.0000:   Kelly bushing
 EGL .F         4978.0000:   Ground level
 EPD .F         4978.0000:   Permanent datum
 TD  .F         2872.0000:   Total depth
 CLNT.            A2DTECH:   Client Code
 SL  . 803' FNL & 938' FWL:   Surface Location
 DATE.        29-DEC-1979:   Date Logged [DD-MMM-YYYY]
 DD  .F              2868:   Depth driller
 DL  .F              2872:   Depth logger
 BLI .F              2870:   Bottom log interval
 TLI .F               300:   Top log interval
 CS1 .              8.625:   Casing size
 CBD1.      8.625" @ 318':   Casing driller 1
 CBL1.IN              318:   Casing logger 1
 BS1 .IN            7.875:   Bit size
 BSD1.F              2868:   Depth drilled with bit1
 DFT .          GEL-BENEX:   Type fluid in hole
 DFD .                8.8:   Density
 TCS .HRS              10:   Time Circ. stopped
 MRT .F               109:   Maximum recorded temp.
 ENGI.               REIN:   Recorded By
 WITN.          MR. AMEND:   Witnessed by
 ORIG.      2.5" 5" PRINT:   Origin of data
 UWI .     49025107930000:   Unique Well ID
 DICO. A2D TECHNOLOGIES, INC.:   Digitizing Company
 PD  .                 GL:   Permanent Datum
 LMF .                 KB:   Log Measured From
 DMF .                 KB:   Drilling Measured From
~OTHER INFORMATION
~A   DEPT       GRD        CALD     CORR         RHOB       NPHI      SPR       TENR        ILD        ILM       SGRD   
# ...
  960.0000    95.6354     8.9770    -0.0196     2.4999     0.2600   -70.9127  1273.8097    10.7940    12.5410    12.2365
  960.5000    97.7418     9.0087    -0.0145     2.5067     0.2661   -70.9018  1272.7681    11.0978    12.3068    12.0760
  961.0000    98.9567     9.0404    -0.0086     2.5151     0.2695   -70.5933  1271.7264    11.2548    11.9772    12.0809
  961.5000    98.9829     9.0568    -0.0028     2.5227     0.2641   -70.5824  1270.6844    11.2586    11.8834    11.9208
  962.0000    99.0091     9.0578     0.0030     2.5303     0.2608   -70.5715  1299.4463    11.4179    11.7250    11.7636
  962.5000   100.2240     9.0741     0.0125     2.5469     0.2586   -70.5854  1297.3557    11.5795    11.6618    11.6084
  963.0000   100.8445     9.0751     0.0253     2.5590     0.2564   -70.8477  1294.4508    11.7433    11.5720    11.6140
  963.5000    99.9769     9.0761     0.0360     2.5659     0.2554   -70.8363  1291.5459    11.7473    11.4178    11.6188
  964.0000   100.0614     9.0773     0.0376     2.5547     0.2535   -70.8254  1288.6410    11.7513    11.3547    11.4648
  964.5000   102.7073     9.0783     0.0080     2.5465     0.2507   -70.5169  1285.7361    11.5951    11.2688    11.3144
  965.0000   101.5501     9.0793     0.0019     2.5458     0.2494   -70.5060  1282.8312    11.5993    11.2719    11.1652
  965.5000    98.3074     9.0803     0.0097     2.5482     0.2481   -70.4950  1279.9264    11.6033    11.2750    11.1697
  966.0000   100.7109     9.0812     0.0160     2.5490     0.2484   -70.4841  1277.0215    11.6072    11.2781    11.0217
  966.5000   103.1145     9.0822     0.0130     2.5401     0.2513   -70.4732  1274.1166    11.6112    11.2811    11.0270
  967.0000   102.2492     9.0676    -0.0026     2.5304     0.2589   -70.4623  1271.2117    11.6152    11.1309    11.0315
  967.5000   100.4923     9.0842    -0.0165     2.5252     0.2604   -70.4514  1268.3068    11.4608    10.9826    10.8853
  968.0000   101.7072     9.0852    -0.0070     2.5253     0.2592   -70.4405  1265.4019    11.4649    10.9856    10.8905
  968.5000   104.7051     9.0705     0.0027     2.5276     0.2566   -70.4295  1262.4969    11.4689    11.1400    11.0451
  969.0000   108.0003     9.0718     0.0102     2.5253     0.2548   -70.4186  1259.5920    11.4728    11.1624    11.0496
  969.5000   106.5133     9.0728     0.0087     2.5160     0.2522   -70.4077  1256.6871    11.4767    11.2997    11.2065
  970.0000   103.5167     9.0737     0.0072     2.5196     0.2528   -70.3969  1253.7822    11.4806    11.3236    11.3656
  970.5000   101.2503     9.0747     0.0072     2.5257     0.2578   -70.3859  1252.9596    11.4846    11.6196    11.5269
  971.0000   100.0878     9.0757     0.0073     2.5228     0.2612   -70.6734  1253.7247    11.4885    11.7827    11.3749
  971.5000    99.8102     9.0767     0.0027     2.5176     0.2589   -70.6617  1254.4897    11.4924    11.4456    11.3796
  972.0000   100.4373     9.0779    -0.0004     2.5260     0.2543   -70.6508  1255.2549    11.4964    11.3149    11.3843
  972.5000   101.0578     9.0635     0.0012     2.5321     0.2524   -70.6399  1256.0200    11.5003    11.3182    11.3889
  973.0000   101.0840     9.0645     0.0075     2.5390     0.2508   -70.6290  1256.7850    11.5042    11.3453    11.5506
  973.5000   100.5158     9.0499     0.0138     2.5451     0.2498   -70.6180  1257.5502    11.3513    11.5052    11.5554
  974.0000    99.6505     9.0358     0.0188     2.5489     0.2551   -70.6071  1258.3153    11.2006    11.8023    11.5601
  974.5000    97.2992     9.0368     0.0140     2.5475     0.2566   -70.5962  1259.0803    10.7533    11.8321    11.7242
  975.0000    97.9198     9.0377     0.0078     2.5431     0.2519   -70.5853  1259.8455    10.4661    11.9715    11.7290
  975.5000   100.9698     9.0234     0.0032     2.5386     0.2531   -70.5744  1260.6106    10.1866    12.0028    11.8955
  976.0000   101.8354     9.0090     0.0017     2.5357     0.2553   -70.5635  1261.3756     9.9146    12.1721    12.0644
  976.5000    99.4907     9.0100    -0.0045     2.5343     0.2574   -70.5525  1262.1407     9.6498    12.5138    12.4043
  977.0000    98.6254     8.9955    -0.0075     2.5208     0.2609   -70.5416  1262.9059     9.3921    12.6903    12.9294
  977.5000    99.8403     8.9812    -0.0106     2.5051     0.2635   -70.5308  1263.6709     9.6564    12.8369    12.7589
  978.0000   104.3241     8.9822    -0.0074     2.5037     0.2626   -70.5199  1264.4360    10.0652    12.6337    12.2507
  978.5000   107.9164     8.9678     0.0051     2.5076     0.2622   -70.5090  1265.1338    10.4912    11.9941    11.7628
  979.0000   110.0228     8.9688     0.0131     2.5114     0.2613   -70.4980  1265.1895    10.7865    11.8035    11.6069
  979.5000   109.7518     8.9851     0.0149     2.5146     0.2574   -70.4871  1265.2452    11.2431    11.5179    11.6124
  980.0000   108.2921     9.0171     0.0162     2.5193     0.2603   -70.4762  1265.3009    11.5595    11.5854    11.7773
  980.5000   106.8324     9.0334     0.0147     2.5238     0.2627   -70.4653  1265.3566    11.8848    11.8443    11.7821
  981.0000   105.3493     9.0498     0.0117     2.5268     0.2633   -70.4544  1265.4122    12.0530    11.8476    11.7870
  981.5000   103.8762     9.0508     0.0086     2.5299     0.2627   -70.4434  1265.4680    11.8930    11.8170    11.7918
  982.0000   102.4598     9.0517     0.0056     2.5262     0.2598   -70.4325  1265.5237    11.8970    11.3769    11.7966
  982.5000   101.2973     9.0527     0.0025     2.5158     0.2555   -70.4216  1265.5793    11.5793    11.2254    11.6403
  983.0000   100.1348     9.0537    -0.0021     2.5091     0.2517   -70.4107  1265.6350    11.2701    11.2288    11.3314
  983.5000   100.4581     9.0547    -0.0052     2.5054     0.2504   -70.4663  1265.6907    11.2739    11.2318    11.1820
  984.0000   102.5645     9.0557    -0.0067     2.5093     0.2526   -70.6877  1265.7465    11.2778    11.2349    11.1866
  984.5000   103.4823     9.0567    -0.0082     2.5154     0.2532   -70.6756  1265.8021    11.2817    11.2380    11.0391
  985.0000   104.4000     9.0576    -0.0065     2.5185     0.2535   -70.6647  1265.8578    11.2855    11.2410    11.0436
  985.5000   105.0205     9.0586    -0.0065     2.5110     0.2556   -70.9527  1265.9135    11.1357    11.2442    11.2004
  986.0000   105.3438     9.0596    -0.0064     2.5051     0.2580   -70.9405  1265.9691    11.2933    11.2472    11.2050
  986.5000   105.6672     9.0452    -0.0095     2.5142     0.2509   -70.9296  1266.0249    11.2971    11.2503    11.2096
  987.0000   105.3729     9.0309    -0.0110     2.5068     0.2446   -70.9186  1266.0806    11.4569    11.2916    11.3687
  987.5000   104.1853     9.0318    -0.0125     2.5076     0.2381   -70.9073  1266.1362    11.6190    11.4116    11.6890
  988.0000   103.3749     9.0329    -0.0108     2.5130     0.2378   -70.5992  1266.1919    11.9460    11.4147    11.6938
  988.5000   103.0973     9.0187    -0.0092     2.5138     0.2399   -70.5883  1266.2476    11.9501    11.4582    11.8598
  989.0000   104.3188     9.0197    -0.0076     2.5109     0.2408   -70.8764  1266.3033    11.7915    11.7799    11.8646
  989.5000   107.0195     9.0207    -0.0091     2.5072     0.2361   -70.8641  1266.3590    11.6350    12.0668    12.0331
  990.0000   109.1259     9.0216    -0.0106     2.5050     0.2374   -70.8532  1266.4147    11.3242    12.0702    12.2039
  990.5000   107.0719     9.0226    -0.0136     2.5020     0.2426   -70.8422  1266.4703    10.1517    12.1184    12.3771
  991.0000   105.3150     9.0236    -0.0151     2.4973     0.2472   -71.1305  1266.5260    10.1552    12.2892    12.3822
  991.5000   102.6666     9.0246    -0.0166     2.4933     0.2509   -71.1181  1266.5818    10.2988    12.5864    12.5580
  992.0000   100.9097     9.0100    -0.0103     2.5024     0.2453   -71.1072  1266.6389    10.5887    12.7633    12.5631
  992.5000    99.7375     9.0112    -0.0040     2.5115     0.2399   -71.0119  1265.6250    10.4481    12.5928    12.5683
  993.0000    99.1790     9.0122     0.0007     2.5199     0.2405   -70.7877  1264.5833    10.1691    12.5476    12.4026
