~VERSION INFORMATION
 VERS.                2.0:   CWLS LOG ASCII STANDARD - VERSION 2.0
 WRAP.                 NO:   ONE LINE PER DEPTH STEP
~WELL INFORMATION
#MNEM.UNIT      DATA TYPE    INFORMATION
#----------   ------------   ------------------------------
 STRT.F          200.0000:   START DEPTH
 STOP.F         3160.0000:   STOP DEPTH
 STEP.F            0.5000:   STEP LENGTH
 NULL.          -999.2500:   NO VALUE
 COMP.    FENIX & SCISSON:   COMPANY
 WELL. FENIX NPR 3 "AX" #72-3:   WELL
 FLD .             TEAPOT:   FIELD
 LOC .       S3 T38N R78W:   LOCATION
 CNTY.            NATRONA:   COUNTY
 STAT.            WYOMING:   STATE
 CTRY. UNITED STATES OF AMERICA:   COUNTRY
 SRVC.           BIRDWELL:   SERVICE COMPANY
 DATE.        10-JAN-1978:   LOGDATE
 API .     49025105530000:   API NUMBER
~CURVE INFORMATION
#MNEM.UNIT       API CODE    CURVE DESCRIPTION
#----------   ------------   ------------------------------
 DEPT.F                  :   
 CALD.IN     45 280 60 00:   CALIPER FROM DENSITY LOG
 GRD .GAPI   45 310 01 00:   GAMMA RAY FROM DENSITY LOG
 DEN .LBS    45 635 01 00:   BUCK DENSITY
 CORR.G/C3   45 356 01 00:   DENSITY CORRECTION
 SPR .MV     07 010 01 00:   SPONTANEOUS POTENTIAL
 ILD .OHMM   07 120 46 00:   DEEP INDUCTION RESISTIVITY
 ILM .OHMM   07 120 44 00:   INDUCTION LOG MEDIUM RESISTIVITY
~PARAMETER INFORMATION
#MNEM.UNIT          VALUE    DESCRIPTION
#----------   ------------   ------------------------------
 EKB .F         5164.0000:   Kelly bushing
 EGL .F         5153.0000:   Ground level
 TD  .F         3157.0000:   Total depth
 DATE.        10-JAN-1978:   Date logged
 CLNT.            A2DTECH:   Client Code
 SL  . 900' FNL & 900' FEL:   Surface Location
 PD  .                 GL:   Permanent Datum
 EPD .F              5153:   Elevation Permanent Datum
 LMF .                 KB:   Log Measured From
 DMF .                 KB:   Drilling Measured From
 DAPD.F                11:   Feet Above Permanent Datum
 DD  .F              3156:   Depth driller
 DL  .F              3157:   Depth logger
 BLI .F              3157:   Bottom log interval
 TLI .F               200:   Top log interval
 CS1 .IN            8.625:   Casing size
 CBD1.      8.625" @ 222':   Casing driller 1
 CBL1.F               220:   Casing logger 1
 BS1 .IN            7.875:   Bit size
 BSD1.F              3156:   Depth drilled with bit1
 DFT .                KCL:   Type fluid in hole
 DFD .                8.5:   Density
 DFV .                 36:   Viscosity
 DFPH.                 10:   pH
 DFL .                8.8:   Fluid loss
 MSS .           FLOWLINE:   Source of sample
 RMS .OHMM            1.4:   Rm
 MST .F                66:   Rm Meas. temp.
 RMF .OHMM            .85:   Rmf
 MFST.F                74:   Rmf Meas. temp.
 RMC .OHMM            1.4:   Rmc
 MCST.F                72:   Rmc Meas. temp.
 MFSS.               MEAS:   Source Rmf.
 MCSS.               MEAS:   Source Rmc.
 RMB .OHMM            .83:   Rm. at BHT
 BHT .F               112:   BHT.
 TCS .HRS               4:   Time Circ. stopped
 MRT .F               112:   Maximum recorded temp.
 LUN .               2958:   Logging unit number
 LUL .             CASPER:   Logging unit location
 ENGI.            POINTER:   Recorded By
 WITN.         HARRINGTON:   Witnessed by
 ORIG.           5" PRINT:   Origin of data
 UWI .     49025105530000:   Unique Well ID
 DICO. A2D TECHNOLOGIES, INC.:   Digitizing Company
~OTHER INFORMATION
~A   DEPT     CALD        GRD          DEN     CORR        SPR        ILD        ILM   
# ...
 2156.5000     9.4247   119.3252     2.4526     0.0492   -54.1253    15.4997    17.6157
 2157.0000     9.4250   117.3464     2.4556     0.0492   -54.3281    15.4969    18.1233
 2157.5000     9.4254   114.3770     2.4637     0.0492   -54.3321    15.4946    18.4567
 2158.0000     9.4257   111.2086     2.4637     0.0472   -54.9325    15.3498    18.6240
 2158.5000     9.4261   109.0314     2.4657     0.0472   -54.9365    15.4889    18.6212
 2159.0000     9.4264   105.8629     2.4647     0.0413   -54.7417    15.4861    18.6178
 2159.5000     9.4664   103.2891     2.4667     0.0353   -54.7457    15.4833    18.9596
 2160.0000     9.4469   102.6978     2.4667     0.0353   -54.1533    15.9140    19.8491
 2160.5000     9.4671   102.8995     2.4637     0.0153   -54.7537    15.6208    20.5899
 2161.0000     9.4476   104.6874     2.4657     0.0093   -54.7577    15.9082    21.3583
 2161.5000     9.4678   106.6735     2.4737     0.0073   -54.5629    16.3507    21.5519
 2162.0000     9.4681   108.4615     2.4737     0.0074   -54.3681    16.8055    22.3562
 2162.5000     9.4684   109.2581     2.4528     0.0094   -54.3721    17.1147    23.1904
 2163.0000     9.4490   113.4253     2.4438     0.0114   -54.1773    17.2698    23.8354
 2163.5000     9.4493   116.6013     2.4338     0.0154   -54.1813    17.1078    24.0514
 2164.0000     9.4496   117.5963     2.4318     0.0134   -53.5890    17.2634    24.0469
 2164.5000     9.4500   117.2033     2.4328     0.0274   -53.9905    17.2603    23.6038
 2165.0000     9.4503   116.0173     2.4278     0.0334   -53.9945    17.0990    23.5994
 2165.5000     9.4507   114.2364     2.4258     0.0435   -53.9985    16.7840    22.9523
 2166.0000     9.4312   112.4555     2.4308     0.0455   -54.0025    16.7809    22.7377
 2166.5000     9.4315   111.6659     2.4458     0.0495   -54.4041    16.7778    21.1195
 2167.0000     9.4319   111.4712     2.4549     0.0495   -55.9985    16.7748    20.1657
 2167.5000     9.4520   112.2679     2.4629     0.0495   -56.4001    16.6180    19.4331
 2168.0000     9.4524   112.8664     2.4669     0.0395   -56.6029    16.4627    19.4295
 2168.5000     9.4527   113.2663     2.4719     0.0235   -56.6069    16.1595    18.8968
 2169.0000     9.4531   112.6736     2.4819     0.0116   -56.6109    16.1565    18.7202
 2169.5000     9.4534   110.2976     2.4879     0.0096   -56.8137    16.1535    18.5452
 2170.0000     9.4537   107.9216     2.4849     0.0096   -56.8177    16.1506    18.5418
 2170.5000     9.4342   102.5728     2.4849     0.0076   -56.8217    16.4477    18.7098
 2171.0000     9.4544    99.2051     2.4819     0.0076   -56.8257    16.4447    19.4080
 2171.5000     9.4548    95.0442     2.4769     0.0076   -56.8297    16.5937    19.5845
 2172.0000     9.4551    93.2619     2.4760     0.0117   -56.8337    16.5906    19.9447
 2172.5000     9.4554    92.6697     2.4690     0.0257   -56.6389    16.4356    19.9410
 2173.0000     9.4558    97.2355     2.4630     0.0297   -56.8417    16.2821    19.7547
 2173.5000     9.4363   105.3701     2.4590     0.0337   -56.8457    16.1299    19.9337
 2174.0000     9.4366   108.5466     2.4610     0.0377   -56.6501    16.1270    19.9300
 2174.5000     9.4370   112.5164     2.4690     0.0357   -55.8589    15.9763    19.9263
 2175.0000     9.4373   112.5200     2.4710     0.0357   -56.0617    15.8271    20.1068
 2175.5000     9.4377   112.3253     2.4700     0.0377   -56.2645    15.5356    20.1031
 2176.0000     9.4380   111.1390     2.4680     0.0438   -56.4673    15.8213    19.9153
 2176.5000     9.4383   108.7626     2.4630     0.0458   -56.6701    15.2466    20.0957
 2177.0000     9.4387   105.5930     2.4631     0.0378   -56.6741    15.2439    19.9079
 2177.5000     9.4390   104.2082     2.4681     0.0318   -56.6781    15.2411    19.0090
 2178.0000     9.4394   104.6084     2.4831     0.0278   -56.6821    15.2389    18.8314
 2178.5000     9.4397   106.9923     2.4901     0.0238   -56.6861    14.9582    17.6532
 2179.0000     9.4400   107.3904     2.4831     0.0279   -56.6901    14.8185    17.4883
 2179.5000     9.4206   110.3690     2.4821     0.0339   -56.6941    14.8158    17.3249
 2180.0000     9.4209   114.9343     2.4811     0.0379   -56.4993    14.8131    16.8500
 2180.5000     9.4411   116.7229     2.4541     0.0499   -56.5033    14.9473    16.8470
 2181.0000     9.4414   116.5282     2.4531     0.0559   -56.5073    14.9446    16.5367
 2181.5000     9.4417   113.1600     2.4542     0.0659   -56.3125    14.9419    16.6865
 2182.0000     9.4421   111.1802     2.4572     0.0679   -56.5153    15.0773    16.5306
 2182.5000     9.4424   110.1920     2.4602     0.0679   -56.1217    14.7996    16.3762
 2183.0000     9.4428   108.2121     2.4622     0.0739   -55.7281    14.9327    15.9073
 2183.5000     9.4431   106.2321     2.4672     0.0760   -55.5333    14.7630    15.6899
 2184.0000     9.4236   105.4423     2.4602     0.0800   -55.7361    14.5953    15.4755
 2184.5000     9.4438   108.6195     2.4522     0.0820   -55.5413    14.5197    15.2640
 2185.0000     9.4441   113.7819     2.4532     0.0740   -55.5453    14.5165    15.0405
 2185.5000     9.4445   113.9839     2.4602     0.0540   -55.7481    14.3810    14.9714
 2186.0000     9.4051   112.2022     2.4652     0.0301   -55.9509    14.3784    14.9025
 2186.5000     9.4452   110.0238     2.4802     0.0241   -56.5513    14.6428    14.8949
 2187.0000     9.4455   108.8372     2.4763     0.0201   -56.5553    14.6401    14.8922
 2187.5000     9.4260   108.6424     2.4503     0.0201   -56.3605    14.5034    14.8894
 2188.0000     9.4065   109.4394     2.4513     0.0221   -56.1657    14.3679    14.5007
 2188.5000     9.4465   108.6495     2.4543     0.0201   -56.1697    14.3653    14.3653
 2189.0000     9.4469   107.4628     2.4633     0.0222   -56.1737    14.3627    14.3627
 2189.5000     9.4472   105.6810     2.4763     0.0282   -56.3765    14.0983    14.0983
 2190.0000     9.4475   104.4942     2.4763     0.0322   -55.7833    14.0957    14.0957
 2190.5000     9.4479   102.9107     2.4753     0.0442   -56.1849    13.7095    13.7095
 2191.0000     9.4284   102.9142     2.4723     0.0462   -56.1889    13.4570    13.4570
 2191.5000     9.4486   102.7193     2.4724     0.0502   -56.3917    13.4546    13.4546
 2192.0000     9.4291   102.7228     2.4764     0.0602   -56.5945    13.4522    13.4522
 2192.5000     9.4293   103.7183     2.4794     0.0682   -56.3997    13.4497    13.4497
 2193.0000     9.4695   104.9121     2.4694     0.0782   -56.4037    13.3242    13.3242
 2193.5000     9.4698   105.9075     2.4684     0.0862   -56.6065    13.3217    13.3217
 2194.0000     9.4702   106.7046     2.4734     0.0862   -56.6105    13.3193    13.3193
 2194.5000     9.4904   106.7060     2.4794     0.0863   -56.4157    13.3169    13.3169
 2195.0000     9.4907   106.3149     2.4844     0.0883   -56.4197    13.4376    13.4376
 2195.5000     9.4910   104.7312     2.4844     0.0883   -56.6225    13.5593    13.5593
 2196.0000     9.4914   104.3380     2.4764     0.0903   -56.0301    13.6822    13.6822
 2196.5000     9.4917   104.3415     2.4784     0.0803   -56.4317    13.8061    13.8061
 2197.0000     9.4921   104.1466     2.4845     0.0803   -56.4357    13.8036    13.8036
 2197.5000     9.4924   103.9501     2.5044     0.0804   -56.4397    13.8011    13.8011
 2198.0000     9.4729   101.3743     2.5144     0.0804   -56.4437    13.9262    13.9262
 2198.5000     9.4733    97.6087     2.5075     0.0744   -56.4477    14.0523    14.0523
 2199.0000     9.4736    95.2312     2.4945     0.0624   -56.4517    14.0498    14.0498
 2199.5000     9.4936    92.8536     2.5205     0.0584   -56.4557    14.0472    14.0472
 2200.0000     9.4940    91.8650     2.5305     0.0385   -56.4597    14.0447    14.0447
 2200.5000     9.4943    91.8685     2.5287     0.0245   -56.4640    14.0421    14.0421
 2201.0000     9.4940    94.0487     2.5285     0.0205   -56.4600    14.0431    14.0431
 2201.5000     9.4937    95.8348     2.5285     0.0205   -56.4600    14.0422    14.0422
