~VERSION INFORMATION
 VERS.                2.0:   CWLS LOG ASCII STANDARD - VERSION 2.0
 WRAP.                 NO:   ONE LINE PER DEPTH STEP
~WELL INFORMATION
#MNEM.UNIT      DATA TYPE    INFORMATION
#----------   ------------   ------------------------------
 STRT.F            2.0000:   START DEPTH
 STOP.F         3008.0000:   STOP DEPTH
 STEP.F            0.5000:   STEP LENGTH
 NULL.          -999.2500:   NO VALUE
 COMP.       FLUOR DANIEL:   COMPANY
 WELL.   FLUOR "X" #25-23:   WELL
 FLD .          N.P.R. #3:   FIELD
 LOC .      S23 T38N R78W:   LOCATION
 CNTY.            NATRONA:   COUNTY
 STAT.            WYOMING:   STATE
 CTRY. UNITED STATES OF AMERICA:   COUNTRY
 SRVC.      WESTERN ATLAS:   SERVICE COMPANY
 DATE.        21-APR-1995:   LOGDATE
 API .     49025227090000:   API NUMBER
~CURVE INFORMATION
#MNEM.UNIT       API CODE    CURVE DESCRIPTION
#----------   ------------   ------------------------------
 DEPT.F                  :   
 GRR .GAPI   07 310 01 00:   GAMMA RAY FROM RESISTIVITY
 TENR.LBS    07 635 01 00:   TENSION FROM RESISTIVITY
 RILD.OHMM   07 120 46 00:   RESISTIVITY INDUCTION LOG DEEP
 RILM.OHMM   07 120 44 00:   RESISTIVITY INDUCTION LOG MEDIUM
~PARAMETER INFORMATION
#MNEM.UNIT          VALUE    DESCRIPTION
#----------   ------------   ------------------------------
 EKB .F         5285.0000:   Kelly bushing
 EGL .F         5275.0000:   Ground level
 EDF .F         5284.0000:   Drilling floor
 TD  .F         3000.0000:   Total depth
 CLNT.            A2DTECH:   Client Code
 SL  . 2343' FSL & 1264' FWL:   Surface Location
 PD  .                 GL:   Permanent Datum
 EPD .F              5275:   Elevation Permanent Datum
 DMF .                 KB:   Drilling Measured From
 DAPD.                 10:   Feet Above Permanent Datum
 DATE.        21-APR-1995:   Date Logged [DD-MMM-YYYY]
 DD  .F              3000:   Depth driller
 DL  .F              3000:   Depth logger
 BLI .F              2999:   Bottom log interval
 TLI .F                 0:   Top log interval
 CS1 .IN            9.625:   Casing size
 CBD1.       9.625" @ 53':   Casing driller 1
 CBL1.F                53:   Casing logger 1
 BS1 .IN             6.25:   Bit size
 BSD1.F              3000:   Depth drilled with bit1
 DFT .                OIL:   Type fluid in hole
 MRT .F               114:   Maximum recorded temp.
 LUN .            HL 6530:   Logging unit number
 LUL .             CASPER:   Logging unit location
 ENGI.        VERN RAUTIO:   Recorded By
 WITN.        GARY STRONG:   Witnessed by
 ORIG.         2.5" PRINT:   Origin of data
 UWI .     49025227090000:   Unique Well ID
 DICO. A2D TECHNOLOGIES,INC.:   Digitizing Company
 LMF .                 KB:   Log Measured From
~OTHER INFORMATION
~A    DEPT      GRR      TENR       RILD       RILM   
# ...
 1973.0000   121.3258    10.9052     6.9425     6.9432
 1973.5000   117.0507    11.4626     6.9394     6.9399
 1974.0000   111.8272    12.0198     6.9363     7.0306
 1974.5000   112.3953    12.5772     7.0277     6.9329
 1975.0000   117.1085    13.1579     7.1203     6.9298
 1975.5000   119.4628    13.7428     7.0163     6.9267
 1976.0000   119.4413    14.3274     6.9235     6.9235
 1976.5000   116.9207    14.9123     6.9202     6.9202
 1977.0000   115.9056    15.4971     6.9169     6.9169
 1977.5000   115.6588     1.4620     6.9136     6.9136
 1978.0000   114.9852   -12.5730     7.0046     7.0046
 1978.5000   114.1171   -11.9247     7.0007     7.0967
 1979.0000   114.7015   -26.0234     6.9975     7.0928
 1979.5000   115.8759   -40.0585     7.0897     7.0896
 1980.0000   117.1287   -39.4737     7.0865     7.0865
 1980.5000   119.4047   -36.4772     7.0833     7.0833
 1981.0000   119.0084   -23.6843     7.0799     7.0799
 1981.5000   117.6676   -23.0994     7.1336     7.0766
 1982.0000   117.0254   -22.5146     7.1967     7.0732
 1982.5000   118.7898   -21.9298     7.2646     7.0699
 1983.0000   119.3746   -35.9649     7.3066     7.0665
 1983.5000   119.9587   -35.3118     7.4564     7.0625
 1984.0000   117.8993    -5.5147     7.4523     7.0598
 1984.5000   114.6372    -4.9573     7.4489     7.0562
 1985.0000   114.6313    -4.3859     7.4455     7.1493
 1985.5000   116.4131    -3.8011     7.4422     7.2434
 1986.0000   120.5182    -6.8190     7.4388     7.1426
 1986.5000   121.6932   -17.3476     7.4352     7.0431
 1987.0000   120.5071   -16.6667     7.4317     7.0398
 1987.5000   119.8869   -16.0818     7.4282     7.0364
 1988.0000   119.1111   -15.3968     7.4247     7.0830
 1988.5000   116.5899   -14.8394     7.3213     7.1256
 1989.0000   113.5539   -14.2820     7.2187     7.2189
 1989.5000   111.2931   -13.7245     7.2155     7.2157
 1990.0000   112.2116   -13.1579     7.2122     7.2124
 1990.5000   116.9258   -12.5731     7.2089     7.2091
 1991.0000   119.8701   -11.9884     7.2057     7.2057
 1991.5000   121.6345   -11.4035     7.2024     7.2023
 1992.0000   120.1812   -10.8187     7.2973     7.1989
 1992.5000   119.2625   -10.2339     7.3935     7.1955
 1993.0000   119.2566    -9.5441     7.3896     7.1921
 1993.5000   119.2497    -8.9867     7.3861     7.1881
 1994.0000   114.5244    -8.4294     7.3826     7.2828
 1994.5000   113.3389    -7.8720     7.3784     7.3791
 1995.0000   114.5526    -7.3099     7.3751     7.3755
 1995.5000   118.2222    -6.7251     7.3718     7.3791
 1996.0000   119.9764    -6.1404     7.3684     7.4867
 1996.5000   120.3964    -5.5556     7.3651     7.5678
 1997.0000   119.2094    -4.9707     7.4621     7.5637
 1997.5000   115.6628    -4.3859     7.5605     7.5601
 1998.0000   109.7576    -3.6916     7.5566     7.5559
 1998.5000   107.9821    -3.1342     7.5530     7.5525
 1999.0000   108.5666    -2.5768     7.5986     7.5490
 1999.5000   109.2693    -2.0194     7.7530     7.5456
 2000.0000   109.7369    -1.4619     7.7490     7.5422
 2000.5000   109.7345   -15.6433     7.7470     7.7462
 2001.0000   110.3245   -37.4748     7.7450     7.7431
 2001.5000   113.2743   -73.1657     7.7430     7.7394
 2002.0000   113.8643   -72.7470     7.7410     7.7364
 2002.5000   113.8643   -43.0885     7.7389     7.7334
 2003.0000   113.6067   -28.0500     7.7368     7.7304
 2003.5000   113.9412   -13.0114     7.7347     7.7273
 2004.0000   115.6342   -12.5731     7.7326     7.7242
 2004.5000   115.6342   -12.1345     7.7301     7.7211
 2005.0000   117.9941   -30.4587     7.7281     7.7179
 2005.5000   118.6303   -40.5763     7.7261     7.7148
 2006.0000   119.1740   -25.4386     7.7241     7.7117
 2006.5000   118.7791   -10.3801     7.7221     7.7080
 2007.0000   116.2671    -9.8711     7.7200     7.7050
 2007.5000   113.2743    -9.4523     7.7179     7.7020
 2008.0000   116.8142    -9.0336     7.7523     7.6990
 2008.5000   121.5339    -8.6149     7.8671     7.6960
 2009.0000   123.8938    -8.1872     7.9234     7.6929
 2009.5000   121.1625    -7.7485     7.9209     7.6898
 2010.0000   115.4966    -7.3099     7.9189     7.6866
 2010.5000   114.0274    -6.8714     7.9168     7.6835
 2011.0000   112.6960    -6.4327     7.9148     7.6804
 2011.5000   110.9145    -5.9942     7.9127     7.6767
 2012.0000   112.6844    -5.4746     7.9307     7.6737
 2012.5000   114.4543     9.5640     8.0166     7.8814
 2013.0000   115.6342    -4.6372     8.0574     7.9858
 2013.5000   111.6292    -4.2185     8.1212     8.2056
 2014.0000   103.8348    -3.7998     8.1186     8.3105
 2014.5000   105.4732    -3.3625     8.1165     8.3070
 2015.0000   109.1645    -2.9240     8.1144     8.3036
 2015.5000   110.9145    -6.5535     8.1123     8.3002
 2016.0000   109.7345   -22.1229     8.1102     8.2968
 2016.5000   110.3245   -37.6980     8.1080     8.2929
 2017.0000   109.7345   -22.1683     8.1058     8.2897
 2017.5000   108.5546    -0.6595     8.1036     8.2865
 2018.0000   108.5546    -0.2408     8.1014     8.0619
 2018.5000   109.3894     0.1780     8.0992     7.9467
 2019.0000   111.2350     0.5967     8.0966     7.8401
 2019.5000   113.2743     1.0234     8.0946     7.8370
 2020.0000   114.4543     1.4620     8.0925     7.8338
 2020.5000   115.0443   -12.7671     8.0904     7.8306
 2021.0000   114.4543   -26.9683     7.9712     7.8274
 2021.5000   113.2743   -32.5791     7.8699     7.8237
 2022.0000   112.0944   -55.2632     7.8678     7.8207
 2022.5000   110.6538   -25.5028     7.8657     7.7125
 2023.0000   108.1359   -10.4642     7.8635     7.7095
 2023.5000   105.0147     4.5743     7.6509     7.7064
 2024.0000   108.5546     4.9931     7.7533     7.7033
 2024.5000   110.9145     5.4118     7.8570     7.7002
 2025.0000   113.4717     5.8480     7.8549     7.6970
 2025.5000   115.7593     6.2865     7.8529     7.6939
 2026.0000   115.2327     6.7251     7.8508     7.6908
 2026.5000   113.2743     7.1637     7.8486     7.5837
 2027.0000   113.2743     7.6023     7.8465     7.5808
 2027.5000   114.4543     8.0410     7.8444     7.5778
 2028.0000   114.4543     8.5521     7.8423     7.5749
 2028.5000   114.4543     8.9708     7.8398     7.5719
 2029.0000   116.4191     9.3896     7.8378     7.5689
 2029.5000   119.4554     9.8083     7.8358     7.5658
 2030.0000   120.3540    -4.3930     7.8337     7.5627
 2030.5000   112.7018   -18.5942     7.8317     7.5596
 2031.0000   109.7345   -18.1286     7.8295     7.5566
 2031.5000   112.6844   -17.6901     7.8274     7.5530
 2032.0000   113.2743    11.9883     7.8253     7.6530
 2032.5000   110.9046    12.4269     7.8232     7.6500
 2033.0000   109.1445    12.9486     7.7154     7.6471
 2033.5000   110.0473   -15.8726     7.7134     7.6441
 2034.0000   115.1304   -15.4538     7.7115     7.6410
 2034.5000   117.9941   -15.0351     7.6058     7.6379
 2035.0000   118.5841   -14.6164     7.6038     7.6347
 2035.5000   119.1740   -14.1813     7.6017     7.5872
 2036.0000   119.1740   -13.7427     7.5997     7.5259
 2036.5000   116.7725     1.3158     7.5976     7.3213
 2037.0000   114.2617    16.3743     7.5956     7.1229
 2037.5000   111.7504    16.8128     7.4368     6.9298
 2038.0000   109.2390    17.2515     7.2888     6.9271
 2038.5000   108.5546    17.7637     7.0922     6.8313
 2039.0000   110.9145    18.1824     6.9950     6.9218
 2039.5000   116.2242    18.6011     6.9896     6.9631
 2040.0000   118.5841    19.0198     7.0041     7.1382
 2040.5000   117.9576     4.8186     7.2152     7.2980
 2041.0000   116.8142     5.2631     7.4326     7.3481
 2041.5000   117.9941     5.7018     7.6165     7.4924
 2042.0000   117.9941     6.1404     7.7830     7.5910
 2042.5000   117.9941     6.5789     7.7805     7.6916
 2043.0000   115.6342     7.0176     7.7785     7.6886
 2043.5000   110.9145    -7.0797     7.7765     7.6856
 2044.0000   113.2743    -6.6610     7.7745     7.6825
 2044.5000   115.6342   -20.9065     7.7713     7.6552
 2045.0000   116.8142   -20.4434     7.5627     7.5390
 2045.5000   117.9941    -5.4048     7.5607     7.4245
