~VERSION INFORMATION
 VERS.                2.0:   CWLS LOG ASCII STANDARD - VERSION 2.0
 WRAP.                 NO:   ONE LINE PER DEPTH STEP
~WELL INFORMATION
#MNEM.UNIT      DATA TYPE    INFORMATION
#----------   ------------   ------------------------------
 STRT.F            1.5000:   START DEPTH
 STOP.F          985.0000:   STOP DEPTH
 STEP.F            0.5000:   STEP LENGTH
 NULL.          -999.2500:   NO VALUE
 COMP.       FLUOR DANIEL:   COMPANY
 WELL.  FLUOR 41 "X" #1-2:   WELL
 FLD .          N.P.R. #3:   FIELD
 LOC .       S2 T38N R78W:   LOCATION
 CNTY.            NATRONA:   COUNTY
 STAT.            WYOMING:   STATE
 CTRY. UNITED STATES OF AMERICA:   COUNTRY
 SRVC.     ATLAS WIRELINE:   SERVICE COMPANY
 DATE.        09-AUG-1994:   LOGDATE
 API .     49025226450000:   API NUMBER
~CURVE INFORMATION
#MNEM.UNIT       API CODE    CURVE DESCRIPTION
#----------   ------------   ------------------------------
 DEPT.F                  :   
 GRR .GAPI   07 310 01 00:   GAMMA RAY FROM RESISTIVITY
 TENR.LBS    07 635 01 00:   TENSION FROM RESISTIVITY
 RILD.OHMM   07 120 46 00:   INDUCTION LOG DEEP RESISTIVITY
 RILM.OHMM   07 120 44 00:   INDUCTION LOG MEDIUM RESISTIVITY
~PARAMETER INFORMATION
#MNEM.UNIT          VALUE    DESCRIPTION
#----------   ------------   ------------------------------
 EKB .F         5143.0000:   Kelly bushing
 EGL .F         5133.0000:   Ground level
 EDF .F         5142.0000:   Drilling floor
 TD  .F          970.0000:   Total depth
 CLNT.            A2DTECH:   Client Code
 PD  .                 GL:   Permanent Datum
 EPD .F              5133:   Elevation Permanent Datum
 LMF .                 KB:   Log Measured From
 DMF .                 KB:   Drilling Measured From
 DAPD.F                10:   Feet Above Permanent Datum
 DATE.        09-AUG-1994:   Date Logged [DD-MMM-YYYY]
 DD  .F               970:   Depth driller
 DL  .F               970:   Depth logger
 BLI .F               962:   Bottom log interval
 TLI .F                 0:   Top log interval
 CS1 .IN            9.625:   Casing size
 CBD1.       9.625" @ 56':   Casing driller 1
 CBL1.F                59:   Casing logger 1
 BS1 .IN             8.75:   Bit size
 BSD1.F               970:   Depth drilled with bit1
 DFT .                AIR:   Type fluid in hole
 MRT .F                94:   Maximum recorded temp.
 LUN .            HL 6530:   Logging unit number
 LUL .             CASPER:   Logging unit location
 ENGI.      PAT RASMUSSEN:   Recorded By
 WITN.        GARY STRONG:   Witnessed by
 ORIG.           5" PRINT:   Origin of data
 UWI .     49025226450000:   Unique Well ID
 DICO. A2D TECHNOLOGIES, INC.:   Digitizing Company
 SL  . 173' FNL & 2204' FWL:   Surface Location
~OTHER INFORMATION
~A    DEPT      GRR      TENR       RILD       RILM   
# ...
  731.5000   153.7100   -15.4362     4.4985     4.6637
  732.0000   152.4843   -15.0603     4.4658     4.5706
  732.5000   151.8657   -14.6203     4.4951     4.6333
  733.0000   153.3715   -14.2577     4.5567     4.7296
  733.5000   156.7628   -21.5159     4.6195     4.9300
  734.0000   160.6319   -21.0626     4.8147     5.5100
  734.5000   155.7614   -13.1698     5.0889     5.7430
  735.0000   152.7149   -12.3010     5.5852     6.1556
  735.5000   147.2404    -4.8239     6.2671     6.6906
  736.0000   147.5322     3.0689     6.6705     6.8781
  736.5000   148.1355     3.4315     6.8572     6.8752
  737.0000   150.5437    11.3242     6.9029     6.9210
  737.5000   146.8873    11.6868     6.9000     6.9671
  738.0000   145.0576    12.0494     6.9459     7.0135
  738.5000   145.6529    12.4247     6.9921     7.0602
  739.0000   143.5139    12.8012     7.0387     7.0572
  739.5000   143.1987     5.6071     7.0849     7.1043
  740.0000   143.5307     6.0604     7.0334     7.1515
  740.5000   145.2969    -1.1295     7.0802     7.1485
  741.0000   148.3201    -0.7446     7.0286     7.0887
  741.5000   154.3782    -7.9121     6.9769     7.0370
  742.0000   157.7050    -7.5301     6.9262     6.9449
  742.5000   157.3898    -7.1536     6.9239     6.8465
  743.0000   150.8628    -6.7336     6.9215     6.8442
  743.5000   147.9553    -6.3710     6.9192     6.7938
  744.0000   147.0361     1.5217     6.9169     6.8396
  744.5000   151.5739    -5.6458     6.9140     6.8368
  745.0000   152.4756    -5.2711     6.9117     6.8829
  745.5000   151.2470    -4.8299     6.8138     6.9281
  746.0000   151.5711    -4.4673     6.7172     6.8777
  746.5000   153.0446    -4.1047     6.5304     6.6320
  747.0000   151.5126     3.7880     6.2593     6.2770
  747.5000   150.2870     4.1506     6.0022     6.0178
  748.0000   151.4892     4.5181     5.8760     5.9325
  748.5000   156.6369     4.9665     5.8741     5.9305
  749.0000   166.9522     5.3291     5.9137     5.9285
  749.5000   169.0567    -1.9291     5.8294     5.9260
  750.0000   163.8827    -1.4758     5.7870     5.9240
  750.5000   154.3011     1.1446     5.8669     5.9636
  751.0000   149.0071    14.2079     5.5084     5.6767
  751.5000   147.4867     6.8957     5.3883     5.5569
  752.0000   146.5733     7.2589     5.0636     5.2901
  752.5000   147.7843    -0.0533     4.8262     4.7906
  753.0000   148.9954    -7.2289     4.5906     4.6295
  753.5000   153.8971   -14.6598     4.5575     4.6277
  754.0000   166.2877   -21.6993     4.7178     4.7236
  754.5000   167.8030   -13.8060     4.8498     4.8892
  755.0000   161.4260    -5.9854     4.8145     4.9905
  755.5000   151.7114     9.3654     4.8468     5.1655
  756.0000   148.9778     9.6560     4.9139     5.4318
  756.5000   149.2777     9.9466     5.3779     5.8102
  757.0000   147.7088    10.2410     5.8865     6.0566
  757.5000   139.4386    10.6003     5.8845     6.2254
  758.0000   134.7013    10.8908     5.9655     6.4430
  758.5000   135.9123    11.1814     6.0895     6.6225
  759.0000   133.1773    11.4458     6.2164     6.7598
  759.5000   131.9611    11.7625     6.3904     6.8520
  760.0000   134.3854    12.0530     6.6614     6.9933
  760.5000   141.7147    12.3494     6.8002     7.0401
  761.0000   143.7870    12.7068     6.8459     7.0365
  761.5000   144.0883     5.4672     6.8915     7.0836
  762.0000   145.6021    -1.8450     6.9383     7.1296
  762.5000   146.5104    -1.4818     7.0333     7.1766
  763.0000   141.0439     6.3389     7.0805     7.2239
  763.5000   135.2746    14.1595     7.2282     7.3216
  764.0000   134.3612    14.4578     7.4304     7.3706
  764.5000   137.6960    14.8133     7.4284     7.4884
  765.0000   140.7279    15.1038     7.4259     7.4673
  765.5000   140.1180     7.7916     7.3212     7.4125
  766.0000   136.1697     0.6247     7.3193     7.4682
  766.5000   131.9179     0.9152     7.3689     7.5105
  767.0000   132.5220    -6.3253     7.4698     7.6121
  767.5000   135.0277    -5.0219     7.6273     7.6630
  768.0000   136.4615     1.8595     7.7305     7.7667
  768.5000   137.6718     9.6802     7.7824     7.8726
  769.0000   138.5801    17.5009     7.8347     8.1524
  769.5000   136.4520    17.7914     7.8321     8.4343
  770.0000   128.5583    18.0820     7.4055     7.4878
  770.5000   128.5554    18.3735     6.5310     6.4204
  771.0000   132.0364    18.6747     5.7428     5.9856
  771.5000   137.9570    19.0262     5.2959     5.7381
  772.0000   144.0239    19.2771     5.1490     4.7515
  772.5000   153.4292    19.6074     5.1840     4.6838
  773.0000   163.4414    12.3678     5.2185     4.8815
  773.5000   167.3838    12.6583     5.2171     5.1594
  774.0000   164.4188    13.2530     5.2898     5.7660
  774.5000   147.0434    20.8422     5.4745     6.4439
  775.0000   136.1148    28.6629     6.2476     7.2518
  775.5000   134.8979    27.1075     7.0313     8.0481
  776.0000   134.5915    21.6412     8.1938     8.8328
  776.5000   134.8928    14.4743     8.9682     9.3096
  777.0000   133.6752     7.2347     9.3485     9.4356
  777.5000   131.1835     7.5301     9.4771     9.4318
  778.0000   128.8128     0.2857     9.2780     9.3624
  778.5000   130.0238     0.6489     9.2111     9.2936
  779.0000   132.7523     0.9394     9.1447     9.2899
  779.5000   135.4815    23.8204     9.2068     9.4156
  780.0000   131.8360    24.1109     9.4638     9.5440
  780.5000   131.8330    24.4015     9.7994    10.0173
  781.0000   136.4108    24.6988    10.5734    10.8114
  781.5000   135.1648    25.0552    11.4125    11.4270
  782.0000   124.5398    25.3458    12.2326    12.4192
  782.5000   105.4170    18.0336    13.1118    14.3226
  783.0000    98.4338    10.7940    14.5522    16.1720
  783.5000    88.7191    11.1572    16.0389    17.4541
  784.0000    80.2185    11.4477    17.9606    18.7069
  784.5000    70.7709    11.7470    20.3135    19.7720
  785.0000    70.5010    19.6316    22.2333    20.8977
  785.5000    75.6566    27.4523    24.1655    22.0876
  786.0000    79.9033    35.2729    25.5438    23.9055
  786.5000    79.5961    43.0936    26.6270    26.2697
  787.0000    78.0758    43.3841    27.3721    27.5724
  787.5000    75.0379    43.6747    27.9750    28.3408
  788.0000    71.2148    43.9759    28.9236    28.7272
  788.5000    67.7476    36.7257    29.7330    29.1192
  789.0000    68.6551    29.4861    31.2106    29.5226
  789.5000    69.8662    22.3192    32.7616    29.9182
  790.0000    73.5051    30.1399    32.0754    30.3231
  790.5000    72.2882    30.4304    30.7538    30.1002
  791.0000    68.3319    30.7229    29.8987    28.4558
  791.5000    68.6398    31.0842    29.2724    28.2467
  792.0000    74.0996    31.3747    28.8596    28.2353
  792.5000    77.1324    31.6652    28.8519    28.4214
  793.0000    73.4868    31.9558    28.8441    28.4071
  793.5000    72.5734    32.2464    28.8364    27.6146
  794.0000    72.5705    32.5369    28.8283    26.8443
  794.5000    74.4207    32.8313    28.8190    26.2780
  795.0000    77.1163    33.1906    29.0146    26.4512
  795.5000    78.3273    33.4812    29.0049    26.6256
  796.0000    80.1453    33.7717    29.2018    27.1774
  796.5000    81.9641    34.0623    28.5882    26.9750
  797.0000    80.1395    34.3529    28.5804    26.7767
  797.5000    79.2261    42.1735    28.5709    26.5800
  798.0000    79.5508    42.4699    28.7649    26.7552
  798.5000    82.8613    35.2245    29.7746    27.1202
  799.0000    86.1968    35.5877    30.1863    28.2803
  799.5000    90.1393    35.8782    29.7586    29.2552
  800.0000    91.3510    43.6989    29.0670    29.1373
  800.5000    88.0018    40.9829    27.9336    28.6286
  801.0000    81.0127    36.4609    26.9700    27.0663
  801.5000    81.3096    36.6069    25.8588    25.5893
  802.0000    80.6916    36.7528    24.9668    23.0405
  802.5000    79.4688    36.8988    22.9581    21.3322
  803.0000    78.2458    37.0482    20.6667    19.5954
  803.5000    79.7524    37.2273    18.2006    17.7097
  804.0000    88.2413    37.3732    17.2385    16.8115
