~VERSION INFORMATION
 VERS.                2.0:   CWLS LOG ASCII STANDARD - VERSION 2.0
 WRAP.                 NO:   ONE LINE PER DEPTH STEP
~WELL INFORMATION
#MNEM.UNIT      DATA TYPE    INFORMATION
#----------   ------------   ------------------------------
 STRT.F            0.0000:   START DEPTH
 STOP.F          640.0000:   STOP DEPTH
 STEP.F            0.5000:   STEP LENGTH
 NULL.          -999.2500:   NO VALUE
 COMP.       FLUOR DANIEL:   COMPANY
 WELL.  FLUOR " X" #45-27:   WELL
 FLD .                NPR:   FIELD
 LOC .      S27 T39N R78W:   LOCATION
 CNTY.            NATRONA:   COUNTY
 STAT.            WYOMING:   STATE
 CTRY. UNITED STATES OF AMERICA:   COUNTRY
 SRVC.      WESTERN ATLAS:   SERVICE COMPANY
 DATE.        11-MAY-1996:   LOGDATE
 API .     49025227900000:   API NUMBER
~CURVE INFORMATION
#MNEM.UNIT       API CODE    CURVE DESCRIPTION
#----------   ------------   ------------------------------
 DEPT.F                  :   
 GRR .GAPI   07 310 01 00:   GAMMA RAY FROM RESISTIVITY
 RILD.OHMM   07 120 46 00:   INDUCTION LOG DEEP RESISTIVITY
 RILM.OHMM   07 120 44 00:   INDUCTION LOG MEDIUM RESISTIVITY
 TENR.LBS    07 635 01 00:   TENSION
~PARAMETER INFORMATION
#MNEM.UNIT          VALUE    DESCRIPTION
#----------   ------------   ------------------------------
 EKB .F         5058.0000:   Kelly bushing
 EGL .F         5048.0000:   Ground level
 EDF .F         5057.0000:   Drilling floor
 EPD .F         5048.0000:   Permanent datum
 TD  .F          632.0000:   Total depth
 DATE.        11-MAY-1996:   Date logged
 CLNT.            A2DTECH:   Client Code
 SL  . 2250' FSL & 2122' FWL:   Surface Location
 PD  .                 GL:   Permanent Datum
 LMF .                 KB:   Log Measured From
 DMF .                 KB:   Drilling Measured From
 DAPD.F                10:   Feet Above Permanent Datum
 DD  .F               632:   Depth driller
 DL  .F               631:   Depth logger
 BLI .F               620:   Bottom log interval
 CS1 .IN            9.625:   Casing size
 CBD1.       9.625" @ 53':   Casing driller 1
 CBL1.F                53:   Casing logger 1
 BS1 .IN             8.75:   Bit size
 BSD1.F               632:   Depth drilled with bit1
 DFT .                AIR:   Type fluid in hole
 LUN .            HL 6532:   Logging unit number
 LUL .             CASPER:   Logging unit location
 ORIG.         2.5" PRINT:   Origin of data
 UWI .     49025227900000:   Unique Well ID
 DICO. A2D TECHNOLOGIES, INC.:   Digitizing Company
 TLI .                620:   Top log interval
~OTHER INFORMATION
~A    DEPT      GRR      RILD       RILM       TENR   
# ...
  219.0000   104.0830     9.8550    10.4790   -40.4190
  219.5000   105.9100     9.9850    10.7050   -40.4190
  220.0000   105.5770    10.1300    10.6880   -40.4190
  220.5000   102.6880    10.1000    10.6300   -40.4190
  221.0000   100.5220    10.0360    10.5710   -40.4190
  221.5000    97.9110     9.9720    10.5120   -40.4190
  222.0000    97.8810     9.9080    10.4540   -40.4190
  222.5000    99.0510     9.8440    10.3950   -40.4190
  223.0000   101.3300     9.7800    10.3370   -40.4190
  223.5000   103.2960     9.7160    10.2780   -40.4190
  224.0000   105.1720     9.6520    10.2200   -40.4190
  224.5000   108.0720     9.5880    10.1610   -40.4190
  225.0000   110.7670     9.5240    10.1030   -40.4190
  225.5000   109.9000     9.4600    10.0440   -40.4190
  226.0000   109.2740     9.3960     9.9850   -40.4190
  226.5000   108.5380     9.3320     9.9270   -40.4190
  227.0000   109.2500     9.2680     9.8680   -40.4190
  227.5000   110.0060     9.2040     9.8100   -40.4190
  228.0000   110.2550     9.1400     9.7510   -40.4190
  228.5000   110.4470     9.0720     9.6930   -40.4190
  229.0000   110.5880     9.0580     9.6340   -40.4190
  229.5000   110.8840     9.0330     9.5750   -40.4190
  230.0000   110.0770     9.0070     9.5170   -40.4190
  230.5000   108.2580     8.9810     9.4580   -40.4190
  231.0000   106.5700     8.9560     9.4000   -40.4190
  231.5000   106.1940     8.9300     9.3410   -40.4190
  232.0000   108.8600     8.9040     9.2820   -40.4190
  232.5000   112.1910     8.8790     9.2320   -40.4190
  233.0000   112.1990     8.8530     9.2010   -40.4190
  233.5000   111.9390     8.8270     9.1710   -40.4190
  234.0000   111.5040     8.8020     9.1400   -40.4190
  234.5000   112.9870     8.7760     9.1090   -40.4190
  235.0000   114.0450     8.7500     9.0790   -40.4190
  235.5000   113.2110     8.7250     9.0480   -40.4190
  236.0000   112.0350     8.7000     9.0170   -40.4190
  236.5000   110.3280     8.6750     8.9870   -40.4190
  237.0000   110.9960     8.6500     8.9560   -40.4190
  237.5000   113.3960     8.6220     8.9260   -40.4190
  238.0000   116.3240     8.5960     8.7450   -40.4190
  238.5000   115.0590     8.4610     8.6540   -40.4190
  239.0000   108.7860     8.2510     8.5010   -40.4190
  239.5000   107.5730     8.0400     8.3470   -40.4190
  240.0000   108.6260     7.8290     8.1930   -40.4190
  240.5000   110.5470     7.6180     7.9540   -40.4190
  241.0000   117.0250     7.4080     7.6470   -40.4190
  241.5000   117.8270     7.1970     7.3390   -40.4190
  242.0000   119.1270     6.8860     7.0320   -40.4190
  242.5000   119.7090     6.9690     6.8860   -40.4190
  243.0000   120.3370     7.1290     7.2130   -40.4190
  243.5000   120.2170     7.2880     7.4920   -40.4190
  244.0000   117.2080     7.4480     7.7700   -40.4190
  244.5000   112.9150     7.6070     8.0490   -40.4190
  245.0000   108.7990     7.7670     8.3270   -40.4190
  245.5000   107.3820     7.9260     8.5850   -40.4190
  246.0000   106.1200     8.0860     8.5290   -40.4190
  246.5000   104.8440     8.2450     8.4770   -40.4190
  247.0000   104.5380     8.4290     8.4250   -40.4190
  247.5000   103.1510     8.3730     8.3720   -40.4190
  248.0000   103.1680     8.3070     8.3200   -40.4190
  248.5000   104.1910     8.2410     8.2680   -40.4190
  249.0000   102.9440     8.1740     8.2150   -40.4190
  249.5000   102.0370     8.1080     8.1630   -40.4190
  250.0000   101.2750     8.0420     8.1110   -40.4190
  250.5000   101.8840     7.8310     8.0580   -40.4190
  251.0000   101.9510     7.8510     7.9770   -40.4190
  251.5000   102.8400     7.9380     8.0530   -40.4190
  252.0000   104.9710     8.0250     8.2270   -40.4190
  252.5000   106.9470     8.1130     8.4010   -40.4190
  253.0000   109.0570     8.2000     8.5750   -40.4190
  253.5000   110.2930     8.2870     8.7490   -40.4190
  254.0000   108.7700     8.3740     8.9230   -40.4190
  254.5000   106.7230     8.4610     9.0720   -40.4190
  255.0000   105.2790     8.5480     9.0510   -40.4190
  255.5000   105.9720     8.5850     9.0220   -40.4190
  256.0000   107.1250     8.5850     8.9930   -40.4190
  256.5000   107.6030     8.5850     8.9650   -40.4190
  257.0000   107.2650     8.5510     8.9360   -40.4190
  257.5000   107.1150     8.4670     8.9070   -40.4190
  258.0000   106.9290     8.3830     8.8790   -40.4190
  258.5000   108.2650     8.3000     8.8500   -40.4190
  259.0000   109.4180     8.2160     8.8210   -40.4190
  259.5000   111.2080     8.1250     8.7930   -40.4190
  260.0000   109.7350     8.1380     8.7640   -40.4190
  260.5000   106.9130     8.1520     8.7350   -40.4190
  261.0000   106.3440     8.1660     8.7100   -40.4190
  261.5000   107.3420     8.1800     8.6850   -40.4190
  262.0000   108.2420     8.1940     8.6590   -40.4190
  262.5000   107.6580     8.2080     8.6330   -40.4190
  263.0000   104.9360     8.2230     8.6070   -40.4190
  263.5000   102.2470     8.2370     8.5810   -40.4190
  264.0000   101.6530     8.2510     8.5550   -40.4190
  264.5000   101.2520     8.2720     8.5290   -40.4190
  265.0000   100.8210     8.2580     8.5030   -40.4190
  265.5000   100.4450     8.1960     8.4770   -40.4190
  266.0000    98.8240     8.1340     8.4510   -40.4190
  266.5000   100.6670     8.0720     8.4250   -40.4190
  267.0000   106.0140     8.0100     8.3990   -40.4190
  267.5000   110.8130     7.9480     8.3730   -40.4190
  268.0000   116.0820     7.8860     8.3480   -40.4190
  268.5000   117.2240     7.8240     8.3210   -40.4190
  269.0000   116.9280     7.7620     8.2960   -40.4190
  269.5000   116.4540     7.6890     8.2760   -40.4190
  270.0000   116.1080     7.6890     8.2760   -40.4190
  270.5000   115.6560     7.7100     8.2750   -40.4190
  271.0000   116.1980     7.7940     8.2740   -40.4190
  271.5000   116.1430     7.8790     8.3120   -40.4190
  272.0000   115.3760     7.9630     8.4410   -40.4190
  272.5000   113.7530     8.0470     8.5700   -40.4190
  273.0000   112.3400     8.1320     8.6990   -40.4190
  273.5000   112.6160     8.2160     8.8280   -40.4190
  274.0000   111.6670     8.3010     8.9570   -40.4190
  274.5000   109.2650     8.3850     9.0860   -40.4190
  275.0000   107.0050     8.4690     9.2410   -40.4190
  275.5000   106.2380     8.5540     9.2070   -40.4190
  276.0000   107.9440     8.5850     9.1260   -40.4190
  276.5000   106.0910     8.5850     9.0450   -40.4190
  277.0000   106.2730     8.5430     8.9630   -40.4190
  277.5000   107.7080     8.4780     8.8820   -40.4190
  278.0000   109.1800     8.4130     8.8010   -40.4190
  278.5000   108.0490     8.3480     8.7190   -40.4190
  279.0000   108.5220     8.2830     8.6380   -40.4190
  279.5000   110.7940     8.2180     8.5570   -40.4190
  280.0000   112.6680     8.1530     8.4750   -40.4190
  280.5000   114.6640     8.1250     8.3940   -40.4190
  281.0000   112.3700     7.9950     8.3130   -40.4190
  281.5000   111.3110     7.8290     8.2310   -40.4190
  282.0000   110.9920     7.6630     8.1500   -40.4190
  282.5000   112.3060     7.4970     8.0680   -40.4190
  283.0000   113.7340     7.3310     7.9870   -40.4190
  283.5000   116.2380     7.1440     7.9060   -40.4190
  284.0000   116.1480     7.1440     7.8310   -40.4190
  284.5000   114.0870     7.1910     7.8310   -40.4190
  285.0000   111.8530     7.2600     7.8930   -40.4190
  285.5000   110.6840     7.3280     7.9610   -40.4190
  286.0000   109.3780     7.3970     8.0300   -40.4190
  286.5000   109.7960     7.4660     8.0980   -40.4190
  287.0000   109.6640     7.5490     8.1660   -40.4190
  287.5000   107.8250     7.6450     8.2340   -40.4190
  288.0000   106.9730     7.7670     8.3030   -40.4190
  288.5000   107.8140     7.8890     8.3710   -40.4190
  289.0000   108.3770     8.0110     8.4390   -40.4190
  289.5000   109.1030     8.1250     8.5070   -40.4190
  290.0000   108.4120     8.1130     8.5760   -40.4190
  290.5000   107.2350     8.0940     8.6440   -40.4190
  291.0000   106.2170     8.0760     8.7120   -40.4190
  291.5000   107.2450     8.0580     8.7460   -40.4190
