~VERSION INFORMATION
 VERS.                2.0:   CWLS LOG ASCII STANDARD - VERSION 2.0
 WRAP.                 NO:   ONE LINE PER DEPTH STEP
~WELL INFORMATION
#MNEM.UNIT      DATA TYPE    INFORMATION
#----------   ------------   ------------------------------
 STRT.F          198.5000:   START DEPTH
 STOP.F         3172.0000:   STOP DEPTH
 STEP.F            0.5000:   STEP LENGTH
 NULL.          -999.2500:   NO VALUE
 COMP.    FENIX & SCISSON:   COMPANY
 WELL. FENIX & SCISSON AX #26-11:   WELL
 FLD .              NPR-3:   FIELD
 LOC .      S11 T38N R78W:   LOCATION
 CNTY.            NATRONA:   COUNTY
 STAT.            WYOMING:   STATE
 CTRY. UNITED STATES OF AMERICA:   COUNTRY
 SRVC.              WELEX:   SERVICE COMPANY
 DATE.        11-NOV-1977:   LOGDATE
 API .     49025104420000:   API NUMBER
~CURVE INFORMATION
#MNEM.UNIT       API CODE    CURVE DESCRIPTION
#----------   ------------   ------------------------------
 DEPT.F                  :   
 GRD .GAPI   45 310 01 00:   GAMMA RAY FROM DENSITY LOG
 CALD.IN     45 280 60 00:   CALIPER FROM DENSITY LOG
 CORR.G/C3   45 356 01 00:   DENSITY CORRECTION
 TEND.LBS    45 635 01 00:   TENSION FROM DENSITY LOG
 RHOB.G/C3   45 350 01 00:   BULK DENSITY
 SPR .MV     07 010 01 00:   SPONTANEOUS POTENTIAL
 ILD .OHMM   07 120 46 00:   DEEP INDUCTION RESISTIVITY
 ILM .OHMM   07 120 44 00:   INDUCTION LOG MEDIUM RESISTIVITY
 SGRD.OHMM   07 220 05 00:   SHALLOW SHORT GUARD RESISTIVITY
~PARAMETER INFORMATION
#MNEM.UNIT          VALUE    DESCRIPTION
#----------   ------------   ------------------------------
 EKB .F         5187.0000:   Kelly bushing
 EGL .F         5177.0000:   Ground level
 EDF .F            0.0000:   Drilling floor
 EPD .F         5177.0000:   Permanent datum
 TD  .F         3174.0000:   Total depth
 CLNT.            A2DTECH:   Client Code
 SL  . 1650' FSL & 840' FWL:   Surface Location
 PD  .                 GL:   Permanent Datum
 LMF .                 KB:   Log Measured From
 DMF .                 KB:   Drilling Measured From
 DAPD.F                10:   Feet Above Permanent Datum
 DATE.        11-NOV-1977:   Date Logged [DD-MMM-YYYY]
 DD  .F              3170:   Depth driller
 DL  .F              3174:   Depth logger
 BLI .F              3172:   Bottom log interval
 TLI .F               200:   Top log interval
 CS1 .              8.625:   Casing size
 CBD1.      8.625" @ 220':   Casing driller 1
 CBL1.IN              220:   Casing logger 1
 BS1 .IN            7.875:   Bit size
 BSD1.F              3170:   Depth drilled with bit1
 DFT .            KCL MUD:   Type fluid in hole
 DFD .                8.9:   Density
 DFV .                 37:   Viscosity
 DFPH.               11.0:   pH
 DFL .                6.4:   Fluid loss
 MSS .           FLOWLINE:   Source of sample
 RMS .OHMM           2.79:   Rm
 MST .F                50:   Rm Meas. temp.
 RMF .OHMM           2.16:   Rmf
 MFST.F                50:   Rmf Meas. temp.
 MFSS.               FANN:   Source Rmf.
 MCSS.               TEST:   Source Rmc.
 RMB .OHMM           1.22:   Rm. at BHT
 BHT .F               114:   BHT.
 TCS .HRS               3:   Time Circ. stopped
 MRT .F               114:   Maximum recorded temp.
 LUN .               8611:   Logging unit number
 LUL .             CASPER:   Logging unit location
 ENGI.            C. DOAK:   Recorded By
 WITN.         HARRINGTON:   Witnessed by
 ORIG.      2.5" 5" PRINT:   Origin of data
 UWI .     49025104420000:   Unique Well ID
 DICO. A2D TECHNOLOGIES, INC.:   Digitizing Company
~OTHER INFORMATION
~A   DEPT       GRD      CALD       CORR       TEND       RHOB        SPR        ILD        ILM       SGRD   
# ...
 3118.5000    72.2182     8.2196     0.0267  2055.1648     2.3855   -73.2201     6.4423    10.8375     8.5911
 3119.0000    77.0345     8.2193     0.0297  2055.8240     2.3959   -73.6928     6.1759     9.9907     8.2324
 3119.5000    83.9586     8.2190     0.0358  2056.4836     2.4078   -74.0150     6.0450     9.9880     8.1129
 3120.0000    90.5382     8.2188     0.0419  2057.1594     2.4152   -74.1909     5.9996     9.5801     7.9957
 3120.5000    91.3160     8.2185     0.0419  2057.8447     2.4136   -74.2115     5.9133     9.1888     8.0476
 3121.0000    88.5630     8.2183     0.0419  2058.5300     2.4121   -74.0816     5.9097     9.1864     8.0998
 3121.5000    82.1141     8.2180     0.0418  2059.2156     2.4091   -74.1023     5.9061     9.1839     8.1523
 3122.0000    78.5308     8.2178     0.0142  2059.9009     2.3778   -74.1230     5.8601     9.0552     7.9770
 3122.5000    85.3581     8.2175     0.0050  2060.4397     2.3674   -74.1436     5.7327     7.9948     7.6978
 3123.0000    91.9390     8.2172    -0.0012  2061.0989     2.3673   -74.0085     5.6541     7.3065     7.4284
 3123.5000   100.3163     8.2170    -0.0043  2061.7583     2.3613   -74.1850     5.5728     7.0567     7.0192
 3124.0000   109.2923     8.2167    -0.0012  2062.4177     2.3554   -74.3563     5.5309     7.4554     6.6791
 3124.5000   111.6816     8.2165     0.0079  2063.0769     2.3732   -74.3769     5.5660     8.4981     6.6288
 3125.0000   103.2924     8.2162     0.0110  2032.9016     2.3836   -74.5482     5.6402     9.2297     6.6251
 3125.5000    87.7176     8.2159     0.0171  2033.6262     2.3895   -74.5693     5.7155     9.8868     6.6690
 3126.0000    78.1308     8.2157     0.0232  2034.2858     2.3969   -74.5903     5.7527    11.9921     6.6644
 3126.5000    77.2485     8.2154     0.0293  2034.9579     2.4073   -74.9166     5.6691    10.0882     6.6607
 3127.0000    83.5081     8.2152     0.0324  2035.6436     2.4147   -75.2384     5.6264     7.1907     6.6105
 3127.5000    90.0890     8.2149     0.0385  2036.3290     2.4265   -75.7109     5.5455     6.8024     6.5606
 3128.0000    99.0651     8.2147     0.0415  2037.0146     2.4458   -76.0328     5.3533     6.3410     6.6496
 3128.5000   104.4484     8.2144     0.0415  2037.7000     2.4503   -76.3547     5.1649     5.9574     6.7914
 3129.0000   109.2329     8.2141     0.0415  2038.2417     2.4472   -76.5260     5.0192     5.8387     6.9836
 3129.5000   113.4185     8.2139     0.0414  2038.9012     2.4442   -76.5466     4.9160     5.7969     6.7789
 3130.0000   116.4066     8.2136     0.0414  2039.5604     2.4621   -76.5673     4.8790     5.5987     6.5416
 3130.5000   115.8018     8.2080     0.0414  2040.2198     2.4769   -76.5880     4.8088     5.4447     6.6770
 3131.0000   111.6043     8.1821     0.0444  2040.8792     2.4739   -76.6086     4.7397     5.3686     7.4138
 3131.5000   109.2031     8.1819     0.0475  2041.5385     2.4769   -76.6295     4.7041     5.4043     7.1543
 3132.0000   110.3948     8.1878     0.0505  2042.1978     2.4861   -76.8012     4.6687     5.6704     6.8077
 3132.5000   112.1852     8.2124     0.0536  2042.8572     2.5069   -76.8264     4.6016     5.4388     6.6157
 3133.0000   114.5745     8.2121     0.0597  2043.5262     2.5154   -76.9977     4.5670     5.1451     6.6595
 3133.5000   118.1614     8.2118     0.0566  2044.2118     2.5076   -77.0184     4.5013     5.0732     6.7974
 3134.0000   121.7482     8.2116     0.0473  2014.0658     2.4973   -77.1896     4.4366     5.8228     6.7452
 3134.5000   123.5387     8.2113     0.0350  2045.5825     2.4913   -77.2103     4.3728     6.8704     6.7415
 3135.0000   127.1255     8.2110     0.0258  2046.2682     2.4852   -77.2310     4.2495     6.5898     7.1267
 3135.5000   133.1076     8.2108     0.0166  2046.8132     2.4758   -77.2517     4.1285     5.5411     7.1767
 3136.0000   137.8921     8.2105     0.0074  2047.4725     2.4615   -77.4229     4.0156     5.2081     6.7303
 3136.5000   142.0778     8.2103     0.0043  2048.1318     2.4428   -77.2922     3.9578     4.2914     6.2189
 3137.0000   145.0658     8.2100     0.0012  2048.7913     2.4318   -77.4643     3.8206     3.9491     5.7402
 3137.5000   142.6647     8.2098     0.0012  2049.4507     2.4441   -77.6355     3.7396     3.7618     4.9589
 3138.0000   137.2448     8.2095     0.0042  2050.1099     2.4650   -77.6686     3.6859     3.9837     5.5171
 3138.5000   133.0083     8.2092     0.0042  2050.7690     2.4674   -77.8283     3.8401     4.2280     6.7108
 3139.0000   128.2756     8.2090     0.0011  2051.4285     2.4569   -78.0039     3.9732     4.0271     6.8028
 3139.5000   130.6648     8.2087    -0.0051  2052.0945     2.4375   -78.0246     3.9433     3.9435     6.0339
 3140.0000   127.6647     8.2085    -0.0020  2052.7798     2.4420   -78.0453     3.8866     3.9424     5.5437
 3140.5000   128.3529     8.2082     0.0041  2053.4653     2.4438   -78.0659     3.8574     3.9687     5.2383
 3141.0000   131.3574     8.2079     0.0102  2054.1506     2.4508   -78.2372     3.8550     3.9403     5.2354
 3141.5000   133.2269     8.2077     0.0163  2054.8364     2.4590   -78.2579     3.8527     3.9121     5.7724
 3142.0000   134.2279     8.2074     0.0193  2055.3845     2.4671   -78.2786     3.8502     3.8574     5.5315
 3142.5000   132.1864     8.2072     0.0193  2056.0439     2.4690   -78.2992     3.8478     3.8298     5.1902
 3143.0000   129.8485     8.2069     0.0223  2056.7034     2.4700   -78.1687     3.8450     3.8553     5.1150
 3143.5000   127.3351     8.2067     0.0192  2057.3625     2.4670   -78.1900     3.8426     3.9081     5.1482
 3144.0000   124.9107     8.2064     0.0192  2058.0220     2.4665   -78.2108     3.7874     3.9611     5.2548
 3144.5000   123.4197     8.2061     0.0192  2058.6814     2.4654   -78.2319     3.7589     3.9600     5.4019
 3145.0000   130.9588     8.1749     0.0222  2059.3406     2.4659   -78.2571     3.7833     3.9317     5.5546
 3145.5000   133.3713     8.1747     0.0283  2060.0000     2.4669   -78.2778     3.8332     3.9036     5.6669
 3146.0000   134.9143     8.1744     0.0375  2060.6626     2.4708   -78.2985     3.8309     3.9026     5.5070
 3146.5000   135.3720     8.1432     0.0467  2061.3479     2.4834   -78.3192     3.8558     3.9555     5.3510
 3147.0000   135.3653     8.1290     0.0528  2062.0337     2.5055   -78.3398     3.8528     4.0651     5.3106
 3147.5000   135.1997     8.1117     0.0620  2062.7190     2.5304   -78.3605     3.8239     4.1778     5.3077
 3148.0000   134.5871     8.0805     0.0620  2063.4043     2.5289   -78.3812     3.7689     4.2936     5.4557
 3148.5000   133.3754     8.0802     0.0527  2063.9558     2.5220   -78.4018     3.7404     4.3826     5.9316
 3149.0000   132.9470     8.0490     0.0435  2064.6155     2.5136   -78.4225     3.7643     4.1744     5.7643
 3149.5000   136.1015     8.0488     0.0312  2065.2747     2.5044   -78.4432     3.8145     4.0317     5.3708
 3150.0000   139.1216     8.0485     0.0251  2065.9341     2.4837   -78.4639     3.8116     4.0029     4.9479
 3150.5000   138.5009     8.0482     0.0158  2066.5935     2.4792   -78.4849     3.7050     4.0018     4.9470
 3151.0000   136.4673     8.0480     0.0097  2067.2529     2.4748   -78.5060     3.6265     3.9186     5.3371
 3151.5000   132.7726     8.0477     0.0035  2067.9121     2.4656   -78.5310     3.5744     3.8638     5.5239
 3152.0000  -999.2500     8.0640     0.0035  2068.5713     2.4551   -78.5517     3.5230     3.8098     5.2439
 3152.5000  -999.2500     8.0782     0.0035  2069.2310     2.4505   -78.5724     3.5081     3.8087     4.6775
 3153.0000  -999.2500     8.0779     0.0034  2069.9163     2.4490   -78.5931     3.4943     3.8341     4.4250
 3153.5000  -999.2500     8.0777     0.0065  2070.6016     2.4489   -78.6137     3.4681     3.8330     4.9078
 3154.0000  -999.2500     8.0774     0.0064  2071.2871     2.4592   -78.6344     3.4901     3.8320     5.0798
 3154.5000  -999.2500     8.0771     0.0095  2071.9727     2.4666   -78.4993     3.5619     3.8046     5.0787
