~VERSION INFORMATION
 VERS.                2.0:   CWLS LOG ASCII STANDARD - VERSION 2.0
 WRAP.                 NO:   ONE LINE PER DEPTH STEP
~WELL INFORMATION
#MNEM.UNIT      DATA TYPE    INFORMATION
#----------   ------------   ------------------------------
 STRT.F          206.0000:   START DEPTH
 STOP.F         3080.5000:   STOP DEPTH
 STEP.F            0.5000:   STEP LENGTH
 NULL.          -999.2500:   NO VALUE
 COMP.    FENIX & SCISSON:   COMPANY
 WELL.   FENIX "A" #61-28:   WELL
 FLD .           N P R #3:   FIELD
 LOC .      S28 T39N R78W:   LOCATION
 CNTY.            NATRONA:   COUNTY
 STAT.            WYOMING:   STATE
 CTRY. UNITED STATES OF AMERICA:   COUNTRY
 SRVC.        SCHLUMBEGER:   SERVICE COMPANY
 DATE.        16-MAY-1977:   LOGDATE
 API .     49025103680000:   API NUMBER
~CURVE INFORMATION
#MNEM.UNIT       API CODE    CURVE DESCRIPTION
#----------   ------------   ------------------------------
 DEPT.F                  :   
 SPR .MV     07 010 01 00:   SPONTANEOUS POTENTIAL
 LL8 .OHMM   07 220 08 00:   LATEROLOG-8 RES.
 ILM .OHMM   07 120 44 00:   INDUCTION LOG MEDIUM RESISTIVITY
 ILD .OHMM   07 120 46 00:   DEEP INDUCTION RESISTIVITY
 CALD.IN     45 280 60 00:   CALIPER FROM DENSITY LOG
 GRD .GAPI   45 310 01 00:   GAMMA RAY FROM DENSITY LOG
 RHOB.G/C3   45 350 01 00:   BULK DENSITY
 CORR.G/C3   45 356 01 00:   DENSITY CORRECTION
~PARAMETER INFORMATION
#MNEM.UNIT          VALUE    DESCRIPTION
#----------   ------------   ------------------------------
 EKB .F         5019.0000:   Kelly bushing
 EGL .F         5009.0000:   Ground level
 EDF .F            0.0000:   Drilling floor
 TD  .F         3050.0000:   Total depth
 DATE.        16-MAY-1977:   Date logged
 CLNT.            A2DTECH:   Client Code
 SL  . 330' FNL & 1650' FEL:   Surface Location
 PD  .                 GL:   Permanent Datum
 DD  .F              3050:   Depth driller
 DL  .F              3079:   Depth logger
 BLI .F              3072:   Bottom log interval
 CS1 .IN            8.625:   Casing size
 CBD1.      8.625" @ 213':   Casing driller 1
 CBL1.F               213:   Casing logger 1
 BS1 .IN            7.875:   Bit size
 DFT .            KCL-MUD:   Type fluid in hole
 DFD .                9.2:   Density
 DFV .                 32:   Viscosity
 DFPH.                  8:   pH
 DFL .                7.6:   Fluid loss
 MSS .              CIRC.:   Source of sample
 RMS .OHMM          0.128:   Rm
 MST .F                62:   Rm Meas. temp.
 RMF .OHMM          0.126:   Rmf
 MFST.F                62:   Rmf Meas. temp.
 RMC .OHMM          0.192:   Rmc
 MCST.F                62:   Rmc Meas. temp.
 MFSS.               MEAS:   Source Rmf.
 RMB .OHMM           0.07:   Rm. at BHT
 BHT .F               112:   BHT.
 TCS .HRS            0900:   Time Circ. stopped
 MRT .F               112:   Maximum recorded temp.
 LUN .               7711:   Logging unit number
 LUL .               CSPR:   Logging unit location
 ENGI.             SAYLER:   Recorded By
 WITN.         PETTINGILL:   Witnessed by
 ORIG.           5" PRINT:   Origin of data
 UWI .     49025103680000:   Unique Well ID
 DICO. A2D TECHNOLOGIES, INC.:   Digitizing Company
 DAPD.                 10:   Feet Above Permanent Datum
 BSD1.               3050:   Depth drilled with bit1
 MCSS.               CALC:   Source Rmc.
 EPD .F              5009:   Elevation Permanent Datum
 LMF .                 KB:   Log Measured From
 DMF .                 KB:   Drilling Measured From
 TLI .F               213:   Top log interval
 TLAB.               1100:   Time logger at bottom
~OTHER INFORMATION
~A   DEPT      SPR        LL8        ILM        ILD       CALD         GRD      RHOB       CORR   
# ...
 1340.0000   -43.4520     8.4290     8.0250     7.7640     8.6390   117.6130     2.5260    -0.0070
 1340.5000   -43.4540     8.4290     8.0870     7.8240     8.6390   118.9700     2.5250    -0.0020
 1341.0000   -43.4560     8.4580     8.1500     7.8840     8.6390   119.6660     2.5250    -0.0010
 1341.5000   -43.4580     8.4930     8.2130     7.9430     8.6390   119.9770     2.5230    -0.0080
 1342.0000   -43.4600     8.5280     8.2760     8.0030     8.6390   120.1920     2.5170    -0.0110
 1342.5000   -43.4620     8.5630     8.3390     8.0630     8.6390   120.4000     2.5150    -0.0060
 1343.0000   -43.4640     8.5850     8.4290     8.1250     8.6390   119.5010     2.5140    -0.0020
 1343.5000   -43.4660     8.6810     8.3920     8.1250     8.6390   118.0730     2.5110     0.0030
 1344.0000   -43.4680     8.8510     8.3270     8.1030     8.6390   116.4450     2.5180     0.0080
 1344.5000   -43.4700     9.0220     8.2620     8.0410     8.6390   117.0270     2.5210     0.0070
 1345.0000   -43.4720     9.1920     8.1960     7.9800     8.6390   119.1580     2.5150     0.0030
 1345.5000   -43.4740     9.4120     8.1310     7.9180     8.6390   121.4750     2.5090    -0.0010
 1346.0000   -43.4760     9.2020     8.0660     7.8560     8.6390   122.3380     2.5120     0.0000
 1346.5000   -43.4780     8.5000     8.0010     7.7940     8.6390   120.6220     2.5230     0.0050
 1347.0000   -43.4800     8.1250     7.9350     7.7320     8.6390   119.2560     2.5340     0.0100
 1347.5000   -43.4820     7.8310     7.8700     7.6700     8.6390   117.0750     2.5450     0.0120
 1348.0000   -43.4840     7.8310     7.8050     7.6080     8.6390   112.7270     2.5480     0.0040
 1348.5000   -43.4860     7.8310     7.7390     7.5490     8.6390   108.4390     2.5450    -0.0040
 1349.0000   -43.4880     8.5200     7.6860     7.5280     8.6380   107.5080     2.5490    -0.0060
 1349.5000   -43.4900     8.9070     7.6760     7.5080     8.6370   108.9600     2.5530    -0.0020
 1350.0000   -43.4930     8.6720     7.6660     7.4880     8.6360   113.5620     2.5440     0.0010
 1350.5000   -43.4950     8.4410     7.6550     7.4680     8.6340   118.6380     2.5250    -0.0020
 1351.0000   -43.4970     8.2090     7.6450     7.4470     8.6330   121.6210     2.5390     0.0040
 1351.5000   -43.4990     7.9770     7.6350     7.4270     8.6320   122.7260     2.5370     0.0100
 1352.0000   -43.5010     7.9770     7.6240     7.4110     8.6310   121.0210     2.5360     0.0160
 1352.5000   -43.5030     7.9460     7.6140     7.4110     8.6300   119.3860     2.5420     0.0120
 1353.0000   -43.5050     7.9200     7.6040     7.4060     8.6290   118.2710     2.5360     0.0070
 1353.5000   -43.5070     7.8940     7.5930     7.4000     8.6280   119.8310     2.5300     0.0010
 1354.0000   -43.5090     7.8680     7.5830     7.3950     8.6270   121.8100     2.5230     0.0030
 1354.5000   -43.5110     7.8420     7.5730     7.3890     8.6250   123.6390     2.5160     0.0060
 1355.0000   -43.5130     7.8310     7.5620     7.3840     8.6240   124.5800     2.5110     0.0030
 1355.5000   -43.5150     7.8310     7.5520     7.3780     8.6230   123.0600     2.5100     0.0000
 1356.0000   -43.5170     7.8310     7.5420     7.3730     8.6220   121.1480     2.5090     0.0020
 1356.5000   -43.5190     7.8310     7.5310     7.3670     8.6210   119.6900     2.5090     0.0060
 1357.0000   -43.5210     7.8200     7.5210     7.3610     8.6200   120.6660     2.5160     0.0030
 1357.5000   -43.5230     7.8000     7.5110     7.3560     8.6200   122.8070     2.5260     0.0040
 1358.0000   -43.5250     7.7800     7.5000     7.3500     8.6210   124.0790     2.5360     0.0120
 1358.5000   -43.5270     7.7600     7.4900     7.3450     8.6230   124.5990     2.5420     0.0160
 1359.0000   -43.5290     7.7400     7.4800     7.3390     8.6240   124.4100     2.5360     0.0060
 1359.5000   -43.5310     7.7200     7.4690     7.3340     8.6250   123.7590     2.5410     0.0020
 1360.0000   -43.5340     7.6900     7.4590     7.3280     8.6260   124.0440     2.5470     0.0080
 1360.5000   -43.5360     7.7080     7.4480     7.3230     8.6270   122.9240     2.5310     0.0060
 1361.0000   -43.5380     7.7610     7.4380     7.3170     8.6280   120.5830     2.5150     0.0000
 1361.5000   -43.5400     7.8130     7.4280     7.3120     8.6290   119.9760     2.5080     0.0020
 1362.0000   -43.5420     7.8650     7.4170     7.3060     8.6300   121.6170     2.5170     0.0080
 1362.5000   -43.5440     7.9170     7.4100     7.3010     8.6310   123.6330     2.5260     0.0100
 1363.0000   -43.5460     7.9690     7.3980     7.2950     8.6320   124.3380     2.5350     0.0090
 1363.5000   -43.5480     8.0210     7.3850     7.2900     8.6340   123.8340     2.5370     0.0040
 1364.0000   -43.5500     8.0730     7.3720     7.2840     8.6350   120.8650     2.5340     0.0000
 1364.5000   -43.5520     8.1250     7.3590     7.2770     8.6360   118.5070     2.5260    -0.0040
 1365.0000   -43.5540     8.0180     7.3460     7.2800     8.6370   117.6040     2.5140    -0.0010
 1365.5000   -43.5560     7.8390     7.3330     7.2880     8.6380   117.0410     2.5120     0.0020
 1366.0000   -43.5580     7.6610     7.3200     7.2950     8.6390   117.1790     2.5180    -0.0010
 1366.5000   -43.5600     7.4110     7.3080     7.3030     8.6390   117.5150     2.5250     0.0010
 1367.0000   -43.5620     7.5500     7.2940     7.3100     8.6390   118.5060     2.5310     0.0030
 1367.5000   -43.5640     7.6890     7.2820     7.3170     8.6390   120.6700     2.5380     0.0000
 1368.0000   -43.5660     7.8120     7.2770     7.3250     8.6390   123.0350     2.5430     0.0070
 1368.5000   -43.5680     8.0180     7.2970     7.3320     8.6390   125.4970     2.5370     0.0050
 1369.0000   -43.5700     8.2230     7.3140     7.3390     8.6390   126.8560     2.5290     0.0020
 1369.5000   -43.5720     8.4290     7.3310     7.3470     8.6390   126.9760     2.5220     0.0050
 1370.0000   -43.5750     8.4290     7.3480     7.3540     8.6390   126.4560     2.5190     0.0050
 1370.5000   -43.5770     8.2300     7.3650     7.3610     8.6390   125.1900     2.5250     0.0010
 1371.0000   -43.5790     8.0640     7.3820     7.3690     8.6390   123.7300     2.5310     0.0050
 1371.5000   -43.5810     7.8310     7.3990     7.3760     8.6390   121.2950     2.5360     0.0040
 1372.0000   -43.5830     7.9060     7.4160     7.3830     8.6390   118.0670     2.5120    -0.0050
 1372.5000   -43.5850     8.0310     7.4330     7.3910     8.6390   115.3040     2.5170     0.0010
 1373.0000   -43.5870     8.1550     7.4500     7.3980     8.6390   113.0520     2.5240     0.0000
 1373.5000   -43.5890     8.2800     7.4670     7.4050     8.6390   110.7570     2.5320    -0.0030
 1374.0000   -43.5910     8.4290     7.4840     7.4100     8.6390   111.5100     2.5450    -0.0050
 1374.5000   -43.5930     8.2760     7.5020     7.3840     8.6390   112.8010     2.5420    -0.0020
 1375.0000   -43.5950     8.1670     7.5190     7.3510     8.6390   116.3270     2.5450     0.0010
 1375.5000   -43.5970     7.9850     7.5340     7.3180     8.6390   119.8650     2.5350    -0.0020
 1376.0000   -43.5990     7.8030     7.5460     7.2840     8.6380   120.5490     2.5290    -0.0040
 1376.5000   -43.6010     7.6210     7.4790     7.2510     8.6370   120.1410     2.5230    -0.0020
 1377.0000   -43.6030     7.5490     7.4240     7.2180     8.6360   118.3150     2.5130     0.0000
 1377.5000   -43.6050     7.5490     7.3670     7.1850     8.6340   117.0990     2.5160     0.0010
 1378.0000   -43.6070     7.5490     7.3080     7.1460     8.6330   118.0600     2.5190    -0.0050
 1378.5000   -43.6090     7.6640     7.2790     7.1700     8.6320   120.1230     2.5210    -0.0110
 1379.0000   -43.6110     7.8080     7.2930     7.2000     8.6310   122.1890     2.5220    -0.0020
 1379.5000   -43.6130     7.9520     7.3080     7.2280     8.6300   124.1290     2.5360     0.0100
 1380.0000   -43.6160     8.1250     7.3200     7.2830     8.6290   125.1940     2.5430     0.0150
