~VERSION INFORMATION
 VERS.                2.0:   CWLS LOG ASCII STANDARD - VERSION 2.0
 WRAP.                 NO:   ONE LINE PER DEPTH STEP
~WELL INFORMATION
#MNEM.UNIT      DATA TYPE    INFORMATION
#----------   ------------   ------------------------------
 STRT.F          204.5000:   START DEPTH
 STOP.F         2964.0000:   STOP DEPTH
 STEP.F            0.5000:   STEP LENGTH
 NULL.          -999.2500:   NO VALUE
 COMP.    FENIX & SCISSON:   COMPANY
 WELL. FENIX NPR 3 "AX" #14-28:   WELL
 FLD .  TEAPOT DOME NPR-3:   FIELD
 LOC .      S28 T39N R78W:   LOCATION
 CNTY.            NATRONA:   COUNTY
 STAT.            WYOMING:   STATE
 CTRY. UNITED STATES OF AMERICA:   COUNTRY
 SRVC.           BIRDWELL:   SERVICE COMPANY
 DATE.        24-MAY-1978:   LOGDATE
 API .     49025106450000:   API NUMBER
~CURVE INFORMATION
#MNEM.UNIT       API CODE    CURVE DESCRIPTION
#----------   ------------   ------------------------------
 DEPT.F                  :   
 SPR .MV     05 010 01 00:   SPONTANEOUS POTENTIAL
 CORR.G/C3   45 356 01 00:   DENSITY CORRECTION
 DEN .G/C3   45 350 01 00:   DENSITY
 CALD.IN     45 280 60 00:   CALIPER FROM DENSITY LOG
 GRD .GAPI   45 310 01 00:   GAMMA RAY FROM DENSITY LOG
 SN  .OHMM   05 040 16 00:   SHORT NORMAL 16"
 ILD .OHMM   05 120 46 00:   DEEP INDUCTION RESISTIVITY
~PARAMETER INFORMATION
#MNEM.UNIT          VALUE    DESCRIPTION
#----------   ------------   ------------------------------
 EKB .F         5042.0000:   Kelly bushing
 EGL .F         5032.0000:   Ground level
 EDF .F            0.0000:   Drilling floor
 TD  .F         2957.0000:   Total depth
 DATE.        24-MAY-1978:   Date logged
 CLNT.            A2DTECH:   Client Code
 SL  . 2410' FNL & 280' FWL:   Surface Location
 PD  .                 GL:   Permanent Datum
 EPD .F              5032:   Elevation Permanent Datum
 LMF .                 KB:   Log Measured From
 DMF .                 KB:   Drilling Measured From
 DAPD.F                10:   Feet Above Permanent Datum
 DD  .F              2950:   Depth driller
 DL  .F              2957:   Depth logger
 BLI .F              2951:   Bottom log interval
 TLI .F               225:   Top log interval
 CS1 .IN            8.625:   Casing size
 CBL1.F               225:   Casing logger 1
 BS1 .IN            7.875:   Bit size
 BSD1.F              2950:   Depth drilled with bit1
 DFT .       CHEMICAL GEL:   Type fluid in hole
 DFD .                  9:   Density
 DFV .                 34:   Viscosity
 DFPH.               10.5:   pH
 DFL .                  6:   Fluid loss
 MSS .           FLOWLINE:   Source of sample
 RMS .OHMM            1.5:   Rm
 MST .F                70:   Rm Meas. temp.
 RMF .OHMM            1.1:   Rmf
 MFST.F                78:   Rmf Meas. temp.
 RMC .OHMM            2.8:   Rmc
 MCST.F                72:   Rmc Meas. temp.
 MFSS.               MEAS:   Source Rmf.
 RMB .OHMM           0.95:   Rm. at BHT
 BHT .F               110:   BHT.
 TCS .HRS               2:   Time Circ. stopped
 MRT .F               110:   Maximum recorded temp.
 LUN .               2958:   Logging unit number
 LUL .               CASP:   Logging unit location
 ENGI.             MILLER:   Recorded By
 WITN.            RHOADES:   Witnessed by
 ORIG.           5" PRINT:   Origin of data
 UWI .     49025106450000:   Unique Well ID
 DICO. A2D TECHNOLOGIES, INC.:   Digitizing Company
~OTHER INFORMATION
~A   DEPT      SPR       CORR        DEN       CALD         GRD        SN        ILD   
# ...
 2570.5000    -4.2000     0.0340     2.5120  -999.2500  -999.2500    11.1110     8.1250
 2571.0000    -4.2000     0.0330     2.5120  -999.2500  -999.2500    10.9450     8.0790
 2571.5000    -4.2000     0.0320     2.5120  -999.2500  -999.2500    10.7800     7.9940
 2572.0000    -4.2000     0.0310     2.5110  -999.2500  -999.2500    10.5240     7.9090
 2572.5000    -4.2000     0.0310     2.5090  -999.2500  -999.2500    10.1950     7.8230
 2573.0000    -4.2000     0.0300     2.5080  -999.2500  -999.2500     9.8660     7.7380
 2573.5000    -4.2000     0.0290     2.5060  -999.2500  -999.2500     9.5370     7.6520
 2574.0000    -4.2000     0.0280     2.5090  -999.2500  -999.2500     9.2070     7.5670
 2574.5000    -4.2000     0.0280     2.5190  -999.2500  -999.2500     8.8780     7.4950
 2575.0000    -4.2000     0.0270     2.5250  -999.2500  -999.2500     8.6980     7.4260
 2575.5000    -4.2000     0.0260     2.5270  -999.2500  -999.2500     8.6200     7.3570
 2576.0000    -4.2000     0.0250     2.5280  -999.2500  -999.2500     8.5420     7.2760
 2576.5000    -4.2000     0.0250     2.5290  -999.2500  -999.2500     8.4640     7.2760
 2577.0000    -4.2000     0.0240     2.5280  -999.2500  -999.2500     8.3860     7.1460
 2577.5000    -4.2000     0.0230     2.5280  -999.2500  -999.2500     8.3080     7.1530
 2578.0000    -4.2000     0.0220     2.5220  -999.2500  -999.2500     8.2300     7.1610
 2578.5000    -4.2000     0.0220     2.5130  -999.2500  -999.2500     8.1250     7.1690
 2579.0000    -4.2000     0.0220     2.5140  -999.2500  -999.2500     8.1890     7.1770
 2579.5000    -4.2000     0.0220     2.5140  -999.2500  -999.2500     8.2860     7.1850
 2580.0000    -4.2000     0.0220     2.5110  -999.2500  -999.2500     8.3830     7.1930
 2580.5000    -4.2000     0.0220     2.5120  -999.2500  -999.2500     8.4800     7.2010
 2581.0000    -4.2000     0.0220     2.5130  -999.2500  -999.2500     8.5770     7.2090
 2581.5000    -4.2000     0.0220     2.5150  -999.2500  -999.2500     8.6730     7.2170
 2582.0000    -4.2000     0.0220     2.5130  -999.2500  -999.2500     8.7700     7.2250
 2582.5000    -4.2000     0.0230     2.5080  -999.2500  -999.2500     8.8670     7.2330
 2583.0000    -4.2000     0.0260     2.5060  -999.2500  -999.2500     8.9640     7.2410
 2583.5000    -4.2000     0.0290     2.5130  -999.2500  -999.2500     9.0610     7.2490
 2584.0000    -4.2000     0.0320     2.5150  -999.2500  -999.2500     9.1580     7.2570
 2584.5000    -4.2000     0.0350     2.5130  -999.2500  -999.2500     9.2410     7.2650
 2585.0000    -4.2000     0.0380     2.5180  -999.2500  -999.2500     9.0300     7.2760
 2585.5000    -4.2000     0.0410     2.5260  -999.2500  -999.2500     8.8460     7.1860
 2586.0000    -4.2000     0.0420     2.5310  -999.2500  -999.2500     8.6630     7.0260
 2586.5000    -4.2020     0.0370     2.5270  -999.2500  -999.2500     8.4900     6.8660
 2587.0000    -4.1730     0.0320     2.5240  -999.2500  -999.2500     8.3250     6.7070
 2587.5000    -4.0990     0.0270     2.5210  -999.2500  -999.2500     8.1610     6.5470
 2588.0000    -4.0290     0.0280     2.5230  -999.2500  -999.2500     7.9960     6.3870
 2588.5000    -3.9550     0.0310     2.5240  -999.2500  -999.2500     7.8310     6.2270
 2589.0000    -3.8860     0.0350     2.5300  -999.2500  -999.2500     7.6660     6.0670
 2589.5000    -3.8060     0.0380     2.5390  -999.2500  -999.2500     7.5020     5.9050
 2590.0000    -3.8010     0.0420     2.5440  -999.2500  -999.2500     7.3370     5.7380
 2590.5000    -3.7990     0.0410     2.5500  -999.2500  -999.2500     7.1720     5.5700
 2591.0000    -3.8010     0.0390     2.5420  -999.2500  -999.2500     7.0070     5.4030
 2591.5000    -3.8000     0.0370     2.5430  -999.2500  -999.2500     6.7900     5.2350
 2592.0000    -3.8000     0.0360     2.5390  -999.2500  -999.2500     6.4260     5.0680
 2592.5000    -3.8000     0.0340     2.5370  -999.2500  -999.2500     6.0620     4.9000
 2593.0000    -3.8000     0.0330     2.5350  -999.2500  -999.2500     5.7290     4.7320
 2593.5000    -3.8000     0.0310     2.5350  -999.2500  -999.2500     5.5800     4.5710
 2594.0000    -3.8000     0.0290     2.5350  -999.2500  -999.2500     5.4430     4.4290
 2594.5000    -3.8000     0.0280     2.5350  -999.2500  -999.2500     5.3060     4.4380
 2595.0000    -3.8000     0.0260     2.5350  -999.2500  -999.2500     5.1520     4.4450
 2595.5000    -3.8000     0.0250     2.5300  -999.2500  -999.2500     5.2000     4.4520
 2596.0000    -3.8000     0.0230     2.5250  -999.2500  -999.2500     5.2960     4.4600
 2596.5000    -3.8000     0.0230     2.5210  -999.2500  -999.2500     5.3920     4.4670
 2597.0000    -3.8000     0.0250     2.5210  -999.2500  -999.2500     5.4880     4.4740
 2597.5000    -3.8000     0.0280     2.5290  -999.2500  -999.2500     5.6250     4.4820
 2598.0000    -3.8000     0.0300     2.5360  -999.2500  -999.2500     5.5980     4.4890
 2598.5000    -3.8000     0.0320     2.5420  -999.2500  -999.2500     5.5510     4.4970
 2599.0000    -3.8000     0.0340     2.5470  -999.2500  -999.2500     5.5030     4.5040
 2599.5000    -3.8000     0.0330     2.5440  -999.2500  -999.2500     5.4560     4.5120
 2600.0000    -3.8000     0.0320     2.5420  -999.2500  -999.2500     5.4080     4.4510
 2600.5000    -3.8000     0.0310     2.5390  -999.2500  -999.2500     5.3610     4.3900
 2601.0000    -3.8000     0.0300     2.5370  -999.2500  -999.2500     5.3370     4.3300
 2601.5000    -3.8000     0.0290     2.5370  -999.2500  -999.2500     5.4010     4.2690
 2602.0000    -3.8000     0.0280     2.5350  -999.2500  -999.2500     5.4650     4.3310
 2602.5000    -3.8000     0.0280     2.5330  -999.2500  -999.2500     5.5300     4.3920
 2603.0000    -3.8000     0.0260     2.5320  -999.2500  -999.2500     5.5940     4.4520
 2603.5000    -3.8000     0.0260     2.5300  -999.2500  -999.2500     5.6580     4.5120
 2604.0000    -3.8000     0.0270     2.5280  -999.2500  -999.2500     5.7230     4.8170
 2604.5000    -3.8000     0.0280     2.5260  -999.2500  -999.2500     5.7870     5.1140
 2605.0000    -3.8000     0.0290     2.5240  -999.2500  -999.2500     5.9440     5.4110
 2605.5000    -3.8000     0.0300     2.5240  -999.2500  -999.2500     6.7810     5.7080
 2606.0000    -3.8000     0.0270     2.5260  -999.2500  -999.2500     7.7770     6.0050
 2606.5000    -3.8000     0.0240     2.5110  -999.2500  -999.2500     8.7730     6.3020
 2607.0000    -3.8000     0.0210     2.4930  -999.2500  -999.2500     9.7680     6.5990
 2607.5000    -3.8000     0.0180     2.4760  -999.2500  -999.2500    10.7050     6.8150
 2608.0000    -3.8000     0.0200     2.4720  -999.2500  -999.2500    10.4880     6.9360
 2608.5000    -3.8000     0.0210     2.4770  -999.2500  -999.2500    10.2830     7.0560
 2609.0000    -3.8030     0.0230     2.4810  -999.2500  -999.2500    10.0790     7.1330
 2609.5000    -3.8090     0.0240     2.4850  -999.2500  -999.2500     9.8740     7.0930
 2610.0000    -3.8140     0.0260     2.4890  -999.2500  -999.2500     9.6700     7.0530
 2610.5000    -3.8190     0.0260     2.4910  -999.2500  -999.2500     9.4650     7.0130
 2611.0000    -3.8250     0.0260     2.4930  -999.2500  -999.2500     9.2600     6.9720
 2611.5000    -3.8300     0.0260     2.4920  -999.2500  -999.2500     9.0560     6.9320
 2612.0000    -3.8350     0.0260     2.4920  -999.2500  -999.2500     8.8510     6.8920
 2612.5000    -3.8410     0.0260     2.4910  -999.2500  -999.2500     8.6470     6.8520
 2613.0000    -3.8460     0.0260     2.4940  -999.2500  -999.2500     8.4800     6.8120
 2613.5000    -3.8520     0.0260     2.4960  -999.2500  -999.2500     8.3300     6.7720
 2614.0000    -3.8570     0.0270     2.4980  -999.2500  -999.2500     8.1800     6.6690
 2614.5000    -3.8620     0.0290     2.5000  -999.2500  -999.2500     8.0300     6.5400
 2615.0000    -3.8680     0.0300     2.5020  -999.2500  -999.2500     7.8800     6.4110
 2615.5000    -3.8730     0.0310     2.5050  -999.2500  -999.2500     7.7300     6.2820
