~VERSION INFORMATION
 VERS.                2.0:   CWLS LOG ASCII STANDARD - VERSION 2.0
 WRAP.                 NO:   ONE LINE PER DEPTH STEP
~WELL INFORMATION
#MNEM.UNIT      DATA TYPE    INFORMATION
#----------   ------------   ------------------------------
 STRT.F          240.0000:   START DEPTH
 STOP.F         2876.0000:   STOP DEPTH
 STEP.F            0.5000:   STEP LENGTH
 NULL.          -999.2500:   NO VALUE
 COMP.    FENIX & SCISSON:   COMPANY
 WELL. FENIX & SCISSON "A" #23-21:   WELL
 FLD .               NPR3:   FIELD
 LOC .      S21 T39N R78W:   LOCATION
 CNTY.            NATRONA:   COUNTY
 STAT.            WYOMING:   STATE
 CTRY. UNITED STATES OF AMERICA:   COUNTRY
 SRVC.              WELEX:   SERVICE COMPANY
 DATE.        05-MAR-1977:   LOGDATE
 API .     49025103030000:   API NUMBER
~CURVE INFORMATION
#MNEM.UNIT       API CODE    CURVE DESCRIPTION
#----------   ------------   ------------------------------
 DEPT.F                  :   
 GRD .GAPI   45 310 01 00:   GAMMA RAY FROM DENSITY LOG
 CALD.IN     45 280 60 00:   CALIPER FROM DENSITY LOG
 CORR.G/C3   45 356 01 00:   DENSITY CORRECTION
 RHOB.G/C3   45 350 01 00:   BULK DENSITY
 SPR .MV     07 010 01 00:   SPONTANEOUS POTENTIAL
 ILD .OHMM   07 120 46 00:   DEEP INDUCTION RESISTIVITY
 ILM .OHMM   07 120 44 00:   INDUCTION LOG MEDIUM RESISTIVITY
 SGRD.OHMM   07 220 05 00:   SHALLOW SHORT GUARD RESISTIVITY
~PARAMETER INFORMATION
#MNEM.UNIT          VALUE    DESCRIPTION
#----------   ------------   ------------------------------
 EKB .F         4986.0000:   Kelly bushing
 EGL .F         4976.0000:   Ground level
 TD  .F         2885.0000:   Total depth
 CLNT.            A2DTECH:   Client Code
 SL  . 990' FWL & 1650' FNL:   Surface Location
 DATE.        05-MAR-1977:   Date Logged [DD-MMM-YYYY]
 DD  .F              2885:   Depth driller
 DL  .F              2882:   Depth logger
 BLI .F              2876:   Bottom log interval
 TLI .F               238:   Top log interval
 CS1 .IN            8.625:   Casing size
 CBD1.      8.625" @ 251':   Casing driller 1
 CBL1.IN              251:   Casing logger 1
 BS1 .IN            7.875:   Bit size
 BSD1.F              2885:   Depth drilled with bit1
 DFT .                KCL:   Type fluid in hole
 DFD .                9.5:   Density
 TCS .HRS               3:   Time Circ. stopped
 MRT .F                78:   Maximum recorded temp.
 ENGI.          D. LAWSON:   Recorded By
 WITN.            K. JAPP:   Witnessed by
 ORIG.         2.5" PRINT:   Origin of data
 UWI .     49025103030000:   Unique Well ID
 DICO. A2D TECHNOLOGIES,INC.:   Digitizing Company
 PD  .                 GL:   Permanent Datum
 EPD .               4976:   Elevation Permanent Datum
 LMF .                 KB:   Log Measured From
 DMF .                 KB:   Drilling Measured From
 DAPD.                 10:   Feet Above Permanent Datum
 DFL .                8.8:   Fluid loss
 MSS .           FLOWLINE:   Source of sample
 RMS .OHMM            .40:   Rm
 MST .F                58:   Rm Meas. temp.
 RMF .OHMM            .37:   Rmf
 MFST.F                58:   Rmf Meas. temp.
 MFSS.OHMM            .67:   Source Rmf.
 MCST.F                58:   Rmc Meas. temp.
 MCSS.               MEAS:   Source Rmc.
 RMB .OHMM            .30:   Rm. at BHT
 BHT .F                78:   BHT.
~OTHER INFORMATION
~A   DEPT       GRD        CALD      CORR        RHOB      SPR        ILD        ILM       SGRD   
# ...
 2467.5000   125.6598    10.8044     0.0173     2.4615   -32.4484     6.1629     7.2072     9.1273
 2468.0000   122.4340    10.7753     0.0200     2.4929   -32.4499     6.1608     7.2057     8.9976
 2468.5000   122.2168    10.7756     0.0200     2.5098   -32.7472     6.0743     7.2042     8.9802
 2469.0000   125.0733    10.7759     0.0200     2.5046   -32.7487     5.9891     7.1597     8.6112
 2469.5000   127.7126    10.7761     0.0200     2.4970   -33.0460     5.9870     7.1027     8.5010
 2470.0000   127.5953    10.7764     0.0201     2.4852   -33.3433     5.9030     7.0590     8.4969
 2470.5000   122.9827    10.7767     0.0201     2.4781   -33.3448     5.9010     7.0025     8.4927
 2471.0000   121.0439    10.7770     0.0201     2.4693   -33.3463     5.8989     6.9598     8.6184
 2471.5000   119.7537    10.7773     0.0201     2.4618   -33.6436     5.9790     6.9037     8.7340
 2472.0000   118.8799    10.7776     0.0201     2.4546   -33.6451     5.9767     6.9432     8.8399
 2472.5000   118.3284    10.7733     0.0171     2.4485   -33.9424     6.0578     7.0380     8.8467
 2473.0000   118.1935    10.7488     0.0112     2.4412   -33.9439     6.1398     7.1763     8.9543
 2473.5000   118.7772    10.7491     0.0052     2.4355   -34.2413     6.2227     7.4336     8.9608
 2474.0000   119.5131    10.7494    -0.0008     2.4386   -34.2427     6.3069     7.4914     9.2074
 2474.5000   121.1234    10.7468    -0.0008     2.4490   -34.5401     6.3925     7.4899     9.3308
 2475.0000   123.3138    10.7206     0.0022     2.4609   -34.5415     6.4790     7.4456     9.4452
 2475.5000   125.0676    10.6915     0.0082     2.4728   -34.5430     6.4765     7.3422     9.5721
 2476.0000   124.9327    10.6607     0.0113     2.4892   -34.8404     6.4743     7.2405     9.7007
 2476.5000   123.9180    10.6321     0.0113     2.5042   -35.1377     6.4720     7.0821     9.7064
 2477.0000   122.5923    10.6041     0.0143     2.5176   -35.4350     6.3812     7.0408     9.8263
 2477.5000   121.7154    10.6044     0.0113     2.5340   -35.7324     6.2917     6.8481     9.8112
 2478.0000   123.3366    10.5753     0.0113     2.5445   -35.7338     6.2034     6.6239     9.5392
 2478.5000   128.1348    10.5756     0.0083     2.5341   -36.0312     6.1163     6.3021     9.1385
 2479.0000   130.6452    10.5759     0.0054     2.5013   -36.3285     5.9479     6.0456     8.4150
 2479.5000   129.9914    10.5468     0.0054     2.4849   -36.6258     5.7841     5.9126     8.0694
 2480.0000   130.4692    10.5471     0.0024     2.4686   -36.9232     5.7030     5.9935     7.9622
 2480.5000   134.4934    10.5474     0.0024     2.4581   -36.9247     5.6229     5.9922     7.9583
 2481.0000   137.8357    10.5477     0.0024     2.4537   -36.9261     5.4681     5.9910     8.0653
 2481.5000   139.7361    10.5480     0.0024     2.4612   -37.2235     5.3914     5.9573     8.0545
 2482.0000   137.9297    10.5483     0.0055     2.4731   -37.2249     5.2429     5.7149     7.9468
 2482.5000   135.9238    10.5486     0.0085     2.4851   -37.2264     5.1693     5.5288     7.9429
 2483.0000   136.5103    10.5488     0.0115     2.4776   -37.5238     5.0968     5.3323     7.9391
 2483.5000   137.1936    10.5491     0.0145     2.4762   -37.5252     5.0253     5.2583     7.7016
 2484.0000   136.8149    10.5494     0.0175     2.4836   -37.5267     4.8869     5.0711     7.0955
 2484.5000   135.1554    10.5497     0.0175     2.4896   -37.5282     4.6873     4.9742     6.8987
 2485.0000   133.3135    10.5500     0.0175     2.4911   -37.5297     4.5582     4.8381     6.8055
 2485.5000   131.7333    10.5503     0.0175     2.4882   -37.5311     4.4327     4.7960     6.8022
 2486.0000   131.9824    10.5506     0.0175     2.4763   -37.5326     4.3705     4.7293     6.8937
 2486.5000   133.1496    10.5509     0.0146     2.4758   -37.2381     4.3092     4.6636     6.9863
 2487.0000   134.3168    10.5512     0.0176     2.4912   -36.9439     4.2908     4.6871     6.9828
 2487.5000   135.9235    10.5515     0.0176     2.5062   -36.9453     4.4266     4.7510     6.9714
 2488.0000   139.8535    10.5518     0.0176     2.5121   -36.9468     4.6119     4.8828     6.6926
 2488.5000   145.4875    10.5458     0.0176     2.5092   -36.6523     4.8050     5.0181     6.6965
 2489.0000   149.0202    10.5388     0.0176     2.5017   -36.3579     4.8703     5.1840     7.0738
 2489.5000   150.6771    10.5317     0.0177     2.4973   -36.3595     5.0045     5.3738     7.4796
 2490.0000   152.3460    10.5247     0.0177     2.4949   -36.0651     5.1429     5.5994     8.2310
 2490.5000   142.4467    10.5210     0.0177     2.4879   -36.0666     5.3580     5.7841     8.8153
 2491.0000   138.6897    10.5215     0.0177     2.4729   -35.7722     5.5823     5.9964     9.4374
 2491.5000   136.0661    10.5219     0.0177     2.4743   -35.7737     5.7364     6.2481     9.8279
 2492.0000   137.3781    10.5224     0.0177     2.4963   -35.7752     5.8948     6.4214     9.8158
 2492.5000   141.6083    10.5522     0.0177     2.5102   -35.4808     6.0578     6.6581     9.2831
 2493.0000   147.4227    10.5821     0.0178     2.5116   -35.4823     6.3112     6.7824     9.0229
 2493.5000   149.7067    10.7002     0.0178     2.5064   -35.4838     6.3969     6.9703     8.7782
 2494.0000   149.7067    10.7888     0.0178     2.5028   -35.4852     6.4835     7.0655     9.0224
 2494.5000   149.7067    10.8187     0.0148     2.4998   -35.7826     6.4809     7.1620     9.2733
 2495.0000   147.8982    10.8485     0.0104     2.4954   -35.7840     6.4787     7.0915     9.6564
 2495.5000   143.4350    10.8490     0.0058     2.4852   -35.7855     6.3877     6.8974     9.6517
 2496.0000   139.6655    10.8494     0.0059     2.4667   -36.0829     6.2119     6.5549     9.5128
 2496.5000   137.9150    10.8478     0.0059     2.4597   -36.3802     5.9581     6.1174     9.2490
 2497.0000   135.8707    10.8883     0.0059     2.4568   -36.9734     5.7147     5.7883     8.8679
 2497.5000   134.9316    10.9167     0.0059     2.4544   -36.9749     5.5574     5.5022     8.2717
 2498.0000   135.5561    10.9449     0.0029     2.4612   -37.5681     5.4043     5.3029     7.7150
 2498.5000   137.5231    10.9732     0.0029     2.4711   -37.8654     5.1836     5.1577     7.0982
 2499.0000   139.5641    11.0017     0.0000     2.4799   -38.1627     5.0408     5.0397     6.6217
 2499.5000   142.0906    11.0301     0.0000     2.4883   -38.1642     4.8349     5.0387     6.7109
 2500.0000   143.8416    11.0291    -0.0030     2.4823   -38.4615     4.7018     5.0146     6.8955
 2500.5000   144.9112    11.0282    -0.0030     2.4646   -38.4630     4.5723     4.9676     6.8922
 2501.0000   145.6012    11.0567    -0.0030     2.4591   -38.7604     4.4464     4.9666     6.8889
 2501.5000   144.5436    11.0557    -0.0021     2.4751   -38.7618     4.3240     4.9656     6.6057
 2502.0000   143.0830    11.0842     0.0001     2.4925   -38.7633     4.2633     4.9645     6.1614
 2502.5000   142.3754    11.1126     0.0031     2.5114   -38.7648     4.2035     4.9635     6.2442
 2503.0000   143.4954    11.1116     0.0061     2.5214   -38.7663     4.1445     4.9542     6.5961
 2503.5000   144.8759    11.1107     0.0091     2.5299   -38.4719     4.0863     4.9517     6.9679
 2504.0000   146.0430    11.1266     0.0091     2.5198   -38.4734     4.0849     4.9493     6.8689
 2504.5000   146.4809    11.1383     0.0091     2.5129   -38.1790     4.0835     4.9469     6.5865
 2505.0000   146.4125    11.1373     0.0091     2.5129   -38.1805     4.0821     4.8100     6.5833
 2505.5000   145.4045    11.1365     0.0091     2.5111   -38.1819     4.0781     4.7418     6.5801
 2506.0000   143.9475    11.1356     0.0092     2.4991   -38.1716     4.0726     4.6106     6.5747
 2506.5000   142.2563    11.1347     0.0092     2.4780   -37.8763     4.0706     4.5453     6.5679
 2507.0000   141.4956    11.1338     0.0062     2.4869   -37.5712     4.0686     4.5431     6.5643
 2507.5000   141.8426    11.1330     0.0062     2.4958   -36.4576     4.0666     4.6678     6.5208
