~VERSION INFORMATION
 VERS.                2.0:   CWLS LOG ASCII STANDARD - VERSION 2.0
 WRAP.                 NO:   ONE LINE PER DEPTH STEP
~WELL INFORMATION
#MNEM.UNIT      DATA TYPE    INFORMATION
#----------   ------------   ------------------------------
 STRT.F            0.0000:   START DEPTH
 STOP.F         3205.0000:   STOP DEPTH
 STEP.F            0.5000:   STEP LENGTH
 NULL.          -999.2500:   NO VALUE
 COMP. LAWRENCE-ALLISON AND ASSOCIATES:   COMPANY
 WELL. LAWRENCE "X" #64-28:   WELL
 FLD .          N.P.R. #3:   FIELD
 LOC .      S28 T39N R78W:   LOCATION
 CNTY.            NATRONA:   COUNTY
 STAT.            WYOMING:   STATE
 CTRY. UNITED STATES OF AMERICA:   COUNTRY
 SRVC.      DRESSER ATLAS:   SERVICE COMPANY
 DATE.        25-MAY-1986:   LOGDATE
 API .     49025110730000:   API NUMBER
~CURVE INFORMATION
#MNEM.UNIT       API CODE    CURVE DESCRIPTION
#----------   ------------   ------------------------------
 DEPT.F                  :   
 GRR .GAPI   07 310 01 00:   GAMMA RAY FROM RESISTIVITY
 SPR .MV     07 010 01 00:   SPONTANEOUS POTENTIAL
 RILD.OHMM   07 120 46 00:   DEEP INDUCTION RESISTIVITY
 RILM.OHMM   07 120 44 00:   INDUCTION LOG MEDIUM RESISTIVITY
 RSFL.OHMM   07 221 01 00:   AMPPLIFIED SHALLOW FOCUSED LOG RESISTIVITY
 TENR.LBS    07 635 01 00:   TENSION FROM RESISTIVITY
 CNC .DEC    42 890 03 00:   NEUTRON POROSITY SANDSTONE
 CALD.IN     45 280 60 00:   CALIPER FROM DENSITY LOG
 DEN .G/C3   45 350 01 00:   BULK DENSITY
 CORR.G/C3   45 356 01 00:   DENSITY CORRECTION
 TEND.LBS    45 635 01 00:   TENSION FROM DENSITY LOG
~PARAMETER INFORMATION
#MNEM.UNIT          VALUE    DESCRIPTION
#----------   ------------   ------------------------------
 EKB .F         5070.0000:   Kelly bushing
 EGL .F         5058.0000:   Ground level
 TD  .F         3205.0000:   Total depth
 DATE.        25-MAY-1986:   Date logged
 CLNT.            A2DTECH:   Client Code
 SL  . 2248' FNL & 1636' FEL:   Surface Location
 PD  .                 GL:   Permanent Datum
 EPD .F              5058:   Elevation Permanent Datum
 LMF .                 KB:   Log Measured From
 DMF .                 KB:   Drilling Measured From
 DAPD.F                12:   Feet Above Permanent Datum
 DD  .F              3205:   Depth driller
 DL  .F              3203:   Depth logger
 BLI .F              3201:   Bottom log interval
 CS1 .IN            8.625:   Casing size
 CBD1.      8.625" @ 476':   Casing driller 1
 CBL1.F               478:   Casing logger 1
 BS1 .IN            7.875:   Bit size
 BSD1.F              3205:   Depth drilled with bit1
 DFT .        POLYMER-KCL:   Type fluid in hole
 DFD .                  9:   Density
 DFV .                 37:   Viscosity
 DFPH.                8.5:   pH
 DFL .                 10:   Fluid loss
 MSS .           FLOWLINE:   Source of sample
 RMS .OHMM           0.31:   Rm
 MST .F                69:   Rm Meas. temp.
 RMF .OHMM           0.25:   Rmf
 MFST.F                69:   Rmf Meas. temp.
 RMC .OHMM           0.39:   Rmc
 MCST.F                69:   Rmc Meas. temp.
 MFSS.               MEAS:   Source Rmf.
 MCSS.               CALC:   Source Rmc.
 RMB .OHMM           0.19:   Rm. at BHT
 BHT .F               115:   BHT.
 TCS .HRS               4:   Time Circ. stopped
 MRT .F               115:   Maximum recorded temp.
 LUN .            HL-6274:   Logging unit number
 LUL .           GILLETTE:   Logging unit location
 ENGI.             RAUTIO:   Recorded By
 WITN.             STRONG:   Witnessed by
 ORIG.           5" PRINT:   Origin of data
 UWI .     49025110730000:   Unique Well ID
 DICO. A2D TECHNOLOGIES, INC.:   Digitizing Company
~OTHER INFORMATION
~A    DEPT     GRR        SPR       RILD       RILM       RSFL       TENR        CNC       CALD        DEN       CORR       TEND   
# ...
 1738.5000   111.5030   -50.5380     7.0690     7.2850     8.4450   -19.7270  -999.2500  -999.2500  -999.2500  -999.2500  -999.2500
 1739.0000   105.7900   -50.3310     7.1110     7.3100     8.5460   -23.9350  -999.2500  -999.2500  -999.2500  -999.2500  -999.2500
 1739.5000   104.8870   -50.1130     7.0620     7.2630     8.4170   -28.1440  -999.2500  -999.2500  -999.2500  -999.2500  -999.2500
 1740.0000   108.0380   -49.9060     7.0030     7.2250     8.1250   -32.3520  -999.2500  -999.2500  -999.2500  -999.2500  -999.2500
 1740.5000   110.2390   -49.8620     6.9450     7.1860     7.7960   -36.5600  -999.2500  -999.2500  -999.2500  -999.2500  -999.2500
 1741.0000   108.2550   -49.9830     6.8860     7.1480     7.8490   -40.7680  -999.2500  -999.2500  -999.2500  -999.2500  -999.2500
 1741.5000   106.1800   -50.1060     6.8280     7.1100     7.9100   -45.4090  -999.2500  -999.2500  -999.2500  -999.2500  -999.2500
 1742.0000   107.4050   -50.2330     6.7690     7.0720     7.8870   -42.5770  -999.2500  -999.2500  -999.2500  -999.2500  -999.2500
 1742.5000   110.2670   -50.3450     6.7440     7.0580     7.7810   -39.4210  -999.2500  -999.2500  -999.2500  -999.2500  -999.2500
 1743.0000   111.2190   -50.4860     6.7920     7.0940     7.6750   -36.2650  -999.2500  -999.2500  -999.2500  -999.2500  -999.2500
 1743.5000   109.5020   -50.5880     6.8400     7.1310     7.6540   -33.1090  -999.2500  -999.2500  -999.2500  -999.2500  -999.2500
 1744.0000   108.3700   -50.4520     6.8870     7.1770     7.7690   -29.9530  -999.2500  -999.2500  -999.2500  -999.2500  -999.2500
 1744.5000   110.9830   -50.2540     6.8870     7.1010     7.8910   -26.7960  -999.2500  -999.2500  -999.2500  -999.2500  -999.2500
 1745.0000   117.1600   -50.1140     6.8030     7.0020     8.0130   -27.2030  -999.2500  -999.2500  -999.2500  -999.2500  -999.2500
 1745.5000   120.9800   -49.9190     6.7190     6.9030     8.0880   -30.2640  -999.2500  -999.2500  -999.2500  -999.2500  -999.2500
 1746.0000   121.5360   -49.8120     6.6350     6.8040     7.8440   -33.3240  -999.2500  -999.2500  -999.2500  -999.2500  -999.2500
 1746.5000   124.5320   -49.9460     6.5510     6.7050     7.8070   -36.3850  -999.2500  -999.2500  -999.2500  -999.2500  -999.2500
 1747.0000   126.2560   -50.1260     6.4860     6.6060     7.9400   -39.4450  -999.2500  -999.2500  -999.2500  -999.2500  -999.2500
 1747.5000   120.7970   -50.0780     6.3180     6.5070     7.8680   -42.5060  -999.2500  -999.2500  -999.2500  -999.2500  -999.2500
 1748.0000   112.9910   -49.8410     6.1810     6.4080     7.3130   -45.4090  -999.2500  -999.2500  -999.2500  -999.2500  -999.2500
 1748.5000   109.5140   -49.5810     6.0440     6.3080     6.9810   -36.0400  -999.2500  -999.2500  -999.2500  -999.2500  -999.2500
 1749.0000   111.1480   -49.3220     5.9820     6.2090     6.9220   -27.1280  -999.2500  -999.2500  -999.2500  -999.2500  -999.2500
 1749.5000   115.8410   -49.0870     6.0030     6.1380     7.3770   -15.4690  -999.2500  -999.2500  -999.2500  -999.2500  -999.2500
 1750.0000   118.7190   -48.8040     6.0270     6.2240     7.3100   -19.5850  -999.2500  -999.2500  -999.2500  -999.2500  -999.2500
 1750.5000   115.8390   -48.6170     6.1060     6.3100     7.0590   -25.5350  -999.2500  -999.2500  -999.2500  -999.2500  -999.2500
 1751.0000   111.7230   -48.7470     6.1940     6.3970     6.6070   -31.4860  -999.2500  -999.2500  -999.2500  -999.2500  -999.2500
 1751.5000   109.9450   -48.9320     6.2810     6.5180     7.0810   -32.3260  -999.2500  -999.2500  -999.2500  -999.2500  -999.2500
 1752.0000   110.1770   -49.0570     6.3690     6.6680     7.7300   -23.1260  -999.2500  -999.2500  -999.2500  -999.2500  -999.2500
 1752.5000   113.0190   -49.2220     6.4570     6.6980     8.2380   -15.4690  -999.2500  -999.2500  -999.2500  -999.2500  -999.2500
 1753.0000   114.5840   -49.3690     6.5460     6.7370     8.1410   -30.2400  -999.2500  -999.2500  -999.2500  -999.2500  -999.2500
 1753.5000   112.3350   -49.5160     6.5850     6.7760     8.0170   -30.4560  -999.2500  -999.2500  -999.2500  -999.2500  -999.2500
 1754.0000   108.8440   -49.6750     6.6240     6.8160     7.8920   -22.0230  -999.2500  -999.2500  -999.2500  -999.2500  -999.2500
 1754.5000   106.7300   -49.8170     6.6630     6.8540     7.7960   -15.4690  -999.2500  -999.2500  -999.2500  -999.2500  -999.2500
 1755.0000   106.3710   -49.9740     6.7020     6.8100     7.7470   -36.0940  -999.2500  -999.2500  -999.2500  -999.2500  -999.2500
 1755.5000   105.6670   -50.1220     6.7410     6.7670     7.7070   -55.3890  -999.2500  -999.2500  -999.2500  -999.2500  -999.2500
 1756.0000   105.1630   -50.0860     6.7800     6.7230     7.6670   -48.7230  -999.2500  -999.2500  -999.2500  -999.2500  -999.2500
 1756.5000   105.8870   -49.8560     6.8190     6.6800     7.7940   -38.6030  -999.2500  -999.2500  -999.2500  -999.2500  -999.2500
 1757.0000   108.4510   -49.6210     6.8540     6.6370     8.0030   -25.4490  -999.2500  -999.2500  -999.2500  -999.2500  -999.2500
 1757.5000   114.1280   -49.3900     6.8900     6.6070     8.2130   -30.9000  -999.2500  -999.2500  -999.2500  -999.2500  -999.2500
 1758.0000   118.2210   -49.1570     6.9220     6.7210     8.3140   -38.6840  -999.2500  -999.2500  -999.2500  -999.2500  -999.2500
 1758.5000   116.2330   -48.9240     6.9540     6.8090     7.6580   -45.4090  -999.2500  -999.2500  -999.2500  -999.2500  -999.2500
 1759.0000   111.0800   -48.6910     6.9870     6.8960     7.0460   -28.1640  -999.2500  -999.2500  -999.2500  -999.2500  -999.2500
 1759.5000   107.0900   -48.5690     7.0190     6.9840     7.2430   -15.4690  -999.2500  -999.2500  -999.2500  -999.2500  -999.2500
 1760.0000   103.8180   -48.4830     7.0460     7.0710     9.4160   -25.2830  -999.2500  -999.2500  -999.2500  -999.2500  -999.2500
 1760.5000   100.4720   -48.4050     7.0030     7.1770    10.4610   -35.4290  -999.2500  -999.2500  -999.2500  -999.2500  -999.2500
 1761.0000   100.1480   -48.4720     6.9670     7.1160     9.7700   -32.0690  -999.2500  -999.2500  -999.2500  -999.2500  -999.2500
 1761.5000   101.8820   -48.6250     6.9310     7.0400     8.9030   -27.8530  -999.2500  -999.2500  -999.2500  -999.2500  -999.2500
 1762.0000   104.3820   -48.7420     6.8600     6.9640     8.0360   -28.1690  -999.2500  -999.2500  -999.2500  -999.2500  -999.2500
 1762.5000   108.9210   -48.8810     6.7680     6.8880     7.7630   -34.4940  -999.2500  -999.2500  -999.2500  -999.2500  -999.2500
 1763.0000   114.0020   -49.0020     6.6760     6.8120     7.8240   -40.8180  -999.2500  -999.2500  -999.2500  -999.2500  -999.2500
 1763.5000   118.4280   -48.8730     6.5840     6.7360     7.8680   -45.4090  -999.2500  -999.2500  -999.2500  -999.2500  -999.2500
 1764.0000   120.8930   -48.7620     6.4910     6.6600     7.7710   -31.5940  -999.2500  -999.2500  -999.2500  -999.2500  -999.2500
 1764.5000   121.3340   -48.6850     6.4270     6.6070     7.6810   -20.7510  -999.2500  -999.2500  -999.2500  -999.2500  -999.2500
 1765.0000   121.3920   -48.4940     6.4610     6.6470     7.5840   -19.0180  -999.2500  -999.2500  -999.2500  -999.2500  -999.2500
 1765.5000   122.1960   -48.5280     6.4880     6.6790     7.7060   -30.2620  -999.2500  -999.2500  -999.2500  -999.2500  -999.2500
 1766.0000   123.4510   -48.3720     6.5140     6.7100     7.8400   -45.4090  -999.2500  -999.2500  -999.2500  -999.2500  -999.2500
 1766.5000   123.1430   -48.7230     6.5410     6.7410     7.9730   -35.7450  -999.2500  -999.2500  -999.2500  -999.2500  -999.2500
 1767.0000   121.2270   -49.8810     6.5670     6.7720     8.1060   -25.4490  -999.2500  -999.2500  -999.2500  -999.2500  -999.2500
 1767.5000   120.7540   -50.2370     6.5940     6.7950     8.0890   -30.7050  -999.2500  -999.2500  -999.2500  -999.2500  -999.2500
 1768.0000   122.3940   -50.4340     6.6200     6.8060     7.9620   -37.4520  -999.2500  -999.2500  -999.2500  -999.2500  -999.2500
 1768.5000   121.8330   -50.8170     6.6460     6.8160     7.8360   -45.4090  -999.2500  -999.2500  -999.2500  -999.2500  -999.2500
