~VERSION INFORMATION
 VERS.                2.0:   CWLS LOG ASCII STANDARD - VERSION 2.0
 WRAP.                 NO:   ONE LINE PER DEPTH STEP
~WELL INFORMATION
#MNEM.UNIT      DATA TYPE    INFORMATION
#----------   ------------   ------------------------------
 STRT.F          450.0000:   START DEPTH
 STOP.F         3070.0000:   STOP DEPTH
 STEP.F            0.5000:   STEP LENGTH
 NULL.          -999.2500:   NO VALUE
 COMP. LAWRENCE ALLISON & ASSOCIATES:   COMPANY
 WELL. LAWRENCE "X" #86-28:   WELL
 FLD .             NPR #3:   FIELD
 LOC .      S28 T39N R78W:   LOCATION
 CNTY.            NATRONA:   COUNTY
 STAT.            WYOMING:   STATE
 CTRY. UNITED STATES OF AMERICA:   COUNTRY
 SRVC.      WESTERN ATLAS:   SERVICE COMPANY
 DATE.        03-JAN-1988:   LOGDATE
 API .     49025111920000:   API NUMBER
~CURVE INFORMATION
#MNEM.UNIT       API CODE    CURVE DESCRIPTION
#----------   ------------   ------------------------------
 DEPT.F                  :   
 TEND.LBS    45 635 01 00:   TENSION FROM DENSITY LOG
 CALD.IN     45 280 60 00:   CALIPER FROM DENSITY LOG
 NPHI.DEC    42 890 03 00:   NEUTRON POROSITY SANDSTONE
 DEN .G/C3   45 350 01 00:   BULK DENSITY
 CORR.G/C3   45 356 01 00:   DENSITY CORRECTION
 TENR.LBS    07 635 01 00:   TENSION FROM RESISTIVITY
 RFOC.OHMM   07 220 04 00:   RESISTIVITY FOCUSED LOG RES.
 RILD.OHMM   07 120 46 00:   DEEP INDUCTION RESISTIVITY
 RILM.OHMM   07 120 44 00:   INDUCTION LOG MEDIUM RESISTIVITY
 SPR .MV     07 010 01 00:   SPONTANEOUS POTENTIAL
 GRR .GAPI   07 310 01 00:   GAMMA RAY FROM RESISTIVITY
~PARAMETER INFORMATION
#MNEM.UNIT          VALUE    DESCRIPTION
#----------   ------------   ------------------------------
 EKB .F         5072.0000:   Kelly bushing
 EGL .F         5061.0000:   Ground level
 EDF .F         5071.0000:   Drilling floor
 TD  .F         3062.0000:   Total depth
 DATE.        03-JAN-1988:   Date logged
 CLNT.            A2DTECH:   Client Code
 SL  . 1721' FSL & 556' FEL:   Surface Location
 PD  .                 GL:   Permanent Datum
 DD  .F              3060:   Depth driller
 DL  .F              3062:   Depth logger
 BLI .F              3060:   Bottom log interval
 CS1 .IN            8.625:   Casing size
 CBD1.      8.625" @ 480':   Casing driller 1
 CBL1.F               480:   Casing logger 1
 BS1 .IN            7.875:   Bit size
 DFT .        KCL-POLYMER:   Type fluid in hole
 DFD .                8.9:   Density
 DFV .                 36:   Viscosity
 DFPH.                9.5:   pH
 DFL .                8.4:   Fluid loss
 MSS .               TANK:   Source of sample
 RMS .OHMM           0.45:   Rm
 MST .F                80:   Rm Meas. temp.
 RMF .OHMM           0.41:   Rmf
 MFST.F                60:   Rmf Meas. temp.
 RMC .OHMM           0.65:   Rmc
 MCST.F                60:   Rmc Meas. temp.
 MFSS.               MEAS:   Source Rmf.
 RMB .OHMM           0.31:   Rm. at BHT
 BHT .F               110:   BHT.
 TCS .HRS               4:   Time Circ. stopped
 MRT .F               110:   Maximum recorded temp.
 LUN .            HL 6343:   Logging unit number
 LUL .               CODY:   Logging unit location
 ENGI.               RALL:   Recorded By
 WITN.              FIVRS:   Witnessed by
 ORIG.     2.5", 5" PRINT:   Origin of data
 UWI .     49025111920000:   Unique Well ID
 DICO. A2D TECHNOLOGIES, INC.:   Digitizing Company
 DAPD.                 11:   Feet Above Permanent Datum
 BSD1.               3060:   Depth drilled with bit1
 MCSS.               CALC:   Source Rmc.
 EPD .               5061:   Elevation Permanent Datum
 LMF .                 KB:   Log Measured From
 DMF .                 KB:   Drilling Measured From
 TLI .                480:   Top log interval
~OTHER INFORMATION
~A   DEPT     TEND       CALD       NPHI        DEN       CORR       TENR       RFOC       RILD       RILM        SPR         GRR  
# ...
  816.0000  -999.2500  -999.2500  -999.2500  -999.2500  -999.2500   -52.2310     9.8660     9.3680     9.8070   -15.2190    96.1080
  816.5000  -999.2500  -999.2500  -999.2500  -999.2500  -999.2500   -52.2310     9.8660     9.3960     9.7820   -14.9790    95.4380
  817.0000  -999.2500  -999.2500  -999.2500  -999.2500  -999.2500   -52.2310     9.8660     9.4140     9.7570   -14.6290    94.9930
  817.5000  -999.2500  -999.2500  -999.2500  -999.2500  -999.2500   -52.2310     9.8660     9.4140     9.7320   -14.2770    95.1690
  818.0000  -999.2500  -999.2500  -999.2500  -999.2500  -999.2500   -52.2310     9.8660     9.4140     9.7060   -13.9240    95.3970
  818.5000  -999.2500  -999.2500  -999.2500  -999.2500  -999.2500   -52.2310     9.8660     9.4140     9.6810   -13.5690    98.1210
  819.0000  -999.2500  -999.2500  -999.2500  -999.2500  -999.2500   -52.2310     9.8660     9.4140     9.6560   -13.2180   101.1050
  819.5000  -999.2500  -999.2500  -999.2500  -999.2500  -999.2500   -52.2310     9.8660     9.4140     9.6310   -13.2540   101.9490
  820.0000  -999.2500  -999.2500  -999.2500  -999.2500  -999.2500   -52.2310     9.8560     9.4140     9.6060   -13.3110   100.5730
  820.5000  -999.2500  -999.2500  -999.2500  -999.2500  -999.2500   -52.2310     9.8410     9.4140     9.5810   -13.3640   101.0970
  821.0000  -999.2500  -999.2500  -999.2500  -999.2500  -999.2500   -52.2310     9.8270     9.4150     9.5550   -13.3720   101.1150
  821.5000  -999.2500  -999.2500  -999.2500  -999.2500  -999.2500   -52.2310     9.8120     9.4150     9.5300   -13.1770   100.3310
  822.0000  -999.2500  -999.2500  -999.2500  -999.2500  -999.2500   -52.2310     9.7980     9.3600     9.5030   -12.9810   100.1650
  822.5000  -999.2500  -999.2500  -999.2500  -999.2500  -999.2500   -52.2310     9.7840     9.3110     9.4670   -12.8240   101.3460
  823.0000  -999.2500  -999.2500  -999.2500  -999.2500  -999.2500   -52.2310     9.7490     9.2620     9.4280   -13.3770   102.5700
  823.5000  -999.2500  -999.2500  -999.2500  -999.2500  -999.2500   -52.2310     9.6760     9.2130     9.3900   -13.9360   101.8730
  824.0000  -999.2500  -999.2500  -999.2500  -999.2500  -999.2500   -52.2310     9.6030     9.1640     9.3510   -14.0970   101.1200
  824.5000  -999.2500  -999.2500  -999.2500  -999.2500  -999.2500   -52.2310     9.5300     9.1140     9.2310   -14.1940    99.9390
  825.0000  -999.2500  -999.2500  -999.2500  -999.2500  -999.2500   -53.2450     9.4570     9.0650     9.1850   -14.2910    97.2620
  825.5000  -999.2500  -999.2500  -999.2500  -999.2500  -999.2500   -54.2740     9.3840     9.0160     9.1380   -14.3860    96.1050
  826.0000  -999.2500  -999.2500  -999.2500  -999.2500  -999.2500   -55.3020     9.3110     8.9670     9.0920   -14.5990    95.7630
  826.5000  -999.2500  -999.2500  -999.2500  -999.2500  -999.2500   -56.3310     9.2380     8.9180     9.0450   -14.8520    95.7660
  827.0000  -999.2500  -999.2500  -999.2500  -999.2500  -999.2500   -57.3590     9.1650     8.8880     8.9980   -15.1080    96.1500
  827.5000  -999.2500  -999.2500  -999.2500  -999.2500  -999.2500   -58.3870     9.0920     8.8690     8.9520   -15.1310    97.5060
  828.0000  -999.2500  -999.2500  -999.2500  -999.2500  -999.2500   -59.4160     9.0680     8.8510     8.9050   -14.9710   100.1240
  828.5000  -999.2500  -999.2500  -999.2500  -999.2500  -999.2500   -60.4440     9.0680     8.8320     8.8590   -14.8610   100.3860
  829.0000  -999.2500  -999.2500  -999.2500  -999.2500  -999.2500   -61.4730     9.0680     8.8130     8.8180   -14.9940   100.5330
  829.5000  -999.2500  -999.2500  -999.2500  -999.2500  -999.2500   -62.3730     9.0680     8.7940     8.8280   -14.9780   101.4070
  830.0000  -999.2500  -999.2500  -999.2500  -999.2500  -999.2500   -62.3730     9.0680     8.7760     8.8370   -14.9510   102.7280
  830.5000  -999.2500  -999.2500  -999.2500  -999.2500  -999.2500   -62.1780     9.0590     8.7570     8.8460   -14.9240   104.0530
  831.0000  -999.2500  -999.2500  -999.2500  -999.2500  -999.2500   -60.8920     9.0420     8.7380     8.8550   -14.8970   105.4080
  831.5000  -999.2500  -999.2500  -999.2500  -999.2500  -999.2500   -59.6070     9.0240     8.7190     8.8640   -14.8700   105.5080
  832.0000  -999.2500  -999.2500  -999.2500  -999.2500  -999.2500   -58.3220     9.0070     8.7010     8.8730   -14.8430   102.9130
  832.5000  -999.2500  -999.2500  -999.2500  -999.2500  -999.2500   -57.0360     8.9890     8.6820     8.8820   -14.8190   100.2250
  833.0000  -999.2500  -999.2500  -999.2500  -999.2500  -999.2500   -55.7510     8.9720     8.6630     8.8920   -14.8020    99.7290
  833.5000  -999.2500  -999.2500  -999.2500  -999.2500  -999.2500   -54.4650     8.9550     8.6440     8.9000   -14.7680    99.2760
  834.0000  -999.2500  -999.2500  -999.2500  -999.2500  -999.2500   -53.1800     8.9370     8.6260     8.9000   -14.7340    98.2010
  834.5000  -999.2500  -999.2500  -999.2500  -999.2500  -999.2500   -52.2310     8.9200     8.6070     8.9000   -14.7000    95.2250
  835.0000  -999.2500  -999.2500  -999.2500  -999.2500  -999.2500   -52.2310     8.9020     8.5880     8.9000   -14.6670    94.5970
  835.5000  -999.2500  -999.2500  -999.2500  -999.2500  -999.2500   -52.2310     8.9000     8.5690     8.9000   -14.6300    96.6380
  836.0000  -999.2500  -999.2500  -999.2500  -999.2500  -999.2500   -52.2310     8.9000     8.5510     8.9000   -14.5960    98.9120
  836.5000  -999.2500  -999.2500  -999.2500  -999.2500  -999.2500   -52.2310     8.9000     8.5320     8.9000   -14.8430    99.5740
  837.0000  -999.2500  -999.2500  -999.2500  -999.2500  -999.2500   -52.2310     8.9000     8.5130     8.9000   -14.9910    99.3170
  837.5000  -999.2500  -999.2500  -999.2500  -999.2500  -999.2500   -52.2310     8.9000     8.4930     8.9000   -15.1450    96.6710
  838.0000  -999.2500  -999.2500  -999.2500  -999.2500  -999.2500   -52.2310     8.8990     8.5230     8.9000   -15.2950    97.8460
  838.5000  -999.2500  -999.2500  -999.2500  -999.2500  -999.2500   -52.2310     8.9360     8.5610     8.9000   -15.4450   101.9100
  839.0000  -999.2500  -999.2500  -999.2500  -999.2500  -999.2500   -52.2310     9.0320     8.6000     8.9000   -15.5940   105.2010
  839.5000  -999.2500  -999.2500  -999.2500  -999.2500  -999.2500   -52.2310     9.1270     8.6390     8.9000   -15.7440   102.9020
  840.0000  -999.2500  -999.2500  -999.2500  -999.2500  -999.2500   -52.2310     9.2400     8.6540     8.9000   -15.8550   100.3820
  840.5000  -999.2500  -999.2500  -999.2500  -999.2500  -999.2500   -52.2310     9.2100     8.6390     8.9150   -15.9200    99.4560
  841.0000  -999.2500  -999.2500  -999.2500  -999.2500  -999.2500   -52.2310     9.1740     8.6260     8.9330   -15.9810   102.6960
  841.5000  -999.2500  -999.2500  -999.2500  -999.2500  -999.2500   -52.2310     9.1380     8.6140     8.9500   -15.9440   104.4230
  842.0000  -999.2500  -999.2500  -999.2500  -999.2500  -999.2500   -52.2310     9.1010     8.6020     8.9680   -15.6090   103.2040
  842.5000  -999.2500  -999.2500  -999.2500  -999.2500  -999.2500   -52.2310     9.0680     8.5900     8.9840   -15.2840   101.1790
  843.0000  -999.2500  -999.2500  -999.2500  -999.2500  -999.2500   -52.2310     9.0190     8.5760     8.9840   -14.9570    99.1320
  843.5000  -999.2500  -999.2500  -999.2500  -999.2500  -999.2500   -52.2310     8.9730     8.5400     8.8900   -14.6270    97.0500
  844.0000  -999.2500  -999.2500  -999.2500  -999.2500  -999.2500   -52.2310     8.9280     8.4770     8.8180   -14.5110    96.2200
  844.5000  -999.2500  -999.2500  -999.2500  -999.2500  -999.2500   -52.2310     8.8830     8.4130     8.7460   -14.4040    97.7220
  845.0000  -999.2500  -999.2500  -999.2500  -999.2500  -999.2500   -52.2310     8.8370     8.3490     8.6730   -14.2950    99.7530
  845.5000  -999.2500  -999.2500  -999.2500  -999.2500  -999.2500   -52.2310     8.8170     8.2850     8.6010   -14.1860   101.7980
  846.0000  -999.2500  -999.2500  -999.2500  -999.2500  -999.2500   -52.2310     8.8170     8.2210     8.5290   -14.0790   103.8120
