~VERSION INFORMATION
 VERS.                2.0:   CWLS LOG ASCII STANDARD - VERSION 2.0
 WRAP.                 NO:   ONE LINE PER DEPTH STEP
~WELL INFORMATION
#MNEM.UNIT      DATA TYPE    INFORMATION
#----------   ------------   ------------------------------
 STRT.F          500.0000:   START DEPTH
 STOP.F         4646.0000:   STOP DEPTH
 STEP.F            0.5000:   STEP LENGTH
 NULL.          -999.2500:   NO VALUE
 COMP.    FENIX & SCISSON:   COMPANY
 WELL. LAWRENCE NPR 3 "X" #34-10:   WELL
 FLD .                NPR:   FIELD
 LOC .      S10 T38N R78W:   LOCATION
 CNTY.            NATRONA:   COUNTY
 STAT.            WYOMING:   STATE
 CTRY. UNITED STATES OF AMERICA:   COUNTRY
 SRVC.              WELEX:   SERVICE COMPANY
 DATE.        12-OCT-1979:   LOGDATE
 API .     49025109290000:   API NUMBER
~CURVE INFORMATION
#MNEM.UNIT       API CODE    CURVE DESCRIPTION
#----------   ------------   ------------------------------
 DEPT.F                  :   
 SPR .MV     07 010 01 00:   SPONTANEOUS POTENTIAL
 SGRD.OHMM   07 220 05 00:   SHALLOW GUARD LOG RESISTIVITY
 ILD .OHMM   07 120 46 00:   DEEP INDUCTION RESISTIVITY
 ILM .OHMM   07 120 44 00:   INDUCTION LOG MEDIUM RESISTIVITY
 TEND.LBS    45 635 01 00:   TENSION FROM DENSITY LOG
 CORR.G/C3   45 356 01 00:   DENSITY CORRECTION
 RHOB.G/C3   45 350 01 00:   BULK DENSITY
 NPHI.DEC    42 890 03 00:   NEUTRON POROSITY SANDSTONE
 GRD .GAPI   45 310 01 00:   GAMMA RAY FROM DENSITY LOG
 CALD.IN     45 280 60 00:   CALIPER FROM DENSITY LOG
~PARAMETER INFORMATION
#MNEM.UNIT          VALUE    DESCRIPTION
#----------   ------------   ------------------------------
 EKB .F         5234.0000:   Kelly bushing
 EGL .F         5224.0000:   Ground level
 EDF .F            0.0000:   Drilling floor
 TD  .F         4650.0000:   Total depth
 DATE.        12-OCT-1979:   Date logged
 CLNT.            A2DTECH:   Client Code
 SL  . 2055' FNL & 1509' FWL:   Surface Location
 PD  .                 GL:   Permanent Datum
 DD  .F              4650:   Depth driller
 DL  .F              4646:   Depth logger
 BLI .F              4644:   Bottom log interval
 CS1 .IN              500:   Casing size
 CBD1.      8.625" @ 500':   Casing driller 1
 CBL1.F               502:   Casing logger 1
 BS1 .IN            7.875:   Bit size
 DFT .           CHEM/GEL:   Type fluid in hole
 DFD .                8.8:   Density
 DFV .                 62:   Viscosity
 DFPH.               11.2:   pH
 DFL .                4.5:   Fluid loss
 MSS .            MUD/PIT:   Source of sample
 RMS .OHMM           1.18:   Rm
 MST .F                60:   Rm Meas. temp.
 RMF .OHMM            .94:   Rmf
 MFST.F                60:   Rmf Meas. temp.
 RMC .OHMM           1.41:   Rmc
 MCST.F                60:   Rmc Meas. temp.
 MFSS.               MEAS:   Source Rmf.
 RMB .OHMM            .81:   Rm. at BHT
 BHT .F                87:   BHT.
 TCS .HRS               2:   Time Circ. stopped
 MRT .F                87:   Maximum recorded temp.
 LUN .               1892:   Logging unit number
 LUL .             CASPER:   Logging unit location
 ENGI.               REIN:   Recorded By
 WITN.           DINSMORE:   Witnessed by
 ORIG.           5" PRINT:   Origin of data
 UWI .     49025109290000:   Unique Well ID
 DICO. A2D TECHNOLOGIES, INC.:   Digitizing Company
 DAPD.                 10:   Feet Above Permanent Datum
 BSD1.F              4650:   Depth drilled with bit1
 MCSS.               MEAS:   Source Rmc.
 EPD .F              5224:   Elevation Permanent Datum
 LMF .                 KB:   Log Measured From
 DMF .                 KB:   Drilling Measured From
 TLI .F               500:   Top log interval
~OTHER INFORMATION
~A   DEPT      SPR         SGRD      ILD         ILM      TEND         CORR       RHOB       NPHI       GRD        CALD 
# ...
 2409.5000   -34.7840     4.0210     2.8830     3.5020  1967.5040     0.1570     2.3780     0.1720   121.3630     8.8870
 2410.0000   -34.9520     3.9190     2.8590     3.3750  1966.9800     0.1600     2.3650     0.1700   120.4550     8.8830
 2410.5000   -35.1170     3.8140     2.9060     3.5340  1966.4550     0.1660     2.3530     0.1690   119.2910     8.8810
 2411.0000   -35.1950     3.7010     2.9390     3.4710  1965.9310     0.1640     2.3580     0.1640   120.6100     8.8790
 2411.5000   -35.0820     3.7630     2.9730     3.4060  1965.4060     0.1510     2.3630     0.1480   120.1460     8.8760
 2412.0000   -34.9720     3.8450     3.0070     3.4060  1964.8820     0.1370     2.3680     0.1330   117.6040     8.8740
 2412.5000   -34.8620     3.8750     3.0400     3.4780  1964.3571     0.1290     2.4040     0.1170   116.7550     8.8710
 2413.0000   -34.6220     3.7790     3.0740     3.5020  1963.8330     0.1320     2.4420     0.1150   118.7900     8.8690
 2413.5000   -34.3320     3.7010     3.1070     3.5020  1963.3080     0.1440     2.4540     0.1140   116.4470     8.8660
 2414.0000   -34.0420     3.6330     3.1360     3.5020  1962.7841     0.1460     2.4540     0.1130   114.5690     8.8640
 2414.5000   -33.8430     3.6770     3.1420     3.5020  1962.2590     0.1600     2.4570     0.1130   115.8460     8.8690
 2415.0000   -33.9160     3.7220     3.1490     3.4910  1961.7350     0.1810     2.4640     0.1180   117.1010     8.8730
 2415.5000   -33.9810     3.7700     3.1550     3.4740  1961.2111     0.1940     2.4590     0.1210   114.4240     8.8770
 2416.0000   -34.0470     3.6330     3.1610     3.4530  1960.6860     0.2000     2.4480     0.1190   110.7020     8.8810
 2416.5000   -34.1120     3.6670     3.1680     3.4300  1960.1620     0.1970     2.4390     0.1230   106.9600     8.8850
 2417.0000   -34.1770     3.5670     3.1740     3.4080  1959.6370     0.1970     2.4420     0.1230   104.4110     8.8890
 2417.5000   -34.2430     3.6360     3.1810     3.3750  1959.1130     0.2000     2.4440     0.1210   104.7320     8.8930
 2418.0000   -34.3080     3.7350     3.1870     3.4060  1958.5880     0.2000     2.4310     0.1190   111.5820     8.8970
 2418.5000   -34.3740     3.6340     3.1930     3.3820  1958.0640     0.1810     2.4170     0.1180   117.3620     8.9010
 2419.0000   -34.4390     3.5340     3.1930     3.3610  1957.5389     0.1630     2.4130     0.1210   115.7600     8.9050
 2419.5000   -34.5040     3.6330     3.1930     3.3400  1957.0150     0.1620     2.4390     0.1160   115.0960     8.9090
 2420.0000   -34.5700     3.5670     3.1930     3.3180  1956.4900     0.1650     2.4600     0.1180   115.7910     8.9130
 2420.5000   -34.6350     3.6280     3.1930     3.3130  1955.9659     0.1640     2.4540     0.1260   115.4320     8.9170
 2421.0000   -34.7010     3.7010     3.1930     3.3370  1955.4420     0.1460     2.4340     0.1340   113.2780     8.9210
 2421.5000   -34.7670     3.6000     3.1930     3.3570  1954.9170     0.1270     2.4130     0.1350   111.1270     8.9250
 2422.0000   -34.8250     3.6670     3.1920     3.4640  1954.3929     0.1320     2.4230     0.1340   111.4800     8.9300
 2422.5000   -34.7070     3.7650     3.2520     3.9840  1953.8680     0.1400     2.4190     0.1200   113.1030     8.9340
 2423.0000   -34.5830     3.8050     3.3050     3.9570  1953.3440     0.1310     2.4210     0.1150   113.1910     8.9380
 2423.5000   -34.4600     3.6260     3.3750     3.9220  1952.8190     0.1340     2.4400     0.1090   114.1020     8.9420
 2424.0000   -34.3370     3.4980     3.4060     3.8070  1952.2950     0.1420     2.4580     0.1040   117.1940     8.9460
 2424.5000   -34.2140     3.3940     3.3060     3.6530  1951.7700     0.1600     2.4760     0.1010   120.2320     8.9500
 2425.0000   -34.0910     3.3570     3.2390     3.4990  1951.2460     0.1780     2.4720     0.1040   122.2140     8.9540
 2425.5000   -33.9670     3.3210     3.1720     3.4280  1950.7220     0.1690     2.4680     0.1070   118.0260     8.9580
 2426.0000   -33.8440     3.2840     3.1050     3.3770  1950.1970     0.1590     2.4710     0.1120   117.1460     8.9620
 2426.5000   -33.7220     3.2530     3.0380     3.3260  1949.6730     0.1600     2.4760     0.1170   116.8910     8.9560
 2427.0000   -33.6740     3.2390     2.9820     3.3130  1949.1479     0.1700     2.4720     0.1230   116.2690     8.9400
 2427.5000   -33.8670     3.2230     2.9300     3.3130  1948.6240     0.1710     2.4570     0.1300   113.2990     8.9250
 2428.0000   -34.0500     3.2300     2.9120     3.4700  1948.0990     0.1650     2.4390     0.1360   110.3840     8.9470
 2428.5000   -34.2330     3.2390     2.9120     3.3130  1947.5750     0.1710     2.4200     0.1420   109.7190     8.9690
 2429.0000   -34.4160     3.2470     2.9120     3.3320  1947.0500     0.1700     2.4050     0.1500   106.3980     8.9910
 2429.5000   -34.5990     3.2670     2.9580     3.4040  1946.5260     0.1670     2.3950     0.1460   102.7250     9.0130
 2430.0000   -34.7820     3.3020     3.0740     3.5670  1946.0010     0.1670     2.3940     0.1410    99.0680     9.0360
 2430.5000   -34.9660     3.4240     3.1900     3.4380  1945.4771     0.1780     2.4040     0.1360    96.8360     9.0590
 2431.0000   -35.0820     3.7390     3.3070     3.8070  1944.9530     0.1870     2.4150     0.1340    99.9920     9.0350
 2431.5000   -35.1630     4.1140     3.4230     4.0280  1944.4280     0.1950     2.4220     0.1350   104.0320     8.9950
 2432.0000   -35.2210     4.4900     3.5340     4.2490  1943.9041     0.2190     2.4110     0.1370   104.3920     8.9550
 2432.5000   -35.1510     4.6600     3.6430     4.4500  1943.3790     0.2290     2.4000     0.1420   105.4960     8.9130
 2433.0000   -35.0840     4.3150     3.7710     4.3470  1942.8550     0.2330     2.3980     0.1470   107.3880     8.9100
 2433.5000   -35.0160     4.2110     3.8980     4.2500  1942.3300     0.2390     2.3970     0.1550   109.2890     8.9170
 2434.0000   -34.9490     4.5410     4.0260     4.2390  1941.8060     0.2420     2.3820     0.1620   111.2210     8.9250
 2434.5000   -34.8810     4.7030     4.0960     4.2270  1941.2810     0.2260     2.3670     0.1680   110.7860     8.9320
 2435.0000   -34.8140     4.6470     4.0650     4.2160  1940.7570     0.2090     2.3610     0.1690   108.7830     8.9400
 2435.5000   -34.7460     4.5560     4.0200     4.1610  1940.2321     0.1910     2.3750     0.1570   108.9730     8.9470
 2436.0000   -34.6790     4.3810     3.9690     4.1300  1939.7080     0.1790     2.3910     0.1460   109.9240     8.9550
 2436.5000   -34.6110     4.2110     3.8930     4.0980  1939.1840     0.1660     2.4000     0.1390   110.8160     8.9630
 2437.0000   -34.5430     4.1930     3.8400     4.0670  1938.6591     0.1530     2.4060     0.1400   110.3170     8.9550
 2437.5000   -34.4780     4.1720     3.8750     4.0580  1938.1350     0.1410     2.4210     0.1330   109.7590     8.9410
 2438.0000   -34.5560     4.4370     3.9500     4.1860  1937.6100     0.1450     2.4460     0.1190   107.0300     8.9260
 2438.5000   -34.9540     4.7160     4.0190     4.2820  1937.0861     0.1640     2.4660     0.1090   103.7700     8.9110
 2439.0000   -35.3450     4.9710     4.0870     4.3780  1936.5610     0.1590     2.4600     0.1100   102.7540     8.8970
 2439.5000   -35.6620     4.9860     4.1690     4.4740  1936.0370     0.1720     2.4530     0.1110   102.9550     8.8850
 2440.0000   -35.7780     5.0630     4.2780     4.5690  1935.5120     0.1610     2.4290     0.1190   104.9630     8.8920
 2440.5000   -35.8940     4.9250     4.3880     4.6650  1934.9880     0.1460     2.4050     0.1450   103.7730     8.8980
 2441.0000   -36.0100     4.9250     4.4970     4.7610  1934.4630     0.1090     2.3710     0.1500   101.0760     8.9050
 2441.5000   -36.1260     5.1300     4.6060     4.8570  1933.9390     0.0860     2.4050     0.1400    98.3110     8.9110
 2442.0000   -36.2420     5.2700     4.7160     4.9530  1933.4150     0.0980     2.4870     0.1140    95.6060     8.9170
 2442.5000   -36.3580     5.3510     4.8250     5.0490  1932.8900     0.1130     2.5220     0.0880    97.9990     8.9240
