~VERSION INFORMATION
 VERS.                2.0:   CWLS LOG ASCII STANDARD - VERSION 2.0
 WRAP.                 NO:   ONE LINE PER DEPTH STEP
~WELL INFORMATION
#MNEM.UNIT      DATA TYPE    INFORMATION
#----------   ------------   ------------------------------
 STRT.F          480.0000:   START DEPTH
 STOP.F         4609.5000:   STOP DEPTH
 STEP.F            0.5000:   STEP LENGTH
 NULL.          -999.2500:   NO VALUE
 COMP.   FENNIX & SCISSON:   COMPANY
 WELL. FENNIX NPR-3 "LX" #58-14:   WELL
 FLD .              NPR-3:   FIELD
 LOC .      S14 T38N R78W:   LOCATION
 CNTY.            NATRONA:   COUNTY
 STAT.            WYOMING:   STATE
 CTRY. UNITED STATES OF AMERICA:   COUNTRY
 SRVC.       SCHLUMBERGER:   SERVICE COMPANY
 DATE.        08-MAR-1978:   LOGDATE
 API .     49025105920000:   API NUMBER
~CURVE INFORMATION
#MNEM.UNIT       API CODE    CURVE DESCRIPTION
#----------   ------------   ------------------------------
 DEPT.F                  :   
 SPR .MV     07 010 01 00:   SPONTANEOUS POTENTIAL
 SFL .OHMM   07 220 01 00:   SHALLOW FOCUSED LOG RESISTIVITY
 ILD .OHMM   07 120 46 00:   DEEP INDUCTION RESISTIVITY
 ILM .OHMM   07 120 44 00:   INDUCTION LOG MEDIUM RESISTIVITY
 CALD.IN     45 280 60 00:   CALIPER FROM DENSITY LOG
 GRD .GAPI   45 310 01 00:   GAMMA RAY FROM DENSITY LOG
 CORR.G/C3   45 356 01 00:   DENSITY CORRECTION
 RHOB.G/C3   45 350 01 00:   BULK DENSITY
 NPHI.DEC    42 890 03 00:   NEUTRON POROSITY SANDSTONE
~PARAMETER INFORMATION
#MNEM.UNIT          VALUE    DESCRIPTION
#----------   ------------   ------------------------------
 EKB .F         5320.0000:   Kelly bushing
 EGL .F         5310.0000:   Ground level
 EDF .F            0.0000:   Drilling floor
 TD  .F         4635.0000:   Total depth
 DATE.        08-MAR-1978:   Date logged
 CLNT.            A2DTECH:   Client Code
 SL  . 810' FSL & 1830' FEL:   Surface Location
 PD  .                 GL:   Permanent Datum
 DD  .F              4635:   Depth driller
 DL  .F              4608:   Depth logger
 BLI .F              4607:   Bottom log interval
 DFT .                FGM:   Type fluid in hole
 DFD .                9.1:   Density
 DFV .                 38:   Viscosity
 DFPH.                 11:   pH
 MSS .           FLOWLINE:   Source of sample
 RMS .OHMM           1.53:   Rm
 MST .F                58:   Rm Meas. temp.
 RMF .OHMM           1.06:   Rmf
 MFST.F                58:   Rmf Meas. temp.
 MFSS.               MEAS:   Source Rmf.
 RMB .OHMM           0.68:   Rm. at BHT
 BHT .F               131:   BHT.
 TCS .HRS            0630:   Time Circ. stopped
 MRT .F               131:   Maximum recorded temp.
 LUN .               8039:   Logging unit number
 LUL .               CSPP:   Logging unit location
 ENGI.           PETERSON:   Recorded By
 ORIG.           5" PRINT:   Origin of data
 UWI .     49025105920000:   Unique Well ID
 DICO. A2D TECHNOLOGIES, INC.:   Digitizing Company
 DAPD.                 20:   Feet Above Permanent Datum
 BSD1.               4635:   Depth drilled with bit1
 EPD .               5310:   Elevation Permanent Datum
 LMF .                 KB:   Log Measured From
 DMF .                 KB:   Drilling Measured From
 TLI .                508:   Top log interval
 CS1 .              8.625:   Casing size
 CBL1.                508:   Casing logger 1
 BS1 .              7.875:   Bit size
~OTHER INFORMATION
~A   DEPT      SPR        SFL        ILD        ILM       CALD         GRD      CORR       RHOB         NPHI 
# ...
 4312.5000   -39.2440     9.2670     6.2660     6.2040     8.1640   176.8680     0.0070     2.4620     0.2960
 4313.0000   -39.1890     9.6780     6.1020     6.5020     8.1750   179.3260     0.0010     2.4520     0.3090
 4313.5000   -39.1340     9.3390     5.9190     6.4090     8.1830   183.1170     0.0000     2.4530     0.3260
 4314.0000   -39.2010     8.6360     5.7360     6.2160     8.1900   186.9110     0.0040     2.4640     0.3430
 4314.5000   -39.4530     8.1890     5.5760     6.0240     8.1980   186.5310     0.0110     2.4850     0.3550
 4315.0000   -40.0230     7.9700     5.4190     5.8310     8.2050   181.8650     0.0160     2.5020     0.3540
 4315.5000   -40.9910     7.7470     5.2630     5.6390     8.2120   178.1570     0.0220     2.5070     0.3370
 4316.0000   -41.8530     7.5540     5.1130     5.4550     8.2200   178.1520     0.0300     2.5050     0.3250
 4316.5000   -42.2610     7.1460     4.9850     5.2660     8.2270   183.2500     0.0390     2.4950     0.3260
 4317.0000   -42.0270     6.7990     4.8630     5.0860     8.2350   184.9550     0.0430     2.4830     0.3330
 4317.5000   -41.5370     6.2090     4.7860     4.9060     8.2420   183.7920     0.0320     2.4720     0.3410
 4318.0000   -40.8390     6.1520     4.7700     4.8370     8.2500   178.8950     0.0210     2.4680     0.3480
 4318.5000   -40.1450     6.4790     4.7480     4.8770     8.2450   169.5310     0.0160     2.4740     0.3410
 4319.0000   -39.4470     7.0020     4.8210     4.9740     8.2350   163.2980     0.0120     2.4770     0.3330
 4319.5000   -38.7240     7.1810     4.9420     5.0720     8.2240   160.0730     0.0070     2.4700     0.3310
 4320.0000   -38.4630     7.3610     5.0660     5.1800     8.2140   157.2800     0.0010     2.4640     0.3300
 4320.5000   -38.3650     7.4010     5.2870     5.3560     8.2370   154.4690    -0.0040     2.4600     0.3280
 4321.0000   -38.2990     7.2660     5.5100     5.5310     8.2660   151.8620     0.0010     2.4650     0.3260
 4321.5000   -38.8390     7.0550     5.6200     5.8370     8.2950   152.0230     0.0050     2.4710     0.3240
 4322.0000   -39.3340     6.6560     5.6420     6.2660     8.3140   152.7610     0.0100     2.4710     0.3310
 4322.5000   -39.3930     6.2560     5.6600     6.5630     8.3210   162.1840     0.0080     2.4650     0.3370
 4323.0000   -39.4620     6.0950     5.6600     6.5190     8.3290   168.2170     0.0060     2.4590     0.3370
 4323.5000   -39.4130     6.6240     5.4650     6.4380     8.3190   172.0100     0.0030     2.4590     0.3270
 4324.0000   -39.1940     7.0670     5.0960     6.2370     8.2990   170.3990     0.0150     2.4630     0.3130
 4324.5000   -38.9750     7.0670     4.7270     5.7760     8.3050   169.0660     0.0400     2.4520     0.3090
 4325.0000   -38.7540     6.4460     4.4430     5.2280     8.3260   171.2270     0.0620     2.4370     0.3170
 4325.5000   -38.7140     5.5670     4.0950     4.4790     8.3450   170.7880     0.0850     2.4100     0.3260
 4326.0000   -38.7130     4.6880     3.8250     3.9750     8.4220   166.2260     0.0970     2.3810     0.3350
 4326.5000   -38.7140     3.8090     3.5650     3.7280     8.5040   156.2110     0.0840     2.3550     0.3510
 4327.0000   -38.7120     3.5080     3.4650     3.5220     8.4040   145.2010     0.0590     2.3550     0.3730
 4327.5000   -38.6090     3.4040     3.3720     3.4350     8.2920   140.6900     0.0640     2.3970     0.3670
 4328.0000   -37.9750     3.9360     3.3720     3.5170     8.2710   140.7160     0.0770     2.4450     0.3540
 4328.5000   -37.3510     4.6180     3.3720     3.5820     8.2690   143.3610     0.0540     2.4700     0.3300
 4329.0000   -37.4260     4.9730     3.3900     3.6310     8.2680   144.2100     0.0370     2.4650     0.3070
 4329.5000   -37.5240     4.9090     3.4290     3.6310     8.2660   145.0810     0.0170     2.4700     0.2790
 4330.0000   -37.5320     4.7610     3.4690     3.6310     8.2650   148.7540     0.0200     2.4790     0.2670
 4330.5000   -37.3050     4.5760     3.5320     3.6120     8.2630   151.7230     0.0400     2.4840     0.2830
 4331.0000   -37.0000     4.2070     3.5230     3.5810     8.2620   149.6990     0.0350     2.4710     0.2990
 4331.5000   -37.0980     3.8430     3.5010     3.5500     8.2600   146.5610     0.0240     2.4530     0.3050
 4332.0000   -37.3210     3.7680     3.4800     3.5030     8.2580   143.4150     0.0080     2.4500     0.2910
 4332.5000   -37.6380     4.2700     3.4580     3.5270     8.2570   142.1710    -0.0020     2.4630     0.2790
 4333.0000   -38.6130     4.7920     3.4350     3.6310     8.2550   142.8220     0.0010     2.4780     0.2830
 4333.5000   -39.6100     4.7180     3.4350     3.6000     8.2530   144.2530     0.0070     2.4920     0.2910
 4334.0000   -41.3670     4.6180     3.4350     3.5320     8.2520   144.7180     0.0180     2.5000     0.2980
 4334.5000   -43.0790     4.8260     3.4350     3.5940     8.2580   144.8550     0.0320     2.4990     0.3020
 4335.0000   -43.8600     4.9730     3.3930     3.6310     8.2630   144.9450     0.0470     2.4790     0.3060
 4335.5000   -44.0480     4.4840     3.2730     3.4830     8.2670   145.5110     0.0640     2.4420     0.3050
 4336.0000   -43.6390     3.9460     3.0700     3.3720     8.2590   149.3360     0.0990     2.4150     0.2950
 4336.5000   -42.7400     3.9940     2.8670     3.2340     8.3410   159.9600     0.1630     2.3600     0.3040
 4337.0000   -41.9660     4.0950     2.6760     3.0260     8.4260   170.7860     0.1760     2.2780     0.3270
 4337.5000   -41.5450     3.6380     2.5320     2.7700     8.5000   175.1790     0.1420     2.1760     0.3560
 4338.0000   -41.0060     2.8580     2.4970     2.5090     8.5340   171.7910     0.0870     2.1460     0.4170
 4338.5000   -40.1030     2.1440     2.4660     2.5200     8.5720   160.0750     0.1360     2.2560     0.4330
 4339.0000   -39.7900     2.5310     2.4540     2.5290     8.7750   152.8550     0.2100     2.4260     0.3900
 4339.5000   -39.5160     3.0700     2.4400     2.5560     9.2120   148.8440     0.2330     2.3920     0.3570
 4340.0000   -39.6340     3.4360     2.5140     2.5910     9.5730   146.4680     0.2380     2.3010     0.3420
 4340.5000   -39.7650     3.6050     2.6260     2.6530     9.6270   143.2970     0.2040     2.1590     0.3360
 4341.0000   -39.8940     3.7160     2.7380     2.7260     9.1080   142.7210     0.1710     2.1930     0.3300
 4341.5000   -40.0220     3.9120     2.8500     2.8770     8.8140   145.2790     0.1930     2.2490     0.3190
 4342.0000   -40.3280     4.0200     2.9360     3.0210     8.7060   149.0210     0.2210     2.2980     0.3070
 4342.5000   -40.7680     3.8600     2.8860     3.0460     9.0140   152.8860     0.2380     2.2190     0.3030
 4343.0000   -40.9500     3.5690     2.8450     2.9360     9.6680   154.6340     0.2100     2.0670     0.3130
 4343.5000   -41.1330     3.2780     2.7540     2.8370    10.3430   155.7100     0.1880     1.9500     0.3270
 4344.0000   -41.2930     3.0820     2.6310     2.7370    11.0120   154.8620     0.1790     1.9700     0.3550
 4344.5000   -41.2860     2.9830     2.5220     2.6370    11.0970   153.9290     0.1890     2.0220     0.3760
 4345.0000   -41.2850     2.9040     2.4360     2.5450    11.0200   152.9920     0.2060     2.1190     0.3720
 4345.5000   -41.1350     2.8240     2.3490     2.4850    10.8230   152.6070     0.2200     2.2170     0.3690
 4346.0000   -40.8700     2.7450     2.2890     2.4260    10.1010   153.9130     0.2240     2.3150     0.3840
 4346.5000   -40.6900     2.7160     2.2580     2.3660     9.3340   157.3660     0.1360     2.3550     0.4020
 4347.0000   -40.6940     2.7010     2.2450     2.3480     8.6050   160.8630     0.0960     2.3590     0.3980
 4347.5000   -40.6930     2.7410     2.2310     2.3430     8.3460   162.4730     0.0500     2.3770     0.3810
 4348.0000   -40.6910     2.8540     2.1920     2.3390     8.2270   162.5960     0.0130     2.4050     0.3600
 4348.5000   -40.7910     3.0220     2.1310     2.3350     8.2180   169.1190     0.0290     2.4250     0.3380
