~VERSION INFORMATION
 VERS.                2.0:   CWLS LOG ASCII STANDARD - VERSION 2.0
 WRAP.                 NO:   ONE LINE PER DEPTH STEP
~WELL INFORMATION
#MNEM.UNIT      DATA TYPE    INFORMATION
#----------   ------------   ------------------------------
 STRT.F          602.0000:   START DEPTH
 STOP.F         5553.0000:   STOP DEPTH
 STEP.F            0.5000:   STEP LENGTH
 NULL.          -999.2500:   NO VALUE
 COMP.         U. S. NAVY:   COMPANY
 WELL. U. S. 1-TP-33 NPR #3-33:   WELL
 FLD . TEAPOT NAVAL RESERVE:   FIELD
 LOC .      S33 T39N R78W:   LOCATION
 CNTY.            NATRONA:   COUNTY
 STAT.            WYOMING:   STATE
 CTRY. UNITED STATES OF AMERICA:   COUNTRY
 SRVC.       SCHLUMBERGER:   SERVICE COMPANY
 DATE.        24-JUN-1952:   LOGDATE
 API .     49025065260000:   API NUMBER
~CURVE INFORMATION
#MNEM.UNIT       API CODE    CURVE DESCRIPTION
#----------   ------------   ------------------------------
 DEPT.F                  :   
 SPR .MV     01 010 01 00:   SPONTANEOUS POTENTIAL FROM RES.
 ASN .OHMM   01 041 16 00:   AMPLIFIED SHORT NORMAL 16"
 LAT .OHMM   01 070 08 00:   LATERAL 8'
 LN  .OHMM   01 060 64 00:   LONG NORMAL 64"
~PARAMETER INFORMATION
#MNEM.UNIT          VALUE    DESCRIPTION
#----------   ------------   ------------------------------
 EKB .F         5160.0000:   Kelly bushing
 EGL .F         5147.0000:   Ground level
 TD  .F         5553.0000:   Total depth
 CLNT.            A2DTECH:   Client Code
 DATE.        24-JUN-1952:   Date Logged [DD-MMM-YYYY]
 DD  .F              5549:   Depth driller
 DL  .F              5553:   Depth logger
 BLI .F              5553:   Bottom log interval
 TLI .F               602:   Top log interval
 CBL1.F               602:   Casing logger 1
 BSD1.F              5549:   Depth drilled with bit1
 DFT .           GYP BASE:   Type fluid in hole
 DFD .                9.8:   Density
 DFV .                 44:   Viscosity
 MSS .           FLOWLINE:   Source of sample
 RMS .OHMM            1.4:   Rm
 MST .F                60:   Rm Meas. temp.
 RMB .OHMM           0.48:   Rm. at BHT
 BHT .F               175:   BHT.
 TCS .HRS             1.5:   Time Circ. stopped
 MRT .F               175:   Maximum recorded temp.
 LUN .                563:   Logging unit number
 ENGI.             SANDER:   Recorded By
 WITN.            GRIBBIN:   Witnessed by
 ORIG.      1" 2.5" PRINT:   Origin of data
 UWI .     49025065260000:   Unique Well ID
 DICO. A2D TECHNOLOGIES, INC.:   Digitizing Company
~OTHER INFORMATION
~A  DEPTH      SPR        ASN        LAT         LN
# ...
  894.0000   -61.6859     5.5318     6.0935     6.7597
  894.5000   -61.5424     5.5286     6.0945     6.7604
  895.0000   -61.3107     5.5029     6.0249     6.7610
  895.5000   -61.0493     5.5027     5.9529     6.7619
  896.0000   -60.5328     5.5026     5.9406     6.7624
  896.5000   -60.5322     5.4926     5.8116     6.7631
  897.0000   -60.3839     5.4736     5.8125     6.7970
  897.5000   -60.2432     5.4735     5.8136     6.9026
  898.0000   -60.2770     5.4514     5.7720     6.9033
  898.5000   -60.5292     5.4610     5.6719     6.9040
  899.0000   -60.5286     5.4731     5.6733     6.9047
  899.5000   -60.5279     5.4784     5.6742     6.9339
  900.0000   -60.6230     5.5014     5.6753     7.0442
  900.5000   -60.8533     5.5013     5.6764     7.0981
  901.0000   -61.1007     5.5188     5.6774     7.4586
  901.5000   -61.1001     5.5662     5.6787     7.5605
  902.0000   -61.2565     5.6355     5.6796     7.7458
  902.5000   -61.3862     5.7109     5.6807     7.9673
  903.0000   -61.4295     5.9303     5.6818     8.1690
  903.5000   -61.6722     6.2509     5.6828     8.2873
  904.0000   -61.6716     6.7381     5.6840     8.4935
  904.5000   -61.6708     7.2938     5.6850     8.6393
  905.0000   -61.5647     7.8209     5.6861     8.7983
  905.5000   -61.3819     8.1359     5.7316     8.9989
  906.0000   -61.3811     8.2762     5.8319     9.1160
  906.5000   -61.1571     8.3799     5.8331     9.2203
  907.0000   -61.0922     8.4402     5.8341     9.3310
  907.5000   -61.0915     8.4828     5.9088     9.4912
  908.0000   -61.1981     8.5077     6.0249     9.6906
  908.5000   -61.6651     8.5288     6.1410     9.8066
  909.0000   -61.6644     8.5676     6.2695     9.8066
  909.5000   -61.8352     8.6035     6.3733     9.9627
  910.0000   -61.9505     8.6313     6.5637    10.1335
  910.5000   -61.9498     8.6789     6.7949    10.2210
  911.0000   -61.9471     8.7012     7.0261    10.2210
  911.5000   -61.7154     8.7412     7.2806    10.3276
  912.0000   -61.6601     8.7989     7.3851    10.3591
  912.5000   -61.6593     8.8622     7.5012    10.3591
  913.0000   -61.7219     8.9079     7.6636    10.3835
  913.5000   -61.9522     8.9309     7.8801    10.4972
  914.0000   -62.1824     8.9721     8.0154    10.4972
  914.5000   -62.5938     9.0056     8.1507    10.4972
  915.0000   -62.8059     9.0143     8.2861    10.4972
  915.5000   -62.8052     8.9843     8.4214    10.4972
  916.0000   -62.8045     8.8493     8.5567    10.4972
  916.5000   -62.8036     8.7524     8.6920    10.4972
  917.0000   -62.6171     8.6365     8.8273    10.4157
  917.5000   -62.3854     8.5372     8.9626    10.3591
  918.0000   -62.0808     8.4648     9.0979    10.3591
  918.5000   -61.6344     8.3614     9.2333    10.3591
  919.0000   -61.3623     8.2997     9.3686    10.2491
  919.5000   -61.3617     8.2602     9.5039    10.2210
  920.0000   -61.4952     8.2273     9.6392    10.2210
  920.5000   -61.6478     8.1849     9.7745    10.2210
  921.0000   -61.6682     8.1602     9.9066    10.2205
  921.5000   -61.9338     8.1600    10.0321    10.1098
  922.0000   -61.9332     8.1599    10.1389    10.0829
  922.5000   -61.9325     8.1705    10.1778    10.0829
  923.0000   -61.8494     8.1935    10.1789    10.0829
  923.5000   -61.6435     8.2168    10.2000    10.0829
  924.0000   -61.6427     8.2395    10.3248    10.0829
  924.5000   -61.4418     8.2451    10.3258    10.0829
  925.0000   -61.3538     8.2450    10.3269    10.0829
  925.5000   -61.3531     8.2448    10.3279    10.0829
  926.0000   -61.3831     8.2437    10.3496    10.0801
  926.5000   -61.6391     8.2159    10.4739     9.9694
  927.0000   -61.8436     8.2158    10.4749     9.9448
  927.5000   -62.2225     8.2287    10.4759     9.9448
  928.0000   -62.5917     8.2441    10.4770     9.9448
  928.5000   -62.7866     8.2440    10.4781     9.9448
  929.0000   -62.4982     8.2438    10.4792     9.9448
  929.5000   -62.2876     8.2635    10.4802     9.9448
  930.0000   -61.9026     8.2579    10.4813     9.8849
  930.5000   -61.6335     8.2434    10.4824     9.8066
  931.0000   -61.5925     8.2433    10.4835     9.8066
  931.5000   -61.3444     8.2431    10.4846     9.8066
  932.0000   -61.1291     8.2010    10.4856     9.8066
  932.5000   -60.8974     8.1700    10.4071     9.8066
  933.0000   -60.6657     8.1467    10.3441     9.8066
  933.5000   -60.4790     8.1234    10.3452     9.8066
  934.0000   -60.4782     8.0991    10.3463     9.8066
  934.5000   -60.4776     8.0768    10.3473     9.8066
  935.0000   -60.8027     8.0535    10.2682     9.8066
  935.5000   -61.2640     8.0414    10.2058     9.8066
  936.0000   -61.6256     8.0413    10.2069     9.8066
  936.5000   -61.6248     8.0411    10.2080     9.8066
  937.0000   -62.0727     8.0410    10.2091     9.7159
  937.5000   -62.1985     8.0229    10.2101     9.6685
  938.0000   -62.1978     8.0120    10.2112     9.6685
  938.5000   -62.1970     8.0119    10.2123     9.6685
  939.0000   -62.1963     8.0117    10.2134     9.6685
  939.5000   -62.1956     8.0116    10.2144     9.5767
  940.0000   -62.0224     8.0115    10.1341     9.5304
  940.5000   -61.7907     8.0113    10.0729     9.5304
  941.0000   -61.6184     8.0031    10.0740     9.5304
  941.5000   -61.6148     7.9798    10.0751     9.5304
  942.0000   -61.3831     7.9536     9.9655     9.5304
  942.5000   -61.1514     7.9128     9.9335     9.5304
  943.0000   -61.0404     7.8960     9.9346     9.4922
  943.5000   -61.1039     7.8772     9.9357     9.3923
  944.0000   -61.3265     7.8346     9.9368     9.3923
  944.5000   -61.3258     7.8096     9.9379     9.3923
  945.0000   -61.5072     7.7880     9.9389     9.3923
  945.5000   -61.6119     7.7647     9.8860     9.3923
  946.0000   -61.6112     7.7414     9.7974     9.3803
  946.5000   -61.6105     7.7130     9.7985     9.2541
  947.0000   -61.6096     7.6656     9.7996     9.2541
  947.5000   -61.6090     7.6655     9.8006     9.2541
  948.0000   -61.6083     7.6309     9.7471     9.2541
  948.5000   -61.5338     7.5845     9.6591     9.2541
  949.0000   -61.3193     7.5442     9.6602     9.2541
  949.5000   -61.3185     7.5202     9.6613     9.1577
  950.0000   -61.5096     7.4737     9.6624     9.0470
  950.5000   -61.6047     7.4457     9.6634     8.9779
  951.0000   -61.6040     7.4095     9.6379     8.9636
  951.5000   -61.6474     7.3704     9.5219     8.8398
  952.0000   -62.1775     7.3471     9.4100     8.7422
  952.5000   -62.1769     7.3202     9.3804     8.7017
  953.0000   -62.1762     7.3005     9.3815     8.7017
  953.5000   -62.1755     7.2772     9.3825     8.6862
  954.0000   -62.1479     7.2539     9.3836     8.5635
  954.5000   -61.8864     7.2306     9.2711     8.5635
  955.0000   -61.6845     7.2049     9.2421     8.4922
  955.5000   -61.5975     7.1632     9.1868     8.4254
  956.0000   -61.5086     7.1167     9.1006     8.4088
  956.5000   -61.2769     7.0507     9.1017     8.2873
  957.0000   -61.0202     6.9536     9.1027     8.2873
  957.5000   -60.6074     6.8317     9.0182     8.2148
  958.0000   -60.4438     6.6777     8.9042     8.1492
  958.5000   -60.4431     6.5319     8.7902     8.1492
  959.0000   -60.4059     6.3928     8.6760     8.1492
  959.5000   -60.1540     6.2427     8.6771     8.1492
  960.0000   -59.9425     6.0573     8.5920     8.1492
  960.5000   -59.8651     5.9414     8.5356     8.1492
  961.0000   -59.8644     6.0021     8.5366     8.1303
  961.5000   -59.9049     6.2274     8.5377     8.0110
  962.0000   -60.1504     6.5114     8.5388     8.0110
  962.5000   -60.3654     6.6929     8.4531     8.0110
  963.0000   -60.5957     6.8301     8.3391     8.0110
  963.5000   -60.8260     6.8677     8.2547     8.0110
  964.0000   -61.0104     6.9272     8.2557     8.0110
  964.5000   -61.0095     6.9808     8.2568     8.0110
  965.0000   -61.0088     7.0038     8.2579     8.0110
  965.5000   -61.0081     7.0299     8.2590     8.0110
  966.0000   -61.0073     7.0499     8.2902     8.0110
  966.5000   -61.0066     7.0729     8.4048     8.0110
