~VERSION INFORMATION
 VERS.                2.0:   CWLS LOG ASCII STANDARD - VERSION 2.0
 WRAP.                 NO:   ONE LINE PER DEPTH STEP
~WELL INFORMATION
#MNEM.UNIT      DATA TYPE    INFORMATION
#----------   ------------   ------------------------------
 STRT.F            7.5000:   START DEPTH
 STOP.F         3140.0000:   STOP DEPTH
 STEP.F            0.5000:   STEP LENGTH
 NULL.          -999.2500:   NO VALUE
 COMP. LAWRENCE ALLISON WEST:   COMPANY
 WELL. LAWRENCE NPR 3 "AX" #51-3:   WELL
 FLD .                NPR:   FIELD
 LOC .       S3 T38N R78W:   LOCATION
 CNTY.            NATRONA:   COUNTY
 STAT.            WYOMING:   STATE
 CTRY. UNITED STATES OF AMERICA:   COUNTRY
 SRVC.      DRESSER ATLAS:   SERVICE COMPANY
 DATE.        09-NOV-1986:   LOGDATE
 API .     49025111180000:   API NUMBER
~CURVE INFORMATION
#MNEM.UNIT       API CODE    CURVE DESCRIPTION
#----------   ------------   ------------------------------
 DEPT.F                  :   
 CALD.IN     45 280 60 00:   CALIPER FROM DENSITY LOG
 DEN .LBS    45 350 01 00:   BULK DENSITY
 CORR.G/C3   45 356 01 00:   DENSITY CORRECTION
 NPOR.DEC    42 890 03 00:   ALPHA PROCESSED NEUTRON POROSITY
 SPR .MV     07 010 01 00:   SPONTANEOUS POTENTIAL
 GRR .GAPI   07 310 01 00:   GAMMA RAY FROM RESISTIVITY
 SFL .OHMM   07 220 01 00:   SHALLOW FOCUSED LOG RESISTIVITY
 ILD .OHMM   07 120 46 00:   DEEP INDUCTION RESISTIVITY
 ILM .OHMM   07 120 44 00:   INDUCTION LOG MEDIUM RESISTIVITY
 TENR.LBS    07 635 01 00:   TENSION FROM RESISTIVITY
~PARAMETER INFORMATION
#MNEM.UNIT          VALUE    DESCRIPTION
#----------   ------------   ------------------------------
 EKB .F         5132.0000:   Kelly bushing
 EGL .F         5120.0000:   Ground level
 TD  .F         3141.0000:   Total depth
 DATE.        09-NOV-1986:   Date logged
 CLNT.            A2DTECH:   Client Code
 SL  . 249' FNL & 2195' FEL:   Surface Location
 PD  .                 GL:   Permanent Datum
 EPD .F              5120:   Elevation Permanent Datum
 LMF .                 KB:   Log Measured From
 DMF .                 KB:   Drilling Measured From
 DAPD.F                12:   Feet Above Permanent Datum
 DD  .F              3141:   Depth driller
 DL  .F              3132:   Depth logger
 BLI .F              3126:   Bottom log interval
 CS1 .IN            8.625:   Casing size
 CBD1.      8.625" @ 690':   Casing driller 1
 CBL1.F               690:   Casing logger 1
 BS1 .IN            7.875:   Bit size
 BSD1.F              3141:   Depth drilled with bit1
 DFT .        KCL/POLYMER:   Type fluid in hole
 DFD .                8.9:   Density
 DFV .                 34:   Viscosity
 DFPH.                9.5:   pH
 DFL .                9.5:   Fluid loss
 MSS .           FLOWLINE:   Source of sample
 RMS .OHMM           .368:   Rm
 MST .F                66:   Rm Meas. temp.
 RMF .OHMM           .296:   Rmf
 MFST.F                66:   Rmf Meas. temp.
 RMC .OHMM           .468:   Rmc
 MCST.F                66:   Rmc Meas. temp.
 MFSS.               MEAS:   Source Rmf.
 MCSS.               CALC:   Source Rmc.
 RMB .OHMM           .282:   Rm. at BHT
 BHT .F               120:   BHT.
 TCS .HRS             3.5:   Time Circ. stopped
 MRT .F               120:   Maximum recorded temp.
 LUN .            HL-6274:   Logging unit number
 LUL .           GILLETTE:   Logging unit location
 ENGI.             RAUTIO:   Recorded By
 WITN.             STRONG:   Witnessed by
 ORIG.        2" 5" PRINT:   Origin of data
 UWI .     49025111180000:   Unique Well ID
 DICO. A2D TECHNOLOGIES, INC.:   Digitizing Company
~OTHER INFORMATION
~A    DEPT    CALD        DEN       CORR       NPOR        SPR         GRR       SFL        ILD        ILM       TENR   
# ...
  878.5000  -999.2500  -999.2500  -999.2500  -999.2500   -86.6614    95.3538     9.7086     9.2544     9.0186   -67.2067
  879.0000  -999.2500  -999.2500  -999.2500  -999.2500   -86.4626    95.3499     9.7059     9.2561     9.0202   -66.8432
  879.5000  -999.2500  -999.2500  -999.2500  -999.2500   -86.4645    96.1491     9.7049     9.2577     9.0218   -66.7220
  880.0000  -999.2500  -999.2500  -999.2500  -999.2500   -86.0649   101.7676     9.7012     9.2594     9.0234   -66.4393
  880.5000  -999.2500  -999.2500  -999.2500  -999.2500   -86.6693   104.1733     9.6989     9.2610     9.0250   -76.3241
  881.0000  -999.2500  -999.2500  -999.2500  -999.2500   -86.8717   100.5549     9.6966     9.2627     9.0267   -76.1222
  881.5000  -999.2500  -999.2500  -999.2500  -999.2500   -87.4291    96.9365     9.7843     9.2643     9.0283   -75.9203
  882.0000  -999.2500  -999.2500  -999.2500  -999.2500   -87.4785    95.7253     9.7833     9.2660     9.0299   -75.7185
  882.5000  -999.2500  -999.2500  -999.2500  -999.2500   -87.6813   100.1390     9.7810     9.2676     9.0315   -75.5166
  883.0000  -999.2500  -999.2500  -999.2500  -999.2500   -87.8844   100.5366     9.7787     9.2693     9.0331   -75.3147
  883.5000  -999.2500  -999.2500  -999.2500  -999.2500   -87.6852    99.7295     9.7759     9.2709     9.0347   -65.0255
  884.0000  -999.2500  -999.2500  -999.2500  -999.2500   -87.2856    97.3159     9.7731     9.2726     9.0363   -64.8235
  884.5000  -999.2500  -999.2500  -999.2500  -999.2500   -87.0868    92.8943     9.7704     9.2738     9.0375   -64.6215
  885.0000  -999.2500  -999.2500  -999.2500  -999.2500   -86.4864    91.6855     9.7680     9.2715     9.0353   -64.4195
  885.5000  -999.2500  -999.2500  -999.2500  -999.2500   -85.8863    92.8864     9.7653     9.2693     9.0331   -64.2175
  886.0000  -999.2500  -999.2500  -999.2500  -999.2500   -86.4907    98.9065     9.7634     9.2670     9.0309   -64.0155
  886.5000  -999.2500  -999.2500  -999.2500  -999.2500   -86.0911    97.2961     9.7611     9.2648     9.0287   -63.8135
  887.0000  -999.2500  -999.2500  -999.2500  -999.2500   -86.4947    97.6937     9.7588     9.2625     9.0265   -63.5711
  887.5000  -999.2500  -999.2500  -999.2500  -999.2500   -86.2959    98.0914     9.9397     9.2603     9.0243   -63.3691
  888.0000  -999.2500  -999.2500  -999.2500  -999.2500   -86.6995   100.0954     9.9369     9.2580     9.0221   -63.1670
  888.5000  -999.2500  -999.2500  -999.2500  -999.2500   -86.5006   102.0995     9.9350     9.2558     8.7526   -62.9650
  889.0000  -999.2500  -999.2500  -999.2500  -999.2500   -86.7034   106.9164     9.9327     9.2535     8.7510   -62.7629
  889.5000  -999.2500  -999.2500  -999.2500  -999.2500   -86.9058   105.3060     9.9308     9.2513     8.7496   -62.5609
  890.0000  -999.2500  -999.2500  -999.2500  -999.2500   -86.9082   101.6868     9.9284     9.2490     8.7476   -62.3589
  890.5000  -999.2500  -999.2500  -999.2500  -999.2500   -87.1110    98.8716     9.7757     9.2468     8.7455   -62.1568
  891.0000  -999.2500  -999.2500  -999.2500  -999.2500   -87.1130    98.0645     9.8665     9.2445     8.7434   -61.9548
  891.5000  -999.2500  -999.2500  -999.2500  -999.2500   -86.9141   102.8781     9.8585     9.2423     8.7413   -61.7527
  892.0000  -999.2500  -999.2500  -999.2500  -999.2500   -86.9161   104.0790     9.8505     9.2400     8.7388   -61.5507
  892.5000  -999.2500  -999.2500  -999.2500  -999.2500   -87.1189    98.0510     9.8426     9.2378     8.7367   -61.3486
  893.0000  -999.2500  -999.2500  -999.2500  -999.2500   -87.1205    96.8422     9.8346     9.2355     8.7346   -61.1465
  893.5000  -999.2500  -999.2500  -999.2500  -999.2500   -87.1225    97.6414     9.8266     9.2333     8.7326   -60.9445
  894.0000  -999.2500  -999.2500  -999.2500  -999.2500   -86.9236    99.2439     9.8187     9.2310     8.7317   -70.8319
  894.5000  -999.2500  -999.2500  -999.2500  -999.2500   -86.9256   100.8456     9.8107     9.2288     8.7292   -50.3295
  895.0000  -999.2500  -999.2500  -999.2500  -999.2500   -86.9276   100.8440     9.8028     9.2267     8.8082   -60.3382
  895.5000  -999.2500  -999.2500  -999.2500  -999.2500   -86.7288   100.0368     9.7949     9.3106     8.8057   -60.1362
  896.0000  -999.2500  -999.2500  -999.2500  -999.2500   -86.7308    96.0168     9.7870     9.3084     8.8040   -59.9341
  896.5000  -999.2500  -999.2500  -999.2500  -999.2500   -86.5320    91.5944     9.7790     9.3062     8.8015   -59.7320
  897.0000  -999.2500  -999.2500  -999.2500  -999.2500   -86.7355    92.7937     9.7711     9.3049     8.7994   -59.5299
  897.5000  -999.2500  -999.2500  -999.2500  -999.2500   -86.7375    93.9945     9.7632     9.3018     8.7973   -59.3278
  898.0000  -999.2500  -999.2500  -999.2500  -999.2500   -86.7395    95.1954     9.7553     9.2995     8.7952   -59.1257
  898.5000  -999.2500  -999.2500  -999.2500  -999.2500   -86.3399    97.6010     9.7474     9.2973     8.7931   -58.9236
  899.0000  -999.2500  -999.2500  -999.2500  -999.2500   -86.1411    98.4003     9.7359     9.2091     8.7910   -58.7215
  899.5000  -999.2500  -999.2500  -999.2500  -999.2500   -86.1431    98.3963     9.7349     9.2070     8.7889   -58.4790
  900.0000  -999.2500  -999.2500  -999.2500  -999.2500   -86.1450    97.1876     9.6426     9.1196     8.7055   -58.2768
  900.5000  -999.2500  -999.2500  -999.2500  -999.2500   -86.3454    99.4060     9.6400     9.0359     8.6254   -58.0711
  901.0000  -999.2500  -999.2500  -999.2500  -999.2500   -86.5574    99.5779     9.6055     8.9480     8.6215   -67.8722
  901.5000  -999.2500  -999.2500  -999.2500  -999.2500   -86.7650   100.3712     9.5141     8.9462     8.5400   -57.5338
  902.0000  -999.2500  -999.2500  -999.2500  -999.2500   -86.7707   103.1685     9.4239     8.8613     8.3807   -57.2860
  902.5000  -999.2500  -999.2500  -999.2500  -999.2500   -86.7718   102.3613     9.3349     8.7775     8.3790   -57.0382
  903.0000  -999.2500  -999.2500  -999.2500  -999.2500   -87.1837   100.3431     9.2468     8.7757     8.3773   -56.7904
  903.5000  -999.2500  -999.2500  -999.2500  -999.2500   -87.3903    98.7266     9.1595     8.6935     8.4694   -66.6329
  904.0000  -999.2500  -999.2500  -999.2500  -999.2500   -87.3960    98.3130     9.0730     8.6911     8.2958   -66.3850
  904.5000  -999.2500  -999.2500  -999.2500  -999.2500   -86.5983    98.7047     9.0712     8.6089     8.2945   -66.1371
  905.0000  -999.2500  -999.2500  -999.2500  -999.2500   -86.2023    99.4982     9.0704     8.6072     8.2938   -65.8893
  905.5000  -999.2500  -999.2500  -999.2500  -999.2500   -86.4066    99.4882     8.9837     8.6054     8.2924   -65.6414
  906.0000  -999.2500  -999.2500  -999.2500  -999.2500   -85.8120    99.4783     8.9819     8.6037     8.2901   -65.3935
  906.5000  -999.2500  -999.2500  -999.2500  -999.2500   -85.8142    99.4684     8.9801     8.6020     8.2117   -75.2357
  907.0000  -999.2500  -999.2500  -999.2500  -999.2500   -86.0242   100.2619     8.8957     8.5207     8.2097   -64.8483
  907.5000  -999.2500  -999.2500  -999.2500  -999.2500   -86.2307   101.4571     8.8935     8.5189     8.2081   -64.6004
  908.0000  -999.2500  -999.2500  -999.2500  -999.2500   -86.4373   103.8576     8.8096     8.4384     8.1305   -54.2627
  908.5000  -999.2500  -999.2500  -999.2500  -999.2500   -86.2421   104.2495     8.8078     8.3587     8.0537   -64.1047
  909.0000  -999.2500  -999.2500  -999.2500  -999.2500   -86.2489   101.4274     8.7246     8.2797     7.9773   -73.9467
  909.5000  -999.2500  -999.2500  -999.2500  -999.2500   -86.2546    95.7930     8.7225     8.2011     7.9019   -63.6091
  910.0000  -999.2500  -999.2500  -999.2500  -999.2500   -86.2603    92.1671     8.6402     8.1995     7.9003   -53.2716
  910.5000  -999.2500  -999.2500  -999.2500  -999.2500   -86.4657    92.1571     8.6384     8.1978     7.8987   -63.1134
  911.0000  -999.2500  -999.2500  -999.2500  -999.2500   -86.0707    96.9683     8.6367     8.1962     7.8971   -62.8656
  911.5000  -999.2500  -999.2500  -999.2500  -999.2500   -86.0764   102.1798     8.6349     8.1945     7.8955   -62.6177
