~VERSION INFORMATION
 VERS.                2.0:   CWLS LOG ASCII STANDARD - VERSION 2.0
 WRAP.                 NO:   ONE LINE PER DEPTH STEP
~WELL INFORMATION
#MNEM.UNIT      DATA TYPE    INFORMATION
#----------   ------------   ------------------------------
 STRT.F          218.5000:   START DEPTH
 STOP.F         3291.0000:   STOP DEPTH
 STEP.F            0.5000:   STEP LENGTH
 NULL.          -999.2500:   NO VALUE
 COMP.    FENIX & SCISSON:   COMPANY
 WELL.   FENIX SHX #63-23:   WELL
 FLD .  TEAPOT DOME NPR-3:   FIELD
 LOC .      S23 T38N R78W:   LOCATION
 CNTY.            NATRONA:   COUNTY
 STAT.            WYOMING:   STATE
 CTRY. UNITED STATES OF AMERICA:   COUNTRY
 SRVC.           BIRDWELL:   SERVICE COMPANY
 DATE.        08-JUL-1978:   LOGDATE
 API .     49025106600000:   API NUMBER
~CURVE INFORMATION
#MNEM.UNIT       API CODE    CURVE DESCRIPTION
#----------   ------------   ------------------------------
 DEPT.F                  :   
 GRD .GAPI   45 310 01 00:   GAMMA RAY FROM DENSITY LOG
 CALD.IN     45 280 60 00:   CALIPER FROM DENSITY LOG
 CORR.G/C3   45 356 01 00:   DENSITY CORRECTION
 RHOB.G/C3   45 350 01 00:   BULK DENSITY
 GR  .GAPI   35 310 01 00:   GAMMA RAY
 NEUT.NAPI   35 330 01 00:   NEUTRON
~PARAMETER INFORMATION
#MNEM.UNIT          VALUE    DESCRIPTION
#----------   ------------   ------------------------------
 EKB .F         5368.0000:   Kelly bushing
 EGL .F         5358.0000:   Ground level
 TD  .F         3299.0000:   Total depth
 CLNT.            A2DTECH:   Client Code
 PD  .                 GL:   Permanent Datum
 EPD .F              5358:   Elevation Permanent Datum
 LMF .                 KB:   Log Measured From
 DMF .                 KB:   Drilling Measured From
 DAPD.F                10:   Feet Above Permanent Datum
 DATE.        08-JUL-1978:   Date Logged [DD-MMM-YYYY]
 DD  .F              3299:   Depth driller
 DL  .F              3291:   Depth logger
 BLI .F              3291:   Bottom log interval
 TLI .F              1430:   Top log interval
 CS1 .IN            9.625:   Casing size
 CBD1.     9.625" @ 1450':   Casing driller 1
 CBL1.F              1442:   Casing logger 1
 BS1 .IN            8.750:   Bit size
 BSD1.F              3299:   Depth drilled with bit1
 DFT .          KCL WATER:   Type fluid in hole
 BHT .F               118:   BHT.
 TCS .HRS               2:   Time Circ. stopped
 MRT .F               118:   Maximum recorded temp.
 LUN .               2958:   Logging unit number
 LUL .               CASP:   Logging unit location
 ENGI.             MILLER:   Recorded By
 WITN.           MCGINLEY:   Witnessed by
 ORIG.           5" PRINT:   Origin of data
 UWI .     49025106600000:   Unique Well ID
 DICO. A2D TECHNOLOGIES, INC.:   Digitizing Company
 SL  . 1800' FNL & 1825' FEL:   Surface Location
~OTHER INFORMATION
~A   DEPT      GRD       CALD       CORR       RHOB          GR      NEUT   
# ...
 3234.5000   114.3271     8.9972     0.0888     2.5952  -999.2500  -999.2500
 3235.0000   112.7514     9.2405     0.0963     2.6036  -999.2500  -999.2500
 3235.5000   107.3046     8.8749     0.0993     2.6043  -999.2500  -999.2500
 3236.0000   102.7410     8.7985     0.0947     2.6180  -999.2500  -999.2500
 3236.5000    97.1135     8.7677     0.0841     2.6157  -999.2500  -999.2500
 3237.0000    93.1578     8.7827     0.0810     2.6378  -999.2500  -999.2500
 3237.5000    86.0106     8.7976     0.0809     2.6470  -999.2500  -999.2500
 3238.0000    78.0475     8.7516     0.0809     2.6263  -999.2500  -999.2500
 3238.5000    77.0352     8.7056     0.0809     2.6215  -999.2500  -999.2500
 3239.0000    83.8687     8.7206     0.0808     2.6170  -999.2500  -999.2500
 3239.5000    90.8552     8.7507     0.0747     2.5918  -999.2500  -999.2500
 3240.0000   105.5925     8.7656     0.0595     2.5719  -999.2500  -999.2500
 3240.5000   104.8282     8.7348     0.0549     2.5849  -999.2500  -999.2500
 3241.0000   104.5199     8.7345     0.0685     2.5926  -999.2500  -999.2500
 3241.5000   105.5783     8.7342     0.0715     2.5949  -999.2500  -999.2500
 3242.0000   108.9174     8.7339     0.0715     2.5941  -999.2500  -999.2500
 3242.5000   109.6740     8.7336     0.0715     2.5965  -999.2500  -999.2500
 3243.0000   102.3737     8.7333     0.0699     2.6042  -999.2500  -999.2500
 3243.5000   100.5456     8.7635     0.0652     2.6065  -999.2500  -999.2500
 3244.0000   102.8198     8.7936     0.0622     2.6089  -999.2500  -999.2500
 3244.5000   103.7273     8.8237     0.0591     2.6081  -999.2500  -999.2500
 3245.0000   103.7229     8.8539     0.0576     2.6044  -999.2500  -999.2500
 3245.5000   103.5677     8.8688     0.0545     2.5998  -999.2500  -999.2500
 3246.0000   103.8662     8.8837     0.0530     2.5953  -999.2500  -999.2500
 3246.5000   104.1658     8.9138     0.0499     2.5938  -999.2500  -999.2500
 3247.0000   104.7682     8.9135     0.0468     2.5930  -999.2500  -999.2500
 3247.5000   105.5237     8.9284     0.0468     2.5893  -999.2500  -999.2500
 3248.0000   106.1273     8.9434     0.0482     2.5817  -999.2500  -999.2500
 3248.5000   106.1229     8.9735     0.0497     2.5763  -999.2500  -999.2500
 3249.0000   106.1185     8.9886     0.0558     2.5818  -999.2500  -999.2500
 3249.5000   106.5701     9.0186     0.0618     2.5856  -999.2500  -999.2500
 3250.0000   105.3235     9.0488     0.0679     2.5849  -999.2500  -999.2500
 3250.5000   101.1984     9.1556     0.0754     2.5849  -999.2500  -999.2500
 3251.0000   100.4960     9.1711     0.0830     2.5849  -999.2500  -999.2500
 3251.5000   100.9843     9.1866     0.0920     2.5912  -999.2500  -999.2500
 3252.0000    98.6879     9.1565     0.1057     2.6011  -999.2500  -999.2500
 3252.5000    94.7424     9.0655     0.1290     2.6095  -999.2500  -999.2500
 3253.0000    91.1008     8.8955     0.1527     2.6180  -999.2500  -999.2500
 3253.5000    89.7374     8.6247     0.1648     2.6249  -999.2500  -999.2500
 3254.0000    96.1277     8.4575     0.1708     2.6319  -999.2500  -999.2500
 3254.5000    97.8469     8.6709     0.1480     2.6127  -999.2500  -999.2500
 3255.0000    98.5724     8.4733     0.0963     2.6036  -999.2500  -999.2500
 3255.5000    99.1862     8.5498     0.0653     2.5968  -999.2500  -999.2500
 3256.0000   100.2559     8.6280     0.0492     2.5922  -999.2500  -999.2500
 3256.5000   101.3255     8.6722     0.0400     2.5898  -999.2500  -999.2500
 3257.0000   104.8268     8.7029     0.0354     2.5823  -999.2500  -999.2500
 3257.5000   108.0949     8.7337     0.0308     2.5747  -999.2500  -999.2500
 3258.0000   111.0710     8.7340     0.0277     2.5679  -999.2500  -999.2500
 3258.5000   108.1893     8.7342     0.0262     2.5886  -999.2500  -999.2500
 3259.0000   104.3957     8.7498     0.0246     2.5841  -999.2500  -999.2500
 3259.5000   102.4259     8.7501     0.0246     2.5657  -999.2500  -999.2500
 3260.0000   101.6615     8.7504     0.0215     2.5635  -999.2500  -999.2500
 3260.5000   104.0168     8.7507     0.0231     2.5688  -999.2500  -999.2500
 3261.0000   106.8521     8.7510     0.0277     2.5750  -999.2500  -999.2500
 3261.5000   106.0981     8.7513     0.0308     2.5842  -999.2500  -999.2500
 3262.0000   103.5204     8.7517     0.0309     2.5911  -999.2500  -999.2500
 3262.5000   103.6782     8.7519     0.0324     2.5950  -999.2500  -999.2500
 3263.0000   100.7965     8.7522     0.0340     2.5935  -999.2500  -999.2500
 3263.5000    96.0560     8.7525     0.0371     2.5935  -999.2500  -999.2500
 3264.0000    94.7306     8.7376     0.0387     2.5859  -999.2500  -999.2500
 3264.5000    94.5830     8.7379     0.0418     2.5783  -999.2500  -999.2500
 3265.0000    95.1982     8.7383     0.0434     2.5776  -999.2500  -999.2500
 3265.5000    98.0916     8.7385     0.0495     2.5815  -999.2500  -999.2500
 3266.0000   103.1126     8.7235     0.0602     2.5861  -999.2500  -999.2500
 3266.5000   104.3343     8.7086     0.0739     2.6045  -999.2500  -999.2500
 3267.0000   103.5817     8.6785     0.0892     2.6083  -999.2500  -999.2500
 3267.5000    99.4842     8.6789     0.0892     2.6076  -999.2500  -999.2500
 3268.0000    97.2104     8.6792     0.0862     2.6107  -999.2500  -999.2500
 3268.5000    96.1524     8.7251     0.0817     2.6214  -999.2500  -999.2500
 3269.0000    94.7905     8.7711     0.0712     2.6062  -999.2500  -999.2500
 3269.5000    92.9671     8.8171     0.0515     2.5879  -999.2500  -999.2500
 3270.0000    95.8674     8.8803     0.0343     2.5772  -999.2500  -999.2500
 3270.5000   101.9523     8.9395     0.0136     2.5650  -999.2500  -999.2500
 3271.0000   103.9338     8.9854     0.0516     2.5565  -999.2500  -999.2500
 3271.5000   105.0035     9.0009     0.0578     2.5437  -999.2500  -999.2500
 3272.0000   106.3771     9.0469     0.0563     2.5361  -999.2500  -999.2500
 3272.5000   107.6012     9.9300     0.0959     2.5453  -999.2500  -999.2500
 3273.0000   106.9982     9.1671     0.0990     2.5537  -999.2500  -999.2500
 3273.5000   106.6986     9.2914     0.0990     2.5645  -999.2500  -999.2500
 3274.0000   107.7697     9.7483     0.0778     2.5393  -999.2500  -999.2500
 3274.5000   106.8637     8.8810     0.0581     2.5546  -999.2500  -999.2500
 3275.0000   105.6542     8.8813     0.0475     2.5455  -999.2500  -999.2500
 3275.5000   105.6601     8.8816     0.0385     2.5776  -999.2500  -999.2500
 3276.0000   107.7936     8.9885     0.0613     2.5683  -999.2500  -999.2500
 3276.5000   108.1034     8.8366     0.0553     2.5387  -999.2500  -999.2500
 3277.0000   108.2614     8.8673     0.0219     2.5609  -999.2500  -999.2500
 3277.5000   107.8125     8.8676     0.0266     2.5717  -999.2500  -999.2500
 3278.0000   102.6512     8.8831     0.0297     2.5901  -999.2500  -999.2500
 3278.5000   104.4808     8.9453     0.0373     2.5748  -999.2500  -999.2500
 3279.0000   106.1583     8.9599     0.0389     2.5687  -999.2500  -999.2500
 3279.5000   106.9240     8.9602     0.0329     2.5688  -999.2500  -999.2500
 3280.0000   107.3860     8.9605     0.0360     2.5711  -999.2500  -999.2500
 3280.5000   107.0892     8.9912     0.0360     2.5727  -999.2500  -999.2500
 3281.0000   106.4856     9.1741     0.0361     2.5750  -999.2500  -999.2500
 3281.5000   106.3395     8.4134     0.0437     2.5773  -999.2500  -999.2500
 3282.0000   106.3468     8.7334     0.0529     2.5789  -999.2500  -999.2500
 3282.5000   106.0486     8.7489     0.0362     2.5789  -999.2500  -999.2500
 3283.0000   105.5642     8.7492     0.0332     2.5736  -999.2500  -999.2500
 3283.5000   103.0223     8.7495     0.0287     2.5676  -999.2500  -999.2500
 3284.0000   104.0920     8.7501     0.0227     2.5569  -999.2500  -999.2500
 3284.5000   107.7453     9.1762     0.0182     2.5531  -999.2500  -999.2500
 3285.0000   109.5748     8.5068     0.0152     2.5677  -999.2500  -999.2500
 3285.5000   110.4925     8.7203     0.0123     2.5576  -999.2500  -999.2500
 3286.0000   110.3181     8.7358     0.0093     2.5463  -999.2500  -999.2500
