~VERSION INFORMATION
 VERS.                2.0:   CWLS LOG ASCII STANDARD - VERSION 2.0
 WRAP.                 NO:   ONE LINE PER DEPTH STEP
~WELL INFORMATION
#MNEM.UNIT      DATA TYPE    INFORMATION
#----------   ------------   ------------------------------
 STRT.F          205.0000:   START DEPTH
 STOP.F         3171.5000:   STOP DEPTH
 STEP.F            0.5000:   STEP LENGTH
 NULL.          -999.2500:   NO VALUE
 COMP.    FENIX & SCISSON:   COMPANY
 WELL. FENIX & SCISSON  "AX" #27-28:   WELL
 FLD .              NPR 3:   FIELD
 LOC .      S28 T39N R78W:   LOCATION
 CNTY.            NATRONA:   COUNTY
 STAT.            WYOMING:   STATE
 CTRY. UNITED STATES OF AMERICA:   COUNTRY
 SRVC.       SCHLUMBERGER:   SERVICE COMPANY
 DATE.        30-MAY-1977:   LOGDATE
 API .     49025103870000:   API NUMBER
~CURVE INFORMATION
#MNEM.UNIT       API CODE    CURVE DESCRIPTION
#----------   ------------   ------------------------------
 DEPT.F                  :   
 NPHI.DEC    42 890 03 00:   NEUTRON POROSITY SANDSTONE
 CALD.IN     45 280 60 00:   CALIPER FROM DENSITY LOG
 GRD .GAPI   45 310 01 00:   GAMMA RAY FROM DENSITY LOG
 RHOB.G/C3   45 350 01 00:   BULK DENSITY
 CORR.G/C3   45 356 01 00:   DENSITY CORRECTION
 SPR .MV     11 010 01 00:   SPONTANEOUS POTENTIAL
 MSFL.OHMM   11 270 04 00:   MICRO SPHERICALLY FOCUSED RES.
 LLD .OHMM   11 220 10 00:   LATEROLOG LOG DEEP
 LLS .OHMM   11 220 09 00:   LATEROLOG LOG SHALLOW
~PARAMETER INFORMATION
#MNEM.UNIT          VALUE    DESCRIPTION
#----------   ------------   ------------------------------
 EKB .F         5094.0000:   Kelly bushing
 EGL .F         5084.0000:   Ground level
 EDF .F            0.0000:   Drilling floor
 EPD .F            0.0000:   Permanent datum
 TD  .F         3169.0000:   Total depth
 DATE.        30-MAY-1977:   Date logged
 CLNT.            A2DTECH:   Client Code
 SL  . 1266' FSL & 871' FWL:   Surface Location
 PD  .                 GL:   Permanent Datum
 DD  .F              3163:   Depth driller
 DL  .F              3169:   Depth logger
 BLI .F              3168:   Bottom log interval
 CS1 .IN            8.625:   Casing size
 CBD1.      8.625" @ 210':   Casing driller 1
 CBL1.F               219:   Casing logger 1
 BS1 .IN            7.875:   Bit size
 DFT .           SALT/MUD:   Type fluid in hole
 DFD .                8.9:   Density
 DFV .                 32:   Viscosity
 DFPH.                8.5:   pH
 DFL .                5.8:   Fluid loss
 MSS .                PIT:   Source of sample
 RMS .OHMM           .194:   Rm
 MST .F                65:   Rm Meas. temp.
 RMF .OHMM           .165:   Rmf
 MFST.F                65:   Rmf Meas. temp.
 MFSS.               MEAS:   Source Rmf.
 RMB .OHMM           .107:   Rm. at BHT
 BHT .F               118:   BHT.
 MRT .F               118:   Maximum recorded temp.
 LUN .               5642:   Logging unit number
 LUL .               CSPR:   Logging unit location
 ENGI.             MARTIN:   Recorded By
 WITN.         PETTINGILL:   Witnessed by
 ORIG.           5" PRINT:   Origin of data
 UWI .     49025103870000:   Unique Well ID
 DICO. A2D TECHNOLOGIES, INC.:   Digitizing Company
 DAPD.F                10:   Feet Above Permanent Datum
 BSD1.F              3163:   Depth drilled with bit1
 TLI .F               219:   Top log interval
 TLAB.HRS            0930:   Time logger at bottom
~OTHER INFORMATION
~A   DEPT     NPHI         CALD      GRD         RHOB      CORR       SPR       MSFL        LLD        LLS   
# ...
 2942.5000     0.2328     9.1300   168.8490     2.4878     0.0561   -74.1136     7.1953     5.0827     5.4381
 2943.0000     0.2392     9.1097   170.0390     2.4857     0.0491   -74.5139     6.8702     4.9428     5.2900
 2943.5000     0.2416     9.0696   170.0327     2.4837     0.0401   -74.7163     6.6815     4.9416     5.2887
 2944.0000     0.2428     9.0491   169.6286     2.4987     0.0601   -75.1166     6.5581     4.9403     5.2874
 2944.5000     0.2428     9.0137   169.2244     2.4994     0.0640   -75.3169     6.3781     4.8938     5.2382
 2945.0000     0.2428     8.9689   170.0140     2.5106     0.0620   -75.7213     6.2422     4.7590     5.0955
 2945.5000     0.2401     8.9287   174.3852     2.5156     0.0630   -75.9219     6.2407     4.6709     5.0022
 2946.0000     0.2417     8.9085   171.9925     2.5236     0.0730   -76.1244     6.4127     4.6697     5.0010
 2946.5000     0.2469     8.9083   165.2185     2.5355     0.0869   -76.1282     6.4709     4.6686     4.9998
 2947.0000     0.2521     8.8681   162.0285     2.5375     0.0929   -76.3171     6.7111     4.6676     4.9988
 2947.5000     0.2521     8.8478   160.8283     2.5375     0.0809   -76.5059     6.7095     4.8419     5.1833
 2948.0000     0.2497     8.8076   164.0057     2.5125     0.0659   -76.6948     6.4661     5.0227     5.3745
 2948.5000     0.2465     8.7873   166.3872     2.5315     0.0659   -76.8836     6.2888     4.9753     5.3245
 2949.0000     0.2421     8.7472   165.1870     2.5395     0.0729   -77.1437     6.2301     4.8832     5.2269
 2949.5000     0.2421     8.7269   163.5888     2.5075     0.0798   -77.3443     6.2286     4.7838     5.1218
 2950.0000     0.2461     8.7066   163.5825     2.4965     0.0399   -77.3491     6.2271     4.5678     4.8931
 2950.5000     0.2496     8.6864   165.5661     2.4935     0.0549   -77.3538     6.1124     4.4835     4.8037
 2951.0000     0.2525     8.6662   167.9478     2.4925     0.0589   -77.3586     6.0721     4.3601     4.6730
 2951.5000     0.2545     8.6259   168.7375     2.5015     0.0519   -77.3633     6.1267     4.3663     4.6795
 2952.0000     0.2501     8.6256   168.7312     2.5074     0.0309   -77.3671     6.1255     4.3654     4.6786
 2952.5000     0.2457     8.6054   169.1230     2.5014     0.0488   -77.3718     6.0680     4.3641     4.6773
 2953.0000     0.2425     8.5849   172.3020     2.4984     0.0518   -77.3766     6.1226     4.2437     4.5497
 2953.5000     0.2401     8.5647   171.8966     2.5094     0.0668   -77.3804     6.4092     4.0833     4.3796
 2954.0000     0.2428     8.5643   167.1141     2.5074     0.0777   -77.1883     6.8339     4.1963     4.4652
 2954.5000     0.2408     8.5639   161.5356     2.5054     0.0488   -76.9952     7.0884     4.4854     4.7153
 2955.0000     0.2388     8.5636   157.1510     2.5093     0.0567   -76.8021     7.0218     4.9039     5.0249
 2955.5000     0.2264     8.5632   155.1519     2.5303     0.0647   -77.0025     6.6430     4.9485     5.3757
 2956.0000     0.2244     8.5628   157.1382     2.4973     0.0677   -77.2051     6.6414     4.7249     5.3053
 2956.5000     0.2340     8.5425   159.9181     2.5043     0.0796   -77.2098     6.9524     4.6804     5.1790
 2957.0000     0.2368     8.5422   157.9215     2.5103     0.0697   -77.2146     7.5509     4.8996     5.1777
 2957.5000     0.2296     8.5615   153.5354     2.5123     0.0487   -77.2193     7.8324     5.0355     5.2530
 2958.0000     0.2184     8.5613   149.1505     2.4943     0.0367   -77.2241     7.9760     5.2232     5.5475
 2958.5000     0.2144     8.5609   151.1343     2.4853     0.0337   -77.2288     7.8733     5.4297     5.8050
 2959.0000     0.2162     8.5606   151.1278     2.4813     0.0287   -77.4314     7.4493     5.5810     5.9379
 2959.5000     0.2232     8.5802   149.9272     2.4992     0.0506   -77.6371     6.9203     5.2679     5.9919
 2960.0000     0.2359     8.5996   153.9014     2.5092     0.0346   -77.6409     6.5480     4.9835     5.5653
 2960.5000     0.2407     8.6192   153.1040     2.4702     0.0406   -77.6457     6.2528     4.6366     5.1691
 2961.0000     0.2463     8.6387   148.7137     2.5022     0.0665   -77.4823     6.4850     4.4675     4.8902
 2961.5000     0.2467     8.6383   151.4937     2.5051     0.0675   -77.3190     6.6645     4.4590     4.8444
 2962.0000     0.2459     8.6579   149.1001     2.4842     0.0645   -77.1557     6.6827     4.7111     4.8430
 2962.5000     0.2431     8.6774   144.3141     2.4822     0.0485   -76.9924     6.6817     4.5817     4.8871
 2963.0000     0.2367     8.6770   141.1242     2.4931     0.0365   -76.8291     6.6804     4.5806     5.1154
 2963.5000     0.2307     8.6966   143.9043     2.5041     0.0565   -76.6658     6.8028     4.7512     5.2573
 2964.0000     0.2347     8.6963   144.2958     2.5051     0.0675   -76.5025     7.3885     4.8830     5.4032
 2964.5000     0.2299     8.7157   135.1304     2.4911     0.0435   -76.3392     8.4801     5.1117     5.6318
 2965.0000     0.2123     8.7353   135.1252     2.4871     0.0514   -76.1759     8.7960     5.6680     6.0568
 2965.5000     0.2095     8.7350   135.5167     2.4990     0.0574   -76.0126     9.0400     5.9342     6.3379
 2966.0000     0.2035     8.7346   135.9082     2.5110     0.0674   -75.9153     9.4261     6.2132     6.6325
 2966.5000     0.2055     8.7542   129.1337     2.5200     0.0654   -75.9210     9.7758     6.3864     6.8152
 2967.0000     0.2058     8.7538   129.1270     2.5259     0.0574   -75.9238     9.8640     6.6249     7.0669
 2967.5000     0.2018     8.7930   129.1204     2.5219     0.0663   -75.9305     9.5066     6.8717     7.3271
 2968.0000     0.1974     8.7927   130.7062     2.5119     0.0693   -75.9352     9.0776     6.6831     7.1282
 2968.5000     0.2090     8.8323   136.2752     2.5009     0.0533   -76.1378     8.2035     6.3215     6.7468
 2969.0000     0.2186     8.8585   139.0556     2.5289     0.0443   -76.3404     7.9058     5.9795     6.3858
 2969.5000     0.2246     8.8847   141.8373     2.5139     0.0603   -76.5430     7.9768     5.3886     6.0738
 2970.0000     0.2309     8.9108   143.4233     2.4929     0.0473   -76.7456     7.9749     5.2401     5.6410
 2970.5000     0.2313     8.9370   142.2211     2.5348     0.0772   -77.1461     7.4768     5.1913     5.5882
 2971.0000     0.2313     8.9632   140.2219     2.5119     0.0642   -77.5466     7.2719     5.0956     5.4850
 2971.5000     0.2282     8.9894   143.8001     2.4979     0.0582   -77.7492     7.0727     5.0014     5.4339
 2972.0000     0.2284     9.0155   149.7678     2.5268     0.0792   -77.7540     6.9004     4.8638     5.2841
 2972.5000     0.2302     9.0417   150.9527     2.5048     0.0842   -77.5609     6.9628     4.6439     5.1865
 2973.0000     0.2314     9.0679   151.3457     2.5078     0.0662   -77.5656     7.1560     4.6857     5.1379
 2973.5000     0.2238     9.0940   152.1356     2.5198     0.0572   -77.3725     7.2876     4.9960     5.2598
 2974.0000     0.2178     9.1202   152.9255     2.5197     0.0472   -77.3772     7.4898     4.9953     5.1641
 2974.5000     0.2138     9.1464   152.5222     2.5157     0.0462   -77.5799     7.6271     4.9483     5.1629
 2975.0000     0.2166     9.1726   151.7181     2.4888     0.0521   -77.7804     7.6958     4.9471     5.3049
 2975.5000     0.2198     9.1987   148.5262     2.4908     0.0541   -78.1809     7.6234     4.9459     5.3036
 2976.0000     0.2226     9.2249   148.9179     2.4997     0.0292   -78.5815     7.4140     4.8994     5.1596
 2976.5000     0.2250     9.2511   152.8934     2.5157     0.0421   -78.7842     7.1443     4.8088     5.0648
 2977.0000     0.2286     9.2772   155.2762     2.5296     0.0770   -79.1847     6.9480     4.7199     5.2038
 2977.5000     0.2354     9.3033   153.6770     2.5356     0.0760   -79.3874     6.8196     4.5065     4.9705
 2978.0000     0.2398     9.3029   154.4670     2.5066     0.0630   -79.3922     6.7555     4.2633     4.6192
 2978.5000     0.2498     9.3225   157.6462     2.4537     0.0311   -79.3969     6.5699     4.2296     4.5348
