~VERSION INFORMATION
 VERS.                2.0:   CWLS LOG ASCII STANDARD - VERSION 2.0
 WRAP.                 NO:   ONE LINE PER DEPTH STEP
~WELL INFORMATION
#MNEM.UNIT      DATA TYPE    INFORMATION
#----------   ------------   ------------------------------
 STRT.F          197.0000:   START DEPTH
 STOP.F         3074.5000:   STOP DEPTH
 STEP.F            0.5000:   STEP LENGTH
 NULL.          -999.2500:   NO VALUE
 COMP.    FENIX & SCISSON:   COMPANY
 WELL.   FENIX "A" #36-21:   WELL
 FLD .             NPR #3:   FIELD
 LOC .      S21 T39N R78W:   LOCATION
 CNTY.            NATRONA:   COUNTY
 STAT.            WYOMING:   STATE
 CTRY. UNITED STATES OF AMERICA:   COUNTRY
 SRVC.              WELEX:   SERVICE COMPANY
 DATE.        06-JUL-1977:   LOGDATE
 API .     49025103920000:   API NUMBER
~CURVE INFORMATION
#MNEM.UNIT       API CODE    CURVE DESCRIPTION
#----------   ------------   ------------------------------
 DEPT.F                  :   
 CALD.IN     45 280 60 00:   CALIPER FROM DENSITY LOG
 GRD .GAPI   45 310 01 00:   GAMMA RAY FROM DENSITY LOG
 CORR.G/C3   45 356 01 00:   DENSITY CORRECTION
 RHOB.G/C3   45 350 01 00:   BULK DENSITY
 SPR .MV     11 010 01 00:   SPONTANEOUS POTENTIAL FROM RES.
 FORX.OHMM   11 000 00 00:   FORMATION FACTOR
 GURD.OHMM   11 220 05 00:   GUARD LOG RESISTIVITY
 NPHI.DEC    42 890 03 00:   NEUTRON POROSITY SANDSTONE
~PARAMETER INFORMATION
#MNEM.UNIT          VALUE    DESCRIPTION
#----------   ------------   ------------------------------
 EKB .F         4960.0000:   Kelly bushing
 EGL .F         4950.0000:   Ground level
 EDF .F            0.0000:   Drilling floor
 EPD .F         4950.0000:   Permanent datum
 TD  .F         3078.0000:   Total depth
 CLNT.            A2DTECH:   Client Code
 SL  . 1650' FSL & 1650' FWL:   Surface Location
 PD  .                 GL:   Permanent Datum
 DAPD.F                10:   Feet Above Permanent Datum
 DATE.        06-JUL-1977:   Date Logged [DD-MMM-YYYY]
 DD  .F              3066:   Depth driller
 DL  .F              3078:   Depth logger
 BLI .F              3076:   Bottom log interval
 TLI .F               200:   Top log interval
 CS1 .IN            8.625:   Casing size
 BS1 .IN            7.875:   Bit size
 BSD1.F              3066:   Depth drilled with bit1
 DFT .            KCL MUD:   Type fluid in hole
 DFD .                9.2:   Density
 DFV .                 35:   Viscosity
 DFPH.                7.5:   pH
 DFL .                 18:   Fluid loss
 MSS .           FLOWLINE:   Source of sample
 RMS .OHMM            0.9:   Rm
 MST .F                80:   Rm Meas. temp.
 RMF .OHMM           0.81:   Rmf
 MFST.F                80:   Rmf Meas. temp.
 MFSS.               FANN:   Source Rmf.
 RMC .OHMM           1.06:   Rmc
 MCST.F                80:   Rmc Meas. temp.
 MCSS.                KIT:   Source Rmc.
 RMB .OHMM           0.60:   Rm. at BHT
 BHT .F               119:   BHT.
 TCS .HRS               3:   Time Circ. stopped
 MRT .F               119:   Maximum recorded temp.
 LUN .               8611:   Logging unit number
 LUL .             CASPER:   Logging unit location
 ENGI.             C DOAK:   Recorded By
 WITN.         HARRINGTON:   Witnessed by
 ORIG.           5" PRINT:   Origin of data
 UWI .     49025103920000:   Unique Well ID
 DICO. A2D TECHNOLOGIES,INC.:   Digitizing Company
~OTHER INFORMATION
~A   DEPT     CALD         GRD      CORR       RHOB        SPR       FORX       GURD       NPHI   
  197.0000  -999.2500    26.6839  -999.2500  -999.2500  -999.2500  -999.2500  -999.2500  -999.2500
  197.5000  -999.2500    24.9279  -999.2500  -999.2500  -999.2500  -999.2500  -999.2500  -999.2500
  198.0000  -999.2500    24.6480  -999.2500  -999.2500  -999.2500  -999.2500  -999.2500     0.3414
  198.5000  -999.2500    24.8234  -999.2500  -999.2500  -999.2500  -999.2500  -999.2500     0.3450
  199.0000  -999.2500    24.8452  -999.2500  -999.2500  -999.2500  -999.2500  -999.2500     0.3545
  199.5000  -999.2500    25.0152  -999.2500  -999.2500  -999.2500  -999.2500  -999.2500     0.3608
  200.0000  -999.2500    25.4815  -999.2500  -999.2500  -999.2500  -999.2500  -999.2500     0.3629
  200.5000  -999.2500    24.2859  -999.2500  -999.2500  -999.2500  -999.2500  -999.2500     0.3622
  201.0000  -999.2500    23.2603  -999.2500  -999.2500  -999.2500  -999.2500  -999.2500     0.3531
  201.5000  -999.2500    21.9968  -999.2500  -999.2500  -999.2500  -999.2500  -999.2500     0.3374
  202.0000  -999.2500    21.1298  -999.2500  -999.2500  -999.2500  -999.2500  -999.2500     0.3320
  202.5000  -999.2500    20.8498  -999.2500  -999.2500  -999.2500  -999.2500  -999.2500     0.3278
  203.0000  -999.2500    22.2105  -999.2500  -999.2500  -999.2500  -999.2500  -999.2500     0.3292
  203.5000  -999.2500    23.4175  -999.2500  -999.2500  -999.2500  -999.2500  -999.2500     0.3307
  204.0000  -999.2500    24.6245  -999.2500  -999.2500  -999.2500  -999.2500  -999.2500     0.3283
  204.5000  -999.2500    25.6833  -999.2500  -999.2500  -999.2500  -999.2500  -999.2500     0.3316
  205.0000  -999.2500    26.4459  -999.2500  -999.2500  -999.2500  -999.2500  -999.2500     0.3289
  205.5000  -999.2500    27.0603  -999.2500  -999.2500  -999.2500  -999.2500  -999.2500     0.3274
  206.0000  -999.2500    27.3784  -999.2500  -999.2500  -999.2500  -999.2500  -999.2500     0.3309
  206.5000  -999.2500    27.4003  -999.2500  -999.2500  -999.2500  -999.2500  -999.2500     0.3291
  207.0000  -999.2500    27.2701  -999.2500  -999.2500  -999.2500  -999.2500  -999.2500     0.3312
  207.5000  -999.2500    26.8370  -999.2500  -999.2500  -999.2500  -999.2500  -999.2500     0.3339
  208.0000  -999.2500    25.2899  -999.2500  -999.2500  -999.2500  -999.2500  -999.2500     0.3312
  208.5000  -999.2500    22.4560  -999.2500  -999.2500  -999.2500  -999.2500  -999.2500     0.3288
  209.0000  -999.2500    21.5834  -999.2500  -999.2500  -999.2500  -999.2500  -999.2500     0.3329
  209.5000  -999.2500    22.6478  -999.2500  -999.2500  -999.2500  -999.2500  -999.2500     0.3368
  210.0000  -999.2500    23.5585  -999.2500  -999.2500  -999.2500  -999.2500  -999.2500     0.3395
  210.5000  -999.2500    24.4692  -999.2500  -999.2500  -999.2500  -999.2500  -999.2500     0.3389
  211.0000  -999.2500    24.9354  -999.2500  -999.2500  -999.2500  -999.2500  -999.2500     0.3371
  211.5000  -999.2500    25.6980  -999.2500  -999.2500  -999.2500  -999.2500  -999.2500     0.3353
  212.0000  -999.2500    29.7198  -999.2500  -999.2500  -999.2500  -999.2500  -999.2500     0.3346
  212.5000  -999.2500    34.9268  -999.2500  -999.2500  -999.2500  -999.2500  -999.2500     0.3352
  213.0000  -999.2500    35.1240  -999.2500  -999.2500  -999.2500  -999.2500  -999.2500     0.3370
  213.5000  -999.2500    33.7853  -999.2500  -999.2500  -999.2500  -999.2500  -999.2500     0.3400
  214.0000  -999.2500    32.4583  -999.2500  -999.2500  -999.2500  -999.2500  -999.2500     0.3430
  214.5000  -999.2500    31.1254  -999.2500  -999.2500  -999.2500  -999.2500  -999.2500     0.3444
  215.0000  -999.2500    29.4118  -999.2500  -999.2500  -999.2500  -999.2500  -999.2500     0.3444
  215.5000  -999.2500    28.3966  -999.2500  -999.2500  -999.2500  -999.2500  -999.2500     0.3399
  216.0000  -999.2500    29.1591  -999.2500  -999.2500  -999.2500  -999.2500  -999.2500     0.3348
  216.5000  -999.2500    30.6624  -999.2500  -999.2500  -999.2500  -999.2500  -999.2500     0.3333
  217.0000  -999.2500    31.7213  -999.2500  -999.2500  -999.2500  -999.2500  -999.2500     0.3354
  217.5000  -999.2500    32.4838  -999.2500  -999.2500  -999.2500  -999.2500  -999.2500     0.3403
  218.0000    11.3090    32.9501     0.0057     2.3865   -33.4511    11.8523     3.0501     0.3455
  218.5000    11.3109    33.5645    -0.0001     2.3873   -35.4843    11.6815     3.7195     0.3479
  219.0000    11.2981    34.1789    -0.0029     2.3832   -36.9696    11.8436     5.2323     0.3485
  219.5000    11.2848    34.4971    -0.0027     2.3721   -38.7542    11.9256     6.9443     0.3491
  220.0000    11.3169    34.9633    -0.0025     2.3655   -40.8383    12.0081     8.1965     0.3502
  220.5000    11.3484    35.2815    -0.0023     2.3597   -42.5104    12.0081     9.4763     0.3523
  221.0000    11.4244    35.3033    -0.0022     2.3516   -44.1577    12.0911    10.2255     0.3544
  221.5000    11.4855    33.9244    -0.0035     2.3435   -46.0397    12.2590    10.8079     0.3556
  222.0000    11.5318    31.9450    -0.0033     2.3384   -47.3753    12.2590    10.8101     0.3571
  222.5000    11.5486    31.2260    -0.0016     2.3422   -48.5612    12.2590    10.5180     0.3594
  223.0000    11.6098    30.6553    -0.0014     2.3490   -49.4476    12.3438    10.2338     0.3616
  223.5000    11.6857    30.3808    -0.0013     2.3528   -50.3341    12.3438    10.2359     0.3666
  224.0000    11.7468    31.1434    -0.0011     2.3552   -51.3703    12.6889    10.5983     0.3711
  224.5000    11.8080    32.0541    -0.0009     2.3591   -52.1100    13.0437    11.0613     0.3725
  225.0000    11.8691    32.9648     0.0008     2.3644   -52.9935    13.2248    11.5166     0.3734
  225.5000    11.9303    33.5792     0.0039     2.3689   -53.5806    13.0437    11.1290     0.3731
  226.0000    11.9766    33.8973     0.0056     2.3720   -54.3174    12.8651    11.0541     0.3725
  226.5000    11.9934    34.2154     0.0088     2.3765   -55.2286    12.6889    11.6844     0.3701
  227.0000    12.0120    33.9410     0.0090     2.3826   -56.1148    12.6018    12.5215     0.3677
  227.5000    12.0270    32.4716     0.0062     2.3864   -56.8242    12.7900    12.5240     0.3641
  228.0000    12.0294    30.9906     0.0063     2.3813   -57.1147    12.9541    12.3549     0.3643
  228.5000    12.0313    29.8059     0.0035     2.3740   -57.8486    12.9541    12.1043     0.3659
  229.0000    12.0180    28.4041     0.0007     2.3652   -58.4386    12.8651    11.2996     0.3688
  229.5000    12.0057    27.6852    -0.0006     2.3675   -58.5746    12.6889    10.8436     0.3715
  230.0000    12.0077    28.2996    -0.0004     2.3631   -59.7605    12.5152    11.1493     0.3718
  230.5000    11.9949    29.5066    -0.0003     2.3521   -62.1440    12.3438    11.2288     0.3700
  231.0000    11.9818    30.2691    -0.0001     2.3440   -60.7595    12.3438    10.7693     0.3723
  231.5000    11.9544    30.7354     0.0001     2.3449   -62.8661    12.3438    10.4124     0.3720
  232.0000    11.9564    31.4980     0.0003     2.3591   -63.0040    12.4292    10.4150     0.3672
  232.5000    11.9584    32.2605     0.0005     2.3517   -65.5372    12.6889    10.9326     0.3591
  233.0000    11.9603    32.5787     0.0007     2.3580   -64.3279    12.9541    11.6353     0.3537
  233.5000    11.9470    32.0079     0.0008     2.3662   -64.4688    13.0437    11.1652     0.3583
  234.0000    11.9199    31.7333     0.0010     2.3919   -66.1008    12.8651    11.6400     0.3641
  234.5000    11.9070    33.2725     0.0012     2.3864   -66.8376    12.5120    12.0504     0.3683
  235.0000    11.9090    35.2247     0.0014     2.3895   -65.6283    12.3438    11.6442     0.3698
  235.5000    11.8962    36.8414     0.0015     2.3955   -65.9159    12.2590    11.4875     0.3752
  236.0000    11.8834    36.8632     0.0032     2.4001   -67.1018    12.1748    11.4898     0.3829
  236.5000    11.8854    36.7314     0.0034     2.4032   -68.2999    12.0911    11.6518     0.3877
  237.0000    11.8874    36.6051     0.0066     2.4040   -69.2734    12.0928    12.0638     0.3892
