~VERSION INFORMATION
 VERS.                2.0:   CWLS LOG ASCII STANDARD - VERSION 2.0
 WRAP.                 NO:   ONE LINE PER DEPTH STEP
~WELL INFORMATION
#MNEM.UNIT      DATA TYPE    INFORMATION
#----------   ------------   ------------------------------
 STRT.F            0.0000:   START DEPTH
 STOP.F         3358.0000:   STOP DEPTH
 STEP.F            0.5000:   STEP LENGTH
 NULL.          -999.2500:   NO VALUE
 COMP. LAWRENCE ALLISON & ASSOC.:   COMPANY
 WELL. LAWRENCE NPR 3 "X" #14-11:   WELL
 FLD .                NPR:   FIELD
 LOC .      S11 T38N R78W:   LOCATION
 CNTY.            NATRONA:   COUNTY
 STAT.            WYOMING:   STATE
 CTRY. UNITED STATES OF AMERICA:   COUNTRY
 SRVC.      DRESSER ATLAS:   SERVICE COMPANY
 DATE.        25-SEP-1985:   LOGDATE
 API .     49025110470000:   API NUMBER
~CURVE INFORMATION
#MNEM.UNIT       API CODE    CURVE DESCRIPTION
#----------   ------------   ------------------------------
 DEPT.F                  :   
 TENR.LBS    07 635 01 00:   TENSION
 SPR .MV     07 010 01 00:   SPONTANEOUS POTENTIAL
 SFL .OHMM   07 220 01 00:   SHALLOW FOCUSED LOG RESISTIVITY
 ILD .OHMM   07 120 46 00:   DEEP INDUCTION RESISTIVITY
 ILM .OHMM   07 120 44 00:   INDUCTION LOG MEDIUM RESISTIVITY
 TENS.LBS    60 635 01 00:   TENSION FROM SONIC LOG
 DT  .US/F   60 520 00 00:   DELTA TIME
 TEND.LBS    45 635 01 00:   TENSION FROM DENSITY LOG
 RHOB.G/C3   45 350 01 00:   BULK DENSITY
 CORR.G/C3   45 356 01 00:   DENSITY CORRECTION
 NPHI.DEC    42 890 01 00:   NEUTRON POROSITY LIMESTONE
 GRR .GAPI   07 310 01 00:   GAMMA RAY FROM RESISTIVITY
~PARAMETER INFORMATION
#MNEM.UNIT          VALUE    DESCRIPTION
#----------   ------------   ------------------------------
 EKB .F         5184.0000:   Kelly bushing
 EGL .F         5173.0000:   Ground level
 EDF .F            0.0000:   Drilling floor
 TD  .F         3353.0000:   Total depth
 DATE.        25-SEP-1985:   Date logged
 CLNT.            A2DTECH:   Client Code
 SL  . 473' FWL & 2360' FNL:   Surface Location
 PD  .                 GL:   Permanent Datum
 EPD .F              5173:   Elevation Permanent Datum
 LMF .                 KB:   Log Measured From
 DMF .                 KB:   Drilling Measured From
 DAPD.F                11:   Feet Above Permanent Datum
 DD  .F              3353:   Depth driller
 DL  .F              3346:   Depth logger
 BLI .F              3344:   Bottom log interval
 CS1 .IN            8.625:   Casing size
 CBD1.      8.625" @ 586':   Casing driller 1
 CBL1.F               585:   Casing logger 1
 BS1 .IN            7.875:   Bit size
 BSD1.F              3353:   Depth drilled with bit1
 DFT .     GEL/KCL/STAFLO:   Type fluid in hole
 DFD .                8.9:   Density
 DFV .                 39:   Viscosity
 DFPH.                  8:   pH
 DFL .                8.9:   Fluid loss
 MSS .           FLOWLINE:   Source of sample
 RMS .OHMM            .45:   Rm
 MST .F                80:   Rm Meas. temp.
 RMF .OHMM            .33:   Rmf
 MFST.F                80:   Rmf Meas. temp.
 RMC .OHMM            .56:   Rmc
 MCST.F                80:   Rmc Meas. temp.
 MFSS.               CALC:   Source Rmf.
 MCSS.               CALC:   Source Rmc.
 RMB .OHMM            .27:   Rm. at BHT
 BHT .F               130:   BHT.
 TCS .HRS               3:   Time Circ. stopped
 MRT .F               135:   Maximum recorded temp.
 LUN .               6274:   Logging unit number
 LUL .               GLTE:   Logging unit location
 ENGI.               MACK:   Recorded By
 WITN.             STRONG:   Witnessed by
 ORIG.           5" PRINT:   Origin of data
 UWI .     49025110470000:   Unique Well ID
 DICO. A2D TECHNOLOGIES, INC.:   Digitizing Company
~OTHER INFORMATION
~A    DEPT    TENR        SPR        SFL        ILD        ILM       TENS         DT       TEND       RHOB       CORR       NPHI         GRR  
# ...
 2408.0000   -61.1330   -54.9810     3.9000     3.8960     4.0270   -73.2730    90.3990   -63.4620     2.5030     0.0090     0.2730    47.8870
 2408.5000   -61.1330   -54.9600     4.5480     4.0410     4.1750   -73.6570    88.8340   -65.6570     2.5200    -0.0060     0.2810    48.9010
 2409.0000   -61.1330   -54.9410     5.0650     4.1860     4.3220   -74.0420    87.7320   -65.0600     2.5240    -0.0230     0.2790    49.5450
 2409.5000   -61.1330   -55.0030     4.9120     4.3310     4.4700   -74.4260    87.5320   -64.4620     2.5280    -0.0230     0.2750    48.9260
 2410.0000   -61.1330   -54.4880     4.7840     4.4760     4.6170   -74.8100    87.7620   -63.8640     2.5320    -0.0110     0.2700    47.4010
 2410.5000   -61.1330   -53.4450     4.7080     4.6210     4.7650   -75.1940    88.0060   -63.2670     2.5320     0.0140     0.2650    46.5320
 2411.0000   -61.1330   -52.4740     4.7520     4.7950     4.8830   -75.5790    87.7090   -62.6690     2.5270    -0.0020     0.2610    46.3470
 2411.5000   -61.1330   -51.4830     4.8260     4.8220     4.9250   -75.9630    87.3460   -62.0710     2.5230    -0.0140     0.2580    45.9460
 2412.0000   -61.1330   -50.6260     4.9000     4.8560     4.9600   -76.3470    87.0860   -61.4740     2.5190    -0.0250     0.2580    45.6170
 2412.5000   -61.1330   -50.8070     4.9730     4.8910     4.9950   -76.7310    87.0190   -60.8760     2.5230    -0.0170     0.2650    45.2730
 2413.0000   -61.1330   -51.4560     5.0010     4.9250     5.0300   -77.1160    86.9520   -60.2790     2.5330     0.0030     0.2710    44.9100
 2413.5000   -61.1330   -52.1190     5.0480     4.9600     5.0650   -77.5000    86.8070   -59.6810     2.5320     0.0170     0.2700    44.5950
 2414.0000   -61.1330   -52.7610     5.0940     4.9730     5.0190   -77.8840    86.5180   -59.0830     2.5220     0.0000     0.2690    44.2170
 2414.5000   -61.1330   -53.4550     5.1400     4.8820     4.9410   -78.2680    86.2290   -58.4860     2.5130    -0.0170     0.2730    44.7690
 2415.0000   -61.1330   -53.8050     5.1590     4.8060     4.8640   -78.6530    85.9400   -57.8880     2.5100    -0.0230     0.2730    45.6850
 2415.5000   -61.1330   -53.6670     5.1590     4.7300     4.7860   -79.0370    85.7130   -57.2910     2.5140    -0.0270     0.2700    46.5320
 2416.0000   -61.1330   -53.5180     5.0650     4.6540     4.7090   -79.4210    85.7130   -56.6930     2.5190    -0.0250     0.2680    47.3520
 2416.5000   -61.1330   -53.3690     5.0650     4.5780     4.6310   -79.8050    86.1940   -56.0950     2.5250    -0.0160     0.2900    48.2110
 2417.0000   -61.1330   -53.2210     4.8930     4.5020     4.5380   -80.1890    86.8830   -55.4980     2.5240     0.0070     0.2870    49.1480
 2417.5000   -61.1330   -53.0750     4.7200     4.4560     4.5380   -80.5740    87.7580   -54.9000     2.5230     0.0280     0.2770    50.6210
 2418.0000   -61.1330   -52.9270     4.5480     4.4560     4.4960   -80.9580    88.7070   -54.3030     2.5230     0.0280     0.2680    50.0510
 2418.5000   -61.2040   -52.7790     4.3750     4.3720     4.4250   -81.3420    89.3020   -53.7050     2.5250     0.0140     0.2570    48.7260
 2419.0000   -61.3800   -52.6410     4.7020     4.3030     4.3540   -81.7260    88.4580   -53.1070     2.5310    -0.0120     0.2600    48.0680
 2419.5000   -61.5560   -52.5260     5.0280     4.2330     4.2830   -82.1110    87.3680   -52.5100     2.5360    -0.0080     0.2700    47.5340
 2420.0000   -61.7320   -52.3840     5.1590     4.1640     4.2120   -82.4950    86.6200   -51.9120     2.5410     0.0040     0.2870    46.4020
 2420.5000   -61.9090   -52.2080     4.8410     4.0940     4.1410   -82.8790    86.5010   -51.3150     2.5420     0.0070     0.2830    47.9480
 2421.0000   -62.0850   -52.1040     4.5760     4.0660     4.1910   -83.2630    87.4380   -50.7170     2.5310    -0.0160     0.2780    50.2810
 2421.5000   -62.2610   -51.7620     4.3110     4.2410     4.2750   -83.6480    88.6860   -50.1190     2.5200    -0.0330     0.2720    52.3580
 2422.0000   -62.4370   -52.2140     3.9920     4.3870     4.3750   -84.0320    89.3980   -49.5220     2.5180    -0.0170     0.2760    53.2220
 2422.5000   -62.6140   -52.6720     4.1820     4.5330     4.5180   -84.4160    89.4390   -48.9240     2.5420     0.0260     0.2810    51.7790
 2423.0000   -62.7900   -53.1970     4.6580     4.6800     4.6980   -84.8000    88.8280   -48.3260     2.5540     0.0360     0.2750    48.3900
 2423.5000   -62.9660   -53.3860     5.1330     4.8260     4.8770   -85.1840    87.3960   -47.7290     2.5610     0.0200     0.2680    45.7690
 2424.0000   -63.1420   -53.3670     5.6080     4.9720     5.0560   -85.4940    85.9650   -47.1310     2.5540     0.0020     0.2630    43.8020
 2424.5000   -63.3190   -53.3730     6.0830     5.1180     5.2350   -85.1190    84.7160   -46.5340     2.5390    -0.0180     0.2650    43.9680
 2425.0000   -63.4950   -53.3720     5.9700     5.2640     5.4500   -84.7440    84.5160   -45.9360     2.5300     0.0030     0.2670    45.0730
 2425.5000   -63.6710   -53.3720     5.8570     5.4500     5.5510   -84.3680    84.7310   -45.8170     2.5360     0.0230     0.2650    46.0330
 2426.0000   -63.8470   -53.3710     5.7440     5.4500     5.5510   -83.9930    85.1670   -45.8170     2.5430     0.0070     0.2620    46.9190
 2426.5000   -64.0240   -53.3830     5.6310     5.4500     5.5510   -83.6170    85.9170   -45.8170     2.5490    -0.0050     0.2680    46.4440
 2427.0000   -64.2000   -53.4040     5.4500     5.4500     5.5510   -83.2420    86.6660   -45.8170     2.5530    -0.0160     0.2760    45.8900
 2427.5000   -64.3760   -53.4230     5.4680     5.4500     5.5510   -82.8660    87.1380   -45.8170     2.5520    -0.0260     0.2830    45.9280
 2428.0000   -64.5520   -53.4430     5.5140     5.4500     5.5510   -82.4900    87.2080   -45.8170     2.5400    -0.0350     0.2820    46.0200
 2428.5000   -64.7290   -53.4620     5.5590     5.4650     5.5830   -82.1150    86.8710   -45.8170     2.5290    -0.0180     0.2810    46.1400
 2429.0000   -64.9050   -53.4810     5.6040     5.5010     5.6230   -81.7390    86.5380   -45.8170     2.5330     0.0050     0.2740    46.2410
 2429.5000   -65.0810   -53.5010     5.6490     5.5370     5.6620   -81.3640    86.2050   -45.8170     2.5380     0.0090     0.2680    46.7860
 2430.0000   -65.2570   -53.5200     5.6950     5.5740     5.7020   -80.9880    85.8720   -45.8170     2.5410     0.0090     0.2640    47.3490
 2430.5000   -65.4340   -53.5390     5.7400     5.6100     5.7590   -80.6130    85.5390   -45.8170     2.5380     0.0150     0.2610    47.6530
 2431.0000   -65.6100   -53.5590     5.8640     5.6540     5.7570   -80.2370    85.2060   -45.8170     2.5370     0.0310     0.2600    46.6500
 2431.5000   -65.7860   -53.5780     5.7830     5.6270     5.6810   -79.8620    85.0150   -45.8170     2.5380     0.0360     0.2620    46.9260
 2432.0000   -65.9620   -53.5980     5.7160     5.5600     5.6180   -79.4860    85.1020   -45.8170     2.5350    -0.0060     0.2700    47.3640
 2432.5000   -66.1390   -53.6170     5.6480     5.4940     5.5550   -79.1100    85.4850   -45.8170     2.5350    -0.0080     0.2690    47.6940
 2433.0000   -66.3150   -53.6360     5.5810     5.4270     5.4910   -78.7350    85.8680   -45.8170     2.5400    -0.0040     0.2680    45.7930
 2433.5000   -66.4910   -53.6560     5.5130     5.3610     5.4280   -78.3590    86.2510   -45.8170     2.5290    -0.0020     0.2680    45.8470
 2434.0000   -66.6670   -53.6750     5.4460     5.2540     5.3510   -77.9840    86.6340   -45.8170     2.5160    -0.0250     0.2700    46.5810
 2434.5000   -66.8440   -53.6950     5.3510     5.2880     5.4200   -77.6080    87.0170   -45.8170     2.5090    -0.0400     0.2720    47.7680
 2435.0000   -67.0200   -53.7160     5.4540     5.3730     5.5070   -77.2330    87.2900   -45.8170     2.5110    -0.0230     0.2740    47.5330
 2435.5000   -67.1960   -53.7320     5.6250     5.4580     5.5930   -76.8570    87.2130   -45.8170     2.5120    -0.0070     0.2710    46.8130
