~VERSION INFORMATION
 VERS.                2.0:   CWLS LOG ASCII STANDARD - VERSION 2.0
 WRAP.                 NO:   ONE LINE PER DEPTH STEP
~WELL INFORMATION
#MNEM.UNIT      DATA TYPE    INFORMATION
#----------   ------------   ------------------------------
 STRT.F           44.0000:   START DEPTH
 STOP.F         6166.0000:   STOP DEPTH
 STEP.F            0.5000:   STEP LENGTH
 NULL.          -999.2500:   NO VALUE
 COMP.   TESORO PETROLEUM:   COMPANY
 WELL. TESORO 11X NPR #3-23:   WELL
 FLD .             TEAPOT:   FIELD
 LOC .      S23 T38N R78W:   LOCATION
 CNTY.            NATRONA:   COUNTY
 STAT.            WYOMING:   STATE
 CTRY. UNITED STATES OF AMERICA:   COUNTRY
 SRVC.       SCHLUMBERGER:   SERVICE COMPANY
 DATE.        29-OCT-1968:   LOGDATE
 API .     49025100170000:   API NUMBER
~CURVE INFORMATION
#MNEM.UNIT       API CODE    CURVE DESCRIPTION
#----------   ------------   ------------------------------
 DEPT.F                  :   
 SN  .OHMM   05 040 18 00:   SHORT NORMAL 18"
 RES .OHMM   05 000 00 00:   RESISTIVITY
 ILD .OHMM   05 120 46 00:   INDUCTION LOG DEEP RESISTIVITY
 SPR .MV     05 010 01 00:   SPONTANEOUS POTENTIAL FROM RES.
~PARAMETER INFORMATION
#MNEM.UNIT          VALUE    DESCRIPTION
#----------   ------------   ------------------------------
 EKB .F         5283.0000:   Kelly bushing
 EGL .F         5272.0000:   Ground level
 EDF .F            0.0000:   Drilling floor
 TD  .F         6171.0000:   Total depth
 CLNT.            A2DTECH:   Client Code
 SL  . 380' FNL & 380' FWL:   Surface Location
 PD  .                 GL:   Permanent Datum
 EPD .F              5272:   Elevation Permanent Datum
 LMF .                 KB:   Log Measured From
 DMF .                 KB:   Drilling Measured From
 DAPD.F                11:   Feet Above Permanent Datum
 DATE.        29-OCT-1968:   Date Logged [DD-MMM-YYYY]
 DD  .F              6171:   Depth driller
 DL  .F              6167:   Depth logger
 BLI .F              6166:   Bottom log interval
 TLI .F               975:   Top log interval
 CS1 .IN            10.75:   Casing size
 CBD1.      10.75" @ 975':   Casing driller 1
 CBL1.F               975:   Casing logger 1
 BS1 .IN            9.125:   Bit size
 BSD1.F              6171:   Depth drilled with bit1
 DFT .           GEL-CHEM:   Type fluid in hole
 DFD .                9.6:   Density
 DFV .                 61:   Viscosity
 DFPH.                 10:   pH
 DFL .                6.8:   Fluid loss
 MSS .           FLOWLINE:   Source of sample
 RMS .OHMM           0.89:   Rm
 MST .F                80:   Rm Meas. temp.
 RMF .OHMM           0.60:   Rmf
 MFST.F                80:   Rmf Meas. temp.
 MFSS.               MEAS:   Source Rmf.
 RMB .OHMM           0.45:   Rm. at BHT
 BHT .F               160:   BHT.
 TCS .HRS               4:   Time Circ. stopped
 MRT .F               160:   Maximum recorded temp.
 LUN .               7041:   Logging unit number
 LUL .               CSPR:   Logging unit location
 ENGI.            MANGOLD:   Recorded By
 WITN.                MAY:   Witnessed by
 ORIG.         2.5" PRINT:   Origin of data
 UWI .     49025100170000:   Unique Well ID
 DICO. A2D TECHNIOLOGIES,INC.:   Digitizing Company
~OTHER INFORMATION
~A  DEPTH       SN        RES        ILD        SPR
# ...
 4497.0000     2.7540  -999.2500     2.4153   -37.6900
 4497.5000     2.9013  -999.2500     2.6823   -37.9939
 4498.0000     3.2185  -999.2500     3.0788   -38.2979
 4498.5000     3.7143  -999.2500     3.5148   -38.6018
 4499.0000     4.3616  -999.2500     4.1163   -38.6018
 4499.5000     5.2385  -999.2500     4.7177   -38.6018
 4500.0000     6.2114  -999.2500     5.3191   -38.6018
 4500.5000     6.9648  -999.2500     6.1241   -38.6018
 4501.0000     7.2636  -999.2500     6.7081   -38.6018
 4501.5000     6.9191  -999.2500     6.9715   -38.2979
 4502.0000     6.5657  -999.2500     6.4376   -38.2979
 4502.5000     6.0379  -999.2500     6.0219   -38.0404
 4503.0000     5.5779  -999.2500     5.4291   -37.9783
 4503.5000     5.4222  -999.2500     5.1187   -37.9813
 4504.0000     5.1149  -999.2500     4.9351   -37.2251
 4504.5000     4.8045  -999.2500     4.7173   -37.2123
 4505.0000     4.5912  -999.2500     4.4995   -37.1823
 4505.5000     4.3778  -999.2500     4.2383   -37.1928
 4506.0000     4.1645  -999.2500     4.2369   -37.1980
 4506.5000     3.9594  -999.2500     4.0834   -37.1930
 4507.0000     3.9608  -999.2500     3.9300   -37.1823
 4507.5000     3.8107  -999.2500     3.9286   -37.2142
 4508.0000     3.6606  -999.2500     3.9271   -37.2215
 4508.5000     3.6621  -999.2500     3.9255   -37.9809
 4509.0000     3.6636  -999.2500     3.9240   -37.9922
 4509.5000     3.6652  -999.2500     3.9225   -38.1195
 4510.0000     3.5152  -999.2500     3.9207   -38.2051
 4510.5000     3.6683  -999.2500     4.2232   -38.3067
 4511.0000     3.6697  -999.2500     4.3737   -38.4114
 4511.5000     4.1611  -999.2500     4.6762   -38.5099
 4512.0000     4.7676  -999.2500     4.9869   -38.6113
 4512.5000     5.2463  -999.2500     5.4333   -38.7116
 4513.0000     5.7247  -999.2500     5.7782   -38.8125
 4513.5000     6.1017  -999.2500     6.1577   -38.9134
 4514.0000     6.4062  -999.2500     6.4175   -39.0142
 4514.5000     6.7106  -999.2500     6.6429   -39.1151
 4515.0000     6.8636  -999.2500     6.6411   -39.2159
 4515.5000     6.5220  -999.2500     6.3358   -39.3163
 4516.0000     6.4118  -999.2500     6.1823   -39.4166
 4516.5000     6.1106  -999.2500     6.0063   -39.5165
 4517.0000     5.8093  -999.2500     5.6951   -39.6195
 4517.5000     5.8107  -999.2500     5.4179   -39.7179
 4518.0000     5.5091  -999.2500     5.3536   -39.8163
 4518.5000     5.3590  -999.2500     5.1109   -39.9306
 4519.0000     5.2089  -999.2500     5.1092   -40.0439
 4519.5000     5.2106  -999.2500     5.1077   -40.8949
 4520.0000     4.9094  -999.2500     5.1064   -41.4047
 4520.5000     4.9108  -999.2500     5.1048   -41.6113
 4521.0000     4.9122  -999.2500     5.1033   -41.8150
 4521.5000     4.9136  -999.2500     5.1332   -42.0286
 4522.0000     4.9152  -999.2500     5.3009   -42.0671
 4522.5000     4.9684  -999.2500     5.4027   -42.0905
 4523.0000     5.2212  -999.2500     5.6362   -42.1030
 4523.5000     5.3745  -999.2500     5.8554   -42.8726
 4524.0000     5.8305  -999.2500     6.0061   -42.8234
 4524.5000     6.1349  -999.2500     6.3085   -43.2333
 4525.0000     6.7678  -999.2500     6.6109   -43.2854
 4525.5000     7.1170  -999.2500     7.2174   -43.3038
 4526.0000     7.6545  -999.2500     7.5887   -43.2873
 4526.5000     8.0391  -999.2500     8.2295   -43.2947
 4527.0000     8.4154  -999.2500     8.4975   -43.2995
 4527.5000     8.8713  -999.2500     8.7310   -43.4317
 4528.0000     8.8727  -999.2500     8.4253   -43.5803
 4528.5000     8.8374  -999.2500     8.1199   -43.7315
 4529.0000     8.3802  -999.2500     7.8145   -43.8811
 4529.5000     8.1445  -999.2500     7.2052   -44.0308
 4530.0000     7.7982  -999.2500     6.8590   -44.1810
 4530.5000     7.3654  -999.2500     6.5190   -44.3309
 4531.0000     7.2152  -999.2500     6.2888   -44.4808
 4531.5000     7.3720  -999.2500     6.4310   -44.6307
 4532.0000     8.0241  -999.2500     7.1973   -44.7811
 4532.5000     8.4785  -999.2500     8.1077   -44.9312
 4533.0000     8.8879  -999.2500     8.5622   -45.0805
 4533.5000     9.3442  -999.2500     8.7128   -45.2330
 4534.0000     9.4971  -999.2500     9.0152   -45.3800
 4534.5000     9.9531  -999.2500     9.0137   -45.5265
 4535.0000    10.1213  -999.2500     9.0122   -45.6951
 4535.5000    10.4408  -999.2500     9.0106   -45.5997
 4536.0000    10.4119  -999.2500     9.0091   -45.3431
 4536.5000    10.1106  -999.2500     9.0073   -45.1119
 4537.0000    10.1124  -999.2500     9.0059   -44.9261
 4537.5000     9.9621  -999.2500     9.0044   -45.1196
 4538.0000    10.1152  -999.2500     9.0030   -45.3797
 4538.5000    10.1167  -999.2500     9.0197   -45.6458
 4539.0000    10.4930  -999.2500     9.3566   -45.9067
 4539.5000    10.8427  -999.2500     9.9974   -46.1692
 4540.0000    11.3333  -999.2500    10.6991   -46.4323
 4540.5000    11.9411  -999.2500    11.5831   -46.6949
 4541.0000    12.5486  -999.2500    12.1851   -46.9576
 4541.5000    12.8530  -999.2500    12.7916   -47.2211
 4542.0000    13.4797  -999.2500    13.3981   -47.4819
 4542.5000    13.8484  -999.2500    13.8526   -47.7446
 4543.0000    14.2854  -999.2500    14.3192   -48.0126
 4543.5000    14.6776  -999.2500    14.4869   -48.2609
 4544.0000    14.9820  -999.2500    14.7601   -48.5572
 4544.5000    14.9834  -999.2500    14.7584   -48.5229
 4545.0000    14.5278  -999.2500    14.7568   -48.4678
 4545.5000    14.3802  -999.2500    14.7551   -48.3975
 4546.0000    14.7797  -999.2500    14.7536   -48.3351
 4546.5000    14.9894  -999.2500    14.7522   -48.2721
 4547.0000    14.9912  -999.2500    14.7508   -48.2072
 4547.5000    14.9926  -999.2500    14.7492   -48.1436
 4548.0000    14.6910  -999.2500    13.9458   -48.0795
 4548.5000    14.3728  -999.2500    12.1161   -48.0160
 4549.0000    13.6616  -999.2500    11.7052   -47.9525
 4549.5000    12.7705  -999.2500    11.7036   -47.8881
 4550.0000    12.1212  -999.2500    11.7019   -47.8259
 4550.5000    11.9712  -999.2500    11.0925   -47.7667
 4551.0000    12.2759  -999.2500    10.1793   -47.7651
 4551.5000    12.5803  -999.2500     9.5699   -47.7642
 4552.0000    12.2787  -999.2500     9.7386   -47.7637
 4552.5000    12.0922  -999.2500    10.0583   -47.7633
 4553.0000    11.8606  -999.2500    10.1735   -47.6939
 4553.5000    11.5140  -999.2500     9.7280   -47.6058
 4554.0000    11.3758  -999.2500     9.3881   -47.5167
 4554.5000    11.0742  -999.2500     9.2566   -47.4290
 4555.0000    10.7727  -999.2500     9.2552   -47.3403
 4555.5000    10.6027  -999.2500     9.5577   -47.2518
 4556.0000    10.4725  -999.2500     9.8683   -47.1647
 4556.5000    10.6041  -999.2500    10.2052   -47.0738
 4557.0000    10.7791  -999.2500    10.6556   -46.9871
 4557.5000    11.0835  -999.2500    11.0717   -46.9578
 4558.0000    11.3880  -999.2500    11.1429   -47.1084
 4558.5000    11.5441  -999.2500    11.2204   -47.2308
 4559.0000    11.6939  -999.2500    11.2186   -47.3618
 4559.5000    11.7437  -999.2500    11.0652   -47.4914
 4560.0000    11.6970  -999.2500    10.7598   -47.6196
 4560.5000    11.3957  -999.2500    10.4400   -47.7491
 4561.0000    10.7911  -999.2500    10.1001   -47.8782
 4561.5000    10.1864  -999.2500     9.4981   -48.0071
 4562.0000     9.5634  -999.2500     9.1166   -48.1364
 4562.5000     9.0973  -999.2500     8.4726   -48.2654
 4563.0000     8.9785  -999.2500     8.0149   -48.3942
 4563.5000     8.9803  -999.2500     8.0135   -48.5250
 4564.0000     8.9821  -999.2500     8.0120   -48.6514
 4564.5000     9.1350  -999.2500     8.3146   -48.7809
 4565.0000     9.5909  -999.2500     8.7891   -48.9220
 4565.5000    10.2283  -999.2500     9.5820   -48.9352
 4566.0000    10.9185  -999.2500    10.2675   -48.7812
 4566.5000    11.5333  -999.2500    11.0158   -48.6416
 4567.0000    12.2680  -999.2500    11.6564   -48.5027
 4567.5000    12.9320  -999.2500    12.2566   -48.3551
 4568.0000    13.2365  -999.2500    12.7111   -48.2214
 4568.5000    13.3894  -999.2500    13.0136   -48.1691
 4569.0000    13.5423  -999.2500    13.1641   -48.1338
 4569.5000    13.3492  -999.2500    13.1626   -48.5648
