~VERSION INFORMATION
 VERS.                2.0:   CWLS LOG ASCII STANDARD - VERSION 2.0
 WRAP.                 NO:   ONE LINE PER DEPTH STEP
~WELL INFORMATION
#MNEM.UNIT      DATA TYPE    INFORMATION
#----------   ------------   ------------------------------
 STRT.F          207.0000:   START DEPTH
 STOP.F         3130.0000:   STOP DEPTH
 STEP.F            0.5000:   STEP LENGTH
 NULL.          -999.2500:   NO VALUE
 COMP. FENIX & SCISSON U.S. NAVY:   COMPANY
 WELL.    FENIX "A" #61-3:   WELL
 FLD .             NPR #3:   FIELD
 LOC .       S3 T38N R78W:   LOCATION
 CNTY.            NATRONA:   COUNTY
 STAT.            WYOMING:   STATE
 CTRY. UNITED STATES OF AMERICA:   COUNTRY
 SRVC.              WELEX:   SERVICE COMPANY
 DATE.        13-MAY-1977:   LOGDATE
 API .     49025103630000:   API NUMBER
~CURVE INFORMATION
#MNEM.UNIT       API CODE    CURVE DESCRIPTION
#----------   ------------   ------------------------------
 DEPT.F                  :   
 SPR .MV     07 010 01 00:   SPONTANEOUS POTENTIAL
 SFLU.OHMM   07 220 01 00:   SPHERICALLY FOCUSED LOG UNAVERAGED RESISTIVITY
 ILD .OHMM   07 120 46 00:   INDUCTION LOG DEEP RESISTIVITY
 ILM .OHMM   07 120 44 00:   INDUCTION LOG MEDIUM RESISTIVITY
 CALD.IN     45 280 60 00:   CALIPER FROM DENSITY LOG
 GRD .GAPI   45 310 01 00:   GAMMA RAY FROM DENSITY LOG
 RHOB.G/C3   45 350 01 00:   BULK DENSITY
 CORR.G/C3   45 356 01 00:   DENSITY CORRECTION
~PARAMETER INFORMATION
#MNEM.UNIT          VALUE    DESCRIPTION
#----------   ------------   ------------------------------
 EKB .F         5109.0000:   Kelly bushing
 EGL .F         5099.0000:   Ground level
 EDF .F            0.0000:   Drilling floor
 TD  .F         3130.0000:   Total depth
 DATE.        13-MAY-1977:   Date logged
 CLNT.            A2DTECH:   Client Code
 SL  . 330' FNL & 1650' FEL:   Surface Location
 PD  .                 GL:   Permanent Datum
 EPD .F              5099:   Elevation Permanent Datum
 LMF .                 KB:   Log Measured From
 DMF .                 KB:   Drilling Measured From
 DAPD.F                10:   Feet Above Permanent Datum
 DD  .F              3126:   Depth driller
 DL  .F              3129:   Depth logger
 BLI .F              3127:   Bottom log interval
 TLI .F               210:   Top log interval
 CS1 .IN            8.625:   Casing size
 CBD1.      8.625" @ 200':   Casing driller 1
 CBL1.F               216:   Casing logger 1
 BS1 .IN            7.875:   Bit size
 BSD1.F              3126:   Depth drilled with bit1
 DFT .            KCL MUD:   Type fluid in hole
 DFD .                9.1:   Density
 DFV .                 32:   Viscosity
 DFPH.                  8:   pH
 DFL .                8.4:   Fluid loss
 MSS .           FLOWLINE:   Source of sample
 RMS .OHMM            .29:   Rm
 MST .F                68:   Rm Meas. temp.
 RMF .OHMM            .28:   Rmf
 MFST.F                68:   Rmf Meas. temp.
 RMC .OHMM            .43:   Rmc
 MCST.F                68:   Rmc Meas. temp.
 MFSS.           FANN KIT:   Source Rmf.
 MCSS.           FANN KIT:   Source Rmc.
 RMB .OHMM            .16:   Rm. at BHT
 BHT .F               123:   BHT.
 TCS .HRS             2.5:   Time Circ. stopped
 MRT .F               123:   Maximum recorded temp.
 LUN .               9685:   Logging unit number
 LUL .           BRIGHTON:   Logging unit location
 ENGI.          T. JOYNER:   Recorded By
 WITN.      B. HARRINGTON:   Witnessed by
 ORIG.           5" PRINT:   Origin of data
 UWI .     49025103630000:   Unique Well ID
 DICO. A2D TECHNOLOGIES, INC.:   Digitizing Company
~OTHER INFORMATION
~A   DEPT      SPR       SFLU        ILD        ILM       CALD        GRD       RHOB       CORR   
# ...
  774.0000   -37.5042     6.3198     4.7495     4.8826     9.2257   111.5605     2.4379     0.0027
  774.5000   -37.5022     6.2048     4.7500     4.8829     9.2260   113.9403     2.4429     0.0027
  775.0000   -37.5002     6.1485     4.7503     4.9286     9.2264   112.3633     2.4479     0.0046
  775.5000   -37.4982     6.1488     4.7506     4.9746     9.1082   112.7647     2.4549     0.0106
  776.0000   -37.2962     6.2639     4.7948     5.0210     9.1085   115.5400     2.4598     0.0126
  776.5000   -37.4942     6.4995     4.8844     5.0214     9.0890   116.7326     2.4668     0.0126
  777.0000   -37.4922     6.6823     4.9758     5.0683     9.0894   116.3427     2.4688     0.0126
  777.5000   -37.6902     6.9337     5.0681     5.1156     9.0897   115.5571     2.4718     0.0125
  778.0000   -37.6882     6.9345     5.0688     5.1632     9.0901   115.9584     2.4718     0.0125
  778.5000   -37.6862     6.9350     5.1164     5.1637     9.0903   117.5465     2.4718     0.0125
  779.0000   -37.6841     6.9355     5.1167     5.2118     9.0709   116.3653     2.4718     0.0145
  779.5000   -37.6821     7.0651     5.1171     5.2123     9.0712   114.7886     2.4718     0.0145
  780.0000   -37.4801     7.4672     5.1176     5.2128     9.0716   114.7932     2.4718     0.0145
  780.5000   -37.6781     7.3314     5.0710     5.1654     9.0521   117.5679     2.4688     0.0164
  781.0000   -37.6761     7.1982     5.0715     5.1656     9.0525   117.5736     2.4648     0.0124
  781.5000   -37.2741     6.7492     5.0253     5.1662     9.0726   117.5792     2.4628     0.0184
  782.0000   -37.4725     6.5655     5.0257     5.1666     9.0531   117.6249     2.4628     0.0164
  782.5000   -37.4705     6.3869     4.9800     5.1670     9.0733   117.6305     2.4628     0.0164
  783.0000   -37.3405     6.3876     4.9803     5.1229     9.0736   117.6361     2.4628     0.0164
  783.5000   -37.2669     6.4472     4.9808     5.1201     9.0937   117.6418     2.4618     0.0183
  784.0000   -37.2557     6.5074     4.9355     5.0998     9.2325   118.0430     2.4608     0.0183
  784.5000   -37.2445     6.5682     4.9357     5.0795     9.1538   117.6531     2.4578     0.0183
  785.0000   -37.2333     6.6297     4.8908     5.0593     9.0354   117.2632     2.4568     0.0183
  785.5000   -37.2221     6.6302     4.8464     5.0391     8.9962   117.6643     2.4568     0.0183
  786.0000   -37.2109     6.5698     4.8468     5.0191     8.9767   115.2970     2.4578     0.0203
  786.5000   -37.1997     6.5101     4.8472     4.9991     8.9573   114.9072     2.4578     0.0203
  787.0000   -37.1885     6.3917     4.8476     4.9792     8.9577   114.1220     2.4577     0.0202
  787.5000   -37.1773     6.3335     4.8480     4.9594     8.9580   113.7322     2.4577     0.0182
  788.0000   -37.1662     6.2759     4.7598     4.9396     8.9583   114.1334     2.4577     0.0182
  788.5000   -37.1550     6.2765     4.8043     4.9200     8.9784   114.9300     2.4557     0.0162
  789.0000   -37.1438     6.2769     4.8047     4.8942     8.9788   115.7266     2.4547     0.0182
  789.5000   -37.1326     6.2776     4.6740     4.8944     8.9791   115.7323     2.4537     0.0142
  790.0000   -37.1214     6.2781     4.8054     4.8499     8.9596   114.9460     2.4497     0.0042
  790.5000   -37.1102     6.2786     4.7617     4.8502     8.9797   114.9517     2.4457     0.0022
  791.0000   -37.0990     6.2790     4.7621     4.8505     8.9801   115.3528     2.4418     0.0002
  791.5000   -37.0878     6.3377     4.7625     4.8509     8.9804   115.3585     2.4378     0.0002
  792.0000   -37.0766     6.3970     4.6758     4.8514     8.9610   114.5733     2.4308     0.0001
  792.5000   -37.0655     6.5164     4.7195     4.8518     8.9416   114.1836     2.4258     0.0001
  793.0000   -37.0543     6.5773     4.7636     4.8522     8.9419   113.7940     2.4198    -0.0099
  793.5000   -37.0431     6.7001     4.6769     4.8526     8.9422   113.7997     2.4238    -0.0039
  794.0000   -37.2239     6.7626     4.7643     4.8981     8.9228   114.5961     2.4308    -0.0039
  794.5000   -37.2231     6.7013     4.8533     4.9105     8.9429   114.6018     2.4327     0.0001
  795.0000   -37.2219     6.6404     4.8537     4.9230     8.9433   115.7936     2.4377     0.0001
  795.5000   -37.2171     6.5800     4.8540     4.9355     8.9238   117.7760     2.4407     0.0020
  796.0000   -37.4163     6.5201     4.8543     4.9480     8.9242   117.3863     2.4447     0.0020
  796.5000   -37.4143     6.5206     4.8549     4.9606     8.9048   115.8106     2.4497     0.0020
  797.0000   -37.2122     6.5211     4.8553     4.9732     8.9051   116.2116     2.4497     0.0040
  797.5000   -37.4102     6.5217     4.8111     4.9858     8.8857   115.8220     2.4367     0.0060
  798.0000   -37.4082     6.5223     4.8559     4.9985     8.8860   113.4558     2.4297    -0.0040
  798.5000   -37.6062     6.5227     4.8563     5.0112     8.8864   112.6709     2.4237    -0.0040
  799.0000   -37.4042     6.5837     4.8121     5.0239     8.9065   113.4673     2.4237    -0.0041
  799.5000   -37.6022     6.5841     4.8125     5.0367     8.8870   113.8683     2.4247    -0.0061
  800.0000   -37.0002     6.6457     4.9479     5.0495     8.9466   113.4787     2.4227    -0.0061
  800.5000   -37.3605     6.6464     4.9488     5.0623     8.9081   113.8769     2.4202    -0.0061
  801.0000   -37.1981     6.6479     4.9490     5.0752     8.8875   113.4832     2.4208    -0.0060
  801.5000   -37.1971     6.6480     4.9494     5.0881     8.8875   113.8807     2.4228    -0.0060
  802.0000   -37.1961     6.7104     4.9500     5.1010     8.8678   113.4885     2.4208    -0.0060
  802.5000   -37.1951     6.7736     4.9967     5.1139     8.8877   113.4898     2.4198    -0.0059
  803.0000   -37.1941     6.7744     4.9971     5.1269     8.8877   115.8640     2.4208    -0.0059
  803.5000   -37.1931     6.7750     4.9978     5.1400     8.9075   116.6573     2.4258    -0.0059
  804.0000   -37.1921     6.8388     4.9984     5.1530     8.8878   115.0779     2.4318    -0.0058
  804.5000   -37.1911     6.9030     4.9992     5.1661     8.8681   115.0801     2.4398    -0.0058
  805.0000   -37.1901     6.9038     4.9997     5.1792     8.8682   114.6870     2.4438    -0.0058
  805.5000   -37.1891     6.9046     5.0001     5.1881     8.8880   115.4800     2.4448    -0.0058
  806.0000   -37.1881     6.9694     5.0006     5.1413     8.8881   114.2962     2.4368    -0.0057
  806.5000   -37.1871     6.9699     5.0015     5.1419     8.8683   114.2984     2.4388    -0.0057
  807.0000   -37.1861     6.9708     5.0483     5.1425     8.7893   114.6960     2.4398    -0.0057
  807.5000   -37.1851     6.9718     5.0957     5.1430     8.7894   114.6983     2.4358    -0.0056
  808.0000   -37.1841     6.9726     5.1435     5.1436     8.8685   114.3052     2.4358    -0.0056
  808.5000   -37.1831     6.9735     5.1923     5.1443     8.7895   114.3074     2.4408    -0.0056
  809.0000   -37.1827     6.9743     5.0978     5.1927     8.7895   113.9142     2.4448    -0.0055
  809.5000   -37.1812     7.1049     5.0517     5.1933     8.7303   113.9178     2.4478     0.0005
  810.0000   -36.7800     7.1718     5.0522     5.1940     8.7303   113.5233     2.4488     0.0005
  810.5000   -36.7790     7.4421     5.0526     5.1946     8.7304   113.1301     2.4478     0.0005
  811.0000   -36.5776     7.6517     5.1950     5.1950     8.7304   111.9460     2.4459     0.0006
  811.5000   -36.9770     7.6523     5.3910     5.3414     8.7503   110.3264     2.4439     0.0006
  812.0000   -36.7760     7.8678     5.5942     5.4415     8.7701   108.7468     2.4429     0.0006
  812.5000   -36.7750     8.0150     5.6989     5.5948     8.7899   106.7721     2.4429    -0.0014
  813.0000   -36.5740     8.2411     5.8594     5.7522     8.8098   104.7969     2.4419    -0.0013
  813.5000   -36.5730     8.4732     5.9145     6.0243     8.7900   103.6125     2.4419    -0.0013
  814.0000   -36.3720     8.7121     6.0252     6.0808     8.8692   102.8236     2.4459     0.0067
