~VERSION INFORMATION
 VERS.                2.0:   CWLS LOG ASCII STANDARD - VERSION 2.0
 WRAP.                 NO:   ONE LINE PER DEPTH STEP
~WELL INFORMATION
#MNEM.UNIT      DATA TYPE    INFORMATION
#----------   ------------   ------------------------------
 STRT.F          200.0000:   START DEPTH
 STOP.F         3078.0000:   STOP DEPTH
 STEP.F            0.5000:   STEP LENGTH
 NULL.          -999.2500:   NO VALUE
 COMP.   FENIX & SCISSION:   COMPANY
 WELL. FENIX NPR 72 "A" #3-28:   WELL
 FLD .              NPR-3:   FIELD
 LOC .      S28 T39N R78W:   LOCATION
 CNTY.            NATRONA:   COUNTY
 STAT.            WYOMING:   STATE
 CTRY. UNITED STATES OF AMERICA:   COUNTRY
 SRVC.              WELEX:   SERVICE COMPANY
 DATE.        06-JUN-1977:   LOGDATE
 API .     49025103770000:   API NUMBER
~CURVE INFORMATION
#MNEM.UNIT       API CODE    CURVE DESCRIPTION
#----------   ------------   ------------------------------
 DEPT.F                  :   
 CORR.G/C3   45 356 01 00:   DENSITY CORRECTION
 RHOB.G/C3   45 350 01 00:   BULK DENSITY
 CALD.IN     45 280 60 00:   CALIPER FROM DENSITY LOG
 SPR .MV     07 010 01 00:   SPONTANEOUS POTENTIAL
 GURD.OHMM   07 220 05 00:   GUARD LOG RESISTIVITY
 ILM .OHMM   07 120 44 00:   INDUCTION LOG MEDIUM RESISTIVITY
 ILD .OHMM   07 120 46 00:   DEEP INDUCTION RESISTIVITY
 GRD .GAPI   45 310 01 00:   GAMMA RAY FROM DENSITY LOG
~PARAMETER INFORMATION
#MNEM.UNIT          VALUE    DESCRIPTION
#----------   ------------   ------------------------------
 EKB .F         5022.0000:   Kelly bushing
 EGL .F         5011.0000:   Ground level
 EDF .F            0.0000:   Drilling floor
 EPD .F         5011.0000:   Permanent datum
 TD  .F         3081.0000:   Total depth
 DATE.        06-JUN-1977:   Date logged
 CLNT.            A2DTECH:   Client Code
 SL  . 990' FNL & 990' FEL:   Surface Location
 PD  .                 GL:   Permanent Datum
 DAPD.F                11:   Feet Above Permanent Datum
 DD  .F              3041:   Depth driller
 DL  .F              3081:   Depth logger
 BLI .F              3079:   Bottom log interval
 TLI .F               200:   Top log interval
 CS1 .IN            8.625:   Casing size
 CBD1.      8.625" @ 200':   Casing driller 1
 CBL1.F               218:   Casing logger 1
 BS1 .IN            7.875:   Bit size
 BSD1.F              3041:   Depth drilled with bit1
 DFT .            KCL MUD:   Type fluid in hole
 DFD .                8.8:   Density
 DFV .                 38:   Viscosity
 DFPH.                7.5:   pH
 DFL .                5.8:   Fluid loss
 MSS .           FLOWLINE:   Source of sample
 RMS .OHMM           1.19:   Rm
 MST .F                89:   Rm Meas. temp.
 RMF .OHMM           1.05:   Rmf
 MFST.F                89:   Rmf Meas. temp.
 RMC .OHMM           2.17:   Rmc
 MCST.F                89:   Rmc Meas. temp.
 MFSS.               FANN:   Source Rmf.
 MCSS.                KIT:   Source Rmc.
 RMB .OHMM           0.98:   Rm. at BHT
 BHT .F               108:   BHT.
 TCS .HRS             2.5:   Time Circ. stopped
 MRT .F               108:   Maximum recorded temp.
 LUN .               8611:   Logging unit number
 LUL .             CASPER:   Logging unit location
 ENGI.          T. JOYNER:   Recorded By
 WITN.      W. PETTINGILL:   Witnessed by
 ORIG.           5" PRINT:   Origin of data
 UWI .     49025103770000:   Unique Well ID
 DICO. A2D TECHNOLOGIES, INC.:   Digitizing Company
~OTHER INFORMATION
~A   DEPT     CORR       RHOB         CALD      SPR       GURD        ILM        ILD         GRD  
# ...
 1131.5000     0.0030     2.4170     9.4760   -52.0280    11.7560    11.0310    10.3050    99.3200
 1132.0000     0.0020     2.4550     9.4510   -52.0360    11.6470    10.9070    10.2860    98.4680
 1132.5000     0.0040     2.4670     9.4260   -52.0430    11.5370    10.7990    10.2670    97.6200
 1133.0000     0.0060     2.4640     9.4010   -52.0510    11.4280    10.6910    10.2390    96.7700
 1133.5000     0.0080     2.4640     9.3760   -52.0580    11.3180    10.5830    10.1660    95.8730
 1134.0000     0.0110     2.4650     9.3500   -52.0300    11.2090    10.5170    10.0920    96.5640
 1134.5000     0.0110     2.4560     9.3430   -52.0000    11.0990    10.4830    10.0190    97.8270
 1135.0000     0.0100     2.4460     9.3430   -51.9700    11.0030    10.4410     9.9770    99.1100
 1135.5000     0.0100     2.4460     9.3430   -51.9400    10.9280    10.4720    10.0130   100.3970
 1136.0000     0.0110     2.4460     9.3430   -51.9110    10.8520    10.5330    10.0420   101.5250
 1136.5000     0.0110     2.4440     9.3430   -51.8810    10.7770    10.4620    10.0650   100.6750
 1137.0000     0.0100     2.4470     9.3480   -51.8730    10.7020    10.2680     9.8450    99.8030
 1137.5000     0.0090     2.4480     9.3670   -51.9010    10.6270    10.0750     9.6600    98.9420
 1138.0000     0.0080     2.4470     9.3870   -51.9280    10.5370     9.8820     9.4390    98.8190
 1138.5000     0.0070     2.4460     9.4060   -51.9560    10.5620     9.9840     9.5490    98.8620
 1139.0000     0.0060     2.4470     9.4250   -51.9830    10.5940    10.0850     9.6860    97.4970
 1139.5000     0.0070     2.4490     9.4410   -52.0100    10.6260    10.1860     9.8220    95.9370
 1140.0000     0.0090     2.4510     9.4410   -52.0370    10.6570    10.3460     9.9590    94.3290
 1140.5000     0.0120     2.4540     9.4410   -52.0390    10.6890    10.3330    10.0650    94.8940
 1141.0000     0.0130     2.4550     9.4410   -51.9380    10.7200    10.3030     9.9790    95.8600
 1141.5000     0.0120     2.4550     9.4410   -51.8400    10.7490    10.2740     9.8900    96.8460
 1142.0000     0.0110     2.4540     9.4410   -51.7420    10.7770    10.2510     9.9280    97.8330
 1142.5000     0.0100     2.4520     9.4410   -51.6740    10.8050    10.4090    10.0010    98.7880
 1143.0000     0.0090     2.4500     9.4410   -51.7200    10.8320    10.5380    10.0740    98.8220
 1143.5000     0.0080     2.4450     9.4410   -51.7630    10.8600    10.6340    10.1580    98.8180
 1144.0000     0.0070     2.4380     9.4410   -51.8050    10.8880    10.4950    10.0540    98.8220
 1144.5000     0.0050     2.4300     9.4460   -51.8500    10.9310    10.3460     9.9310    99.1410
 1145.0000     0.0050     2.4280     9.4550   -51.8390    10.9270    10.3560     9.8010   100.0310
 1145.5000     0.0040     2.4290     9.4640   -51.8050    10.9180    10.3790     9.8660   100.7180
 1146.0000     0.0040     2.4330     9.4730   -51.7690    10.9090    10.4020     9.9510   100.0370
 1146.5000     0.0050     2.4360     9.4800   -51.7340    10.9010    10.4240    10.0650    99.3560
 1147.0000     0.0060     2.4400     9.4800   -51.6990    10.8920    10.4410     9.9140    99.5840
 1147.5000     0.0060     2.4420     9.4800   -51.6690    10.8830    10.2900     9.6900   100.0450
 1148.0000     0.0070     2.4450     9.4800   -51.7210    10.8750    10.1680     9.4390    99.9200
 1148.5000     0.0070     2.4460     9.4800   -51.7720    10.8660    10.2250     9.5420    98.1980
 1149.0000     0.0070     2.4450     9.4800   -51.8220    10.8580    10.3010     9.6930    96.4940
 1149.5000     0.0060     2.4420     9.4800   -51.8730    10.8490    10.3770     9.8430    96.9580
 1150.0000     0.0050     2.4390     9.4800   -51.9230    10.8400    10.4540     9.9930    98.6660
 1150.5000     0.0020     2.4410     9.4790   -51.9740    10.8310    10.5370    10.1580   100.3790
 1151.0000    -0.0020     2.4430     9.4700   -52.0240    10.7520    10.3540     9.9860   101.5560
 1151.5000    -0.0010     2.4450     9.4360   -52.0560    10.6650    10.2300     9.7960   101.3570
 1152.0000     0.0000     2.4460     9.4040   -52.0430    10.5780    10.1070     9.6070   101.1900
 1152.5000     0.0020     2.4480     9.3710   -52.0310    10.4910     9.9730     9.4390   101.1890
 1153.0000     0.0030     2.4490     9.3380   -52.0190    10.4040     9.9730     9.4390   101.1600
 1153.5000     0.0050     2.4510     9.3240   -52.0060    10.3460     9.9730     9.4390    99.8160
 1154.0000     0.0060     2.4520     9.3240   -51.9940    10.3660     9.9730     9.4390    98.3290
 1154.5000     0.0070     2.4540     9.3240   -51.9820    10.3820     9.9730     9.4390    98.5530
 1155.0000     0.0080     2.4540     9.3240   -51.9700    10.3970     9.9730     9.4390    99.1700
 1155.5000     0.0090     2.4540     9.3240   -51.9580    10.4120     9.9730     9.4390    98.6210
 1156.0000     0.0090     2.4540     9.3230   -51.9460    10.4280     9.9730     9.4390    98.0820
 1156.5000     0.0100     2.4540     9.3210   -51.9340    10.4400     9.9730     9.4400    99.3670
 1157.0000     0.0100     2.4550     9.3190   -51.9210    10.4170     9.9730     9.4210   100.7300
 1157.5000     0.0110     2.4560     9.3170   -51.9090    10.3970     9.8680     9.3050   102.0860
 1158.0000     0.0110     2.4570     9.3150   -51.8970    10.3760     9.7300     9.1830   103.4650
 1158.5000     0.0100     2.4540     9.3140   -51.8850    10.3550     9.6140     9.2240   103.2750
 1159.0000     0.0060     2.4510     9.3120   -51.8730    10.3350     9.7030     9.2680   102.2450
 1159.5000     0.0060     2.4480     9.3100   -51.8610    10.3140     9.5260     9.1780   101.2110
 1160.0000     0.0060     2.4490     9.3080   -51.8540    10.2940     9.5750     9.1000   100.1760
 1160.5000     0.0060     2.4560     9.3060   -51.8460    10.2730     9.6580     9.2190    99.9660
 1161.0000     0.0060     2.4630     9.3040   -51.8390    10.2520     9.7410     9.3410   100.7350
 1161.5000     0.0070     2.4700     9.3040   -51.8310    10.2320     9.7850     9.4390   101.4810
 1162.0000     0.0070     2.4750     9.3040   -51.8240    10.2110     9.7230     9.3370   101.0340
 1162.5000     0.0070     2.4740     9.3040   -51.8160    10.1910     9.6730     9.2680   100.4400
 1163.0000     0.0070     2.4750     9.3040   -51.8090    10.1580     9.6240     9.2430   100.3540
 1163.5000     0.0080     2.4760     9.3040   -51.8010    10.1620     9.6140     9.2180   101.7290
 1164.0000     0.0090     2.4760     9.3040   -51.7940    10.1740     9.6140     9.1930   103.0580
 1164.5000     0.0090     2.4730     9.3040   -51.7860    10.1850     9.6140     9.1690   104.4460
 1165.0000     0.0100     2.4700     9.3040   -51.7790    10.1970     9.6140     9.1440   103.4550
 1165.5000     0.0110     2.4670     9.3020   -51.7710    10.2080     9.6140     9.1190   101.7500
 1166.0000     0.0110     2.4690     9.3000   -51.7640    10.2200     9.6130     9.1000    99.9720
 1166.5000     0.0110     2.4720     9.2980   -51.7560    10.2310     9.7140     9.2520   100.3020
 1167.0000     0.0110     2.4740     9.2960   -51.7490    10.2430     9.7920     9.3760   101.1910
 1167.5000     0.0110     2.4770     9.2940   -51.7410    10.3590     9.9840     9.5000   101.5700
 1168.0000     0.0110     2.4730     9.2920   -51.7340    10.8080    10.1690     9.6240   101.5800
 1168.5000     0.0100     2.4690     9.2900   -51.7260    11.2350    10.3460     9.7920   101.8300
 1169.0000     0.0090     2.4690     9.2880   -51.7190    10.8370    10.1920     9.7170   103.2030
 1169.5000     0.0080     2.4620     9.2850   -51.7110    10.2510    10.0460     9.6010   104.5570
 1170.0000     0.0070     2.4540     9.2860   -51.7040    10.2850     9.9000     9.4850   105.8980
 1170.5000     0.0060     2.4580     9.2880   -51.6960    10.3580     9.7920     9.3690   106.0110
 1171.0000     0.0070     2.4630     9.2910   -51.6890    10.4310     9.7490     9.3300   104.3710
 1171.5000     0.0090     2.4680     9.2930   -51.6810    10.4850     9.7080     9.2940   102.7470
