~VERSION INFORMATION
 VERS.                2.0:   CWLS LOG ASCII STANDARD - VERSION 2.0
 WRAP.                 NO:   ONE LINE PER DEPTH STEP
~WELL INFORMATION
#MNEM.UNIT      DATA TYPE    INFORMATION
#----------   ------------   ------------------------------
 STRT.F          216.0000:   START DEPTH
 STOP.F         3184.0000:   STOP DEPTH
 STEP.F            0.5000:   STEP LENGTH
 NULL.          -999.2500:   NO VALUE
 COMP.    FENIX & SCISSON:   COMPANY
 WELL. FENIX & SCISSON INCNRP "A" #311-14:   WELL
 FLD .                NPR:   FIELD
 LOC .      S14 T38N R78W:   LOCATION
 CNTY.            NATRONA:   COUNTY
 STAT.            WYOMING:   STATE
 CTRY. UNITED STATES OF AMERICA:   COUNTRY
 SRVC.              WELEX:   SERVICE COMPANY
 DATE.        22-JUN-1977:   LOGDATE
 API .     49025103810000:   API NUMBER
~CURVE INFORMATION
#MNEM.UNIT       API CODE    CURVE DESCRIPTION
#----------   ------------   ------------------------------
 DEPT.F                  :   
 CALD.IN     45 280 60 00:   CALIPER FROM DENSITY LOG
 GRD .GAPI   45 310 01 00:   GAMMA RAY FROM DENSITY LOG
 DPHI.DEC    45 890 12 00:   DENSITY POROSITY SANDSTONE
 RHOB.G/C3   45 350 01 00:   BULK DENSITY
 CORR.G/C3   45 356 01 00:   DENSITY CORRECTION
 SPR .MV     07 010 01 00:   SPONTANEOUS POTENTIAL
 SFLU.OHMM   07 220 01 00:   SPHERICALLY FOCUSED LOG UNAVERAGED RESISTIVITY
 ILD .OHMM   07 120 46 00:   DEEP INDUCTION RESISTIVITY
 ILM .OHMM   07 120 44 00:   INDUCTION LOG MEDIUM RESISTIVITY
~PARAMETER INFORMATION
#MNEM.UNIT          VALUE    DESCRIPTION
#----------   ------------   ------------------------------
 EKB .F         5225.0000:   Kelly bushing
 EGL .F         5215.0000:   Ground level
 TD  .F         3183.0000:   Total depth
 DATE.        22-JUN-1977:   Date logged
 CLNT.            A2DTECH:   Client Code
 CTRY.                USA:   Country
 SL  . 330' FNL & 330' FWL:   Surface Location
 PD  .                 GL:   Permanent Datum
 EPD .F              5215:   Elevation Permanent Datum
 LMF .                 KB:   Log Measured From
 DMF .                 KB:   Drilling Measured From
 DAPD.F                10:   Feet Above Permanent Datum
 DD  .F              3178:   Depth driller
 DL  .F              3183:   Depth logger
 BLI .F              3181:   Bottom log interval
 TLI .F                20:   Top log interval
 CS1 .IN            8.625:   Casing size
 CBD1.      8.625" @ 217':   Casing driller 1
 BS1 .IN            7.875:   Bit size
 BSD1.F              3178:   Depth drilled with bit1
 DFT .            KCL MUD:   Type fluid in hole
 DFD .                9.5:   Density
 DFV .                 40:   Viscosity
 DFPH.                7.5:   pH
 DFL .               13.6:   Fluid loss
 MSS .           FLOWLINE:   Source of sample
 RMS .OHMM            .36:   Rm
 MST .F                80:   Rm Meas. temp.
 RMF .OHMM            .30:   Rmf
 MFST.F                80:   Rmf Meas. temp.
 RMC .OHMM            .86:   Rmc
 MCST.F                80:   Rmc Meas. temp.
 MFSS.               FANN:   Source Rmf.
 MCSS.                KIT:   Source Rmc.
 RMB .OHMM            .25:   Rm. at BHT
 BHT .F               114:   BHT.
 TCS .HRS             2.5:   Time Circ. stopped
 MRT .F               114:   Maximum recorded temp.
 LUN .               8766:   Logging unit number
 LUL .             CASPER:   Logging unit location
 ENGI.          T. TOYNER:   Recorded By
 WITN.      B. HARRINGTON:   Witnessed by
 PWI .                  -:   Primary Well Identifier
 ORIG.           5" PRINT:   Origin of data
 UWI .     49025103810000:   Unique Well ID
 DICO. A2D TECHNOLOGIES, INC.:   Digitizing Company
~OTHER INFORMATION
~A   DEPT       CALD       GRD        DPHI       RHOB       CORR      SPR         SFLU      ILD        ILM   
  216.0000     9.6615    86.0542     0.2261     2.2278     0.0472   -43.3114     5.4607  -999.2500  -999.2500
  216.5000     9.9620    87.2822     0.2369     2.2537     0.0474   -44.9042     5.7169     0.3085     4.0179
  217.0000    10.3630    88.9498     0.2477     2.2366     0.0474   -48.0879     5.8760     0.2496     4.2855
  217.5000    10.5050    89.3902     0.2661     2.2026     0.0377   -48.8859     6.2086     0.2214     4.6558
  218.0000    10.5275    89.4436     0.2802     2.1805     0.0318   -49.6856     6.3813     0.2255     4.7856
  218.5000    10.4511    89.9042     0.2990     2.1584     0.0240   -50.0862     6.5589     0.3289     5.2958
  219.0000    10.3346    90.7514     0.3007     2.1353     0.0200   -50.0913     6.6795     0.4102     5.8065
  219.5000    10.2176    91.1904     0.3003     2.1202     0.0003   -50.4920     6.8024     0.9307     6.4253
  220.0000    10.1478    92.0568     0.2940     2.1592    -0.0016   -50.8943     6.9275     2.1314     6.4836
  220.5000    10.0781    92.9486     0.2032     2.2124     0.0045   -51.6921     6.9479     4.4111     6.3055
  221.0000    10.0159    93.6624     0.1370     2.3729     0.0169   -51.6971     7.0864     4.8804     6.1323
  221.5000     9.9443    94.0630     0.1230     2.4540     0.0227   -52.0976     7.2276     5.3501     5.9638
  222.0000     9.9446    94.0692     0.1224     2.4530     0.0227   -52.8970     7.3717     5.9740     5.9627
  222.5000     9.9448    94.4736     0.1220     2.4511     0.0208   -53.2975     7.5879     7.0499     5.9616
  223.0000     9.9649    94.8782     0.1220     2.4488     0.0209   -54.0967     7.5876     8.6312     5.9607
  223.5000     9.9652    97.2664     0.1220     2.4465     0.0209   -54.4972     7.5121     9.2891     5.9596
  224.0000     9.9853    98.4654     0.1227     2.4442     0.0210   -54.8992     7.4374     9.1179     5.9585
  224.5000    10.0054    98.4692     0.1243     2.4452     0.0210   -54.9025     7.3633     8.3143     5.9029
  225.0000    10.0255    98.4744     0.1247     2.4452     0.0231   -55.3045     7.2901     8.3127     5.7937
  225.5000    10.0457    98.4822     0.1259     2.4453     0.0232   -55.7048     7.1727     8.4655     5.7926
  226.0000    10.0658    98.4888     0.1275     2.4453     0.0232   -58.4892     7.1235     8.6212     5.6857
  226.5000    10.0462    95.7164     0.1299     2.4393     0.0213   -59.6835     7.0746     7.9341     5.6325
  227.0000    10.0862    94.9282     0.1307     2.4363     0.0214   -60.4807     7.0261     7.1686     5.6836
  227.5000    10.0865    94.1402     0.1315     2.4354     0.0194   -62.8676     6.9718     5.5895     5.6825
  228.0000    10.1264    94.1464     0.1318     2.4354     0.0195   -62.4752     6.9068     5.5377     5.7341
  228.5000    10.1863    94.1526     0.1322     2.4334     0.0176   -61.6843     6.9694     5.5370     5.6804
  229.0000    10.1667    94.1588     0.1330     2.4325     0.0156   -60.1009     7.0325     5.5127     5.7320
  229.5000    10.1670    94.5624     0.1326     2.4325     0.0157   -59.3101     7.0962     5.4885     5.6783
  230.0000    10.1671    94.9660     0.1326     2.4325     0.0158   -58.9179     7.0949     5.4644     5.6772
  230.5000    10.1874    94.5724     0.1338     2.4316     0.0118   -59.3180     7.0935     5.4404     5.5725
  231.0000    10.2274    94.1824     0.1354     2.4286     0.0059   -59.3227     7.0922     5.4165     5.5203
  231.5000    10.2476    95.3822     0.1346     2.4286     0.0039   -59.7228     7.0911     5.3927     5.5193
  232.0000    10.2677    95.7860     0.1341     2.4307     0.0060   -60.9183     7.0898     5.3690     5.4676
  232.5000    10.2481    95.7910     0.1337     2.4317     0.0061   -60.9214     7.0884     5.3454     5.5172
  233.0000    10.2683    95.7986     0.1325     2.4327     0.0102   -62.1167     7.0871     5.3278     5.5162
  233.5000    10.2885    95.0100     0.1313     2.4348     0.0122   -62.5167     7.0857     5.2878     5.5662
  234.0000    10.2689    95.0150     0.1297     2.4348     0.0143   -64.9025     7.0195     5.2481     5.5141
  234.5000    10.2890    95.0212     0.1269     2.4368     0.0143   -65.6992     6.9539     5.2087     5.5131
  235.0000    10.3092    94.6312     0.1236     2.4419     0.0164   -66.8942     6.8257     5.1696     5.5121
  235.5000    10.3095    93.0468     0.1216     2.4459     0.0225   -66.8971     6.7619     5.1308     5.5113
  236.0000    10.3097    91.8600     0.1200     2.4510     0.0246   -67.2984     6.6987     5.0923     5.5613
  236.5000    10.3098    92.2638     0.1184     2.4540     0.0247   -67.3013     6.4554     5.0541     5.5602
  237.0000    10.3103    94.2610     0.1180     2.4590     0.0247   -67.3058     6.4534     5.0161     5.7151
  237.5000    10.3305    94.2648     0.1184     2.4581     0.0268   -67.3087     6.3938     4.9785     5.8743
  238.0000    10.3506    93.4754     0.1192     2.4521     0.0248   -67.3131     6.3341     4.9403     5.8732
  238.5000    10.3510    90.6970     0.1195     2.4521     0.0229   -66.9193     6.3329     5.0266     6.0367
  239.0000    10.3512    89.1118     0.1187     2.4532     0.0229   -66.5270     6.3902     5.1145     6.1479
  239.5000    10.3515    90.7102     0.1175     2.4552     0.0211   -66.1333     6.5077     5.2039     6.2611
  240.0000    10.3518    89.5214     0.1167     2.4602     0.0231   -65.3428     6.5666     5.2949     6.2600
  240.5000    10.3719    87.5378     0.1167     2.4623     0.0232   -65.3473     6.7492     5.3874     6.3167
  241.0000    10.3723    86.7490     0.1163     2.4623     0.0232   -65.3503     6.8733     5.5108     6.2576
  241.5000    10.3726    86.3566     0.1163     2.4623     0.0233   -64.9581     6.8720     5.5106     6.2567
  242.0000    10.3729    86.3624     0.1171     2.4624     0.0234   -64.9611     6.8707     5.4954     6.1979
  242.5000    10.3732    86.3680     0.1178     2.4614     0.0234   -64.9656     6.8064     5.4802     6.1967
  243.0000    10.3735    86.7708     0.1198     2.4584     0.0255   -64.9687     6.6811     5.4651     6.1955
  243.5000    10.3339    86.7766     0.1226     2.4515     0.0256   -64.5765     6.4979     5.4500     6.1944
  244.0000    10.3142    86.7810     0.1238     2.4465     0.0257   -64.5796     6.2619     5.4350     6.0243
  244.5000    10.2946    87.1872     0.1262     2.4415     0.0237   -64.5841     6.1468     5.4200     5.9134
  245.0000    10.2353    87.1918     0.1262     2.4415     0.0238   -64.5871     6.0606     5.3042     5.8041
  245.5000    10.2952    86.4024     0.1254     2.4456     0.0238   -64.1951     5.9756     5.2875     5.8030
  246.0000    10.2916    84.8142     0.1282     2.4436     0.0219   -64.5946     5.8917     5.2709     5.7489
  246.5000    10.2880    83.6264     0.1281     2.4436     0.0220   -64.2026     5.8091     5.2543     5.6957
  247.0000    10.2844    83.2326     0.1304     2.4387     0.0220   -64.2056     5.7276     5.2378     5.6418
  247.5000    10.2807    83.2392     0.1325     2.4357     0.0221   -63.8137     5.6472     5.2214     5.5890
  248.0000    10.2771    83.2436     0.1321     2.4347     0.0202   -64.2132     5.5680     5.2015     5.6397
  248.5000    10.2735    83.2490     0.1329     2.4328     0.0202   -63.8212     5.4899     5.1533     5.5357
  249.0000    10.2698    83.2556     0.1325     2.4338     0.0223   -63.8243     5.3945     5.1053     5.4839
  249.5000    10.2662    83.2600     0.1325     2.4338     0.0224   -63.8273     5.3449     5.0610     5.4331
  250.0000    10.2626    83.2666     0.1337     2.4319     0.0204   -63.0389     5.3266     5.0170     5.1867
  250.5000    10.2590    83.2724     0.1344     2.4310     0.0224   -63.0434     5.3084     4.9734     4.9535
  251.0000    10.2590    83.2852     0.1344     2.4299     0.0225   -62.6432     5.3699     4.9335     4.7746
  251.5000    10.2596    83.2954     0.1348     2.4299     0.0206   -62.2467     5.4321     4.8940     4.7312
  252.0000    10.2601    83.3078     0.1328     2.4319     0.0206   -61.4537     5.4950     4.8547     4.7316
