~VERSION INFORMATION
 VERS.                2.0:   CWLS LOG ASCII STANDARD - VERSION 2.0
 WRAP.                 NO:   ONE LINE PER DEPTH STEP
~WELL INFORMATION
#MNEM.UNIT      DATA TYPE    INFORMATION
#----------   ------------   ------------------------------
 STRT.F          196.5000:   START DEPTH
 STOP.F         3219.0000:   STOP DEPTH
 STEP.F            0.5000:   STEP LENGTH
 NULL.          -999.2500:   NO VALUE
 COMP.    FENIX & SCISSON:   COMPANY
 WELL.  FENIX "AX" #73-15:   WELL
 FLD .              NPR 3:   FIELD
 LOC .      S15 T38N R78W:   LOCATION
 CNTY.            NATRONA:   COUNTY
 STAT.            WYOMING:   STATE
 CTRY. UNITED STATES OF AMERICA:   COUNTRY
 SRVC.       SCHLUMBERGER:   SERVICE COMPANY
 DATE.        30-AUG-1977:   LOGDATE
 API .     49025104270000:   API NUMBER
~CURVE INFORMATION
#MNEM.UNIT       API CODE    CURVE DESCRIPTION
#----------   ------------   ------------------------------
 DEPT.F                  :   
 NPHI.DEC    42 890 03 00:   NEUTRON POROSITY SANDSTONE
 CALD.IN     45 280 60 00:   CALIPER FROM DENSITY LOG
 GRD .GAPI   45 310 01 00:   GAMMA RAY FROM DENSITY LOG
 CORR.G/C3   45 356 01 00:   DENSITY CORRECTION
 RHOB.G/C3   45 350 01 00:   BULK DENSITY
 SPR .MV     07 010 01 00:   SPONTANEOUS POTENTIAL
 RILD.OHMM   07 120 46 00:   DEEP INDUCTION RESISTIVITY
 RILM.OHMM   07 120 44 00:   INDUCTION LOG MEDIUM RESISTIVITY
 LL8 .OHMM   07 220 08 00:   LATEROLOG-8 RES.
~PARAMETER INFORMATION
#MNEM.UNIT          VALUE    DESCRIPTION
#----------   ------------   ------------------------------
 EKB .F         5263.0000:   Kelly bushing
 EGL .F         5253.0000:   Ground level
 TD  .F         3220.0000:   Total depth
 CLNT.            A2DTECH:   Client Code
 SL  . 1650' FNL & 875' FEL:   Surface Location
 PD  .                 GL:   Permanent Datum
 EPD .F              5253:   Elevation Permanent Datum
 LMF .                 KB:   Log Measured From
 DMF .                 KB:   Drilling Measured From
 DAPD.F                10:   Feet Above Permanent Datum
 DATE.        30-AUG-1977:   Date Logged [DD-MMM-YYYY]
 DD  .F              3220:   Depth driller
 DL  .F              3219:   Depth logger
 BLI .F              3209:   Bottom log interval
 TLI .F               216:   Top log interval
 CS1 .IN            8.625:   Casing size
 CBL1.F               216:   Casing logger 1
 BS1 .IN            7.875:   Bit size
 BSD1.F              3220:   Depth drilled with bit1
 DFT .                FGM:   Type fluid in hole
 DFD .                8.9:   Density
 DFPH.                 11:   pH
 MSS .            MUDTANK:   Source of sample
 RMS .OHMM           0.40:   Rm
 MST .F                82:   Rm Meas. temp.
 RMF .OHMM           0.25:   Rmf
 MFST.F                72:   Rmf Meas. temp.
 MFSS.               MEAS:   Source Rmf.
 RMC .OHMM           0.60:   Rmc
 MCST.F                82:   Rmc Meas. temp.
 MCSS.               CALC:   Source Rmc.
 RMB .OHMM           0.27:   Rm. at BHT
 BHT .F               120:   BHT.
 MRT .F               120:   Maximum recorded temp.
 LUN .               5642:   Logging unit number
 LUL .               CSPR:   Logging unit location
 ENGI.                FIX:   Recorded By
 WITN.         RETTINGILL:   Witnessed by
 ORIG.           5" PRINT:   Origin of data
 UWI .     49025104270000:   Unique Well ID
 DICO. A2D TECHNOLOGIES, INC.:   Digitizing Company
 DFV .                 35:   Viscosity
 DFL .                8.4:   Fluid loss
 CBD1.      8.625" @ 216':   Casing driller 1
~OTHER INFORMATION
~A   DEPT       NPHI     CALD        GRD       CORR       RHOB        SPR       RILD       RILM        LL8   
# ...
  999.5000     0.3720    11.7933    70.7370     0.0496     2.4569   -78.7662     9.5918     9.5922     9.9307
 1000.0000     0.3792    11.7801    71.2097     0.0565     2.4262   -78.5887     9.6004     9.4671     9.8017
 1000.5000     0.3762    11.7817    71.9057     0.0528     2.4188   -78.4111     9.6076     9.4040     9.7385
 1001.0000     0.3774    11.7835    72.3785     0.0439     2.4081   -78.3849     9.6178     9.2768     9.7460
 1001.5000     0.3839    11.7854    72.4048     0.0417     2.4003   -78.5165     9.6366     9.1513     9.8197
 1002.0000     0.3911    11.7872    71.5383     0.0478     2.4116   -78.4836     9.6554     8.9803     9.8941
 1002.5000     0.3935    11.7890    71.1116     0.0471     2.4110   -78.6152     9.6742     8.9238     9.7640
 1003.0000     0.3923    11.7909    71.3677     0.0457     2.4178   -78.5824     9.6930     8.8564     9.6356
 1003.5000     0.3835    11.7926    71.6172     0.0473     2.4007   -78.5562     9.7134     8.7498     9.3781
 1004.0000     0.3765    11.7944    73.4293     0.0534     2.4262   -78.6877     9.6513     8.6360     9.2501
 1004.5000     0.3735    11.7961    71.6699     0.0535     2.4218   -78.8062     9.3957     8.6407     9.2336
 1005.0000     0.3751    11.8128    69.0030     0.0521     2.4118   -78.7800     9.0821     8.6078     9.2172
 1005.5000     0.3835    11.8146    67.6592     0.0627     2.4288   -78.7537     8.9015     8.5918     9.2007
 1006.0000     0.3879    11.8167    66.3542     0.0720     2.4431   -78.7274     8.8461     8.5975     9.1843
 1006.5000     0.3750    11.8184    65.0853     0.0755     2.4380   -78.8590     8.8522     8.5422     9.1678
 1007.0000     0.3774    11.8053    64.6587     0.0638     2.4044   -78.9841     8.7971     8.4897     9.1614
 1007.5000     0.3828    11.8071    66.9237     0.0661     2.3962   -78.9512     8.8032     8.4947     9.1673
 1008.0000     0.3896    11.7787    70.9679     0.0707     2.4076   -78.9250     8.7484     8.4734     9.1096
 1008.5000     0.3956    11.7809    68.7621     0.0648     2.4181   -79.0507     8.6939     8.4458     9.1152
 1009.0000     0.4046    11.7825    66.5562     0.0724     2.4242   -79.0238     8.6398     8.4519     9.0578
 1009.5000     0.4121    11.7843    65.0201     0.0770     2.4191   -78.9975     8.5283     8.4572     9.0009
 1010.0000     0.4147    11.7861    64.5934     0.0575     2.4019   -79.1186     8.4738     8.4372     8.9456
 1010.5000     0.4141    11.7879    65.7424     0.0637     2.3931   -79.2520     8.4211     8.4675     8.8803
 1011.0000     0.4111    11.7896    67.7776     0.0667     2.4044   -79.3795     8.3687     8.4142     8.7724
 1011.5000     0.4066    11.7914    70.7057     0.0608     2.3843   -79.5070     8.3759     8.4008     8.7159
 1012.0000     0.3981    11.7932    72.0774     0.0790     2.4053   -79.4772     8.3230     8.3669     8.6611
 1012.5000     0.3933    11.7949    74.3676     0.0851     2.4242   -79.4534     8.3360     8.3721     8.6079
 1013.0000     0.3953    11.7818    73.3958     0.1183     2.4416   -79.5868     8.3924     8.3780     8.6132
 1013.5000     0.4094    11.7687    71.2640     0.1162     2.4648   -79.5571     8.3988     8.4414     8.6185
 1014.0000     0.4173    11.7704    70.6141     0.0884     2.4537   -79.5332     8.4046     8.4547     8.5630
 1014.5000     0.4136    11.7573    70.4173     0.0749     2.4354   -79.5094     8.4099     8.5101     8.5695
 1015.0000     0.4061    11.7442    71.3430     0.0599     2.4120   -79.4856     8.4746     8.5405     8.5143
 1015.5000     0.3980    11.7464    74.0479     0.0450     2.3761   -79.6131     8.5986     8.6398     8.5209
 1016.0000     0.3905    11.7333    76.7528     0.0398     2.3597   -79.5893     8.7245     8.7415     8.5853
 1016.5000     0.3871    11.7350    75.6631     0.0512     2.3837   -79.7168     8.9138     8.8586     8.6503
 1017.0000     0.3820    11.7368    75.2364     0.0634     2.3838   -79.8442     9.1071     9.0230     8.7788
 1017.5000     0.3769    11.7385    75.2693     0.0680     2.3884   -79.8145     9.2405     9.1545     8.9724
 1018.0000     0.3733    11.7403    75.2956     0.0657     2.3983   -79.7907     9.2468     9.1601     9.1070
 1018.5000     0.3684    11.7272    75.3219     0.0756     2.4178   -79.7669     9.1222     9.0338     9.2292
 1019.0000     0.3600    11.7290    75.5715     0.0833     2.4224   -79.7431     8.8762     8.7890     9.0450
 1019.5000     0.3540    11.7608    77.8729     0.0803     2.4075   -79.7193     8.6715     8.5052     8.8659
 1020.0000     0.3642    11.7774    80.5954     0.0526     2.4099   -79.6954     8.4739     8.2779     8.7493
 1020.5000     0.3722    11.8238    82.1302     0.0466     2.3980   -79.6716     8.3631     8.1127     8.6342
 1021.0000     0.3767    11.8552    81.4869     0.0444     2.3906   -79.6478     8.3110     7.8959     8.5786
 1021.5000     0.3782    11.8867    79.2811     0.0491     2.3952   -79.6240     8.2037     7.7921     8.5246
 1022.0000     0.3797    11.9182    78.4146     0.0461     2.4065   -79.6006     8.1513     7.7337     8.4138
 1022.5000     0.3827    11.9496    78.2111     0.0432     2.3984   -79.5764     8.1012     7.6938     8.3032
 1023.0000     0.3864    11.9811    79.3601     0.0603     2.4045   -79.5522     8.0502     7.6172     8.1928
 1023.5000     0.3915    11.9977    81.1721     0.0660     2.4158   -79.5280     8.0001     7.5278     8.0305
 1024.0000     0.4003    11.9995    83.4306     0.0623     2.4024   -79.6563     7.9503     7.4976     7.9249
 1024.5000     0.4084    12.0012    83.8968     0.0579     2.3860   -79.7778     7.9571     7.4505     7.8206
 1025.0000     0.4155    11.9881    81.6975     0.0618     2.3906   -79.9053     7.9072     7.4338     7.8255
 1025.5000     0.4194    11.9899    79.9381     0.0671     2.3992   -79.8815     7.8571     7.4084     7.7763
 1026.0000     0.4098    11.9916    73.2680     0.0725     2.4066   -80.0149     7.8638     7.4130     7.7844
 1026.5000     0.4025    11.9770    72.4015     0.0477     2.3775   -79.9851     7.9239     7.4176     7.8450
 1027.0000     0.4067    11.9654    72.9509     0.0439     2.3761   -79.9613     7.9291     7.4738     7.8995
 1027.5000     0.4220    11.9824    75.7444     0.0486     2.3732   -79.9375     7.9346     7.5304     7.9594
 1028.0000     0.4346    11.9842    78.9603     0.0623     2.3815   -79.9137     7.9402     7.5658     7.9651
 1028.5000     0.4324    12.0008    79.2098     0.0694     2.3958   -79.7386     7.9456     7.6459     7.9700
 1029.0000     0.4242    12.0026    79.0129     0.0745     2.4116   -79.7148     8.0064     7.6497     7.9187
 1029.5000     0.4171    12.0340    81.2714     0.0776     2.4222   -79.6910     8.0676     7.6545     7.9247
 1030.0000     0.4123    12.0506    83.7531     0.0717     2.4171   -79.6672     8.0730     7.6593     7.9296
 1030.5000     0.4135    12.0524    85.5651     0.0612     2.4149   -79.4917     8.0228     7.6641     7.9345
 1031.0000     0.4167    12.0392    84.2522     0.0553     2.3993   -79.4675     8.0296     7.6694     7.9394
 1031.5000     0.4212    12.0410    82.0463     0.0629     2.3941   -79.4433     7.9797     7.6741     7.8882
 1032.0000     0.4251    12.0432    79.6173     0.0721     2.4045   -79.2634     7.9301     7.6784     7.8943
 1032.5000     0.4161    12.0609    76.5186     0.0732     2.4206   -79.2396     7.9355     7.6836     7.9251
 1033.0000     0.4052    12.0935    74.0896     0.0587     2.4057   -79.2158     7.9409     7.6887     7.9589
 1033.5000     0.3995    12.1228    72.0969     0.0557     2.3916   -79.1920     7.8902     7.6928     7.9088
 1034.0000     0.4094    12.1542    71.0172     0.0512     2.3797   -79.1682     7.8969     7.6976     7.9152
 1034.5000     0.4142    12.1708    71.2679     0.0529     2.3880   -79.1444     7.9023     7.7025     7.9737
 1035.0000     0.4108    12.1726    69.2908     0.0606     2.3986   -79.2778     7.9072     7.7072     7.9797
 1035.5000     0.4051    12.1888    67.9778     0.0629     2.4107   -79.4053     7.9132     7.7120     7.9846
