~VERSION INFORMATION
 VERS.                2.0:   CWLS LOG ASCII STANDARD - VERSION 2.0
 WRAP.                 NO:   ONE LINE PER DEPTH STEP
~WELL INFORMATION
#MNEM.UNIT      DATA TYPE    INFORMATION
#----------   ------------   ------------------------------
 STRT.F            0.0000:   START DEPTH
 STOP.F         3440.0000:   STOP DEPTH
 STEP.F            0.5000:   STEP LENGTH
 NULL.          -999.2500:   NO VALUE
 COMP. FLOOR DANIEL (NPSOR):   COMPANY
 WELL. FLOOR DANIEL "SHX" #48-34:   WELL
 FLD .                NPR:   FIELD
 LOC .      S34 T39N R78W:   LOCATION
 CNTY.            NATRONA:   COUNTY
 STAT.            WYOMING:   STATE
 CTRY. UNITED STATES OF AMERICA:   COUNTRY
 SRVC.      WESTERN ATLAS:   SERVICE COMPANY
 DATE.        06-APR-1995:   LOGDATE
 API .     49025109220000:   API NUMBER
~CURVE INFORMATION
#MNEM.UNIT       API CODE    CURVE DESCRIPTION
#----------   ------------   ------------------------------
 DEPT.F                  :   
 TEND.LBS    45 635 01 00:   TENSION FROM DENSITY LOG
 ZCOR.G/C3   45 356 01 00:   DENSITY CORRECTION
 ZDEN.G/C3   45 350 01 00:   BULK DENSITY
 CALD.IN     45 280 60 00:   CALIPER FROM DENSITY LOG
 CNC .DEC    42 890 03 00:   NEUTRON POROSITY SANDSTONE
 GRR .GAPI   07 310 01 00:   GAMMA RAY FROM RESISTIVITY
 TENR.LBS    07 635 01 00:   TENSION FROM RESISTIVITY
 RFOC.OHMM   07 220 04 00:   RESISTIVITY FOCUSED LOG RES.
 RILD.OHMM   07 120 46 00:   DEEP INDUCTION RESISTIVITY
 RILM.OHMM   07 120 44 00:   INDUCTION LOG MEDIUM RESISTIVITY
~PARAMETER INFORMATION
#MNEM.UNIT          VALUE    DESCRIPTION
#----------   ------------   ------------------------------
 EKB .F         5182.0000:   Kelly bushing
 EGL .F         5172.0000:   Ground level
 EDF .F            0.0000:   Drilling floor
 EPD .F            0.0000:   Permanent datum
 TD  .F         3442.0000:   Total depth
 DATE.        06-APR-1995:   Date logged
 CLNT.            A2DTECH:   Client Code
 SL  . 97' FSL & 2256 FWL:   Surface Location
 PD  .                 GL:   Permanent Datum
 DD  .F              3442:   Depth driller
 DL  .F              3422:   Depth logger
 BLI .F              3420:   Bottom log interval
 CS1 .IN            8.625:   Casing size
 CBD1.      8.625" @ 667':   Casing driller 1
 BS1 .IN            7.875:   Bit size
 BSD1.F               AIR:   Depth drilled with bit1
 ENGI.      PAT RASMUSSEN:   Recorded By
 WITN.        GARY STRONG:   Witnessed by
 ORIG.           5" PRINT:   Origin of data
 UWI .     49025109220000:   Unique Well ID
 DICO. A2D TECHNOLOGIES, INC.:   Digitizing Company
 MRT .F               142:   Maximum recorded temp.
~OTHER INFORMATION
~A    DEPT    TEND       ZCOR       ZDEN       CALD        CNC         GRR      TENR       RFOC       RILD       RILM   
# ...
 3149.0000   -22.7270     0.0260     2.4970     8.3940     0.1990   110.2860   -42.8990     4.3480     3.5610     3.6510
 3149.5000   -28.3340     0.0280     2.4930     8.3820     0.1990   113.4720   -30.1450     4.2910     3.5610     3.6640
 3150.0000   -33.1090     0.0310     2.4900     8.3910     0.2060   118.3760   -23.1760     4.1770     3.5610     3.6760
 3150.5000   -37.8850     0.0330     2.4900     8.4010     0.2130   123.4970   -23.1760     4.0190     3.5610     3.6920
 3151.0000   -42.6610     0.0350     2.4930     8.4120     0.2110   125.0050   -23.1760     3.8940     3.4940     3.6470
 3151.5000   -47.4370     0.0380     2.4920     8.4230     0.2100   124.5220   -23.1760     3.8710     3.4340     3.5750
 3152.0000   -52.2130     0.0390     2.4920     8.4330     0.2080   122.9760   -23.1760     3.8490     3.3950     3.4970
 3152.5000   -56.9880     0.0380     2.4910     8.4440     0.2070   120.4150   -23.1760     3.8290     3.3590     3.4560
 3153.0000   -62.2530     0.0360     2.4940     8.4550     0.2070   117.6950   -23.1760     3.9170     3.3230     3.4100
 3153.5000   -62.2530     0.0330     2.4950     8.4590     0.2110   112.5630   -23.1760     4.0430     3.2880     3.3720
 3154.0000   -62.2530     0.0310     2.4920     8.4560     0.2110   114.4380   -23.1760     3.8990     3.2510     3.2980
 3154.5000   -62.2530     0.0290     2.4880     8.4540     0.2170   119.6000   -23.1760     3.8290     3.1960     3.2340
 3155.0000   -62.2530     0.0270     2.4850     8.4520     0.2230   124.8480   -23.1760     3.6920     3.1410     3.1700
 3155.5000   -62.2530     0.0250     2.4850     8.4500     0.2290   123.2470   -23.1760     3.6920     3.0850     3.1070
 3156.0000   -60.9040     0.0260     2.4860     8.4480     0.2350   122.1850   -23.1760     3.6050     3.0290     3.0430
 3156.5000   -59.1730     0.0310     2.4870     8.4450     0.2410   123.8410   -23.1760     3.4970     2.9690     3.0070
 3157.0000   -57.4420     0.0360     2.4870     8.4430     0.2410   125.2870   -23.1760     3.5610     2.9400     2.9830
 3157.5000   -55.7110     0.0330     2.4860     8.4410     0.2400   124.3300   -20.0530     3.5460     2.9080     2.9580
 3158.0000   -53.9800     0.0290     2.4840     8.4390     0.2400   123.5950   -15.8450     3.5050     2.8760     2.9340
 3158.5000   -52.2490     0.0240     2.4830     8.4360     0.2420   124.6490   -11.6370     3.3110     2.8440     2.9100
 3159.0000   -50.5180     0.0280     2.4820     8.4340     0.2440   126.4950    -7.4290     3.3500     2.8130     2.8860
 3159.5000   -48.7870     0.0320     2.4830     8.4320     0.2380   125.0280    -3.4520     3.4140     2.7810     2.8630
 3160.0000   -47.0560     0.0370     2.4880     8.4300     0.2290   123.8890    -8.7770     3.4780     2.7490     2.8130
 3160.5000   -45.3250     0.0420     2.4940     8.4270     0.2310   122.9050   -13.8260     3.5420     2.7170     2.7660
 3161.0000   -43.5940     0.0420     2.4970     8.4250     0.2370   124.0550   -18.8760     3.4470     2.6850     2.7190
 3161.5000   -43.8370     0.0390     2.4950     8.4230     0.2440   125.0400   -23.1760     3.3110     2.6530     2.6710
 3162.0000   -47.5550     0.0360     2.4880     8.4200     0.2510   125.9030   -17.3770     3.2270     2.6220     2.6240
 3162.5000   -51.2740     0.0330     2.4820     8.4180     0.2530   126.7090   -12.3270     3.1540     2.5900     2.5680
 3163.0000   -54.9920     0.0310     2.4790     8.4160     0.2560   128.1140    -7.2780     3.0810     2.5580     2.5530
 3163.5000   -58.7100     0.0290     2.4750     8.4140     0.2620   127.0940   -23.1760     3.0080     2.5210     2.5350
 3164.0000   -62.4290     0.0280     2.4690     8.4110     0.2700   125.3940   -23.1760     2.9690     2.4990     2.5170
 3164.5000   -66.1470     0.0300     2.4640     8.4090     0.2660   123.9270    -3.4520     3.0600     2.4740     2.4990
 3165.0000   -69.8650     0.0320     2.4660     8.4070     0.2610   127.2190   -12.5250     3.1350     2.4480     2.4810
 3165.5000   -73.5840     0.0340     2.4650     8.4050     0.2550   126.6560   -22.6230     3.0760     2.4240     2.4640
 3166.0000   -77.3020     0.0350     2.4650     8.4020     0.2570   124.2840   -32.7220     3.0230     2.4040     2.4480
 3166.5000   -81.0200     0.0340     2.4650     8.4000     0.2590   120.7700   -42.8990     2.9690     2.3830     2.4320
 3167.0000   -81.5440     0.0330     2.4650     8.3980     0.2610   122.6910   -37.3330     2.9690     2.3620     2.4160
 3167.5000   -80.1490     0.0320     2.4670     8.3960     0.2640   127.5520   -31.7230     2.9690     2.3420     2.4000
 3168.0000   -78.7550     0.0310     2.4670     8.3930     0.2650   130.3590   -26.1120     2.9690     2.3210     2.3840
 3168.5000   -77.3610     0.0300     2.4660     8.3910     0.2600   128.7870   -20.5020     2.9690     2.3020     2.3680
 3169.0000   -75.9660     0.0290     2.4640     8.3890     0.2550   126.6680   -14.8920     2.9690     2.2790     2.3520
 3169.5000   -74.5720     0.0280     2.4560     8.3870     0.2510   124.5460    -9.2810     2.9690     2.2580     2.3290
 3170.0000   -73.1770     0.0270     2.4440     8.3840     0.2580   123.5230    -3.4520     2.9300     2.2370     2.2980
 3170.5000   -71.7830     0.0260     2.4310     8.3820     0.2660   124.3480   -13.1560     2.8180     2.2150     2.2670
 3171.0000   -70.3890     0.0250     2.4270     8.3790     0.2730   125.1400   -23.2540     2.6630     2.1940     2.2370
 3171.5000   -68.9940     0.0240     2.4280     8.3660     0.2710   124.5100   -33.3530     2.7020     2.1730     2.2060
 3172.0000   -67.6000     0.0250     2.4330     8.3550     0.2670   125.1110   -42.8990     2.7650     2.1510     2.1750
 3172.5000   -66.2060     0.0270     2.4440     8.3390     0.2630   128.5530   -39.3490     2.8060     2.1300     2.1410
 3173.0000   -64.8110     0.0290     2.4560     8.3600     0.2610   130.7530   -35.9830     2.7840     2.1090     2.1210
 3173.5000   -63.4170     0.0310     2.4600     8.4030     0.2580   131.0620   -32.6170     2.7610     2.0860     2.0990
 3174.0000   -62.2530     0.0290     2.4630     8.4420     0.2550   131.4960   -29.2500     2.8530     2.0620     2.0770
 3174.5000   -65.4150     0.0240     2.4590     8.4860     0.2600   132.3500   -25.8840     2.9160     2.0390     2.0540
 3175.0000   -68.1280     0.0180     2.4530     8.4870     0.2680   138.9510   -22.5180     2.7640     2.0150     2.0270
 3175.5000   -70.8420     0.0190     2.4350     8.4550     0.2810   147.9220   -19.1520     2.6090     1.9910     2.0030
 3176.0000   -73.5550     0.0280     2.4300     8.4280     0.2970   154.2250   -15.7860     2.4310     1.9550     1.9550
 3176.5000   -76.2690     0.0360     2.4250     8.4000     0.2910   153.7920   -12.4190     2.4310     1.9760     1.9640
 3177.0000   -78.9820     0.0450     2.4330     8.3830     0.2810   149.1910    -9.0530     2.5240     2.0270     1.9820
 3177.5000   -81.6950     0.0540     2.4500     8.3970     0.2710   142.0760    -5.6870     2.6890     2.0960     2.0480
 3178.0000   -84.4090     0.0620     2.4650     8.4090     0.2630   135.3250    -3.4520     2.8630     2.1730     2.1620
 3178.5000   -87.1220     0.0590     2.4690     8.4210     0.2570   128.5860    -6.1030     2.8750     2.2500     2.2750
 3179.0000   -89.8350     0.0540     2.4690     8.4340     0.2510   125.9130    -8.9090     2.8870     2.3270     2.3880
 3179.5000   -92.5490     0.0490     2.4720     8.4470     0.2460   125.3830   -11.7140     2.8990     2.4270     2.5210
 3180.0000   -95.2620     0.0440     2.4750     8.4590     0.2400   124.2250   -14.5190     2.9110     2.6110     2.6390
 3180.5000   -97.9760     0.0390     2.4850     8.4540     0.2360   122.1930   -17.3240     3.2950     2.7960     2.7830
 3181.0000  -100.6890     0.0340     2.4960     8.4480     0.2320   120.7820   -20.1290     3.8290     2.9810     2.9270
 3181.5000   -94.2690     0.0290     2.5060     8.4410     0.2280   124.7980   -23.1760     4.1930     3.1660     3.0710
 3182.0000   -81.7190     0.0350     2.5050     8.4350     0.2240   134.7550   -23.1760     4.0600     3.3510     3.2140
