~VERSION INFORMATION
 VERS.                2.0:   CWLS LOG ASCII STANDARD - VERSION 2.0
 WRAP.                 NO:   ONE LINE PER DEPTH STEP
~WELL INFORMATION
#MNEM.UNIT      DATA TYPE    INFORMATION
#----------   ------------   ------------------------------
 STRT.F          174.0000:   START DEPTH
 STOP.F         3492.0000:   STOP DEPTH
 STEP.F            0.5000:   STEP LENGTH
 NULL.          -999.2500:   NO VALUE
 COMP.    FENIX & SCISSON:   COMPANY
 WELL.   FENIX "AX" #18-3:   WELL
 FLD .        TEAPOT DOME:   FIELD
 LOC .       S3 T38N R78W:   LOCATION
 CNTY.            NATRONA:   COUNTY
 STAT.            WYOMING:   STATE
 CTRY. UNITED STATES OF AMERICA:   COUNTRY
 SRVC.       SCHLUMBERGER:   SERVICE COMPANY
 DATE.        09-FEB-1981:   LOGDATE
 API .     49025108630000:   API NUMBER
~CURVE INFORMATION
#MNEM.UNIT       API CODE    CURVE DESCRIPTION
#----------   ------------   ------------------------------
 DEPT.F                  :   
 CALD.IN     45 280 60 00:   CALIPER FROM DENSITY LOG
 GRD .GAPI   45 310 01 00:   GAMMA RAY FROM DENSITY LOG
 RHOB.G/C3   45 350 01 00:   BULK DENSITY
 DRHO.G/C3   45 356 01 00:   DENSITY CORRECTION
 TENR.LBS    07 635 01 00:   TENSION FROM RESISTIVITY
 SPR .MV     07 010 01 00:   SPONTANEOUS POTENTIAL
 ILM .OHMM   07 120 44 00:   INDUCTION LOG MEDIUM RESISTIVITY
 ILD .OHMM   07 120 46 00:   INDUCTION LOG DEEP RESISTIVITY
 SFLU.OHMM   07 220 01 00:   SPHERICALLY FOCUSED LOG UNAVERAGED RESISTIVITY
~PARAMETER INFORMATION
#MNEM.UNIT          VALUE    DESCRIPTION
#----------   ------------   ------------------------------
 EKB .F         5267.0000:   Kelly bushing
 EGL .F         5257.0000:   Ground level
 EDF .F            0.0000:   Drilling floor
 TD  .F         3472.0000:   Total depth
 DATE.        09-FEB-1981:   Date logged
 CLNT.            A2DTECH:   Client Code
 SL  . 669' FSL & 42' FWL:   Surface Location
 PD  .                 GL:   Permanent Datum
 DD  .F              3401:   Depth driller
 DL  .F              3472:   Depth logger
 BLI .F              3466:   Bottom log interval
 CS1 .IN            8.625:   Casing size
 CBD1.      8.625" @ 200':   Casing driller 1
 CBL1.F               196:   Casing logger 1
 BS1 .IN            7.875:   Bit size
 DFT .            KCL/GEL:   Type fluid in hole
 DFD .                  9:   Density
 DFV .                 60:   Viscosity
 DFPH.                8.5:   pH
 DFL .                 10:   Fluid loss
 MSS .            MUD/PIT:   Source of sample
 RMS .OHMM           1.88:   Rm
 MST .F                75:   Rm Meas. temp.
 RMF .OHMM           1.12:   Rmf
 MFST.F                75:   Rmf Meas. temp.
 MFSS.               MEAS:   Source Rmf.
 RMB .OHMM           1.21:   Rm. at BHT
 BHT .F               120:   BHT.
 TCS .HRS            1800:   Time Circ. stopped
 MRT .F               120:   Maximum recorded temp.
 LUN .               8043:   Logging unit number
 LUL .               CSPR:   Logging unit location
 ENGI.            CONNETT:   Recorded By
 WITN.              SCOTT:   Witnessed by
 ORIG.           5" PRINT:   Origin of data
 UWI .     49025108630000:   Unique Well ID
 DICO. A2D TECHNOLOGIES, INC.:   Digitizing Company
 DAPD.F                10:   Feet Above Permanent Datum
 BSD1.F              3401:   Depth drilled with bit1
 EPD .F              5257:   Elevation Permanent Datum
 LMF .                 KB:   Log Measured From
 DMF .                 KB:   Drilling Measured From
 TLI .F               196:   Top log interval
 TLAB.               0000:   Time logger at bottom
~OTHER INFORMATION
~A   DEPT     CALD         GRD      RHOB       DRHO       TENR        SPR        ILM        ILD       SFLU   
# ...
 2984.5000     8.9560    88.5460     2.5190     0.0810  1023.7210   -30.5090    14.3500    13.7570    15.4500
 2985.0000     8.9570    85.3360     2.5260     0.0820  1024.5210   -30.5960    14.3500    13.9230    16.7330
 2985.5000     8.9590    82.8870     2.5380     0.0940  1025.3210   -30.6840    14.4390    14.0880    17.8610
 2986.0000     8.9600    83.6400     2.5550     0.1070  1026.1210   -30.7700    14.5490    14.2530    18.7500
 2986.5000     8.9610    88.4030     2.5730     0.1160  1026.9210   -30.8940    14.6580    14.4810    18.0260
 2987.0000     8.9630    93.1950     2.5680     0.1080  1027.7209   -31.0290    14.7670    14.4650    17.1340
 2987.5000     8.9640    97.9780     2.5600     0.0970  1028.5210   -31.1630    14.8750    14.4330    16.2420
 2988.0000     8.9650    98.2020     2.5520     0.0840  1029.3210   -31.2970    14.9840    14.4020    15.1670
 2988.5000     8.9670    95.0630     2.5440     0.0800  1030.1210   -31.3880    15.0440    14.3700    15.3080
 2989.0000     8.9680    91.8980     2.5460     0.0820  1030.9210   -31.3860    15.0850    14.3370    16.5650
 2989.5000     8.9700    90.2200     2.5540     0.0880  1031.7209   -31.3860    15.1260    14.3010    17.8330
 2990.0000     8.9710    90.3240     2.5620     0.0940  1032.5210   -31.3860    15.1670    14.2650    19.6350
 2990.5000     8.9720    90.4990     2.5700     0.0940  1033.3210   -31.3860    15.0520    14.2290    19.0500
 2991.0000     8.9740    92.7420     2.5730     0.0840  1034.1210   -31.3850    14.9040    14.1930    18.0390
 2991.5000     8.9750    98.2060     2.5660     0.0770  1034.9210   -31.3860    14.7560    14.1570    17.0270
 2992.0000     8.9760   103.1390     2.5580     0.0740  1035.7209   -31.4010    14.6080    14.1200    16.0160
 2992.5000     8.9780   104.2650     2.5490     0.0730  1036.5210   -30.7490    14.4840    14.0840    15.1670
 2993.0000     8.9790    97.1480     2.5420     0.0720  1037.3210   -30.0050    14.4840    14.0480    15.4630
 2993.5000     8.9800    92.0490     2.5370     0.0710  1038.1210   -30.0660    14.4840    14.0120    15.7170
 2994.0000     8.9800    89.8660     2.5360     0.0720  1038.9210   -30.1410    14.4840    13.9760    16.4410
 2994.5000     8.9800    89.0190     2.5490     0.0780  1039.7209   -30.2140    14.4840    13.9600    18.0380
 2995.0000     8.9800    89.5440     2.5590     0.0870  1040.5210   -30.2870    14.4840    13.9600    19.6350
 2995.5000     8.9800    90.9940     2.5670     0.0920  1041.3210   -30.3610    14.4840    13.9600    20.3720
 2996.0000     8.9800    94.3120     2.5660     0.0900  1042.1210   -30.4260    14.4840    13.9600    18.6480
 2996.5000     8.9800    97.5580     2.5650     0.0880  1042.9210   -30.4840    14.5320    13.9600    17.1320
 2997.0000     8.9800    99.6720     2.5680     0.0930  1043.7209   -30.5420    14.9030    14.0790    15.6150
 2997.5000     8.9800    97.8980     2.5780     0.0990  1044.5210   -30.6000    15.2730    14.4480    14.8900
 2998.0000     8.9800    95.1230     2.5870     0.1000  1045.3210   -30.6580    15.6440    14.8160    16.1590
 2998.5000     8.9800    90.0250     2.5630     0.0890  1046.1210   -30.7170    16.0150    15.1840    17.9240
 2999.0000     8.9800    85.0780     2.5340     0.0700  1046.9210   -30.7780    16.3860    15.5530    19.6880
 2999.5000     8.9800    79.8220     2.5050     0.0520  1047.7209   -30.9080    16.9420    15.9210    21.4530
 3000.0000     8.9800    72.9230     2.4920     0.0420  1048.5210   -31.1390    16.7710    16.1780    23.3940
 3000.5000     8.9800    70.9350     2.5260     0.0700  1049.3210   -31.3790    16.4310    15.7640    23.6100
 3001.0000     8.9800    74.9330     2.5470     0.0780  1050.1210   -31.2370    16.0910    15.3880    22.4790
 3001.5000     8.9800    79.7480     2.5580     0.0830  1050.9210   -31.0220    15.7500    15.0120    20.8740
 3002.0000     8.9800    86.7960     2.5640     0.0900  1051.7209   -30.8010    15.4500    14.6680    18.8270
 3002.5000     8.9800    94.3080     2.5710     0.1030  1052.5210   -30.7900    14.7690    13.9240    12.8480
 3003.0000     8.9800    98.6900     2.5710     0.1150  1053.3210   -30.7920    14.0260    13.1800    13.0520
 3003.5000     8.9800   100.4920     2.5620     0.1090  1054.1210   -30.7920    13.2830    12.3830    13.3350
 3004.0000     8.9800   101.1500     2.5510     0.0990  1054.9210   -30.7920    12.5390    11.9350    13.6190
 3004.5000     8.9800    99.5890     2.5400     0.0880  1055.7209   -30.7710    12.0370    11.6090    13.9020
 3005.0000     8.9800    98.0680     2.5320     0.0780  1056.5210   -30.6190    11.9800    11.4790    14.0890
 3005.5000     8.9800    97.2470     2.5270     0.0720  1057.3210   -30.4650    11.9240    11.4470    13.2770
 3006.0000     8.9800    99.4040     2.5250     0.0750  1058.1210   -30.3970    11.8670    11.4140    12.6710
 3006.5000     8.9800   101.8830     2.5350     0.0820  1058.9210   -30.3960    11.8100    11.3820    12.1570
 3007.0000     8.9800   104.3980     2.5480     0.0890  1059.7209   -30.3960    11.7530    11.3500    12.3630
 3007.5000     8.9800   106.7320     2.5610     0.0960  1060.5210   -30.3960    11.7060    11.3180    12.6380
 3008.0000     8.9800   105.3500     2.5630     0.0960  1061.3210   -30.3960    11.6420    11.2860    12.9130
 3008.5000     8.9800   100.6170     2.5470     0.0730  1062.1210   -30.4270    11.5780    11.2540    13.1870
 3009.0000     8.9800    95.5190     2.5200     0.0580  1062.9210   -30.6170    11.5140    11.2220    13.4620
 3009.5000     8.9800    93.1500     2.4940     0.0480  1063.7209   -30.8070    11.4500    11.1890    13.8320
 3010.0000     8.9800    92.4640     2.5040     0.0430  1064.5210   -30.9970    11.3970    11.0760    13.5790
 3010.5000     8.9800    97.1660     2.5240     0.0800  1065.3210   -31.1810    11.2720    10.9610    12.7710
 3011.0000     8.9800   101.8830     2.5440     0.0860  1066.1210   -31.2230    11.1590    10.8460    11.8960
 3011.5000     8.9800   106.7390     2.5480     0.0880  1066.9210   -31.2660    11.0460    10.7300    11.0860
 3012.0000     8.9800   107.1630     2.5440     0.0770  1067.7209   -31.3090    10.9330    10.6150    11.2390
 3012.5000     8.9800   105.9870     2.5450     0.0700  1068.5210   -31.3510    10.8200    10.5000    11.3940
 3013.0000     8.9800   106.1770     2.5570     0.0800  1069.3210   -31.3520    10.7070    10.3850    11.5480
 3013.5000     8.9800   105.1360     2.5680     0.0900  1070.1210   -31.1680    10.6230    10.2690    11.7030
 3014.0000     8.9800   104.0140     2.5690     0.0940  1070.9210   -30.9960    10.5470    10.1540    11.8250
 3014.5000     8.9800   104.3710     2.5740     0.0980  1070.8650   -30.9480    10.4710    10.0750    11.5860
 3015.0000     8.9800   108.1360     2.5810     0.1040  1070.6110   -30.9000    10.3940    10.0180    11.3900
 3015.5000     8.9800   111.7710     2.5880     0.1060  1070.3571   -30.8510    10.3180     9.9610    11.1930
 3016.0000     8.9800   113.1400     2.5890     0.0980  1070.1040   -30.8090    10.2420     9.9040    10.9960
 3016.5000     8.9800   110.9590     2.5900     0.0880  1069.8500   -30.5300    10.1660     9.8470    10.8200
 3017.0000     8.9800   108.0520     2.5970     0.0920  1069.5959   -30.2190    10.0890     9.7900    10.6730
 3017.5000     8.9800   106.0100     2.6030     0.1020  1069.3430   -29.9030    10.0130     9.7330    10.5260
 3018.0000     8.9800   105.8600     2.6080     0.1140  1069.0890   -29.6010     9.9370     9.6760    10.3790
 3018.5000     8.9800   107.3930     2.6110     0.1160  1068.8350   -29.8530     9.8610     9.6190    10.2730
 3019.0000     8.9800   108.3270     2.6070     0.1080  1068.5820   -30.1460     9.8340     9.5660    10.2170
 3019.5000     8.9800   108.3310     2.6110     0.1020  1068.3280   -30.4420    10.2320     9.8880    10.1620
 3020.0000     8.9800   108.3720     2.6170     0.1010  1068.0740   -30.7350    10.5500    10.1950    10.1100
 3020.5000     8.9800   106.4200     2.6140     0.0980  1067.8210   -31.0280    10.8680    10.5010    10.7960
