~VERSION INFORMATION
 VERS.                2.0:   CWLS LOG ASCII STANDARD - VERSION 2.0
 WRAP.                 NO:   ONE LINE PER DEPTH STEP
~WELL INFORMATION
#MNEM.UNIT      DATA TYPE    INFORMATION
#----------   ------------   ------------------------------
 STRT.F         2646.5000:   START DEPTH
 STOP.F         2882.0000:   STOP DEPTH
 STEP.F            0.5000:   STEP LENGTH
 NULL.          -999.2500:   NO VALUE
 COMP. LAWERNCE AND ALLISON:   COMPANY
 WELL. LAWRENCE "A" #401-10:   WELL
 FLD .              NPR 3:   FIELD
 LOC .      S10 T38N R78W:   LOCATION
 CNTY.            NATRONA:   COUNTY
 STAT.            WYOMING:   STATE
 CTRY. UNITED STATES OF AMERICA:   COUNTRY
 SRVC. BELL PETROLEUM SURVEY:   SERVICE COMPANY
 DATE.        27-NOV-1981:   LOGDATE
 API .     49025108800000:   API NUMBER
~CURVE INFORMATION
#MNEM.UNIT       API CODE    CURVE DESCRIPTION
#----------   ------------   ------------------------------
 DEPT.F                  :   
 GRN .GAPI   35 310 01 00:   GAMMA RAY
 NEUT.NAPI   35 330 01 00:   NEUTRON
~PARAMETER INFORMATION
#MNEM.UNIT          VALUE    DESCRIPTION
#----------   ------------   ------------------------------
 EKB .F         5192.1900:   Kelly bushing
 EGL .F            0.0000:   Ground level
 EDF .F            0.0000:   Drilling floor
 EPD .F            0.0000:   Permanent datum
 TD  .F         2882.0000:   Total depth
 DATE.        27-NOV-1981:   Date logged
 CLNT.            A2DTECH:   Client Code
 PD  .                 GL:   Permanent Datum
 LMF .                 KB:   Log Measured From
 DMF .                 KB:   Drilling Measured From
 DAPD.F                11:   Feet Above Permanent Datum
 DL  .F              2882:   Depth logger
 BLI .F              2882:   Bottom log interval
 TLI .F              2650:   Top log interval
 CS1 .IN            6.625:   Casing size
 CBL1.F              2640:   Casing logger 1
 TCS .HRS             1.5:   Time Circ. stopped
 ENGI.        D. ALDERSON:   Recorded By
 WITN.            BOB ROE:   Witnessed by
 ORIG.           5" PRINT:   Origin of data
 UWI .     49025108800000:   Unique Well ID
 DICO. A2D TECHNOLOGIES, INC.:   Digitizing Company
~OTHER INFORMATION
~A  DEPT        GRN      NEUT   
# ...
 2768.0000    98.7320   566.0530
 2768.5000    93.7250   547.3010
 2769.0000    99.8230   528.5220
 2769.5000    96.4580   531.3460
 2770.0000    93.2080   541.4400
 2770.5000    90.8960   560.0040
 2771.0000    93.7400   587.8590
 2771.5000    95.0080   615.1190
 2772.0000    90.9490   638.4060
 2772.5000    92.5230   651.2700
 2773.0000    88.3400   664.4200
 2773.5000    93.7940   658.7830
 2774.0000    89.7470   640.8120
 2774.5000    90.9750   614.9640
 2775.0000    93.3900   588.5600
 2775.5000    88.5560   598.3540
 2776.0000    90.1720   586.3650
 2776.5000    91.7160   573.8060
 2777.0000    88.6680   595.3530
 2777.5000    89.9950   612.4530
 2778.0000    85.1370   614.3170
 2778.5000    90.1830   617.8440
 2779.0000    86.5230   639.2240
 2779.5000    86.8140   656.7060
 2780.0000    80.1390   627.5680
 2780.5000    85.2120   600.1430
 2781.0000    81.0840   646.5970
 2781.5000    88.4120   675.4810
 2782.0000    89.2800   691.5110
 2782.5000    86.7560   733.0220
 2783.0000    84.7990   719.3290
 2783.5000    85.2170   713.2090
 2784.0000    86.6040   720.5080
 2784.5000    88.7710   678.6450
 2785.0000    91.3670   726.8050
 2785.5000    96.0270   742.1660
 2786.0000    94.7530   700.5690
 2786.5000    92.7660   673.7060
 2787.0000    90.7470   644.6260
 2787.5000    89.6060   602.0660
 2788.0000    87.0010   613.3770
 2788.5000    84.9150   544.0620
 2789.0000    86.6420   503.9310
 2789.5000    85.1410   489.5330
 2790.0000    83.8640   474.7510
 2790.5000    86.7960   463.3850
 2791.0000    90.4710   517.9930
 2791.5000    91.4450   552.5630
 2792.0000    90.7500   616.0910
 2792.5000    94.2580   682.5660
 2793.0000    91.8950   743.9740
 2793.5000    97.3480   763.6000
 2794.0000    95.6820   731.2930
 2794.5000   101.5630   728.8050
 2795.0000   101.4260   749.5870
 2795.5000    87.2270   762.9130
 2796.0000    88.4950   736.7870
 2796.5000    83.1910   698.4810
 2797.0000    85.6330   660.2490
 2797.5000    82.9320   634.2620
 2798.0000    85.3510   629.6860
 2798.5000    86.3500   639.8690
 2799.0000    79.0330   593.9210
 2799.5000    83.9330   637.2250
 2800.0000    84.6890   597.2930
 2800.5000    93.5660   637.7640
 2801.0000    92.2050   619.2670
 2801.5000    96.2150   578.3180
 2802.0000    94.9690   565.1070
 2802.5000    89.4190   531.8810
 2803.0000    90.6750   524.6930
 2803.5000    91.5240   501.7840
 2804.0000    84.2940   483.2090
 2804.5000    89.3970   523.7530
 2805.0000    91.9400   574.0540
 2805.5000    93.4180   617.8830
 2806.0000    92.0830   609.5600
 2806.5000    98.4740   604.7070
 2807.0000    99.5130   615.8330
 2807.5000   105.1030   592.1550
 2808.0000    98.6210   593.4530
 2808.5000    91.7910   616.6970
 2809.0000    84.4670   638.2070
 2809.5000    86.2170   644.7990
 2810.0000    87.0700   661.6280
 2810.5000    83.4440   687.9110
 2811.0000    81.6220   708.2690
 2811.5000    82.6590   758.6830
 2812.0000    79.2110   753.1520
 2812.5000    82.4930   813.6810
 2813.0000    85.8220   848.8010
 2813.5000    81.9940   885.4570
 2814.0000    84.2930   887.2880
 2814.5000    80.9230   916.9170
 2815.0000    77.8470   889.6720
 2815.5000    81.1850   835.7010
 2816.0000    78.9310   828.0770
 2816.5000    83.0860   746.5490
 2817.0000    81.9440   773.0370
 2817.5000    86.3290   778.0570
 2818.0000    88.2770   815.7910
 2818.5000    84.7550   826.9840
 2819.0000    89.7520   839.9500
 2819.5000    91.5360   848.4990
 2820.0000    88.0410   816.9130
 2820.5000    90.9120   763.7430
 2821.0000    91.8740   710.5130
 2821.5000    85.7560   665.0930
 2822.0000    83.1260   657.3540
 2822.5000    90.1370   635.5590
 2823.0000    89.8910   664.1720
 2823.5000    91.6240   671.8090
 2824.0000    93.3720   652.0060
 2824.5000    91.3890   615.6650
 2825.0000    96.1610   612.9440
 2825.5000    96.9340   670.5570
 2826.0000    97.4910   746.8200
 2826.5000   102.4950   860.1700
 2827.0000   108.5580  1010.9390
 2827.5000   117.5090  1105.2600
 2828.0000   124.7270  1081.3199
 2828.5000   129.3120  1103.6930
 2829.0000   120.6760  1087.0830
 2829.5000   108.6110  1030.6940
 2830.0000    93.4580  1019.5100
 2830.5000    86.7140   979.6840
 2831.0000    79.7140   930.7440
 2831.5000    82.6590   946.0090
 2832.0000    84.9260   945.1170
 2832.5000    82.1220   890.3180
 2833.0000    82.9470   888.7320
 2833.5000    84.5010   883.8080
 2834.0000    86.0630   819.0450
 2834.5000    88.4720   753.0750
 2835.0000    92.4350   687.4550
 2835.5000    94.6070   624.5080
 2836.0000    94.8420   586.4730
 2836.5000    96.5100   550.9340
 2837.0000    98.8220   531.1590
 2837.5000   101.1570   536.1870
 2838.0000   104.4940   551.1990
 2838.5000   109.2540   614.5940
 2839.0000   110.4000   692.7340
 2839.5000   111.3690   771.9370
 2840.0000   113.9590   843.6220
 2840.5000   117.4700   805.0160
 2841.0000   120.7900   766.5490
 2841.5000   122.1580   732.6620
 2842.0000   102.3700   710.9470
 2842.5000    86.3990   689.7240
 2843.0000    84.4370   686.9260
 2843.5000    82.6680   725.5310
 2844.0000    85.9950   755.7670
 2844.5000    86.8870   785.1160
 2845.0000    82.4320   808.1860
 2845.5000    86.7830   803.9960
 2846.0000    90.5450   772.2920
 2846.5000    94.2870   752.7330
 2847.0000    95.4260   768.0570
 2847.5000    92.4960   778.9000
 2848.0000    93.7470   783.5160
 2848.5000    95.6450   734.6780
 2849.0000    96.4430   683.1300
 2849.5000    92.1690   613.1960
 2850.0000    98.2910   561.4840
 2850.5000    90.1840   512.4760
 2851.0000    90.9870   517.1350
 2851.5000    90.4670   541.6010
 2852.0000    88.6850   566.8790
 2852.5000    90.4050   611.4030
 2853.0000    88.7410   657.1930
 2853.5000    89.9200   737.6760
 2854.0000    89.0140   812.2000
 2854.5000    82.8560   859.3030
 2855.0000    90.3920   865.6630
 2855.5000    89.5070   853.2810
 2856.0000    89.2980   857.2360
 2856.5000    91.7220   839.7880
 2857.0000    96.1760   882.3620
 2857.5000    94.5340   923.6250
 2858.0000    86.2440   900.9300
 2858.5000    86.2430   931.6090
 2859.0000    91.5310   926.0660
 2859.5000    96.4760   952.7610
 2860.0000    89.5290   953.9300
 2860.5000    82.9590   922.8400
 2861.0000    85.2910   900.7190
 2861.5000    88.6090   869.1290
 2862.0000    89.9450   819.5070
 2862.5000    89.5870   777.4780
 2863.0000    94.8820   783.7000
 2863.5000    93.1020   843.7330
 2864.0000    97.4110   889.6130
 2864.5000    97.7190   880.5100
 2865.0000    95.0390   884.4770
 2865.5000    99.5150   824.0090
 2866.0000   103.6470   824.7470
 2866.5000   103.5490   850.9260
 2867.0000   100.8570   888.8350
 2867.5000    99.3510   933.2050
 2868.0000    99.4410  1030.3770
 2868.5000    97.1630  1131.2380
 2869.0000    97.6830  1231.9960
 2869.5000    97.8090  1332.6250
 2870.0000    93.7370  1433.6760
 2870.5000    88.6300  1514.2340
 2871.0000    90.0550  1472.4139
 2871.5000    90.0500  1370.8290
 2872.0000    88.6290  1233.6710
 2872.5000    83.3650  1206.5150
 2873.0000    77.9670  1252.3840
 2873.5000    74.6730  1323.5640
 2874.0000    69.7070  1395.3621
 2874.5000    64.4610  1447.4950
 2875.0000    67.2090  1495.1121
 2875.5000    70.2080  1513.9550
 2876.0000    69.5200  1483.5250
 2876.5000    80.4780  1520.8750
 2877.0000    83.8290  1489.9800
 2877.5000    83.7120  1511.1510
 2878.0000    69.1280  1531.9050
 2878.5000    62.1320  1488.1219
 2879.0000    57.7530  1498.3719
 2879.5000    53.4070  1482.6680
 2880.0000    48.7750  1461.4020
 2880.5000    45.4550  1544.6660
 2881.0000    51.1260  1631.2070
 2881.5000    50.5410  1717.5031
 2882.0000    50.6080  1804.2910
