~VERSION INFORMATION
 VERS.                2.0:   CWLS LOG ASCII STANDARD - VERSION 2.0
 WRAP.                 NO:   ONE LINE PER DEPTH STEP
~WELL INFORMATION
#MNEM.UNIT      DATA TYPE    INFORMATION
#----------   ------------   ------------------------------
 STRT.F          210.0000:   START DEPTH
 STOP.F         3128.0000:   STOP DEPTH
 STEP.F            0.5000:   STEP LENGTH
 NULL.          -999.2500:   NO VALUE
 COMP.    PENIX & SCISSON:   COMPANY
 WELL. FENIX NPR 3 "A" #14-27:   WELL
 FLD .                NPR:   FIELD
 LOC .      S27 T39N R78W:   LOCATION
 CNTY.            NATRONA:   COUNTY
 STAT.            WYOMING:   STATE
 CTRY. UNITED STATES OF AMERICA:   COUNTRY
 SRVC.      DRESSER ATLAS:   SERVICE COMPANY
 DATE.        31-AUG-1977:   LOGDATE
 API .     49025104280000:   API NUMBER
~CURVE INFORMATION
#MNEM.UNIT       API CODE    CURVE DESCRIPTION
#----------   ------------   ------------------------------
 DEPT.F                  :   
 GRD .GAPI   45 310 01 00:   GAMMA RAY FROM DENSITY LOG
 CALD.IN     45 280 60 00:   CALIPER FROM DENSITY LOG
 RHOB.G/C3   45 350 01 00:   BULK DENSITY
 CORR.G/C3   45 356 01 00:   DENSITY CORRECTION
 NPHI.DEC    42 890 03 00:   NEUTRON POROSITY SANDSTONE
 SPR .MV     11 010 01 00:   SPONTANEOUS POTENTIAL
 RXO .OHMM   11 220 01 00:   FLUSHED ZONE RESISTIVITY
 LLD .OHMM   11 220 10 00:   LATEROLOG LOG DEEP
 LLS .OHMM   11 220 09 00:   LATEROLOG LOG SHALLOW
 TENR.LBS    11 635 01 00:   TENSION FROM RESISTIVITY
 TEND.LBS    45 635 01 00:   TENSION FROM DENSITY LOG
~PARAMETER INFORMATION
#MNEM.UNIT          VALUE    DESCRIPTION
#----------   ------------   ------------------------------
 EKB .F         5046.0000:   Kelly bushing
 EGL .F         5036.0000:   Ground level
 TD  .F         3111.0000:   Total depth
 DATE.        31-AUG-1977:   Date logged
 CLNT.            A2DTECH:   Client Code
 SL  . 2310' FNL & 330' FWL:   Surface Location
 PD  .                 GL:   Permanent Datum
 EPD .F              5036:   Elevation Permanent Datum
 LMF .                 KB:   Log Measured From
 DMF .                 KB:   Drilling Measured From
 DAPD.F                10:   Feet Above Permanent Datum
 DD  .F              3109:   Depth driller
 DL  .F              3111:   Depth logger
 BLI .F              3109:   Bottom log interval
 TLI .F               217:   Top log interval
 CS1 .IN             8.75:   Casing size
 CBD1.       8.75" @ 215':   Casing driller 1
 CBL1.F               217:   Casing logger 1
 BS1 .IN            7.875:   Bit size
 BSD1.F              3109:   Depth drilled with bit1
 DFT .                GEL:   Type fluid in hole
 DFD .                8.8:   Density
 DFV .                 35:   Viscosity
 DFPH.                 10:   pH
 DFL .                8.8:   Fluid loss
 MSS .                PIT:   Source of sample
 RMS .OHMM            .36:   Rm
 MST .F                67:   Rm Meas. temp.
 RMF .OHMM            .24:   Rmf
 MFST.F                67:   Rmf Meas. temp.
 RMC .OHMM            .51:   Rmc
 MCST.F                67:   Rmc Meas. temp.
 MFSS.               MEAS:   Source Rmf.
 MCSS.               CALC:   Source Rmc.
 RMB .OHMM            .20:   Rm. at BHT
 BHT .F               121:   BHT.
 TCS .HRS               5:   Time Circ. stopped
 MRT .F               121:   Maximum recorded temp.
 LUN .               6080:   Logging unit number
 LUL .              WLSTN:   Logging unit location
 ENGI.               BALL:   Recorded By
 WITN.         PETTINGILL:   Witnessed by
 ORIG.      2.5" 5" PRINT:   Origin of data
 UWI .     49025104280000:   Unique Well ID
 DICO. A2D TECHNOLOGIES, INC.:   Digitizing Company
~OTHER INFORMATION
~A   DEPT      GRD         CALD     RHOB       CORR       NPHI        SPR        RXO        LLD        LLS        TENR      TEND   
# ...
 3077.0000   114.8400     7.7882     2.4805     0.0041     0.2192   -30.4197     4.0385     4.6415     4.4898   239.3718   182.9420
 3077.5000   112.4669     7.8082     2.4815     0.0021     0.2192   -30.4314     4.1643     4.7272     4.5725   241.0986   183.0061
 3078.0000   108.1081     7.8084     2.4695    -0.0019     0.2188   -30.4432     4.2939     4.8144     4.7427   242.8255   183.0700
 3078.5000   107.3218     7.8086     2.4636    -0.0059     0.2172   -30.4549     4.4277     4.9033     4.8302   244.5523   183.1340
 3079.0000   106.9351     7.7889     2.4795    -0.0059     0.2050   -30.4667     4.5655     5.0860     4.9194   246.2791   191.1556
 3079.5000   107.3435     7.8090     2.4904     0.0020     0.1990   -30.4784     4.7435     5.2753     5.1024   248.0059   199.1770
 3080.0000   106.9567     7.8091     2.4993     0.0119     0.1959   -30.4902     5.0105     5.5724     5.1966   249.7328   203.2194
 3080.5000   105.3768     7.8093     2.5073     0.0199     0.1947   -30.5019     5.1030     5.5727     5.1968   251.4596   207.2616
 3081.0000   106.5805     7.7896     2.5202     0.0258     0.1943   -30.5137     5.1972     5.7803     5.3903   253.1864   207.3251
 3081.5000   108.9778     7.7898     2.5371     0.0258     0.1923   -30.5254     5.2931     5.7806     5.4896   254.9133   211.3672
 3082.0000   109.3867     7.7900     2.5083     0.0238     0.1907   -30.5371     5.2935     5.7808     5.5911   256.6401   215.4091
 3082.5000   109.7956     7.7902     2.4973     0.0158     0.1923   -30.5489     5.2937     5.8874     5.6943   258.3669   215.4599
 3083.0000   109.4088     7.7704     2.4864     0.0058     0.1931   -30.5606     5.2939     5.8879     5.6946   260.0938   215.5234
 3083.5000   107.4302     7.7706     2.4794    -0.0002     0.1923   -30.5724     5.2940     5.8880     5.6948   261.8206   215.5869
 3084.0000   105.0532     7.7708     2.4784    -0.0002     0.1915   -30.5856     5.1987     5.8885     5.6950   263.5474   207.6941
 3084.5000   106.6559     7.7908     2.4794     0.0038     0.1947   -30.5840     5.1989     5.8887     5.5924   265.2743   215.7138
 3085.0000   107.0625     7.7910     2.4833     0.0018     0.2034   -30.5832     4.9222     5.6779     5.3923   267.0011   223.7079
 3085.5000   109.8599     7.8111     2.4873     0.0057     0.2097   -30.5800     4.7460     5.3756     5.2951   268.7279   215.8408
 3086.0000   113.4541     7.8113     2.4893     0.0117     0.2129   -30.5784     4.4122     5.3758     5.1055   270.4548   227.8125
 3086.5000   114.6600     7.8115     2.4972     0.0196     0.2176   -30.5760     4.3325     5.1832     4.7463   272.1816   219.9455
 3087.0000   114.6716     7.8117     2.4962     0.0196     0.2188   -30.5744     4.1775     4.9976     4.4937   273.9084   239.8721
 3087.5000   114.6832     7.8118     2.4923     0.0195     0.2220   -30.5736     3.9551     4.8187     4.3328   275.6352   220.0722
 3088.0000   114.6948     7.7921     2.4903     0.0155     0.2271   -30.5712     3.8135     4.7317     4.2547   277.3621   212.1677
 3088.5000   115.1047     7.7923     2.4853     0.0135     0.2295   -30.5681     3.6770     4.7319     4.2549   279.0889   220.1990
 3089.0000   116.3115     7.7526     2.4823     0.0135     0.2299   -30.5659     3.8138     4.7320     4.2550   280.8157   220.2497
 3089.5000   116.7193     7.7528     2.4793     0.0154     0.2228   -30.5641     3.9557     4.8194     4.2552   282.5426   224.3032
 3090.0000   116.7310     7.7530     2.4733     0.0174     0.2196   -30.5625     4.0287     4.8197     4.2553   284.2694   224.3537
 3090.5000   116.7428     7.7731     2.4783     0.0154     0.2172   -30.5601     4.1031     4.9088     4.3339   285.9962   244.3159
 3091.0000   118.3487     7.7732     2.4872     0.0054     0.2117   -30.5585     4.1033     4.9090     4.4139   287.7231   220.4905
 3091.5000   117.9622     7.7734     2.4634    -0.0026     0.2069   -30.5561     4.1832     4.9091     4.4955   289.4499   236.8248
 3092.0000   118.7713     7.7736     2.4435    -0.0105     0.2050   -30.5540     4.1830     4.9094     4.5784   291.1767   232.5485
 3092.5000   118.3847     7.7738     2.4444    -0.0086     0.2053   -30.5529     4.1904     4.8207     4.5787   292.9036   256.4862
 3093.0000   117.2006     7.7342     2.4494    -0.0063     0.2057   -30.5501     4.1978     4.5640     4.5788   294.6304   232.6747
 3093.5000   115.2189     7.7343     2.4564    -0.0040     0.2053   -30.5497     4.2053     4.4816     4.5791   296.3572   260.5885
 3094.0000   114.0343     7.7743     2.4613    -0.0007     0.2053   -30.5466     4.2128     4.4818     4.5792   298.0840   240.7420
 3094.5000   114.0458     7.7743     2.4613     0.0013     0.2061   -30.5441     4.2202     4.4820     4.5795   299.8109   276.6208
 3095.0000   115.2539     7.7681     2.4643     0.0012     0.2105   -30.5426     4.2277     4.4822     4.5797   301.5377   260.7515
 3095.5000   116.0634     7.7619     2.4623     0.0012     0.2145   -30.5402     4.2352     4.4824     4.5799   303.2645   260.8142
 3096.0000   114.8783     7.7557     2.4573     0.0012     0.2164   -30.5394     4.2427     4.4825     4.5801   304.9914   284.7236
 3096.5000   115.2865     7.7495     2.4513     0.0012     0.2129   -30.5362     4.2503     4.6496     4.4975   306.7182   268.9175
 3097.0000   116.0962     7.7433     2.4513    -0.0008     0.2093   -30.5341     4.2578     4.7354     4.4976   307.9734   257.0509
 3097.5000   118.1032     7.7371     2.4762     0.0051     0.2093   -30.5322     4.1810     5.2841     4.4978   309.6414   276.9952
 3098.0000   118.5142     7.7309     2.5080     0.0110     0.2109   -30.5306     4.1578     5.3817     4.4980   311.3094   281.0090
 3098.5000   118.9254     7.7247     2.5050     0.0150     0.2141   -30.5282     4.1348     4.7361     4.4983   312.9775   277.1201
 3099.0000   118.1391     7.7185     2.4940     0.0150     0.2200   -30.5266     4.1119     4.5664     4.4984   314.6455   293.0621
 3099.5000   116.5543     7.7123     2.4801     0.0149     0.2216   -30.5258     4.0891     4.5667     4.4174   316.1482   273.2564
 3100.0000   116.9662     7.7061     2.4930     0.0149     0.2208   -30.5226     4.0664     4.5667     4.3881   316.1896   293.1989
 3100.5000   116.9644     7.6999     2.4966     0.0182     0.2216   -30.5202     4.0439     4.5046     4.3590   322.3809   285.5097
 3101.0000   115.7653     7.7133     2.4951     0.0211     0.2228   -30.5694     4.0354     4.4908     4.2915   322.8799   300.7499
 3101.5000   116.5620     7.7574     2.5022     0.0252     0.2224   -30.6029     4.0322     4.4842     4.2591   329.9156   284.4287
 3102.0000   118.9549     7.7578     2.5112     0.0274     0.2224   -30.6307     3.8877     4.4842     4.2591   329.3374   292.1470
 3102.5000   117.3569     7.7581     2.4963     0.0235     0.2236   -30.6586     3.6139     4.4842     4.3376   328.4662   283.8381
 3103.0000   118.5520     7.7385     2.4904     0.0197     0.2248   -30.6864     3.5485     4.5669     4.3376   335.8000   299.5118
 3103.5000   118.1513     7.7587     2.4895     0.0139     0.2263   -30.7143     3.9593     4.5669     4.3883   334.9301   311.1500
 3104.0000   119.3461     7.7591     2.4707     0.0060     0.2287   -30.7421     4.0322     4.6511     4.3883   342.2679   298.9223
 3104.5000   119.7430     7.7793     2.4558     0.0002     0.2279   -30.7700     3.8877     4.8241     4.3883   341.3991   306.5240
 3105.0000   119.7402     7.7797     2.4340    -0.0036     0.2256   -30.7979     3.3594     4.9130     4.4693   348.7410   294.4134
 3105.5000   116.5493     7.7600     2.4301    -0.0075     0.2220   -30.8257     3.2390     5.3828     4.5517   355.7942   321.8470
 3106.0000   115.7498     7.7604     2.4471    -0.0073     0.2204   -30.8536     4.1065     5.5831     4.5517   363.1414   305.7579
 3106.5000   115.7485     7.7407     2.4451    -0.0052     0.2216   -30.8814     4.1822     5.5831     4.5517   370.2008   329.2146
 3107.0000   115.7466     7.7410     2.4372    -0.0031     0.2232   -30.9093     4.1822     5.0958     4.5517   377.5534   305.1682
