~VERSION INFORMATION
 VERS.                2.0:   CWLS LOG ASCII STANDARD - VERSION 2.0
 WRAP.                 NO:   ONE LINE PER DEPTH STEP
~WELL INFORMATION
#MNEM.UNIT      DATA TYPE    INFORMATION
#----------   ------------   ------------------------------
 STRT.F            0.0000:   START DEPTH
 STOP.F         4134.5000:   STOP DEPTH
 STEP.F            0.5000:   STEP LENGTH
 NULL.          -999.2500:   NO VALUE
 COMP. LAWRENCE ALLISON & ASSOCIATES:   COMPANY
 WELL. LAWRENCE NPR 3 "X" #72-10:   WELL
 FLD .            WILDCAT:   FIELD
 LOC .      S10 T38N R78W:   LOCATION
 CNTY.            NATRONA:   COUNTY
 STAT.            WYOMING:   STATE
 CTRY. UNITED STATES OF AMERICA:   COUNTRY
 SRVC.      DRESSER ATLAS:   SERVICE COMPANY
 DATE.        29-JUL-1983:   LOGDATE
 API .     49025109390000:   API NUMBER
~CURVE INFORMATION
#MNEM.UNIT       API CODE    CURVE DESCRIPTION
#----------   ------------   ------------------------------
 DEPT.F                  :   
 CALD.IN     45 280 60 00:   CALIPER FROM DENSITY LOG
 DEN .G/C3   45 350 01 00:   BULK DENSITY
 CORR.G/C3   45 356 01 00:   DENSITY CORRECTION
 TEND.LBS    45 635 01 00:   TENSION FROM DENSITY LOG
 NPHI.DEC    42 890 03 00:   NEUTRON POROSITY SANDSTONE
 GRD .GAPI   45 310 01 00:   GAMMA RAY FROM DENSITY LOG
 SPR .MV     07 010 01 00:   SPONTANEOUS POTENTIAL
 RILD.OHMM   07 120 46 00:   DEEP INDUCTION RESISTIVITY
 RILM.OHMM   07 120 44 00:   INDUCTION LOG MEDIUM RESISTIVITY
 RFOC.OHMM   07 220 04 00:   RESISTIVITY FOCUSED LOG RES.
 TENR.LBS    07 635 01 00:   TENSION FROM RESISTIVITY
 AC  .US/F   60 250 00 00:   ACCOUSTIC
 TENS.LBS    60 635 01 00:   TENSION FROM SONIC
 GRR .GAPI   07 310 01 00:   GAMMA RAY FROM RESISTIVITY
~PARAMETER INFORMATION
#MNEM.UNIT          VALUE    DESCRIPTION
#----------   ------------   ------------------------------
 EKB .F         5182.0000:   Kelly bushing
 EGL .F         5172.0000:   Ground level
 EDF .F            0.0000:   Drilling floor
 TD  .F         4139.0000:   Total depth
 DATE.        29-JUL-1983:   Date logged
 CLNT.            A2DTECH:   Client Code
 SL  . 900' FNL & 900' FEL:   Surface Location
 PD  .                 GL:   Permanent Datum
 EPD .F              5172:   Elevation Permanent Datum
 LMF .                 KB:   Log Measured From
 DMF .                 KB:   Drilling Measured From
 DAPD.F                10:   Feet Above Permanent Datum
 DD  .F              4139:   Depth driller
 DL  .F              4134:   Depth logger
 BLI .F              4132:   Bottom log interval
 CS1 .IN            9.625:   Casing size
 CBD1.      9.625" @ 476':   Casing driller 1
 BS1 .IN            7.875:   Bit size
 BSD1.F              4139:   Depth drilled with bit1
 DFT .               LSND:   Type fluid in hole
 DFD .                6.6:   Density
 DFV .                 41:   Viscosity
 DFPH.                8.5:   pH
 DFL .                 10:   Fluid loss
 MSS .           FLOWLINE:   Source of sample
 RMS .OHMM            .27:   Rm
 MST .F                91:   Rm Meas. temp.
 RMF .OHMM            .19:   Rmf
 MFST.F                87:   Rmf Meas. temp.
 RMC .OHMM            .34:   Rmc
 MCST.F                87:   Rmc Meas. temp.
 MFSS.               MEAS:   Source Rmf.
 MCSS.               CALC:   Source Rmc.
 RMB .OHMM            .19:   Rm. at BHT
 BHT .F               130:   BHT.
 TCS .HRS               3:   Time Circ. stopped
 MRT .F               130:   Maximum recorded temp.
 LUN .               6274:   Logging unit number
 LUL .               GLTF:   Logging unit location
 ENGI.             RAUTIC:   Recorded By
 WITN.             STRONG:   Witnessed by
 ORIG.           5" PRINT:   Origin of data
 UWI .     49025109390000:   Unique Well ID
 DICO. A2D TECHNOLOGIES, INC.:   Digitizing Company
~OTHER INFORMATION
~A    DEPT    CALD        DEN       CORR       TEND       NPHI        GRD        SPR       RILD       RILM       RFOC       TENR         AC       TENS         GRR  
# ...
 3626.0000    11.7340     2.0670     0.3120    -1.0830     0.3200   142.0680   -22.9420     2.0370     1.9700     2.0000   -51.5640   139.5870   -56.6460   142.6210
 3626.5000    12.0960     2.0730     0.2780   -25.6170     0.3240   143.4290   -23.1590     2.0370     2.0050     2.3010   -67.8640   132.8670   -68.6110   126.4940
 3627.0000    12.0800     2.0540     0.2450   -50.1500     0.3240   145.0320   -23.3670     2.0370     2.0400     2.5960   -67.2410   124.9010   -72.6770   117.9100
 3627.5000    11.9850     2.0050     0.2130   -74.6830     0.3220   145.2000   -23.6720     2.0370     2.0940     2.7590   -72.4900   116.9350   -72.6770   113.5580
 3628.0000    11.4870     2.0000     0.1790   -83.8060     0.3200   139.7430   -23.7420     2.0370     2.0210     2.6590   -77.7400   112.7980   -72.6770   109.6970
 3628.5000    10.9890     2.0000     0.1600   -85.4950     0.3490   132.9080   -23.9810     2.0370     1.8600     2.5400   -82.9900   109.6800   -72.6770   107.0100
 3629.0000    10.4910     2.0000     0.1350   -87.1830     0.3960   125.9750   -23.5810     1.8860     1.6830     2.4040   -87.8240   113.2250   -72.6770   105.1960
 3629.5000    10.0040     2.0000     0.0310   -69.5300     0.4160   123.8900   -23.2970     1.8240     1.7000     2.2660   -72.2840   118.0750   -72.6770   102.9800
 3630.0000     9.7840     2.0000     0.0440   -44.2060     0.3780   130.1350   -23.0100     1.8080     1.7240     2.0870   -68.8620   122.0680   -72.6770   100.5140
 3630.5000     9.6070     2.0000     0.0670   -18.8810     0.3180   137.4580   -22.7240     1.7970     1.7470     1.8930   -72.2220   118.7570   -72.6770    98.5990
 3631.0000     9.5720     2.0340     0.0920    -5.2650     0.3240   142.0870   -22.5480     1.7910     1.7710     1.7910   -75.5820   115.9430   -72.6770    99.7890
 3631.5000     9.5490     2.0700     0.1080   -20.4600     0.3330   146.4810   -22.5500     1.8080     1.8280     2.0150   -70.7870   113.7760   -72.6770   101.9100
 3632.0000     9.5830     2.0730     0.0030   -35.6540     0.3420   144.9660   -22.5510     1.8380     2.1120     2.2590   -47.9040   121.9060   -72.6770   105.6050
 3632.5000     9.6170     2.0000     0.0420   -52.6970     0.3250   142.0950   -22.5480     1.9280     2.3960     2.5030   -78.3790   125.4650   -72.6770   109.2870
 3633.0000     9.6540     2.0000     0.0730   -32.8060     0.2990   139.2510   -22.5280     2.0640     2.6530     2.6820   -88.8850   124.1280   -72.6770   112.9760
 3633.5000     9.5550     2.0010     0.0600   -17.7320     0.2560   132.7250   -22.5840     2.2330     2.7670     2.7450   -77.8600   121.9680   -77.6720   113.8020
 3634.0000     9.4060     2.0000     0.0300   -46.9910     0.2100   107.7460   -22.1980     2.4710     2.8820     2.8100   -66.8350   119.4060   -76.9370   113.9090
 3634.5000     9.2550     2.1080    -0.0090   -81.8120     0.1640    79.6830   -21.8210     3.1210     2.9970     2.9910   -60.5510   116.5840   -74.6250   111.1090
 3635.0000     9.1050     2.3180    -0.0010  -116.6330     0.1180    52.1230   -21.4390     4.3150     4.3460     3.2260   -74.7260   113.7620   -72.6770   102.1100
 3635.5000     8.9980     2.4380     0.0130  -127.6220     0.0840    41.2230   -21.0580     5.5100     7.3660     3.4720   -88.9000   110.8790   -77.6720    83.3210
 3636.0000     8.9620     2.4710     0.0210  -127.6220     0.0740    24.8730   -20.6760     6.7050    12.8130     3.8770  -102.7940   104.9090   -85.9640    60.0040
 3636.5000     8.9230     2.4640     0.0050  -107.5850     0.0800     8.1350   -20.2940     8.7120    13.7830    10.1820  -101.6520   104.0560   -97.6520    39.0790
 3637.0000     8.9720     2.4580     0.0440   -78.3640     0.0910     8.4890   -19.9120    10.8950    13.7830    16.3650  -100.5320   104.5180   -97.6520    28.7930
 3637.5000     9.0830     2.4510     0.0350   -47.7020     0.1090    19.4610   -19.5720    13.0780    21.8250    28.0730   -99.4120   104.7660   -97.6520    21.7380
 3638.0000     9.0570     2.4590     0.0190   -31.6520     0.1270    50.9800   -19.5540    18.0180    23.9260    38.4240   -98.2920    94.0330   -97.6520    18.3060
 3638.5000     8.9470     2.4790     0.0180   -14.7690     0.1450    82.2070   -19.5040    28.2310    23.1110    41.8610   -97.1720    81.4220   -97.6520    27.8320
 3639.0000     8.9140     2.4920     0.0220     2.2480     0.1640   111.1450   -19.4540    26.4760    20.8820    37.3580   -96.0520    80.0100   -97.6520    50.4830
 3639.5000     8.9240     2.4880     0.0270     5.8230     0.1740   118.0470   -19.4040    22.2320    18.6530    33.3110   -94.9320    80.0100   -97.6520    76.8440
 3640.0000     8.9340     2.4480     0.0330    -1.1630     0.1920   122.6870   -19.3700    19.1920    16.4240    24.8910   -93.8120    79.0250   -97.6520    92.3740
 3640.5000     8.9450     2.3540     0.0010    -8.1490     0.2200   127.4950   -19.3710    16.1510    14.1950    17.1590   -92.8140    74.7660   -97.6520    96.3600
 3641.0000     9.0020     2.2600    -0.0210   -15.1350     0.2480   131.0580   -19.4840    13.1110    12.0290    13.0440   -89.9450    72.9170   -92.6570    98.3070
 3641.5000     9.0680     2.1720    -0.0030   -22.1210     0.2530   129.7250   -19.6090    10.3660    10.3350    13.4920   -86.7950    84.8450   -92.6570   102.5700
 3642.0000     9.1040     2.1160     0.0290   -29.1070     0.2430   123.8180   -19.8480     9.9860     8.6400    14.5650   -83.6450    99.2590   -90.1300   106.1190
 3642.5000     9.1300     2.1800    -0.0720   -29.4970     0.2270   118.1050   -20.0080     9.7200     7.8680    13.4710   -80.4950   119.9170   -87.6620   108.9730
 3643.0000     9.1570     2.3040    -0.1330   -22.8320     0.1970   112.4480   -20.1580    10.3770     9.7410    11.7080   -77.3450   125.6640   -87.6620   107.7590
 3643.5000     9.1840     2.4330    -0.1010   -16.1680     0.1800   106.7060   -20.3090    10.9540    12.3160     9.9440   -74.1950   125.1650   -84.3360   101.8210
 3644.0000     9.1920     2.4950    -0.0290    -9.5040     0.1800   105.8980   -20.4610    10.9540    14.4320     9.4550   -71.0450   123.8820   -79.2510    93.7300
 3644.5000     9.2000     2.4970     0.0060    -7.7420     0.1830   117.3090   -20.6110    10.7420    12.6630    11.0270   -67.8950   120.0930   -72.6770    85.0980
 3645.0000     9.2080     2.4970     0.0040    -9.4380     0.1870   130.8860   -20.7670    10.5270    11.1630    13.1640   -64.7460   113.4540   -72.6770    84.7980
 3645.5000     9.2160     2.4970     0.0010   -12.5070     0.1900   144.4340   -21.0830    10.3110     9.6620    12.6240   -61.5960   106.8160   -72.6770    94.1140
 3646.0000     9.2240     2.4900    -0.0010   -15.5770     0.1940   156.2030   -21.4030    10.1770     8.6250    11.8980   -58.4460   100.1770   -72.6770   105.2350
 3646.5000     9.2320     2.4810     0.0000   -18.6470     0.2070   156.5180   -21.7110     9.8100     8.8450    12.6230   -67.7450    93.5380   -77.6720   115.3040
 3647.0000     9.2400     2.4650     0.0070   -21.7160     0.2270   156.4180   -21.8360     9.5530     9.1140    12.9010   -79.7450    86.9000   -80.4250   121.8480
 3647.5000     9.2840     2.4390     0.0460   -24.7860     0.2460   155.5330   -21.9900     9.2440     8.9690    12.4580   -91.7450    80.2610   -87.6620   128.0720
 3648.0000     9.3780     2.3880     0.1150   -27.7220     0.2640   136.4320   -22.1700     9.4550     8.0720    11.3070  -103.7450    76.3140   -87.6620   131.0680
 3648.5000     9.4710     2.2490     0.1110   -14.5350     0.2760   114.3270   -21.9340     8.5790     7.0430    10.1770  -103.2270    81.6380   -87.6620   128.5120
 3649.0000     9.6580     2.1110     0.1230     1.0490     0.2910    97.0660   -21.3800     7.4300     6.0140     8.8450   -96.3560    84.2060   -87.6620   116.5160
 3649.5000    10.0230     2.0160     0.1810    12.2380     0.3050    96.6330   -20.8380     6.2800     4.9860     7.5290   -89.4860   115.2820   -87.6620    96.5800
 3650.0000    10.6550     2.0000     0.2370   -10.2620     0.3190    98.2330   -20.4410     5.1310     3.9570     6.0820   -82.6150   128.2000   -87.6620    80.3940
