~VERSION INFORMATION
 VERS.                2.0:   CWLS LOG ASCII STANDARD - VERSION 2.0
 WRAP.                 NO:   ONE LINE PER DEPTH STEP
~WELL INFORMATION
#MNEM.UNIT      DATA TYPE    INFORMATION
#----------   ------------   ------------------------------
 STRT.F          450.5000:   START DEPTH
 STOP.F         3173.5000:   STOP DEPTH
 STEP.F            0.5000:   STEP LENGTH
 NULL.          -999.2500:   NO VALUE
 COMP.    FENIX & SCISSON:   COMPANY
 WELL. FENIX & SCISSONNPR #72-TX-33:   WELL
 FLD .              N.P.R:   FIELD
 LOC .      S33 T39N R78W:   LOCATION
 CNTY.            NATRONA:   COUNTY
 STAT.            WYOMING:   STATE
 CTRY. UNITED STATES OF AMERICA:   COUNTRY
 SRVC.       SCHLUMBERGER:   SERVICE COMPANY
 DATE.        03-SEP-1981:   LOGDATE
 API .     49025108810000:   API NUMBER
~CURVE INFORMATION
#MNEM.UNIT       API CODE    CURVE DESCRIPTION
#----------   ------------   ------------------------------
 DEPT.F                  :   
 CALD.IN     45 280 60 00:   CALIPER FROM DENSITY LOG
 GRD .GAPI   45 310 01 00:   GAMMA RAY FROM DENSITY LOG
 DPHI.DEC    45 890 03 00:   
 RHOB.G/C3   45 350 01 00:   BULK DENSITY
 CORR.G/C3   45 356 01 00:   DENSITY CORRECTION
 SPR .MV     07 010 01 00:   SPONTANEOUS POTENTIAL
 SFL .OHMM   07 220 01 00:   SHALLOW FOCUSED LOG RESISTIVITY
 ILD .OHMM   07 120 46 00:   DEEP INDUCTION RESISTIVITY
 ILM .OHMM   07 120 44 00:   INDUCTION LOG MEDIUM RESISTIVITY
 TENR.LBS    07 635 01 00:   TENSION FROM RESISTIVITY
~PARAMETER INFORMATION
#MNEM.UNIT          VALUE    DESCRIPTION
#----------   ------------   ------------------------------
 EKB .F         5115.0000:   Kelly bushing
 EGL .F         5105.0000:   Ground level
 EDF .F            0.0000:   Drilling floor
 TD  .F         3162.0000:   Total depth
 DATE.        03-SEP-1981:   Date logged
 CLNT.            A2DTECH:   Client Code
 CTRY.                USA:   Country
 SL  . 808' FNL & 954' FEL:   Surface Location
 PD  .                 GL:   Permanent Datum
 EPD .F              5105:   Elevation Permanent Datum
 LMF .                 KB:   Log Measured From
 DMF .                 KB:   Drilling Measured From
 DAPD.F                10:   Feet Above Permanent Datum
 DD  .F              3162:   Depth driller
 DL  .F              3162:   Depth logger
 BLI .F              3158:   Bottom log interval
 TLI .F              1612:   Top log interval
 CS1 .IN            9.625:   Casing size
 CBD1.      9.625" @ 480':   Casing driller 1
 BS1 .IN            7.875:   Bit size
 BSD1.F              3162:   Depth drilled with bit1
 DFT .              WATER:   Type fluid in hole
 MSS .               TANK:   Source of sample
 RMS .OHMM            6.3:   Rm
 MST .F                73:   Rm Meas. temp.
 RMF .OHMM            6.3:   Rmf
 MFST.F                73:   Rmf Meas. temp.
 TCS .HRS            2200:   Time Circ. stopped
 TLAB.HRS            0300:   Time logger at bottom
 MRT .F               100:   Maximum recorded temp.
 LUN .               8039:   Logging unit number
 LUL .               CSPR:   Logging unit location
 ENGI.           C. PEARR:   Recorded By
 WITN.           R. SCOTT:   Witnessed by
 ORIG.         2.5" PRINT:   Origin of data
 UWI .     49025108810000:   Unique Well ID
 DICO. A2D TECHNOLOGIES, INC.:   Digitizing Company
~OTHER INFORMATION
~A   DEPT     CALD         GRD      DPHI       RHOB       CORR        SPR        SFL        ILD        ILM       TENR   
# ...
 2594.5000    10.0789    99.4630     0.0700     2.5595     0.0298   -30.1076    11.1960     7.2899     6.7805   581.4567
 2595.0000    10.0404    91.9552     0.0723     2.5576     0.0298   -30.1049    11.1960     7.2899     6.7805   581.4567
 2595.5000    10.0404    89.6443     0.0746     2.5556     0.0259   -30.1023    10.7973     7.5588     6.7805   581.4567
 2596.0000    10.0788    92.5276     0.0700     2.5595     0.0240   -30.0996    10.2257     7.5588     6.7805   581.4567
 2596.5000    10.0439    96.5638     0.0692     2.5595     0.0201   -30.0970     9.0859     7.5588     6.7805   581.4567
 2597.0000    10.0402    96.5627     0.0731     2.5517     0.0201   -30.0944     8.9229     7.5588     6.7805   581.4567
 2597.5000    10.0402    95.4053     0.0809     2.5478     0.0181   -30.0917     8.7628     7.5588     6.9044   581.4567
 2598.0000    10.0786    94.8262     0.0817     2.5459     0.0142   -30.0891     9.2518     7.2899     6.9044   581.4567
 2598.5000    10.0786    94.8231     0.0801     2.5498     0.0181   -30.0864     9.5929     7.5588     7.0306   581.4567
 2599.0000    10.0785    95.9751     0.0770     2.5712     0.0278   -30.0838    10.3132     7.5588     7.0306   581.4567
 2599.5000    10.0785    97.1258     0.0583     2.5887     0.0395   -30.0811    10.3132     7.5588     7.0306   542.0079
 2600.0000    10.0785    95.9698     0.0489     2.6121     0.0441   -30.0785    10.8888     7.5588     7.2893   502.5591
 2600.5000    10.0784    95.1031     0.0396     2.6064     0.0487   -30.0758    10.7151     7.3354     6.9056   562.9463
 2601.0000    10.0789    95.4017     0.0356     2.6024     0.0415   -30.0713    10.1325     7.1622     6.5416   580.9654
 2601.5000    10.0792   100.6013     0.0637     2.5732     0.0317   -30.0669     9.4264     7.1637     6.1972   580.8512
 2602.0000    10.0409   105.7992     0.0700     2.5498     0.0279   -30.2538     7.5880     7.1652     6.0870   580.3947
 2602.5000    10.0411   108.1147     0.0762     2.5439     0.0259   -30.2494     7.4531     7.1664     6.1998   580.0523
 2603.0000    10.0413   105.8112     0.0816     2.5517     0.0259   -30.2477     7.8711     7.1683     6.4296   579.7377
 2603.5000    10.0031    98.8927     0.0816     2.5771     0.0259   -30.2431     9.4362     7.1695     6.4312   579.4816
 2604.0000     9.9263    94.8570     0.0672     2.5849     0.0279   -30.2385    11.1068     6.9168     6.5499   579.1392
 2604.5000     9.8880    94.8635     0.0543     2.5849     0.0318   -30.2338    11.7297     7.3036     6.5510   578.8487
 2605.0000     9.8498    98.9107     0.0574     2.5810     0.0279   -30.2323    10.3355     7.4390     6.5532   578.5685
 2605.5000     9.8501   101.2243     0.0614     2.5752     0.0279   -30.1989     9.7909     7.4403     6.6742   578.3397
 2606.0000     9.8503   104.1178     0.0614     2.5732     0.0279   -30.1655     9.6177     7.5783     6.7979   578.1114
 2606.5000     9.8120   105.2772     0.0668     2.5654     0.0240   -30.1322     9.6202     7.8592     6.9227   577.7018
 2607.0000     9.8122   106.4391     0.0699     2.5615     0.0174   -30.0988     9.6219     7.8614     7.0516   577.4265
 2607.5000     9.8125   105.2891     0.0762     2.5596     0.0182   -30.0654     9.9792     8.0076     7.0528   577.3123
 2608.0000     9.8126   103.5639     0.0684     2.5771     0.0260   -30.0320    10.1633     8.0083     7.0546   576.8610
 2608.5000     9.8129   102.9912     0.0613     2.5830     0.0377   -29.9987    10.1659     8.0104     7.0559   576.6274
 2609.0000     9.8131   102.4207     0.0567     2.5908     0.0413   -29.9653    10.3534     7.8679     7.0571   576.3990
 2609.5000     9.8518   101.8478     0.0528     2.5889     0.0416   -29.9319    10.3561     7.8699     7.0589   575.9519
 2610.0000     9.8136   101.2772     0.0621     2.5889     0.0319   -29.8985    10.3579     7.8713     7.0601   575.7140
 2610.5000     9.8138    98.3937     0.0676     2.5811     0.0299   -29.8651    10.5499     7.7320     7.3230   575.4857
 2611.0000     9.8140    98.4004     0.0754     2.5616     0.0221   -29.8318    10.3624     7.7333     7.3243   575.0958
 2611.5000     9.8142   100.1402     0.0824     2.5440     0.0144   -29.7984     9.9965     7.5958     7.1946   574.8007
 2612.0000     9.7759   100.7224     0.0925     2.5304     0.0007   -29.7650     9.8189     7.3274     7.0667   574.5723
 2612.5000     9.8146   100.1516     0.0917     2.5226    -0.0012   -29.7316     9.6452     7.3293     6.8164   574.2267
 2613.0000     9.7763   100.1561     0.0861     2.5421     0.0007   -29.6983     9.1369     7.1989     6.6958   574.0014
 2613.5000     9.7764   103.0520     0.0805     2.5558     0.0222   -29.6649     8.8142     7.2008     6.5772   593.5014
 2614.0000     9.8153   104.7902     0.0730     2.5733     0.0319   -29.6315     8.9776     7.0727     6.5784   579.7083
 2614.5000     9.7769   106.5309     0.0605     2.5753     0.0339   -29.5981     9.1432     7.2026     6.5800   573.0879
 2615.0000     9.8157   105.3800     0.0619     2.5753     0.0339   -29.5647     9.8325     7.2057     6.5817   572.8595
 2615.5000     9.8160   103.0754     0.0632     2.5733     0.0339   -29.5314     9.8342     7.3387     6.8257   572.4872
 2616.0000     9.7776   101.3462     0.0646     2.5694     0.0300   -29.4980     9.8367     7.3406     7.2082   572.2881
 2616.5000     9.8163    99.0411     0.0659     2.5655     0.0281   -29.4646     9.8384     7.6127     6.9535   571.9455
 2617.0000     9.8166    98.4676     0.0675     2.5597     0.0183   -29.4312    10.0208     7.6134     7.0824   582.7322
 2617.5000     9.7783    97.8962     0.0707     2.5577     0.0112   -29.3979    10.3921     7.8970     7.0836   591.1045
 2618.0000     9.7785    95.5904     0.0730     2.5519     0.0105   -29.3645    10.9751     8.0434     7.0848   571.0319
 2618.5000     9.7787    95.5948     0.0769     2.5441     0.0086   -29.3445    11.1776     8.0448     7.2162   570.7330
 2619.0000     9.7789    96.7576     0.0792     2.5461     0.0086   -29.3399    11.3848     8.1940     7.3500   590.1914
 2619.5000     9.7791    98.4966     0.0824     2.5519     0.0143   -29.3368    11.3878     8.1959     7.4850   570.2325
 2620.0000     9.8179    99.0816     0.0699     2.5597     0.0145   -29.7243    11.5979     8.1975     7.6238   570.0040
 2620.5000     9.7796    98.5078     0.0691     2.5617     0.0184   -29.7197    11.6009     8.1989     7.6251   569.6614
 2621.0000     9.7798    95.6230     0.0683     2.5617     0.0184   -29.7151    11.3947     8.5036     7.9078   569.3187
 2621.5000     9.7800    94.4707     0.0667     2.5636     0.0223   -29.7104    11.1931     8.5051     7.9098   569.2045
 2622.0000     9.7802    94.4771     0.0667     2.5656     0.0243   -29.7089    10.7969     8.9833     8.0572   588.4793
 2622.5000     9.8190    94.4814     0.0660     2.5695     0.0228   -29.7030    11.6110     9.1483     8.0593   568.5192
 2623.0000     9.7973    93.3310     0.0644     2.5715     0.0223   -29.6981    12.4854     9.6610     8.2081   588.0227
 2623.5000     9.7809    91.0213     0.0605     2.5734     0.0223   -29.6966    13.9221    10.0209     8.8273   587.6082
 2624.0000     9.7811    88.7135     0.0574     2.5832     0.0223   -29.6935    15.8078    10.0218     8.8288   567.6054
 2624.5000     9.7813    87.5604     0.0566     2.5871     0.0243   -29.6873    16.0995    10.2077     8.9925   567.2627
 2625.0000     9.7815    85.8307     0.0535     2.5812     0.0204   -29.6842    16.6977    10.0279     9.1585   566.9623
 2625.5000     9.7817    86.9939     0.0535     2.5754     0.0146   -29.6796    15.2549    10.0288     8.9957   586.4241
 2626.0000     9.7349    89.3124     0.0605     2.5793     0.0165   -29.6765    13.9380     9.5006     8.6778   566.4626
 2626.5000     9.7055    91.0545     0.0574     2.5851     0.0243   -29.6719    13.2033     9.1641     8.5234   566.3483
 2627.0000     9.7052    91.0586     0.0550     2.5774     0.0263   -29.6672    12.0634     9.1657     8.2222   585.6249
 2627.5000     9.7049    91.6436     0.0597     2.5676     0.0087   -29.6641    11.2224     9.0042     7.9309   585.2824
