~VERSION INFORMATION
 VERS.                2.0:   CWLS LOG ASCII STANDARD - VERSION 2.0
 WRAP.                 NO:   ONE LINE PER DEPTH STEP
~WELL INFORMATION
#MNEM.UNIT      DATA TYPE    INFORMATION
#----------   ------------   ------------------------------
 STRT.F          480.0000:   START DEPTH
 STOP.F         4609.5000:   STOP DEPTH
 STEP.F            0.5000:   STEP LENGTH
 NULL.          -999.2500:   NO VALUE
 COMP.   FENNIX & SCISSON:   COMPANY
 WELL. FENNIX NPR-3 "LX" #58-14:   WELL
 FLD .              NPR-3:   FIELD
 LOC .      S14 T38N R78W:   LOCATION
 CNTY.            NATRONA:   COUNTY
 STAT.            WYOMING:   STATE
 CTRY. UNITED STATES OF AMERICA:   COUNTRY
 SRVC.       SCHLUMBERGER:   SERVICE COMPANY
 DATE.        08-MAR-1978:   LOGDATE
 API .     49025105920000:   API NUMBER
~CURVE INFORMATION
#MNEM.UNIT       API CODE    CURVE DESCRIPTION
#----------   ------------   ------------------------------
 DEPT.F                  :   
 SPR .MV     07 010 01 00:   SPONTANEOUS POTENTIAL
 SFL .OHMM   07 220 01 00:   SHALLOW FOCUSED LOG RESISTIVITY
 ILD .OHMM   07 120 46 00:   DEEP INDUCTION RESISTIVITY
 ILM .OHMM   07 120 44 00:   INDUCTION LOG MEDIUM RESISTIVITY
 CALD.IN     45 280 60 00:   CALIPER FROM DENSITY LOG
 GRD .GAPI   45 310 01 00:   GAMMA RAY FROM DENSITY LOG
 CORR.G/C3   45 356 01 00:   DENSITY CORRECTION
 RHOB.G/C3   45 350 01 00:   BULK DENSITY
 NPHI.DEC    42 890 03 00:   NEUTRON POROSITY SANDSTONE
~PARAMETER INFORMATION
#MNEM.UNIT          VALUE    DESCRIPTION
#----------   ------------   ------------------------------
 EKB .F         5320.0000:   Kelly bushing
 EGL .F         5310.0000:   Ground level
 EDF .F            0.0000:   Drilling floor
 TD  .F         4635.0000:   Total depth
 DATE.        08-MAR-1978:   Date logged
 CLNT.            A2DTECH:   Client Code
 SL  . 810' FSL & 1830' FEL:   Surface Location
 PD  .                 GL:   Permanent Datum
 DD  .F              4635:   Depth driller
 DL  .F              4608:   Depth logger
 BLI .F              4607:   Bottom log interval
 DFT .                FGM:   Type fluid in hole
 DFD .                9.1:   Density
 DFV .                 38:   Viscosity
 DFPH.                 11:   pH
 MSS .           FLOWLINE:   Source of sample
 RMS .OHMM           1.53:   Rm
 MST .F                58:   Rm Meas. temp.
 RMF .OHMM           1.06:   Rmf
 MFST.F                58:   Rmf Meas. temp.
 MFSS.               MEAS:   Source Rmf.
 RMB .OHMM           0.68:   Rm. at BHT
 BHT .F               131:   BHT.
 TCS .HRS            0630:   Time Circ. stopped
 MRT .F               131:   Maximum recorded temp.
 LUN .               8039:   Logging unit number
 LUL .               CSPP:   Logging unit location
 ENGI.           PETERSON:   Recorded By
 ORIG.           5" PRINT:   Origin of data
 UWI .     49025105920000:   Unique Well ID
 DICO. A2D TECHNOLOGIES, INC.:   Digitizing Company
 DAPD.                 20:   Feet Above Permanent Datum
 BSD1.               4635:   Depth drilled with bit1
 EPD .               5310:   Elevation Permanent Datum
 LMF .                 KB:   Log Measured From
 DMF .                 KB:   Drilling Measured From
 TLI .                508:   Top log interval
 CS1 .              8.625:   Casing size
 CBL1.                508:   Casing logger 1
 BS1 .              7.875:   Bit size
~OTHER INFORMATION
~A   DEPT      SPR        SFL        ILD        ILM       CALD         GRD      CORR       RHOB         NPHI 
# ...
  772.0000   -24.3600     5.7970     6.5400     5.9830    12.4590    98.3890     0.0030     2.4720     0.3530
  772.5000   -24.0640     5.7530     6.5220     5.8230    12.4530   101.3160     0.0020     2.4780     0.3490
  773.0000   -24.1500     5.7130     6.5050     5.7130    12.4480   101.0050     0.0000     2.4800     0.3530
  773.5000   -24.6090     5.6960     6.4870     5.6940    12.4430    99.3430    -0.0010     2.4810     0.3650
  774.0000   -25.0710     5.6770     6.4690     5.6760    12.4390    95.6660    -0.0010     2.4760     0.3780
  774.5000   -25.0820     5.6590     6.4520     5.6590    12.4490    93.5020    -0.0010     2.4690     0.3850
  775.0000   -24.8190     5.6400     6.4430     5.6410    12.4610    93.4500    -0.0010     2.4650     0.3840
  775.5000   -24.6370     5.6210     6.4430     5.6240    12.4710    93.7080    -0.0010     2.4670     0.3770
  776.0000   -24.5920     5.6080     6.4430     5.6080    12.4820    94.3760    -0.0020     2.4690     0.3690
  776.5000   -24.5460     5.6570     6.4430     5.6440    12.4940    95.0150    -0.0010     2.4720     0.3640
  777.0000   -24.5030     5.6940     6.5350     5.7050    12.4970    95.0390     0.0050     2.4750     0.3670
  777.5000   -24.4460     5.8180     6.6380     5.7950    12.4570    94.4660     0.0120     2.4800     0.3720
  778.0000   -24.0120     6.0270     6.7400     5.8850    12.4150    93.4830     0.0140     2.4840     0.3760
  778.5000   -23.5490     6.2370     6.8430     5.9830    12.3770    93.2210     0.0150     2.4890     0.3780
  779.0000   -23.6970     6.3830     6.8960     6.0070    12.3760    93.7210     0.0170     2.4930     0.3740
  779.5000   -23.9830     6.2920     6.9280     6.0340    12.3740    95.4240     0.0170     2.4950     0.3760
  780.0000   -24.2730     6.0950     6.9600     6.0600    12.3720    96.2350     0.0160     2.4940     0.3830
  780.5000   -24.4370     6.1150     7.0020     6.0950    12.3690    96.4070     0.0150     2.4860     0.3930
  781.0000   -24.3090     6.1560     7.0010     6.0910    12.3670    95.8860     0.0120     2.4780     0.3960
  781.5000   -24.1830     6.2090     7.0020     6.0830    12.3650    96.1170     0.0090     2.4710     0.3850
  782.0000   -24.0750     6.1730     7.0020     6.0740    12.3620    95.4900     0.0100     2.4710     0.3770
  782.5000   -24.5800     6.1220     7.0020     6.0660    12.3600    92.7570     0.0110     2.4720     0.3740
  783.0000   -25.1340     6.0700     7.0020     6.0580    12.3670    91.4350     0.0120     2.4750     0.3750
  783.5000   -25.0930     6.0190     6.9780     6.0500    12.3790    91.6140     0.0130     2.4760     0.3830
  784.0000   -24.9160     5.9830     6.9000     6.0410    12.3900    94.7850     0.0130     2.4730     0.3910
  784.5000   -24.1680     6.0130     6.8210     6.0390    12.4010    95.7800     0.0080     2.4660     0.3850
  785.0000   -23.2790     6.0390     6.7430     6.0310    12.4130    94.8400     0.0040     2.4610     0.3770
  785.5000   -22.6050     5.9740     6.6650     6.0230    12.4130    93.9290     0.0020     2.4630     0.3690
  786.0000   -22.0980     5.9020     6.5860     6.0140    12.4000    92.9720     0.0000     2.4660     0.3700
  786.5000   -22.3630     5.8310     6.4920     6.0060    12.3880    90.4410    -0.0010     2.4700     0.3740
  787.0000   -22.6200     5.7660     6.3900     5.9980    12.3680    87.8560     0.0000     2.4740     0.3730
  787.5000   -22.6100     5.8200     6.2880     5.9890    12.3210    88.1230     0.0090     2.4800     0.3720
  788.0000   -22.5290     5.8740     6.1860     5.8980    12.2750    91.2350     0.0170     2.4920     0.3770
  788.5000   -22.4370     5.6750     6.0950     5.6160    12.2400    96.1670     0.0250     2.4980     0.3930
  789.0000   -22.3040     5.4550     6.0950     5.3050    12.2440    96.6520     0.0280     2.5000     0.3930
  789.5000   -22.3400     5.2570     6.0950     5.1820    12.2480    97.1270     0.0210     2.4920     0.3910
  790.0000   -22.4200     5.2570     6.0950     5.0660    12.2510    98.3750     0.0080     2.4760     0.3870
  790.5000   -22.4540     5.3050     6.0950     5.3050    12.2540    99.9180    -0.0020     2.4620     0.3970
  791.0000   -22.2980     5.3740     6.1530     5.3900    12.2580   100.1290    -0.0010     2.4630     0.3970
  791.5000   -22.1410     5.4430     6.2350     5.4830    12.2660    96.3320    -0.0010     2.4670     0.3880
  792.0000   -21.9870     5.5050     6.3180     5.5760    12.2800    94.5200    -0.0020     2.4650     0.3790
  792.5000   -21.9050     5.7500     6.4010     5.6600    12.2940    93.8640    -0.0020     2.4630     0.3730
  793.0000   -21.9960     5.9720     6.4830     5.9260    12.3080    93.8510    -0.0040     2.4660     0.3860
  793.5000   -22.0820     6.0390     6.5660     6.0950    12.3220    93.9020    -0.0050     2.4740     0.3900
  794.0000   -22.1670     6.0390     6.6480     5.8710    12.3360    94.2610    -0.0010     2.4830     0.3900
  794.5000   -22.2500     5.9440     6.7310     5.8190    12.3500    95.4300     0.0070     2.4920     0.3990
  795.0000   -22.5200     5.8390     6.8130     5.8190    12.3610    95.9740     0.0140     2.4990     0.4180
  795.5000   -22.8560     5.7660     6.8950     5.8190    12.3660    95.1940     0.0210     2.5010     0.4280
  796.0000   -22.7780     5.9830     7.0020     5.9170    12.3710    94.4160     0.0210     2.4980     0.4190
  796.5000   -22.6720     6.1110     6.9950     6.0250    12.3760    94.2720     0.0200     2.4910     0.3950
  797.0000   -22.5670     6.2660     6.9860     6.1330    12.3810    95.4760     0.0200     2.4880     0.3760
  797.5000   -22.4770     6.2660     6.9770     6.2090    12.3860    96.7950     0.0210     2.4900     0.3660
  798.0000   -22.5690     6.2090     6.9680     6.1730    12.3910    97.5240     0.0220     2.4980     0.3790
  798.5000   -22.6740     6.0930     6.9580     6.1460    12.3950    97.7250     0.0290     2.5110     0.3900
  799.0000   -22.7780     5.9780     6.9490     6.1190    12.3950    98.5710     0.0440     2.5230     0.3920
  799.5000   -22.8700     5.8630     6.9400     6.0950    12.3830   100.0100     0.0600     2.5310     0.3910
  800.0000   -22.8720     5.7130     6.9100     6.0840    12.3320   100.8780     0.0630     2.5200     0.3920
  800.5000   -22.8710     5.9080     6.8710     6.0730    12.2670    97.7720     0.0450     2.4960     0.3900
  801.0000   -22.8710     6.1880     6.8310     6.0630    12.2310    94.7030     0.0280     2.4740     0.3840
  801.5000   -22.8720     6.4670     6.7920     6.0530    12.1980    93.0980     0.0160     2.4800     0.3850
  802.0000   -23.0070     6.5630     6.7500     6.0390    12.2010    93.3570     0.0200     2.4930     0.3890
  802.5000   -23.1620     6.0610     6.7630     6.0950    12.2470    94.6570     0.0160     2.4870     0.3950
  803.0000   -23.3190     5.7660     6.7820     5.6600    12.2630    95.9180     0.0080     2.4670     0.3960
  803.5000   -23.4550     5.7660     6.8000     5.6880    12.2700    96.6860    -0.0040     2.4450     0.3950
  804.0000   -23.2620     5.7660     6.8190     5.7090    12.2750    96.8440    -0.0080     2.4420     0.3940
  804.5000   -23.0610     5.6760     6.8370     5.7130    12.2810    97.0530    -0.0010     2.4540     0.3770
  805.0000   -22.8860     5.6080     6.8550     5.6080    12.3040    95.3790    -0.0010     2.4660     0.3670
  805.5000   -23.1750     5.8050     6.8730     5.8060    12.3280    93.4900    -0.0010     2.4730     0.3570
  806.0000   -23.4750     6.0390     6.9360     6.0000    12.3520    92.7150    -0.0010     2.4690     0.3540
  806.5000   -23.5560     6.1780     7.0900     6.1470    12.3760    92.5030    -0.0010     2.4680     0.3470
  807.0000   -23.2880     6.3160     7.2440     6.2830    12.4000    93.1150     0.0000     2.4690     0.3350
  807.5000   -23.0720     6.4540     7.4010     6.4180    12.4230    93.7110     0.0100     2.4780     0.3240
  808.0000   -23.1430     6.5920     7.5850     6.6040    12.4390    94.2820     0.0220     2.4970     0.3200
