~VERSION INFORMATION
 VERS.                2.0:   CWLS LOG ASCII STANDARD - VERSION 2.0
 WRAP.                 NO:   ONE LINE PER DEPTH STEP
~WELL INFORMATION
#MNEM.UNIT      DATA TYPE    INFORMATION
#----------   ------------   ------------------------------
 STRT.F            0.5000:   START DEPTH
 STOP.F         4128.0000:   STOP DEPTH
 STEP.F            0.5000:   STEP LENGTH
 NULL.          -999.2500:   NO VALUE
 COMP. LAWRENCE ALLISON ASSOC WEST:   COMPANY
 WELL. LAWRENCE NPR "AX" #12-33:   WELL
 FLD .      NPR - WILDCAT:   FIELD
 LOC .      S33 T39N R78W:   LOCATION
 CNTY.            NATRONA:   COUNTY
 STAT.            WYOMING:   STATE
 CTRY. UNITED STATES OF AMERICA:   COUNTRY
 SRVC.      DRESSER ATLAS:   SERVICE COMPANY
 DATE.        04-AUG-1984:   LOGDATE
 API .     49025109720000:   API NUMBER
~CURVE INFORMATION
#MNEM.UNIT       API CODE    CURVE DESCRIPTION
#----------   ------------   ------------------------------
 DEPT.F                  :   
 CORR.G/C3   45 356 01 00:   DENSITY CORRECTION
 TEND.LBS    45 635 01 00:   TENSION FROM DENSITY LOG
 RHOB.G/C3   45 350 01 00:   BULK DENSITY
 GRR .GAPI   07 310 01 00:   GAMMA RAY FROM RESISTIVITY
 SPR .MV     07 010 01 00:   SPONTANEOUS POTENTIAL
 RFOC.OHMM   07 220 04 00:   RESISTIVITY FOCUSED LOG RES.
 RILM.OHMM   07 120 44 00:   RESISTIVITY INDUCTION LOG MEDIUM
 RILD.OHMM   07 120 46 00:   RESISTIVITY INDUCTION LOG MEDIUM
 TENR.LBS    07 635 01 00:   TENSION FROM RESISTIVITY
 CALR.IN     07 280 01 00:   CALIPER FROM RESISTIVITY
 DT  .US/F   60 520 00 00:   DELTA TIME
 TENS.LBS    60 635 01 00:   TENSION FROM SONIC
 SPHI.DEC    60 890 00 00:   SONIC POROSITY
~PARAMETER INFORMATION
#MNEM.UNIT          VALUE    DESCRIPTION
#----------   ------------   ------------------------------
 EKB .F         5170.0000:   Kelly bushing
 EGL .F         5157.0000:   Ground level
 EDF .F            0.0000:   Drilling floor
 TD  .F         4121.0000:   Total depth
 DATE.        04-AUG-1984:   Date logged
 CLNT.            A2DTECH:   Client Code
 SL  . 857' FNL & 751' FWL:   Surface Location
 PD  .                 GL:   Permanent Datum
 EPD .F              5157:   Elevation Permanent Datum
 LMF .                 KB:   Log Measured From
 DMF .                 KB:   Drilling Measured From
 DAPD.F                13:   Feet Above Permanent Datum
 DD  .F              4120:   Depth driller
 DL  .F              4121:   Depth logger
 BLI .F              4119:   Bottom log interval
 CS1 .IN            8.625:   Casing size
 CBD1.      8.625" @ 625':   Casing driller 1
 CBL1.F               624:   Casing logger 1
 BS1 .IN            7.875:   Bit size
 BSD1.F              4120:   Depth drilled with bit1
 DFT .            GEL/KCL:   Type fluid in hole
 DFD .                9.1:   Density
 DFV .                 40:   Viscosity
 DFPH.                8.5:   pH
 DFL .                 11:   Fluid loss
 MSS .               TANK:   Source of sample
 RMS .OHMM           .302:   Rm
 MST .F                84:   Rm Meas. temp.
 RMF .OHMM            .22:   Rmf
 MFST.F                84:   Rmf Meas. temp.
 RMC .OHMM            .38:   Rmc
 MCST.F                84:   Rmc Meas. temp.
 MFSS.               CALC:   Source Rmf.
 MCSS.               CALC:   Source Rmc.
 RMB .OHMM            .19:   Rm. at BHT
 BHT .F               132:   BHT.
 TCS .HRS               4:   Time Circ. stopped
 MRT .F               132:   Maximum recorded temp.
 LUN .               6307:   Logging unit number
 LUL .               GLTE:   Logging unit location
 ENGI.           FAHLSING:   Recorded By
 WITN.       ROBERT SCOTT:   Witnessed by
 ORIG.           5" PRINT:   Origin of data
 UWI .     49025109720000:   Unique Well ID
 DICO. A2D TECHNOLOGIES, INC.:   Digitizing Company
~OTHER INFORMATION
~A    DEPT    CORR       TEND       RHOB         GRR       SPR       RFOC       RILM       RILD       TENR       CALR         DT       TENS       SPHI   
# ...
 2938.5000     0.0570   -48.1430     2.5510   122.7570   -57.6660     5.8820     4.9390     4.4750   -41.1570     8.2660    82.4990   -64.5220     0.2270
 2939.0000     0.0730   -48.2200     2.5630   126.5120   -57.6560     5.9370     4.9390     4.1960   -41.1470     8.2760    82.2220   -64.3830     0.2270
 2939.5000     0.0930   -48.2970     2.5700   132.2430   -57.2710     5.9370     4.6010     3.9170   -41.1370     8.2840    82.5430   -64.2440     0.2300
 2940.0000     0.0880   -48.3730     2.5720   138.1620   -56.8600     5.5140     4.1860     3.6380   -41.1280     8.2900    83.3250   -64.1050     0.2370
 2940.5000     0.0840   -48.4500     2.4500   144.0680   -56.4490     4.9950     3.7710     3.3600   -41.1180     8.2960    84.4940   -63.9650     0.2450
 2941.0000     0.1410   -48.5270     2.3420   149.9010   -56.0380     4.4770     3.4180     3.0810   -41.1080     8.3000    86.6650   -63.8260     0.2660
 2941.5000     0.1990   -48.6040     2.2690   153.5860   -55.6270     3.9590     3.3250     2.9980   -41.0990     8.2940    89.0760   -63.6870     0.2850
 2942.0000     0.1970   -48.6810     2.2680   150.2960   -55.2170     3.4410     3.5260     2.9500   -41.0890     8.2890    91.7400   -63.5480     0.3020
 2942.5000     0.1420   -48.7580     2.3380   144.4360   -54.8090     3.3250     3.8440     2.9780   -41.0790     8.2830    94.5120   -63.4080     0.3340
 2943.0000     0.0870   -48.8350     2.4390   141.0960   -54.4810     3.3250     4.1610     3.0710   -41.0700     8.2690    97.0070   -63.2690     0.2990
 2943.5000     0.0700   -48.9110     2.5180   137.9440   -54.6720     3.9750     4.4640     3.1820   -41.0600     8.2500    97.1070   -63.1300     0.3000
 2944.0000     0.0650   -48.9880     2.5490   133.3110   -54.8620     4.7430     4.5460     3.3490   -41.0500     8.2310    90.6450   -62.9910     0.3000
 2944.5000     0.0600   -49.0650     2.5460   128.5750   -55.0490     5.3650     4.8480     3.6850   -41.0400     8.2120    85.9960   -62.8510     0.2650
 2945.0000     0.0550   -49.1420     2.5420   123.6410   -55.2350     5.4150     5.2460     4.0210   -41.0310     8.2010    83.4620   -62.7120     0.2330
 2945.5000     0.0460   -49.2190     2.5390   121.0910   -55.4240     5.4650     5.6180     4.3580   -41.0210     8.2010    81.2660   -62.5730     0.2180
 2946.0000     0.0390   -49.2960     2.5350   119.8850   -55.6220     5.5160     5.7180     4.6940   -41.0110     8.2010    80.9470   -62.4340     0.2190
 2946.5000     0.0510   -49.3720     2.5290   120.8100   -55.5100     5.6380     5.8110     4.9390   -41.0020     8.2010    81.0580   -62.2940     0.2200
 2947.0000     0.0630   -49.4490     2.5260   119.5740   -55.2670     5.7780     5.9050     4.9850   -40.9920     8.2050    80.9910   -62.1550     0.2170
 2947.5000     0.0750   -49.5260     2.5250   115.8110   -55.1400     5.9190     5.9990     4.9850   -40.9820     8.2140    80.4400   -62.0160     0.2140
 2948.0000     0.0720   -49.6030     2.5250   116.3000   -55.4140     5.9920     6.0920     5.1240   -40.9730     8.2210    80.1140   -61.8760     0.2100
 2948.5000     0.0680   -49.6800     2.5240   117.7340   -55.6770     5.9920     6.1860     5.2210   -40.9630     8.2210    79.9180   -61.7370     0.2100
 2949.0000     0.0630   -49.7570     2.5250   118.0700   -55.9400     5.9920     6.2800     5.3180   -40.9530     8.2140    79.7220   -61.5980     0.2080
 2949.5000     0.0680   -49.8340     2.5280   115.8490   -56.0730     5.9920     6.3730     5.4150   -40.9440     8.2040    79.5260   -61.4590     0.2060
 2950.0000     0.0770   -49.9100     2.5300   114.9280   -56.0740     5.9920     6.4670     5.5120   -40.9340     8.2090    79.1960   -61.3190     0.2040
 2950.5000     0.0710   -49.9870     2.5320   114.2450   -56.0820     5.9920     6.5690     5.6180   -40.9240     8.2210    78.4880   -61.1800     0.2010
 2951.0000     0.0640   -50.0640     2.5300   116.0400   -55.6860     6.1240     6.6300     5.6180   -40.9140     8.2210    78.2630   -61.0410     0.1990
 2951.5000     0.0600   -50.1410     2.5290   117.7720   -55.1450     6.2430     6.6580     5.6380   -40.9050     8.2210    78.3050   -60.9020     0.1990
 2952.0000     0.0690   -50.2180     2.5290   118.8690   -54.6010     6.3630     6.7120     5.8080   -40.8950     8.2210    78.4200   -60.7620     0.1980
 2952.5000     0.0790   -50.2950     2.5340   115.4070   -54.0590     6.4820     6.7660     5.9780   -40.8850     8.2200    78.4880   -60.6230     0.1980
 2953.0000     0.0890   -50.3710     2.5380   112.6530   -53.6760     6.6020     6.8200     6.1590   -40.8760     8.2110    78.3380   -60.4840     0.1970
 2953.5000     0.0980   -50.4480     2.5410   113.3290   -53.6840     6.7210     6.8740     6.1590   -40.8660     8.2020    77.7980   -60.3450     0.1930
 2954.0000     0.0990   -50.5250     2.5410   112.8170   -53.4180     6.8410     6.9290     6.1590   -40.8560     8.2100    77.1200   -60.2050     0.1900
 2954.5000     0.0750   -50.6020     2.5400   110.8720   -52.9180     6.9420     6.9420     6.1590   -40.8470     8.2200    76.3860   -60.0660     0.1870
 2955.0000     0.0520   -50.6790     2.5420   107.3460   -52.4100     6.9420     6.9420     6.1590   -40.8370     8.2310    76.1860   -59.9270     0.1840
 2955.5000     0.0450   -50.7560     2.5460   105.1720   -52.2980     6.9420     6.9420     6.1590   -40.8270     8.2410    76.2960   -59.7880     0.1820
 2956.0000     0.0410   -50.8330     2.5460   108.8770   -52.3000     6.9420     6.7760     6.1590   -40.8180     8.2460    76.3860   -59.6480     0.1860
 2956.5000     0.0370   -50.9090     2.5440   113.9960   -52.4430     6.7840     6.4840     6.0590   -40.8080     8.2510    77.3040   -59.5090     0.1920
 2957.0000     0.0430   -50.9860     2.5430   117.9940   -52.9490     6.5100     6.1920     5.8130   -40.7980     8.2560    78.6890   -59.3700     0.1990
 2957.5000     0.0600   -51.0630     2.5410   119.4450   -53.4370     6.2360     5.9000     5.5660   -40.7890     8.2620    79.5250   -59.2310     0.2050
 2958.0000     0.0770   -51.1400     2.5390   119.7650   -53.9240     5.9610     5.6080     5.3200   -40.7790     8.2680    80.1150   -59.0910     0.2120
 2958.5000     0.0940   -51.2170     2.5340   120.1990   -54.4100     5.6870     5.3160     4.9830   -40.7690     8.2730    80.7910   -58.9520     0.2160
 2959.0000     0.1060   -51.2940     2.5280   122.9380   -54.8960     5.4150     4.7650     4.5130   -40.7590     8.2790    80.8510   -58.8130     0.2160
 2959.5000     0.1180   -51.3700     2.4960   125.7670   -55.3820     5.4150     4.2150     3.9190   -40.7500     8.3170    80.9180   -58.6740     0.2150
 2960.0000     0.1020   -51.4470     2.4130   130.2710   -55.8720     5.4150     3.6640     3.2970   -40.7400     8.3770    80.9910   -58.5340     0.2160
 2960.5000     0.0770   -51.5240     2.1620   150.8810   -56.0660     5.4150     3.1140     2.6910   -40.7300     8.4370    83.1310   -58.3950     0.2220
 2961.0000     0.0490   -51.6010     2.0150   172.1540   -55.9360     4.6780     2.6180     2.6100   -40.7210     8.4980    87.2270   -58.2560     0.2640
 2961.5000     0.0210   -51.6780     2.0140   185.5860   -55.1850     3.8470     2.4770     2.4700   -40.7110     8.5630    95.3350   -58.1170     0.3210
 2962.0000    -0.0080   -51.7550     2.1900   171.6420   -54.4350     3.0160     2.4770     2.3300   -40.7010     8.5190   102.7750   -57.9770     0.3960
 2962.5000    -0.0280   -51.8320     2.3580   150.0250   -53.6940     2.0610     3.9280     2.2800   -40.6920     8.4460   105.8660   -57.8380     0.2980
 2963.0000     0.0040   -51.9080     2.5250   128.3450   -53.0710     3.6220     5.0310     2.6680   -40.6820     8.3900   100.0100   -57.6990     0.2970
 2963.5000     0.0550   -51.9850     2.5500   111.7930   -53.0970     5.4560     5.3340     3.0370   -40.6720     8.3620    89.0760   -57.5600     0.3010
 2964.0000     0.1030   -52.0620     2.5470   102.9120   -53.3630     7.2910     5.6210     3.6690   -40.6630     8.3340    76.9280   -57.4200     0.1980
