~VERSION INFORMATION
 VERS.                2.0:   CWLS LOG ASCII STANDARD - VERSION 2.0
 WRAP.                 NO:   ONE LINE PER DEPTH STEP
~WELL INFORMATION
#MNEM.UNIT      DATA TYPE    INFORMATION
#----------   ------------   ------------------------------
 STRT.F          494.0000:   START DEPTH
 STOP.F         4999.5000:   STOP DEPTH
 STEP.F            0.5000:   STEP LENGTH
 NULL.          -999.2500:   NO VALUE
 COMP.    FENIX & SCISSON:   COMPANY
 WELL.  FENIX "LX" #26-23:   WELL
 FLD . MPR #3 (TEAPOT DOME):   FIELD
 LOC .      S23 T38N R78W:   LOCATION
 CNTY.            NATRONA:   COUNTY
 STAT.            WYOMING:   STATE
 CTRY. UNITED STATES OF AMERICA:   COUNTRY
 SRVC.       SCHLUMBERGER:   SERVICE COMPANY
 DATE.        11-AUG-1978:   LOGDATE
 API .     49025107340000:   API NUMBER
~CURVE INFORMATION
#MNEM.UNIT       API CODE    CURVE DESCRIPTION
#----------   ------------   ------------------------------
 DEPT.F                  :   
 NPHI.DEC    42 890 03 00:   NEUTRON POROSITY SANDSTONE
 TEND.LBS    45 635 01 00:   TENSION FORM DENSITY LOG
 GRD .GAPI   45 310 01 00:   GAMMA RAY FROM DENSITY LOG
 CALD.IN     45 280 60 00:   CALIPER FROM DENSITY LOG
 DRHO.G/C3   45 356 01 00:   DENSITY CORRECTION
 RHOB.G/C3   45 350 01 00:   BULK DENSITY
 SPR .MV     07 010 01 00:   SPONTANEOUS POTENTIAL
 TENR.LBS    07 635 01 00:   TENSION FROM RESISTIVITY LOG
 ILD .OHMM   07 120 46 00:   INDUCTION LOG DEEP RESISTIVITY
 ILM .OHMM   07 120 44 00:   INDUCTION LOG MEDIUM RESISTIVITY
 SFL .OHMM   07 220 01 00:   SPHERICALLY FOCUSED LOG RESISITIVITY
~PARAMETER INFORMATION
#MNEM.UNIT          VALUE    DESCRIPTION
#----------   ------------   ------------------------------
 EKB .F         5335.0000:   Kelly bushing
 EGL .F         5325.0000:   Ground level
 EDF .F            0.0000:   Drilling floor
 EPD .F         5325.0000:   Permanent datum
 TD  .F         5000.0000:   Total depth
 CLNT.            A2DTECH:   Client Code
 SL  . 1600' FSL & 903' FWL:   Surface Location
 PD  .                 GL:   Permanent Datum
 LMF .                 KB:   Log Measured From
 DMF .                 KB:   Drilling Measured From
 DAPD.F                10:   Feet Above Permanent Datum
 DATE.        11-AUG-1978:   Date Logged [DD-MMM-YYYY]
 DD  .F              5000:   Depth driller
 DL  .F              4998:   Depth logger
 BLI .F              4992:   Bottom log interval
 TLI .F               525:   Top log interval
 CS1 .IN            9.625:   Casing size
 CBD1.      9.625" @ 521':   Casing driller 1
 CBL1.F               521:   Casing logger 1
 BS1 .IN             8.75:   Bit size
 BSD1.F              5000:   Depth drilled with bit1
 DFD .                9.1:   Density
 MSS .            MUD PIT:   Source of sample
 RMS .OHMM          0.897:   Rm
 MST .F                64:   Rm Meas. temp.
 RMF .OHMM          0.821:   Rmf
 MFST.F                64:   Rmf Meas. temp.
 MFSS.               MEAS:   Source Rmf.
 BHT .F               135:   BHT.
 TCS .HRS              03:   00:   Time Circ. stopped
 TLAB.HRS              09:   00:   Time logger at bottom
 MRT .F               135:   Maximum recorded temp.
 LUL .               CSPR:   Logging unit location
 ENGI.              CRAIG:   Recorded By
 ORIG.           5" PRINT:   Origin of data
 UWI .     49025107340000:   Unique Well ID
 DICO. A2D TECHNOLOGIES, INC.:   Digitizing Company
 DFV .                 40:   Viscosity
 DFPH.                 12:   pH
 DFL .                  4:   Fluid loss
~OTHER INFORMATION
~A  DEPTH     NPHI       TEND        GRD       CALD       DRHO       RHOB        SPR       TENR        ILD        ILM        SFL
# ...
 4398.0000     0.2274  2404.2524   105.6765     9.4673     0.0673     2.4135   -15.1437  2016.2909     2.6547     2.6387     3.5824
 4398.5000     0.2250  2404.5391   100.8686     9.4072     0.0814     2.5068   -14.9870  2001.6581     3.1298     3.3176     6.5933
 4399.0000     0.2277  2404.8970   106.3016     9.3927     0.0769     2.4970   -14.5323  2002.1924     3.3862     3.7590     8.4047
 4399.5000     0.2373  2405.1838   113.3505     9.3782     0.0398     2.4749   -14.3769  2017.6805     3.6478     4.1425     8.7013
 4400.0000     0.2452  2405.3623   118.0742     9.3636     0.0299     2.4812   -14.0719  2018.0011     4.1971     4.4096     5.9008
 4400.5000     0.2587  2420.5750   118.6851     9.3642     0.0692     2.5098   -13.4660  2017.5709     4.2659     4.6294     5.1365
 4401.0000     0.2678  2481.0894   115.0848     9.3649     0.1047     2.5203   -13.1609  2017.1991     4.4142     4.6944     4.8593
 4401.5000     0.2735  2481.0894   114.1926     9.3503     0.1129     2.5218   -12.5564  2016.8273     4.5728     4.6300     4.6937
 4402.0000     0.2753  2450.8320   114.5080     9.3509     0.1113     2.4510   -12.1017  2016.4556     4.5725     4.5036     4.7592
 4402.5000     0.2714  2420.5750   114.5193     9.3515     0.0334     2.4306   -11.4741  2016.0837     4.5072     4.4112     5.1723
 4403.0000     0.2642  2405.4463   114.8319     9.3521    -0.0128     2.4268   -11.1907  2015.7119     4.4698     4.5073     5.5599
 4403.5000     0.2609  2390.3176   114.8434     9.3679    -0.0152     2.4427   -10.8857  2015.3402     4.5080     4.6635     5.9832
 4404.0000     0.2609  2375.1892   114.2551     9.3786    -0.0115     2.4555   -10.7300  2014.9684     4.6040     4.7950     6.2808
 4404.5000     0.2606  2375.1892   112.7604     9.3842    -0.0070     2.4660   -10.5005  2016.3748     4.6702     4.9303     6.4575
 4405.0000     0.2587  2390.3176   110.3621     9.3899    -0.0017     2.4720   -10.2709  2021.0054     4.7713     5.0693     6.4575
 4405.5000     0.2539  2390.3176   108.2626     9.4006     0.0042     2.4765   -10.1796  2025.6359     4.9097     5.2122     6.5025
 4406.0000     0.2488  2390.3176   106.1708     9.4163     0.0087     2.4870   -10.1796  2030.2665     5.0893     5.3593     6.5933
 4406.5000     0.2422  2405.4463   104.6761     9.4321     0.0147     2.4983   -10.5237  2034.8970     5.3494     5.5488     6.8259
 4407.0000     0.2340  2405.4463   103.4827     9.4403     0.0139     2.5051   -10.7859  2035.3967     5.5046     5.6658     7.0180
 4407.5000     0.2278  2405.4463   104.6988     9.4334     0.0055     2.4997   -11.2204  2034.5692     5.5836     5.7853     7.2154
 4408.0000     0.2232  2405.4463   110.7371     9.4339    -0.0006     2.4606   -11.7997  2033.7417     5.6233     5.8260     7.3692
 4408.5000     0.2244  2390.3176   115.2666     9.4345    -0.0059     2.4531   -12.8229  2032.9143     5.6633     5.8264     7.6801
 4409.0000     0.2333  2375.1892   116.4827     9.4200    -0.0083     2.4508   -13.7047  2032.0868     5.7445     5.8268     7.4700
 4409.5000     0.2540  2375.1892   115.7030     9.4206    -0.0083     2.4560   -14.5748  2031.2593     5.8271     5.9497     7.1655
 4410.0000     0.2594  2405.4463   109.5195     9.4212    -0.0084     2.4620   -14.8552  2030.3138     5.9531     6.1175     6.9695
 4410.5000     0.2546  2465.9607   106.2149     9.4066    -0.0085     2.4643   -15.1402  2031.4760     6.0821     6.2900     6.9683
 4411.0000     0.2434  2465.9607   105.3178     9.4072    -0.0093     2.4583   -15.1170  2032.8314     6.1693     6.4690     7.6801
 4411.5000     0.2365  2450.8320   108.3406     9.4079    -0.0077     2.4507   -14.7995  2034.1869     6.2578     6.6961     8.7619
 4412.0000     0.2356  2435.7034   113.5486     9.3933    -0.0018     2.4522   -14.6308  2035.5422     6.2127     6.6503     9.3262
 4412.5000     0.2441  2435.7034   118.6010     9.3939     0.0049     2.4567   -14.4588  2036.8977     6.0802     6.3356     9.0710
 4413.0000     0.2513  2420.5750   120.7181     9.3975     0.0071     2.4589   -14.4402  2038.2532     5.9081     6.0777     7.7874
 4413.5000     0.2522  2420.5750   118.9195     9.4056     0.0078     2.4582   -14.5758  2039.6085     5.8655     5.9944     6.8014
 4414.0000     0.2516  2420.5750   113.5065     9.4137     0.0078     2.4574   -14.5526  2040.9640     5.8650     6.0005     6.1943
 4414.5000     0.2495  2435.7034   108.9970     9.4218     0.0115     2.4597   -14.0852  2042.3193     6.0351     6.1214     6.3686
 4415.0000     0.2435  2435.7034   105.3934     9.4299     0.0144     2.4657   -13.3150  2043.7502     6.1658     6.3378     7.0180
 4415.5000     0.2314  2435.7034   106.0044     9.4347     0.0174     2.4755   -12.8480  2043.9299     6.3445     6.6535     7.4700
 4416.0000     0.2254  2435.7034   107.5191     9.4345     0.0196     2.4950   -12.2315  2044.1202     6.5284     6.8887     9.2939
 4416.5000     0.2230  2435.7034   107.8289     9.4344     0.0211     2.5003   -11.9140  2044.3107     6.7177     7.0364    10.4207
 4417.0000     0.2245  2435.7034   108.1388     9.4494     0.0225     2.5010   -11.4469  2044.5010     6.9123     7.1329    10.1356
 4417.5000     0.2302  2420.5750   109.1006     9.4492     0.0194     2.4995   -10.9754  2044.6913     6.9119     7.2330     9.2617
 4418.0000     0.2347  2405.4463   113.2787     9.4642     0.0163     2.4942   -10.8073  2044.8816     6.9114     7.2838     8.8228
 4418.5000     0.2411  2405.4463   114.7934     9.4671     0.0133     2.4879   -10.6393  2045.0719     6.9109     7.2338     8.7013
 4419.0000     0.2471  2390.3176   114.5008     9.4791     0.0094     2.4806   -10.9197  2045.2622     7.0102     7.0854     8.7013
 4419.5000     0.2495  2390.3176   114.8106     9.4789     0.0063     2.4798   -11.7980  2045.4525     7.0601     7.0296     8.7013
 4420.0000     0.2507  2390.3176   115.7229     9.4939     0.0101     2.4821   -12.3968  2045.6429     7.1103     7.0375     8.7013
 4420.5000     0.2489  2405.4463   116.0349     9.4938     0.0145     2.4896   -12.6530  2045.8333     7.1097     7.0870     8.7619
 4421.0000     0.2435  2420.5750   112.4291     9.4936     0.0175     2.5010   -12.7840  2046.0236     7.1092     7.2868     8.8228
 4421.5000     0.2395  2420.5750   109.4257     9.4934     0.0197     2.5152   -12.7654  2046.2355     7.1087     7.3380     9.0710
 4422.0000     0.2348  2435.7034   107.0247     9.4933     0.0189     2.5167   -12.5974  2047.5908     7.0070     7.2878     9.1977
 4422.5000     0.2315  2435.7034   107.6357     9.4932     0.0097     2.5046   -12.4290  2048.9460     6.9566     7.2380     9.2617
 4423.0000     0.2303  2420.5750   110.4147     9.4930     0.0044     2.4940   -12.4061  2050.3015     6.9065     7.1388     9.3262
 4423.5000     0.2322  2420.5750   113.0769     9.4929     0.0021     2.4887   -12.8360  2051.6567     6.9060     7.0409     9.0710
 4424.0000     0.2390  2405.4463   111.5795     9.4927     0.0013     2.4872   -12.9715  2053.0122     6.9055     6.9926     8.3978
 4424.5000     0.2429  2405.4463   108.8751     9.4774     0.0060     2.4880   -13.3967  2054.3674     6.9049     6.9448     8.2317
 4425.0000     0.2387  2405.4463   108.8859     9.4773     0.0155     2.4887   -13.5277  2055.7229     6.9044     6.9454     8.3466
 4425.5000     0.2329  2405.4463   109.1957     9.4771     0.0162     2.4879   -13.5044  2057.0781     6.9040     6.9459     8.6412
 4426.0000     0.2249  2420.5750   104.6885     9.4618     0.0093     2.4796   -13.4859  2058.4341     6.9035     6.9947     8.9461
 4426.5000     0.2212  2420.5750   101.3839     9.4617     0.0002     2.4705   -13.0189  2059.7893     6.9030     7.0438     9.1386
 4427.0000     0.2194  2435.7034   101.6937     9.4615    -0.0036     2.4645   -12.8508  2061.1448     6.9522     7.0933     9.3262
 4427.5000     0.2204  2405.4463   103.8108     9.4613     0.0031     2.4690   -12.5333  2062.5000     6.9516     7.1474     9.3262
 4428.0000     0.2207  2390.3176   107.4339     9.4612     0.0121     2.4758   -12.5142  2063.8555     7.0012     7.1436     9.3262
