~VERSION INFORMATION
 VERS.                2.0:   CWLS LOG ASCII STANDARD - VERSION 2.0
 WRAP.                 NO:   ONE LINE PER DEPTH STEP
~WELL INFORMATION
#MNEM.UNIT      DATA TYPE    INFORMATION
#----------   ------------   ------------------------------
 STRT.F          204.0000:   START DEPTH
 STOP.F         3040.0000:   STOP DEPTH
 STEP.F            0.5000:   STEP LENGTH
 NULL.          -999.2500:   NO VALUE
 COMP.    FENIX & SCISSON:   COMPANY
 WELL.   FENIX "A" #47-21:   WELL
 FLD .            N P R 3:   FIELD
 LOC .      S21 T39N R78W:   LOCATION
 CNTY.            NATRONA:   COUNTY
 STAT.            WYOMING:   STATE
 CTRY. UNITED STATES OF AMERICA:   COUNTRY
 SRVC.              WELEX:   SERVICE COMPANY
 DATE.        20-JUN-1977:   LOGDATE
 API .     49025103820000:   API NUMBER
~CURVE INFORMATION
#MNEM.UNIT       API CODE    CURVE DESCRIPTION
#----------   ------------   ------------------------------
 DEPT.F                  :   
 SPR .MV     07 010 01 00:   SPONTANEOUS POTENTIAL
 ILM .OHMM   07 120 44 00:   INDUCTION LOG MEDIUM RESISTIVITY
 ILD .OHMM   07 120 46 00:   DEEP INDUCTION RESISTIVITY
 SGRD.OHMM   07 220 05 00:   SHALLOW GUARD LOG RESISTIVITY
 GRD .GAPI   45 310 01 00:   GAMMA RAY FROM DENSITY LOG
 CALD.IN     45 280 60 00:   CALIPER FROM DENSITY LOG
 RHOB.G/C3   45 350 01 00:   BULK DENSITY
 CORR.G/C3   45 356 01 00:   DENSITY CORRECTION
~PARAMETER INFORMATION
#MNEM.UNIT          VALUE    DESCRIPTION
#----------   ------------   ------------------------------
 EKB .F         5010.0000:   Kelly bushing
 EGL .F         5000.0000:   Ground level
 EDF .F            0.0000:   Drilling floor
 TD  .F         3050.0000:   Total depth
 DATE.        20-JUN-1977:   Date logged
 CLNT.            A2DTECH:   Client Code
 SL  . 990' FSL & 2310' FWL:   Surface Location
 PD  .                 GL:   Permanent Datum
 DD  .F              3050:   Depth driller
 DL  .F              3039:   Depth logger
 BLI .F              3037:   Bottom log interval
 CS1 .IN            8.625:   Casing size
 CBD1.      8.625" @ 210':   Casing driller 1
 CBL1.F               215:   Casing logger 1
 BS1 .IN            7.875:   Bit size
 DFT .                KCL:   Type fluid in hole
 DFD .                9.3:   Density
 DFV .                 35:   Viscosity
 DFPH.                7.5:   pH
 DFL .                7.2:   Fluid loss
 MSS .             MUDPIT:   Source of sample
 RMS .OHMM            .22:   Rm
 MST .F                80:   Rm Meas. temp.
 RMF .OHMM            .19:   Rmf
 MFST.F                80:   Rmf Meas. temp.
 RMC .OHMM            .35:   Rmc
 MCST.F                80:   Rmc Meas. temp.
 MFSS.               MEAS:   Source Rmf.
 RMB .OHMM            .15:   Rm. at BHT
 BHT .F               111:   BHT.
 TCS .HRS               4:   Time Circ. stopped
 MRT .F               111:   Maximum recorded temp.
 LUN .               8766:   Logging unit number
 LUL .             CAPSER:   Logging unit location
 ENGI.          T. JOYNER:   Recorded By
 WITN.         PETTINGILL:   Witnessed by
 ORIG.           5" PRINT:   Origin of data
 UWI .     49025103820000:   Unique Well ID
 DICO. A2D TECHNOLOGIES, INC.:   Digitizing Company
 DAPD.                 10:   Feet Above Permanent Datum
 BSD1.               3050:   Depth drilled with bit1
 MCSS.               MEAS:   Source Rmc.
 EPD .               5000:   Elevation Permanent Datum
 LMF .                 KB:   Log Measured From
 DMF .                 KB:   Drilling Measured From
 TLI .                215:   Top log interval
~OTHER INFORMATION
~A   DEPT      SPR        ILM        ILD       SGRD         GRD        CALD       RHOB      CORR  
# ...
  568.5000   -21.2070    10.4440     8.7580     9.8640    76.9100    12.6330     2.4690     0.0120
  569.0000   -21.4150    10.2470     8.6250     9.6770    76.0550    12.6250     2.4720     0.0130
  569.5000   -21.6060    10.0510     8.4870     9.4910    76.5250    12.6170     2.4750     0.0140
  570.0000   -21.5490     9.9140     8.3440     9.3040    77.1360    12.6080     2.4760     0.0140
  570.5000   -21.4850     9.9420     8.2010     9.1170    77.8280    12.5990     2.4760     0.0150
  571.0000   -21.4210     9.9640     8.0580     8.9300    78.5170    12.5900     2.4770     0.0160
  571.5000   -21.3580     9.9850     7.9160     8.7310    78.7510    12.5820     2.4780     0.0160
  572.0000   -21.2940    10.0070     7.8100     8.8080    77.3580    12.5730     2.4780     0.0160
  572.5000   -21.2290    10.0290     7.9730     8.9100    76.1830    12.5640     2.4790     0.0160
  573.0000   -21.2290    10.0510     8.1010     9.0120    75.2620    12.5560     2.4790     0.0160
  573.5000   -21.2450    10.0720     8.2300     9.1150    75.7220    12.5470     2.4780     0.0140
  574.0000   -21.2620    10.0930     8.3580     9.2170    76.1150    12.5380     2.4770     0.0160
  574.5000   -21.2790    10.1670     8.4870     9.3150    76.5460    12.5300     2.4750     0.0160
  575.0000   -21.2960    10.2520     8.6150     9.4010    76.9750    12.5190     2.4740     0.0160
  575.5000   -21.3130    10.3370     8.7440     9.4860    77.3900    12.5300     2.4730     0.0160
  576.0000   -21.3300    10.4220     8.8720     9.5710    77.5040    12.5710     2.4710     0.0150
  576.5000   -21.3470    10.5070     9.0010     9.6560    76.6810    12.6100     2.4700     0.0150
  577.0000   -21.3640    10.5920     9.1290     9.7420    75.9840    12.6500     2.4690     0.0150
  577.5000   -21.3810    10.6770     9.2350     9.8270    75.2840    12.7030     2.4670     0.0150
  578.0000   -21.3980    10.7670     9.2990     9.9120    74.4760    12.7750     2.4660     0.0150
  578.5000   -21.4150    11.0330     9.3620     9.9970    74.3530    12.8470     2.4650     0.0140
  579.0000   -21.4320    11.3160     9.4260    10.0830    74.2500    12.9200     2.4640     0.0140
  579.5000   -21.4490    11.5990     9.4870    10.1680    74.1860    12.9910     2.4630     0.0140
  580.0000   -21.4660    11.9110     9.5420    10.2530    74.0960    13.0680     2.4620     0.0140
  580.5000   -21.4820    12.1790     9.5970    10.3380    74.0160    13.1330     2.4610     0.0140
  581.0000   -21.4990    12.4770     9.6520    10.4230    73.9310    13.2140     2.4610     0.0130
  581.5000   -21.5160    12.7760     9.7070    10.5090    73.8590    13.0850     2.4610     0.0130
  582.0000   -21.5330    12.9870     9.7620    10.5800    73.7570    12.9040     2.4600     0.0130
  582.5000   -21.5500    13.0960     9.8170    10.6120    73.6950    12.7320     2.4600     0.0130
  583.0000   -21.5670    13.2060     9.8720    10.6450    73.6990    12.5280     2.4590     0.0130
  583.5000   -21.5840    13.3160     9.9140    10.6770    74.6360    12.4380     2.4590     0.0120
  584.0000   -21.6010    13.4260     9.9000    10.7090    75.4080    12.3430     2.4580     0.0120
  584.5000   -21.6240    13.5360     9.8880    10.7410    76.2460    12.2010     2.4580     0.0120
  585.0000   -21.6630    13.6680     9.8760    10.7670    77.1100    12.1910     2.4570     0.0120
  585.5000   -21.7010    13.5230     9.8640    10.6780    77.6680    12.1630     2.4570     0.0120
  586.0000   -21.7400    13.2790     9.8520    10.5880    77.7970    12.0000     2.4600     0.0120
  586.5000   -21.7790    13.0360     9.8400    10.4980    77.9930    11.8680     2.4620     0.0120
  587.0000   -21.8170    12.7930     9.8280    10.4090    78.1660    11.7240     2.4650     0.0120
  587.5000   -21.8560    12.5500     9.8160    10.3190    78.3230    11.7030     2.4670     0.0120
  588.0000   -21.8940    12.3070     9.8040    10.2300    78.1370    11.6520     2.4700     0.0120
  588.5000   -21.9330    12.0830     9.7920    10.0980    77.9360    11.6970     2.4720     0.0120
  589.0000   -21.9710    11.8670     9.7800    10.1380    77.7220    11.7560     2.4750     0.0120
  589.5000   -22.0100    11.6510     9.7690    10.2160    77.5190    11.8150     2.4770     0.0120
  590.0000   -22.0490    11.5580     9.7570    10.2930    77.3100    11.8820     2.4770     0.0120
  590.5000   -22.0870    11.5160     9.7450    10.3790    77.1020    12.0060     2.4770     0.0120
  591.0000   -22.1260    11.4740     9.7330    10.3690    76.8990    12.1600     2.4770     0.0120
  591.5000   -22.1640    11.4330     9.7210    10.3550    76.5750    12.3110     2.4770     0.0120
  592.0000   -22.2030    11.3910     9.7090    10.3400    76.0810    12.4720     2.4770     0.0120
  592.5000   -22.2420    11.2880     9.6970    10.3260    75.5900    12.5630     2.4770     0.0120
  593.0000   -22.2800    11.1520     9.6850    10.3110    75.1010    12.5400     2.4770     0.0120
  593.5000   -22.3190    10.9720     9.6730    10.2960    74.6020    12.4260     2.4770     0.0120
  594.0000   -22.3570    10.9930     9.6610    10.2820    74.1160    12.1900     2.4760     0.0130
  594.5000   -22.3960    11.0350     9.6500    10.2670    73.6320    11.9600     2.4750     0.0130
  595.0000   -22.4100    11.0770     9.6400    10.2530    73.0800    11.7250     2.4740     0.0130
  595.5000   -22.4100    11.1190     9.6320    10.2380    73.0380    11.5000     2.4720     0.0130
  596.0000   -22.4100    11.1610     9.6240    10.2230    73.6660    11.2270     2.4690     0.0130
  596.5000   -22.4100    11.2030     9.6160    10.2090    74.2590    11.1000     2.4660     0.0130
  597.0000   -22.4100    11.2450     9.6080    10.1940    74.8610    11.0990     2.4630     0.0130
  597.5000   -22.4100    11.2670     9.6000    10.1910    75.1710    11.0690     2.4600     0.0130
  598.0000   -22.4100    11.1970     9.5920    10.1910    74.2200    11.0910     2.4570     0.0130
  598.5000   -22.4100    11.1410     9.5840    10.1910    73.1640    11.1580     2.4540     0.0130
  599.0000   -22.4100    11.0860     9.5760    10.1910    73.3810    11.2190     2.4560     0.0130
  599.5000   -22.4100    11.0300     9.5680    10.1910    74.5630    11.3010     2.4590     0.0130
  600.0000   -22.4100    10.9740     9.5600    10.1910    75.6350    11.4090     2.4610     0.0130
  600.5000   -22.4100    10.9190     9.5530    10.1910    76.6860    11.5230     2.4640     0.0130
  601.0000   -22.4100    10.8670     9.5450    10.1910    77.5310    11.6200     2.4670     0.0130
  601.5000   -22.4110    11.0620     9.5370    10.1910    76.8680    11.7560     2.4690     0.0130
  602.0000   -22.3900    11.2450     9.5290    10.1910    76.0040    11.8750     2.4690     0.0130
  602.5000   -22.3650    11.4280     9.5210    10.1910    75.1210    11.9940     2.4690     0.0130
  603.0000   -22.3410    11.6110     9.5130    10.1910    74.4070    12.1160     2.4690     0.0130
  603.5000   -22.3160    11.7940     9.5050    10.1910    74.6920    12.2560     2.4690     0.0130
  604.0000   -22.2920    11.8980     9.4970    10.1910    75.5260    12.5970     2.4690     0.0140
  604.5000   -22.2670    11.7550     9.4890    10.1910    76.2190    12.9670     2.4690     0.0140
  605.0000   -22.2430    11.6410     9.4810    10.1910    76.7190    12.9370     2.4690     0.0140
  605.5000   -22.2190    11.5270     9.4730    10.1910    77.2730    12.8350     2.4700     0.0140
  606.0000   -22.1940    11.3770     9.4650    10.1910    77.8220    12.7780     2.4710     0.0140
  606.5000   -22.1700    11.3970     9.4570    10.1910    78.3530    12.7730     2.4730     0.0140
  607.0000   -22.1450    11.4280     9.4490    10.2000    78.9180    12.7520     2.4740     0.0140
  607.5000   -22.1210    11.4580     9.4410    10.2100    79.4480    12.7850     2.4750     0.0140
  608.0000   -22.0960    11.4880     9.4330    10.2190    79.8610    12.8380     2.4770     0.0140
  608.5000   -22.0720    11.5190     9.4250    10.2280    79.2880    12.8870     2.4780     0.0140
