~VERSION INFORMATION
 VERS.                2.0:   CWLS LOG ASCII STANDARD - VERSION 2.0
 WRAP.                 NO:   ONE LINE PER DEPTH STEP
~WELL INFORMATION
#MNEM.UNIT      DATA TYPE    INFORMATION
#----------   ------------   ------------------------------
 STRT.F            0.0000:   START DEPTH
 STOP.F         3982.0000:   STOP DEPTH
 STEP.F            0.5000:   STEP LENGTH
 NULL.          -999.2500:   NO VALUE
 COMP.   LAWRENCE ALLISON:   COMPANY
 WELL. LAWRENCE NPR 3 "LX" #61-10:   WELL
 FLD .                NPR:   FIELD
 LOC .      S10 T38N R78W:   LOCATION
 CNTY.            NATRONA:   COUNTY
 STAT.            WYOMING:   STATE
 CTRY. UNITED STATES OF AMERICA:   COUNTRY
 SRVC.      DRESSER ATLAS:   SERVICE COMPANY
 DATE.        14-APR-1983:   LOGDATE
 API .     49025109180000:   API NUMBER
~CURVE INFORMATION
#MNEM.UNIT       API CODE    CURVE DESCRIPTION
#----------   ------------   ------------------------------
 DEPT.F                  :   
 CALD.IN     45 280 60 00:   CALIPER FROM DENSITY LOG
 RHOB.G/C3   45 350 01 00:   BULK DENSITY
 DRHO.G/C3   45 356 01 00:   DENSITY CORRECTION
 TEND.LBS    45 635 01 00:   TENSION FROM DENSITY LOG
 CNC .DEC    42 890 03 00:   NEUTRON PORISITY SANDSTONE
 GRR .GAPI   07 310 01 00:   GAMMA RAY FROM RESISTIVITY
 SPR .MV     07 010 01 00:   SPONTANEOUS POTENTIAL
 ILD .OHMM   07 120 46 00:   DEEP INDUCTION RESISTIVITY
 ILM .OHMM   07 120 44 00:   INDUCTION LOG MEDIUM RESISTIVITY
 SFL .OHMM   07 220 01 00:   SHALLOW FOCUSED LOG RESISTIVITY
 TENS.LBS    60 635 01 00:   TENSION FROM SONIC LOG
 DT  .US/F   60 520 00 00:   DELTA TIME
 TENR.LBS    07 635 01 00:   TENSION FROM RESISTIVITY
~PARAMETER INFORMATION
#MNEM.UNIT          VALUE    DESCRIPTION
#----------   ------------   ------------------------------
 EKB .F         5164.0000:   Kelly bushing
 EGL .F         5154.0000:   Ground level
 EDF .F            0.0000:   Drilling floor
 TD  .F         3985.0000:   Total depth
 DATE.        14-APR-1983:   Date logged
 CLNT.            A2DTECH:   Client Code
 SL  . 138' FNL & 1331' FEL:   Surface Location
 PD  .                 GL:   Permanent Datum
 EPD .F              5154:   Elevation Permanent Datum
 LMF .                 KB:   Log Measured From
 DMF .                 KB:   Drilling Measured From
 DD  .F              3985:   Depth driller
 DL  .F              3948:   Depth logger
 BLI .F              3945:   Bottom log interval
 CS1 .IN            8.625:   Casing size
 CBD1.      8.625" @ 442':   Casing driller 1
 CBL1.F               453:   Casing logger 1
 BS1 .IN            7.875:   Bit size
 DFT .                KCI:   Type fluid in hole
 DFD .                8.9:   Density
 DFV .                 40:   Viscosity
 DFPH.                8.5:   pH
 DFL .                 10:   Fluid loss
 MSS .           FLOWLINE:   Source of sample
 RMS .OHMM           0.38:   Rm
 MST .F                68:   Rm Meas. temp.
 RMF .OHMM           0.30:   Rmf
 MFST.F                68:   Rmf Meas. temp.
 RMC .OHMM           0.49:   Rmc
 MCST.F                68:   Rmc Meas. temp.
 MFSS.               MEAS:   Source Rmf.
 RMB .OHMM           0.22:   Rm. at BHT
 BHT .F               122:   BHT.
 TCS .HRS               4:   Time Circ. stopped
 MRT .F               122:   Maximum recorded temp.
 LUN .               6764:   Logging unit number
 LUL .              WLSTN:   Logging unit location
 ENGI.            QUICKEL:   Recorded By
 WITN.           JENNINGS:   Witnessed by
 ORIG.           5" PRINT:   Origin of data
 UWI .     49025109180000:   Unique Well ID
 DICO. A2D TECHNOLOGIES, INC.:   Digitizing Company
 DAPD.                 10:   Feet Above Permanent Datum
 BSD1.               3985:   Depth drilled with bit1
 MCSS.               CALC:   Source Rmc.
~OTHER INFORMATION
~A    DEPT    CALD       RHOB       DRHO       TEND        CNC         GRR       SPR        ILD        ILM        SFL       TENS         DT       TENR   
# ...
 3224.0000     8.2830     2.4790     0.0190   -65.7370     0.2110   140.4160   -30.1490     5.3410     4.7290     5.3650   -54.6090    78.5500   -27.0070
 3224.5000     8.2850     2.4800     0.0060   -65.7370     0.2260   145.6420   -30.0710     4.8620     4.5640     4.8280   -54.6090    79.9740   -26.7100
 3225.0000     8.2880     2.4800     0.0050   -65.7370     0.2370   148.0130   -29.9860     4.4370     4.3570     4.2610   -54.6090    81.8840   -26.3310
 3225.5000     8.2910     2.4730     0.0150   -65.7370     0.2410   148.7790   -30.0550     4.0900     4.1500     4.1250   -54.6090    83.6230   -25.9520
 3226.0000     8.2940     2.4690     0.0280   -65.7370     0.2600   150.0960   -30.3520     3.7430     3.9060     4.2620   -54.6090    84.4390   -25.5730
 3226.5000     8.2970     2.4720     0.0410   -65.7370     0.2690   150.3340   -30.4880     3.4070     3.4100     4.4780   -54.6090    84.3670   -25.1940
 3227.0000     8.3000     2.4720     0.0520   -65.7370     0.2620   151.0540   -30.5690     2.9100     2.7130     4.3570   -54.6090    84.2380   -24.8150
 3227.5000     8.3030     2.4560     0.0620   -65.7370     0.2690   152.3590   -30.5310     2.4280     2.3710     4.0450   -54.6090    85.3610   -24.4350
 3228.0000     8.3060     2.4280     0.0660   -65.7370     0.2810   163.4080   -29.7860     2.1790     1.9900     3.4290   -54.6090    89.6260   -24.0560
 3228.5000     8.3080     2.3610     0.0640   -65.7370     0.3030   179.9260   -28.8230     2.0640     1.7040     2.3880   -54.6090    96.2460   -23.6770
 3229.0000     8.3100     2.2880     0.0510   -65.7370     0.3230   181.1620   -27.8610     2.0450     1.7360     1.8500   -54.6090   102.2750   -23.2980
 3229.5000     8.3800     2.2130     0.0360   -65.7370     0.3480   169.2030   -26.4790     2.0450     2.0450     1.7360   -54.6090   112.3600   -22.9190
 3230.0000     8.4600     2.0000    -0.0050   -65.7370     0.3560   151.4190   -25.6990     2.1290     2.3450     2.0260   -54.6090   115.1000   -22.5400
 3230.5000     8.5300     2.0030    -0.0020   -65.7370     0.3210   136.9150   -26.0570     2.2490     2.7370     3.8710   -54.6090   109.7030   -22.1600
 3231.0000     8.5270     2.0030     0.0090   -65.7370     0.3120   135.2690   -26.7020     2.3700     2.9150     5.6750   -55.1200   102.9280   -21.7810
 3231.5000     8.4920     2.1670    -0.0110   -65.7370     0.3080   137.1590   -27.3640     2.4990     3.0540     5.8860   -55.9170    92.5530   -21.4020
 3232.0000     8.3450     2.3480    -0.0360   -65.7370     0.2520   133.2840   -28.0590     3.1780     3.8190     4.7730   -56.7130    86.5320   -21.0230
 3232.5000     8.2310     2.4110     0.0310   -65.7370     0.2440   128.8980   -28.9320     4.0880     4.3970     4.8160   -57.5100    85.0790   -20.6440
 3233.0000     8.1910     2.4150     0.0650   -65.7370     0.2410   127.9900   -29.8490     4.9780     4.9910     5.6110   -58.3070    86.8440   -20.2650
 3233.5000     8.1910     2.4270     0.0650   -65.7370     0.2380   130.5460   -30.1270     5.8840     5.5090     6.2730   -59.1040    86.2810   -19.8850
 3234.0000     8.1940     2.4570     0.0390   -70.1520     0.2390   132.7710   -30.1130     6.3140     5.8860     6.0920   -59.9000    85.0110   -19.5060
 3234.5000     8.1970     2.4770     0.0400   -75.0290     0.2400   129.6360   -30.3240     6.7480     6.4300     6.1600   -60.6970    83.2250   -19.1270
 3235.0000     8.1990     2.4750     0.0420   -79.9060     0.2390   124.9590   -30.4900     6.9410     6.8920     6.3890   -61.4940    81.4390   -18.7480
 3235.5000     8.2010     2.4730     0.0410   -84.7830     0.2320   123.5890   -30.6370     7.1850     7.3540     7.5270   -62.2910    79.9470   -18.3690
 3236.0000     8.2040     2.4750     0.0250   -89.6610     0.2230   123.4840   -30.7280     7.4290     7.8070     8.3210   -63.0870    78.5700   -17.9900
 3236.5000     8.2060     2.4820     0.0080   -94.5380     0.2180   123.5050   -30.7330     7.6660     7.7710     8.3210   -63.8840    77.1940   -17.6100
 3237.0000     8.2080     2.4940    -0.0010   -86.3840     0.2160   124.3070   -30.7560     7.6080     7.7350     7.9520   -64.6290    77.1320   -17.2310
 3237.5000     8.2110     2.5060     0.0000   -74.5250     0.2170   126.0510   -30.6770     7.4750     7.6990     7.6660   -64.6290    77.5330   -17.0960
 3238.0000     8.2130     2.5030     0.0190   -62.6670     0.2190   128.5580   -30.8250     7.3240     7.6660     7.1270   -64.6290    77.9340   -17.0960
 3238.5000     8.2150     2.4950     0.0380   -55.8760     0.2210   130.6070   -31.2190     7.1960     7.5420     6.8720   -64.6290    78.3270   -17.0960
 3239.0000     8.2180     2.4870     0.0400   -56.3220     0.2220   130.8610   -31.4270     7.0030     7.3980     6.9530   -64.6290    78.3270   -17.0960
 3239.5000     8.2200     2.4830     0.0200   -56.7680     0.2270   130.0880   -31.4580     6.8100     7.1110     7.0620   -64.6290    78.1560   -17.0960
 3240.0000     8.2220     2.4850     0.0050   -57.2140     0.2280   128.9790   -31.1870     6.6170     6.6260     7.1920   -64.6290    78.1160   -17.0960
 3240.5000     8.2250     2.4860     0.0080   -57.6600     0.2240   126.7070   -30.7580     6.4240     6.4570     7.0570   -64.6290    78.6100   -17.0960
 3241.0000     8.2270     2.4840     0.0100   -58.1060     0.2210   126.2590   -30.6770     6.2230     6.2690     6.9350   -64.6290    79.1280   -17.0960
 3241.5000     8.2290     2.4800     0.0130   -58.5520     0.2210   128.7330   -30.7950     6.0120     6.0810     6.9350   -64.6290    79.7260   -17.0960
 3242.0000     8.2320     2.4750     0.0140   -58.9980     0.2290   132.6200   -30.6790     5.8020     5.9390     6.8090   -64.6290    80.3550   -17.0960
 3242.5000     8.2340     2.4700     0.0150   -59.4440     0.2410   135.4790   -30.2560     5.6230     6.0570     5.8860   -64.6290    80.9840   -17.0960
 3243.0000     8.2360     2.4510     0.0170   -59.8900     0.2450   132.6070   -29.9500     5.8610     6.3950     4.9950   -64.6290    81.6120   -17.0960
 3243.5000     8.2380     2.4300     0.0170   -60.3360     0.2480   128.1200   -30.0010     6.1100     6.8090     5.1340   -64.6290    82.0340   -17.0960
 3244.0000     8.2410     2.4100     0.0140   -60.7820     0.2480   121.5040   -30.0710     6.1340     6.7480     5.7790   -64.6290    81.8460   -17.0960
 3244.5000     8.2430     2.4150     0.0050   -61.2280     0.2430   111.7160   -30.0960     5.9140     6.2840     7.5960   -64.6290    80.9510   -17.0960
 3245.0000     8.2450     2.4370    -0.0030   -61.6740     0.2380   110.5310   -30.1660     5.6950     6.0060     8.0230   -64.6290    79.4690   -17.0960
 3245.5000     8.2480     2.4500    -0.0240   -62.1200     0.2360   115.9720   -30.2030     5.4760     5.6750     7.5270   -64.6290    78.3270   -17.0960
 3246.0000     8.2500     2.4630    -0.0330   -62.5660     0.2390   121.6160   -30.2610     5.2560     5.4150     6.0920   -64.6290    78.8930   -17.0960
 3246.5000     8.2610     2.4700    -0.0260   -63.0120     0.2450   129.0460   -30.3060     5.0870     5.0750     5.0950   -64.6290    81.5330   -17.0960
 3247.0000     8.2720     2.4780    -0.0160   -63.4580     0.2590   133.9700   -30.2800     4.8940     4.7730     4.4890   -64.6290    84.9840   -17.0960
 3247.5000     8.2830     2.4860     0.0130   -63.9040     0.2650   134.7200   -30.1820     4.7370     4.7290     4.2780   -64.6290    88.1460   -17.0960
 3248.0000     8.2930     2.4880     0.0480   -64.3500     0.2640   135.2430   -30.0160     4.5800     4.8600     4.4100   -64.6290    89.0930   -17.0960
 3248.5000     8.3040     2.4350     0.0960   -64.7960     0.2700   136.7480   -29.9910     4.4230     4.6230     4.9500   -64.6290    89.0740   -17.0960
 3249.0000     8.2950     2.4030     0.1030   -65.2420     0.2770   137.0870   -30.3320     4.2780     4.3990     5.0870   -64.6290    88.9400   -17.0960
 3249.5000     8.2640     2.3820     0.0400   -65.6880     0.2800   136.2680   -30.8950     4.1570     4.2390     4.8930   -64.6290    88.8480   -17.0960
