~VERSION INFORMATION
 VERS.                2.0:   CWLS LOG ASCII STANDARD - VERSION 2.0
 WRAP.                 NO:   ONE LINE PER DEPTH STEP
~WELL INFORMATION
#MNEM.UNIT      DATA TYPE    INFORMATION
#----------   ------------   ------------------------------
 STRT.F           10.5000:   START DEPTH
 STOP.F         5650.0000:   STOP DEPTH
 STEP.F            0.5000:   STEP LENGTH
 NULL.          -999.2500:   NO VALUE
 COMP.    FENIX & SCISSON:   COMPANY
 WELL. FENIX NPR 3 "LX" #56-3:   WELL
 FLD .              N P R:   FIELD
 LOC .       S3 T38N R78W:   LOCATION
 CNTY.            NATRONA:   COUNTY
 STAT.            WYOMING:   STATE
 CTRY. UNITED STATES OF AMERICA:   COUNTRY
 SRVC.              WELEX:   SERVICE COMPANY
 DATE.        13-JUN-1978:   LOGDATE
 API .     49025109250000:   API NUMBER
~CURVE INFORMATION
#MNEM.UNIT       API CODE    CURVE DESCRIPTION
#----------   ------------   ------------------------------
 DEPT.F                  :   
 NPHI.DEC    42 890 03 00:   NEUTRON POROSITY SANDSTONE
 SPR .MV     07 010 01 00:   SPONTANEOUS POTENTIAL
 ILD .OHMM   07 120 46 00:   DEEP INDUCTION RESISTIVITY
 ILM .OHMM   07 120 44 00:   INDUCTION LOG MEDIUM RESISTIVITY
 SFL .OHMM   07 220 01 00:   SHALLOW FOCUSED LOG RESISTIVITY
 GRD .GAPI   45 310 01 00:   GAMMA RAY FROM DENSITY LOG
 CALD.IN     45 280 60 00:   CALIPER FROM DENSITY LOG
 RHOB.G/C3   45 350 01 00:   BULK DENSITY
 CORR.G/C3   45 356 01 00:   DENSITY CORRECTION
~PARAMETER INFORMATION
#MNEM.UNIT          VALUE    DESCRIPTION
#----------   ------------   ------------------------------
 EKB .F         5181.0000:   Kelly bushing
 EGL .F         5171.0000:   Ground level
 EDF .F         5180.0000:   Drilling floor
 TD  .F         5644.0000:   Total depth
 DATE.        13-JUN-1978:   Date logged
 CLNT.            A2DTECH:   Client Code
 SL  . 1980' FSL & 2080' FEL:   Surface Location
 PD  .                 GL:   Permanent Datum
 EPD .F              5171:   Elevation Permanent Datum
 LMF .                 KB:   Log Measured From
 DMF .                 KB:   Drilling Measured From
 DD  .F              5640:   Depth driller
 DL  .F              5644:   Depth logger
 BLI .F              5638:   Bottom log interval
 TLI .F              3093:   Top log interval
 CS1 .IN            8.625:   Casing size
 CBD1.      8.625" @ 545':   Casing driller 1
 BS1 .IN            7.875:   Bit size
 DFT .                FGM:   Type fluid in hole
 DFD .                9.2:   Density
 DFV .                 52:   Viscosity
 DFPH.                 11:   pH
 DFL .                5.2:   Fluid loss
 MSS .           MUD/TANK:   Source of sample
 RMS .OHMM           0.59:   Rm
 MST .F                80:   Rm Meas. temp.
 RMF .OHMM           0.48:   Rmf
 MFST.F                80:   Rmf Meas. temp.
 MFSS.               MEAS:   Source Rmf.
 RMB .OHMM           0.29:   Rm. at BHT
 BHT .F               162:   BHT.
 TCS .HRS            1200:   Time Circ. stopped
 MRT .F               162:   Maximum recorded temp.
 LUN .               7675:   Logging unit number
 LUL .               CODY:   Logging unit location
 ENGI.               BOND:   Recorded By
 ORIG.           5" PRINT:   Origin of data
 UWI .     49025109250000:   Unique Well ID
 DICO. A2D TECHNOLOGIES, INC.:   Digitizing Company
 DAPD.F                10:   Feet Above Permanent Datum
 BSD1.F              5640:   Depth drilled with bit1
 TLAB.HRS            1630:   Time logger at bottom
~OTHER INFORMATION
~A  DEPTH     NPHI        SPR        ILD        ILM        SFL        GRD       CALD       RHOB       CORR
# ...
 4901.5000     0.1860   -63.7590    18.8460    19.9210    26.3960   113.2020     8.9870     2.6250     0.0360
 4902.0000     0.1860   -63.8150    15.8750    17.3130    20.4340   109.6820     8.9950     2.6300     0.0330
 4902.5000     0.1760   -63.8710    15.9500    16.6200    19.4260   105.9560     9.0030     2.6220     0.0330
 4903.0000     0.1570   -63.9280    16.0530    16.9910    19.5350   104.8440     9.0110     2.6350     0.0420
 4903.5000     0.1330   -63.9840    16.1560    17.2680    19.7370   105.5710     9.0190     2.6490     0.0510
 4904.0000     0.1380   -64.0400    16.2590    17.5450    23.9480   107.7320     9.0170     2.6570     0.0590
 4904.5000     0.1450   -64.0960    16.3620    17.8230    31.5930   111.9670     8.9990     2.6480     0.0640
 4905.0000     0.1510   -64.1520    16.4650    18.0510    31.2290   114.2800     8.9810     2.6560     0.0530
 4905.5000     0.1580   -64.1630    16.5680    17.6580    29.9270   115.5220     8.9640     2.6770     0.0740
 4906.0000     0.1680   -64.1060    16.6710    17.2570    28.0350   112.2970     8.9460     2.6670     0.0590
 4906.5000     0.1590   -64.0490    16.7730    16.6200    25.8000   105.3870     8.9280     2.6530     0.0500
 4907.0000     0.1410   -63.9920    18.4070    17.0410    23.5650    98.5990     8.9110     2.6490     0.0620
 4907.5000     0.1230   -63.9340    20.0340    18.0710    22.7050    93.9570     8.8930     2.6620     0.0780
 4908.0000     0.1030   -63.8770    21.6620    19.0720    24.2680    91.4180     8.8880     2.6570     0.0700
 4908.5000     0.0990   -63.8200    23.2890    20.1880    26.9990    88.8760     8.8940     2.6490     0.0520
 4909.0000     0.0950   -63.7940    23.7440    21.2740    30.8170    86.3450     8.9000     2.6430     0.0520
 4909.5000     0.0940   -63.8130    24.1760    22.5050    34.6340    83.7970     8.9060     2.6590     0.0680
 4910.0000     0.0910   -63.8300    24.6080    24.1720    38.4510    82.3570     8.9130     2.6890     0.0810
 4910.5000     0.0890   -63.8480    25.0400    25.8380    40.1050    81.3060     8.9190     2.6800     0.0710
 4911.0000     0.0880   -63.8660    25.4710    27.5050    39.9600    82.8990     8.9250     2.6720     0.0630
 4911.5000     0.0890   -63.8840    25.9030    28.0400    39.7390    85.1550     8.9320     2.6500     0.0540
 4912.0000     0.0900   -63.9020    26.2960    27.6010    41.5840    88.4410     8.9380     2.6320     0.0370
 4912.5000     0.1060   -63.9200    25.5900    26.9510    44.2700    92.4320     8.9440     2.6280     0.0310
 4913.0000     0.1160   -63.9380    24.9430    26.2890    45.6030    94.2410     8.9470     2.6190     0.0320
 4913.5000     0.1210   -63.9560    24.2960    25.6280    39.7300    93.3140     8.9500     2.6260     0.0280
 4914.0000     0.1190   -63.9740    23.6490    24.9670    34.8020    92.0390     8.9520     2.6180     0.0350
 4914.5000     0.1150   -63.9900    23.0020    24.3050    32.1780    90.7520     8.9550     2.6340     0.0470
 4915.0000     0.1200   -63.9440    22.3560    23.6440    35.2480    88.9440     8.9580     2.6540     0.0600
 4915.5000     0.1280   -63.8880    21.7090    22.9820    40.4750    83.3390     8.9600     2.6520     0.0760
 4916.0000     0.1210   -63.8330    21.0620    22.2920    37.8480    78.4910     8.9630     2.6400     0.0560
 4916.5000     0.1100   -63.7770    20.8960    23.3100    32.4920    74.9800     8.9660     2.6270     0.0350
 4917.0000     0.0990   -63.7210    22.9430    24.6530    30.1760    75.5300     8.9680     2.6240     0.0390
 4917.5000     0.0880   -63.6660    24.5810    25.9960    34.1500    76.3380     8.9710     2.6290     0.0270
 4918.0000     0.0890   -63.6100    26.2190    27.3390    38.2370    75.1740     8.9740     2.6260     0.0480
 4918.5000     0.0910   -63.5540    27.8560    28.6810    42.3250    73.5930     8.9760     2.6200     0.0420
 4919.0000     0.0900   -63.4980    29.4940    30.0240    44.7740    72.0970     8.9790     2.6240     0.0370
 4919.5000     0.0870   -63.4420    31.1310    31.3670    42.1690    72.2230     8.9810     2.6400     0.0330
 4920.0000     0.0820   -63.3990    32.7690    33.6940    40.4750    72.4310     8.9850     2.6610     0.0540
 4920.5000     0.0840   -63.5300    34.4070    36.6360    45.9040    76.5050     9.0030     2.6970     0.0750
 4921.0000     0.0950   -63.6580    36.0440    39.5780    51.2280    81.1970     9.0210     2.7030     0.0760
 4921.5000     0.1080   -63.7850    37.9570    41.2250    56.3190    85.9020     9.0400     2.6860     0.0710
 4922.0000     0.1210   -63.9110    36.9300    38.1820    53.4950    90.5990     9.0580     2.6680     0.0650
 4922.5000     0.1340   -64.0380    34.6410    35.7320    46.2980    95.2900     9.0760     2.6500     0.0500
 4923.0000     0.1440   -64.1640    32.3510    33.2820    39.1010    98.8380     9.0940     2.6330     0.0360
 4923.5000     0.1520   -64.2910    30.0610    30.8320    31.0180   100.0370     9.1120     2.6260     0.0370
 4924.0000     0.1590   -64.4170    27.7720    28.3820    32.2700   103.3890     9.1250     2.6290     0.0400
 4924.5000     0.1670   -64.5440    25.4820    25.9320    34.3130   107.2280     9.1270     2.6070     0.0300
 4925.0000     0.1750   -64.6700    23.1930    23.8900    32.3800   110.4300     9.1290     2.5920     0.0210
 4925.5000     0.1820   -64.7960    20.9030    22.8080    26.9400   110.0990     9.1320     2.6150     0.0330
 4926.0000     0.1900   -64.9230    19.4480    21.7270    21.5000   108.2910     9.1340     2.6370     0.0220
 4926.5000     0.1970   -65.0490    18.7870    20.6460    19.8130   105.6130     9.1370     2.6100     0.0120
 4927.0000     0.2040   -65.1760    18.1270    19.5640    19.5990   102.9390     9.1390     2.6040     0.0060
 4927.5000     0.1990   -65.3020    17.4670    18.4830    19.3840   100.2430     9.1420     2.6490     0.0240
 4928.0000     0.1830   -65.4290    16.7730    17.5610    19.1690    95.4520     9.1440     2.6680     0.0370
 4928.5000     0.1630   -65.5550    17.3270    18.3580    19.0720    91.2050     9.1400     2.6700     0.0230
 4929.0000     0.1440   -65.6810    18.0660    19.4540    22.5600    90.3680     9.1360     2.6700     0.0190
 4929.5000     0.1310   -65.8080    19.0900    20.7210    26.9300    92.0160     9.1320     2.6780     0.0380
 4930.0000     0.1290   -65.9400    20.3330    21.9870    31.3000    95.0080     9.1280     2.6590     0.0530
 4930.5000     0.1410   -65.8950    21.5640    23.2530    35.6700    97.4290     9.1270     2.6400     0.0670
 4931.0000     0.1500   -65.7900    24.0630    25.1350    36.5890    95.6850     9.0380     2.6210     0.0530
 4931.5000     0.1530   -65.6820    26.0560    27.4410    30.4410    96.2470     8.9410     2.6180     0.0530
 4932.0000     0.1480   -65.5740    25.5570    29.7480    25.2950    97.3340     8.9410     2.6280     0.0530
 4932.5000     0.1440   -65.4680    25.1420    32.0540    22.0890   100.1450     8.9390     2.6430     0.0490
 4933.0000     0.1410   -65.3740    24.7270    33.3810    24.3250   102.9660     8.9360     2.6570     0.0530
 4933.5000     0.1490   -65.3770    24.3120    27.6700    29.5920   104.4260     8.9340     2.6720     0.0710
 4934.0000     0.1550   -65.3770    23.8970    23.0130    34.6290   105.3180     8.9320     2.6780     0.0600
 4934.5000     0.1590   -65.3770    23.4820    22.1630    32.2510   109.5840     8.9290     2.6540     0.0430
 4935.0000     0.1570   -65.3770    23.1630    21.8740    29.9720   109.5800     8.9270     2.6520     0.0440
 4935.5000     0.1550   -65.3770    22.7790    21.5850    28.2990   107.9240     8.9240     2.6640     0.0620
 4936.0000     0.1510   -65.3770    22.3950    21.2960    28.5640   106.5160     8.9070     2.6700     0.0520
 4936.5000     0.1500   -65.3770    22.0110    21.0070    28.7730   107.5660     8.8880     2.6420     0.0480
 4937.0000     0.1530   -65.3770    21.6270    20.7180    28.9830   110.1330     8.8690     2.6500     0.0540
 4937.5000     0.1570   -65.3780    21.2430    20.4290    29.8650   112.9140     8.8630     2.6400     0.0470
