~VERSION INFORMATION
 VERS.                2.0:   CWLS LOG ASCII STANDARD - VERSION 2.0
 WRAP.                 NO:   ONE LINE PER DEPTH STEP
~WELL INFORMATION
#MNEM.UNIT      DATA TYPE    INFORMATION
#----------   ------------   ------------------------------
 STRT.F           50.0000:   START DEPTH
 STOP.F         3270.0000:   STOP DEPTH
 STEP.F            0.5000:   STEP LENGTH
 NULL.          -999.2500:   NO VALUE
 COMP.   LAWRENCE ALLISON:   COMPANY
 WELL. LAWRENCE NPR 3 "AX" #12-11:   WELL
 FLD .                NPR:   FIELD
 LOC .      S11 T38N R78W:   LOCATION
 CNTY.            NATRONA:   COUNTY
 STAT.            WYOMING:   STATE
 CTRY. UNITED STATES OF AMERICA:   COUNTRY
 SRVC.      DRESSER ATLAS:   SERVICE COMPANY
 DATE.        18-JUL-1985:   LOGDATE
 API .     49025110460000:   API NUMBER
~CURVE INFORMATION
#MNEM.UNIT       API CODE    CURVE DESCRIPTION
#----------   ------------   ------------------------------
 DEPT.F                  :   
 TEND.LBS    45 635 01 00:   TENSION FROM DENSITY LOG
 RHOB.G/C3   45 350 01 00:   BULK DENSITY
 CORR.G/C3   45 356 01 00:   DENSITY CORRECTION
 NPHI.DEC    42 890 03 00:   NEUTRON POROSITY SANDSTONE
 TENR.LBS    07 635 01 00:   TENSION
 GRR .GAPI   07 310 01 00:   GAMMA RAY FROM RESISTIVITY
 RFOC.OHMM   07 220 01 00:   RESISTIVITY FOCUSED LOG RES.
 RILD.OHMM   07 120 46 00:   INDUCTION LOG DEEP RESISTIVITY
 RILM.OHMM   07 120 44 00:   INDUCTION LOG MEDIUM RESISTIVITY
 SN  .OHMM   01 040 00 00:   SHORT NORMAL
 ILD .OHMM   07 120 46 00:   INDUCTION LOG DEEP RESISTIVITY
 TENS.LBS    60 635 01 00:   TENSION FROM SONIC LOG
 DT  .US/F   60 520 00 00:   DELTA TIME
 SPR .MV     07 010 01 00:   SPONTANEOUS POTENTIAL
~PARAMETER INFORMATION
#MNEM.UNIT          VALUE    DESCRIPTION
#----------   ------------   ------------------------------
 EKB .F         5152.0000:   Kelly bushing
 EGL .F         5140.0000:   Ground level
 EDF .F            0.0000:   Drilling floor
 TD  .F         3271.0000:   Total depth
 DATE.        18-JUL-1985:   Date logged
 CLNT.            A2DTECH:   Client Code
 SL  . 1050' FNL & 150' FWL:   Surface Location
 PD  .                 GL:   Permanent Datum
 EPD .F              5140:   Elevation Permanent Datum
 LMF .                 KB:   Log Measured From
 DMF .                 KB:   Drilling Measured From
 DAPD.F                12:   Feet Above Permanent Datum
 DD  .F              3271:   Depth driller
 DL  .F              3262:   Depth logger
 BLI .F              3259:   Bottom log interval
 CS1 .IN            8.625:   Casing size
 CBD1.      8.625" @ 560':   Casing driller 1
 CBL1.F               560:   Casing logger 1
 BS1 .IN            7.875:   Bit size
 BSD1.F              3271:   Depth drilled with bit1
 DFT .            GEL/KCL:   Type fluid in hole
 DFD .                8.8:   Density
 DFV .                 40:   Viscosity
 DFPH.                  8:   pH
 DFL .                  8:   Fluid loss
 MSS .           MUD/TANK:   Source of sample
 RMS .OHMM            .31:   Rm
 MST .F                82:   Rm Meas. temp.
 RMF .OHMM            .25:   Rmf
 MFST.F                82:   Rmf Meas. temp.
 RMC .OHMM            .39:   Rmc
 MCST.F                82:   Rmc Meas. temp.
 MFSS.               MEAS:   Source Rmf.
 MCSS.               CALC:   Source Rmc.
 RMB .OHMM           .198:   Rm. at BHT
 BHT .F               128:   BHT.
 TCS .HRS               3:   Time Circ. stopped
 MRT .F               128:   Maximum recorded temp.
 LUN .            HL-6274:   Logging unit number
 LUL .           GILLETTE:   Logging unit location
 ENGI.             RAUTIO:   Recorded By
 WITN.             STRONG:   Witnessed by
 ORIG.           5" PRINT:   Origin of data
 UWI .     49025110460000:   Unique Well ID
 DICO. A2D TECHNOLOGIES, INC.:   Digitizing Company
~OTHER INFORMATION
~A   DEPT     TEND       RHOB       CORR       NPHI       TENR        GRR       RFOC       RILD       RILM           SN        ILD     TENS         DT         SPR  
# ...
 2475.5000   -67.6550     2.5410     0.0170     0.2520   -35.4120   108.3090     6.5840     6.2310     6.0500  -999.2500  -999.2500   -65.7370    85.5680    50.0540
 2476.0000   -68.3810     2.5310     0.0080     0.2580   -38.0670   108.8420     6.6090     6.1990     6.0230  -999.2500  -999.2500   -65.7370    85.6590    50.0430
 2476.5000   -69.1060     2.5230    -0.0070     0.2650   -40.7230   110.4640     6.6280     6.1650     5.9960  -999.2500  -999.2500   -65.7370    85.7490    50.0310
 2477.0000   -69.8310     2.5180    -0.0140     0.2640   -43.3780   110.0360     6.6450     6.1310     5.9680  -999.2500  -999.2500   -65.7370    85.8580    50.0200
 2477.5000   -70.5570     2.5140    -0.0120     0.2620   -45.5660   109.5490     6.6450     6.0960     5.9410  -999.2500  -999.2500   -65.7370    86.0070    50.0080
 2478.0000   -71.2820     2.5150    -0.0030     0.2600   -45.2690   109.0680     6.5870     6.0620     5.9140  -999.2500  -999.2500   -65.7370    86.1570    49.9970
 2478.5000   -72.0070     2.5180     0.0040     0.2640   -44.9730   108.5910     6.4860     6.0270     5.8870  -999.2500  -999.2500   -65.7370    86.3070    49.9860
 2479.0000   -72.7330     2.5250     0.0070     0.2680   -44.6760   108.8810     6.4050     6.0060     5.8600  -999.2500  -999.2500   -65.7370    86.2570    49.9740
 2479.5000   -73.4580     2.5300     0.0060     0.2640   -44.3790   110.6770     6.3460     6.0060     5.8320  -999.2500  -999.2500   -65.7370    86.0830    49.9630
 2480.0000   -74.1830     2.5300     0.0050     0.2570   -44.0820   111.3070     6.3460     6.0060     5.8050  -999.2500  -999.2500   -65.7370    85.9080    49.9520
 2480.5000   -74.9090     2.5280     0.0000     0.2500   -43.7860   110.5540     6.3460     6.0060     5.7900  -999.2500  -999.2500   -65.7370    85.7330    49.9400
 2481.0000   -75.6340     2.5290     0.0080     0.2530   -43.4890   111.5560     6.3460     6.0060     5.8430  -999.2500  -999.2500   -65.7370    85.8620    49.9300
 2481.5000   -74.6660     2.5340     0.0170     0.2660   -43.1920   112.6990     6.2880     6.2010     6.0500  -999.2500  -999.2500   -65.7370    86.3230    49.9190
 2482.0000   -72.8780     2.5390     0.0160     0.2650   -42.8950   113.4910     6.4390     6.3870     6.2490  -999.2500  -999.2500   -65.7370    86.7830    49.8990
 2482.5000   -71.0910     2.5380     0.0010     0.2610   -42.5990   112.1180     6.7640     6.5730     6.4470  -999.2500  -999.2500   -65.7370    86.7290    49.6690
 2483.0000   -69.3030     2.5360    -0.0120     0.2550   -42.3020   108.8540     7.0900     6.8300     6.6450  -999.2500  -999.2500   -65.7370    86.1650    48.8820
 2483.5000   -67.5160     2.5370    -0.0200     0.2450   -42.0050   105.0980     7.4160     7.1490     6.9760  -999.2500  -999.2500   -65.7370    84.6980    48.1390
 2484.0000   -65.7290     2.5440    -0.0080     0.2350   -41.7080   101.3400     7.7410     7.4410     7.2670  -999.2500  -999.2500   -65.7370    83.2760    48.1090
 2484.5000   -63.9410     2.5500    -0.0020     0.2290   -41.4120    98.2600     8.0670     7.7330     7.5590  -999.2500  -999.2500   -65.7370    81.8530    48.0080
 2485.0000   -62.1540     2.5520    -0.0050     0.2350   -41.1150    96.7500     8.2830     7.9840     7.9840  -999.2500  -999.2500   -65.7370    80.4880    47.4150
 2485.5000   -60.3660     2.5500    -0.0060     0.2410   -40.8180    95.1910     8.2380     7.9620     7.8190  -999.2500  -999.2500   -65.7370    79.7470    46.8280
 2486.0000   -58.5790     2.5440    -0.0020     0.2460   -40.5210    94.4950     8.2050     7.9330     7.6260  -999.2500  -999.2500   -65.7370    79.6290    46.2550
 2486.5000   -56.7910     2.5390     0.0090     0.2470   -40.2250    95.1060     8.1710     7.9030     7.6380  -999.2500  -999.2500   -65.7370    79.9440    46.3270
 2487.0000   -55.0040     2.5440     0.0190     0.2450   -39.9280    95.9430     8.1380     7.8740     7.6590  -999.2500  -999.2500   -65.7370    80.5680    47.1480
 2487.5000   -53.2160     2.5490     0.0180     0.2490   -39.6310    98.4740     8.1040     7.8390     7.6800  -999.2500  -999.2500   -65.7370    81.1910    47.8890
 2488.0000   -51.4290     2.5460     0.0140     0.2530   -39.3340   100.7780     8.0620     7.8670     7.7110  -999.2500  -999.2500   -65.7370    81.5550    47.5580
 2488.5000   -49.6410     2.5430     0.0080     0.2570   -39.0380   106.9740     8.1100     7.9020     7.7840  -999.2500  -999.2500   -65.7370    81.8720    48.2670
 2489.0000   -47.8540     2.5420     0.0050     0.2550   -38.7410   112.3970     8.1940     7.9370     7.8560  -999.2500  -999.2500   -65.7370    81.9820    49.4370
 2489.5000   -46.0200     2.5420     0.0030     0.2520   -38.4440   111.4570     8.2070     7.9720     7.9110  -999.2500  -999.2500   -65.7370    82.1610    50.4700
 2490.0000   -49.0050     2.5410     0.0010     0.2450   -38.1470   110.3850     8.1890     8.0580     7.9110  -999.2500  -999.2500   -65.7370    82.4330    50.0640
 2490.5000   -52.0690     2.5340    -0.0020     0.2320   -37.8510   110.5160     8.1180     7.9350     7.8470  -999.2500  -999.2500   -65.7370    82.5800    50.2840
 2491.0000   -55.1340     2.5210    -0.0020     0.2340   -37.5540   110.4450     8.0480     7.8370     7.7510  -999.2500  -999.2500   -65.7370    82.5800    50.8030
 2491.5000   -58.1980     2.5170     0.0010     0.2360   -37.2570   108.6140     7.9840     7.7670     7.6550  -999.2500  -999.2500   -65.7370    82.3640    51.3400
 2492.0000   -61.2620     2.5220     0.0090     0.2390   -36.9600   106.2390     7.9110     7.7460     7.6260  -999.2500  -999.2500   -65.7370    81.9010    51.7730
 2492.5000   -64.3260     2.5280     0.0170     0.2440   -36.6640   103.9740     8.0200     7.7220     7.6720  -999.2500  -999.2500   -65.7370    81.4370    51.2390
 2493.0000   -67.3910     2.5330     0.0140     0.2490   -36.3670   102.7270     8.1030     7.6960     7.6960  -999.2500  -999.2500   -65.7370    81.2240    50.6600
 2493.5000   -70.4550     2.5370     0.0070     0.2550   -36.0700   101.9600     8.2070     7.5510     7.2170  -999.2500  -999.2500   -59.0410    81.1330    50.0740
 2494.0000   -73.5190     2.5370     0.0010     0.2610   -35.7730   102.5190     7.9930     7.3540     7.1820  -999.2500  -999.2500   -51.3640    81.4580    49.5690
 2494.5000   -75.2050     2.5300    -0.0060     0.2570   -35.6430   104.5250     7.4870     7.0860     7.0830  -999.2500  -999.2500   -45.8170    82.2420    51.4490
 2495.0000   -72.3450     2.5240    -0.0110     0.2530   -35.6430   106.1790     7.4190     7.1100     6.9570  -999.2500  -999.2500   -52.9880    83.0260    52.6520
 2495.5000   -69.4850     2.5250    -0.0030     0.2520   -35.6430   107.8910     7.3510     7.1730     7.0060  -999.2500  -999.2500   -59.6410    83.8110    52.3320
 2496.0000   -66.6250     2.5250     0.0230     0.2530   -35.6430   108.8550     7.3940     7.2360     7.0680  -999.2500  -999.2500   -65.7370    84.4290    51.4140
 2496.5000   -63.7650     2.5260     0.0280     0.2510   -35.6430   109.6640     7.4670     7.3000     7.1300  -999.2500  -999.2500   -74.5160    84.5720    50.0210
 2497.0000   -60.9050     2.5260     0.0250     0.2500   -35.6430   110.4580     7.5400     7.3630     7.1920  -999.2500  -999.2500   -72.0820    84.5720    48.6120
 2497.5000   -58.0450     2.5220     0.0170     0.2610   -35.6430   110.6900     7.6130     7.4270     7.2550  -999.2500  -999.2500   -69.6470    84.1120    47.7670
 2498.0000   -55.9700     2.5190     0.0050     0.2640   -35.6430   110.1790     7.7670     7.4870     7.3170  -999.2500  -999.2500   -67.2130    83.6900    47.8330
 2498.5000   -59.5570     2.5130     0.0020     0.2470   -35.6430   107.9780     7.7170     7.4620     7.3510  -999.2500  -999.2500   -64.7780    83.4620    47.9440
 2499.0000   -62.8910     2.5160     0.0030     0.2450   -35.6430   106.1170     7.6410     7.4230     7.3110  -999.2500  -999.2500   -62.3430    83.4350    48.0570
 2499.5000   -66.2260     2.5190     0.0060     0.2530   -35.6430   107.0510     7.5650     7.4190     7.2840  -999.2500  -999.2500   -59.9090    83.4070    48.1680
