~VERSION INFORMATION
 VERS.                2.0:   CWLS LOG ASCII STANDARD - VERSION 2.0
 WRAP.                 NO:   ONE LINE PER DEPTH STEP
~WELL INFORMATION
#MNEM.UNIT      DATA TYPE    INFORMATION
#----------   ------------   ------------------------------
 STRT.F            1.0000:   START DEPTH
 STOP.F         2854.0000:   STOP DEPTH
 STEP.F            0.5000:   STEP LENGTH
 NULL.          -999.2500:   NO VALUE
 COMP.          INTEX OIL:   COMPANY
 WELL. INTEX N.P.R. "AX" #42-29:   WELL
 FLD .             TEAPOT:   FIELD
 LOC .      S29 T39N R78W:   LOCATION
 CNTY.            NATRONA:   COUNTY
 STAT.            WYOMING:   STATE
 CTRY. UNITED STATES OF AMERICA:   COUNTRY
 SRVC.       SCHLUMBERGER:   SERVICE COMPANY
 DATE.        30-MAY-1986:   LOGDATE
 API .     49025095240000:   API NUMBER
~CURVE INFORMATION
#MNEM.UNIT       API CODE    CURVE DESCRIPTION
#----------   ------------   ------------------------------
 DEPT.F                  :   
 SPR .MV     05 010 01 00:   SPONTANEOUS POTENTIAL FROM RES.
 ASN .OHMM   05 041 16 00:   AMPLIFIED SHORT NORMAL 16"
 ILD .OHMM   05 120 46 00:   INDUCTION LOG DEEP
 GRD .GAPI   45 310 01 00:   GAMMA RAY FROM DENSITY LOG
 CALD.IN     45 280 60 00:   CALIPER FROM DENSITY LOG
 CORR.G/C3   45 356 01 00:   DENSITY CORRECTION
 RHOB.G/C3   45 350 01 00:   BULK DENSITY
 CALI.IN     30 280 01 00:   CALIPER FROM GAMMA RAY LOG
 GR  .GAPI   30 310 01 00:   GAMMA RAY
~PARAMETER INFORMATION
#MNEM.UNIT          VALUE    DESCRIPTION
#----------   ------------   ------------------------------
 EKB .F         5020.3000:   Kelly bushing
 EGL .F         5010.0000:   Ground level
 EDF .F            0.0000:   Drilling floor
 TD  .F         2860.0000:   Total depth
 CLNT.            A2DTECH:   Client Code
 DATE.        30-MAY-1986:   Date Logged [DD-MMM-YYYY]
 DD  .F              2860:   Depth driller
 DL  .F              2855:   Depth logger
 BLI .F              2854:   Bottom log interval
 TLI .F               164:   Top log interval
 CS1 .              8.625:   Casing size
 CBD1.      8.625" @ 167':   Casing driller 1
 CBL1.IN              164:   Casing logger 1
 BS1 .IN            7.875:   Bit size
 BSD1.F              2860:   Depth drilled with bit1
 DFT .  LIGND-SULFATE LCM:   Type fluid in hole
 DFD .                8.9:   Density
 DFV .                 33:   Viscosity
 DFPH.               11.0:   pH
 DFL .                9.2:   Fluid loss
 MSS .           FLOWLINE:   Source of sample
 RMS .OHMM           1.47:   Rm
 MST .F                55:   Rm Meas. temp.
 RMF .OHMM           1.13:   Rmf
 MFST.F                75:   Rmf Meas. temp.
 RMB .OHMM           0.78:   Rm. at BHT
 BHT .F               108:   BHT.
 TCS .HRS               3:   Time Circ. stopped
 MRT .F               108:   Maximum recorded temp.
 LUN .               3527:   Logging unit number
 LUL .               CSPR:   Logging unit location
 ENGI.            MANGOLO:   Recorded By
 WITN.             TUTTLE:   Witnessed by
 ORIG.      1" 2.5" PRINT:   Origin of data
 UWI .     49025095240000:   Unique Well ID
 DICO. A2D TECHNOLOGIES, INC.:   Digitizing Company
 PD  .                 GL:   Permanent Datum
 EPD .               5010:   Elevation Permanent Datum
 LMF .                 KB:   Log Measured From
 DMF .                 KB:   Drilling Measured From
 DAPD.              10.32:   Feet Above Permanent Datum
 MFSS.         MEAS PRESS:   Source Rmf.
~OTHER INFORMATION
~A    DEPT     SPR        ASN        ILD        GRD       CALD       CORR       RHOB        CALI        GR   
# ...
 2081.5000   -40.5257    13.7738     8.7148   113.0769     8.7051     0.0093     2.4822  -999.2500  -999.2500
 2082.0000   -40.5122    13.7753     8.7177   110.6154     8.7049     0.0078     2.4700  -999.2500  -999.2500
 2082.5000   -41.4277    13.9288     8.8677   107.3846     8.7048     0.0048     2.4609  -999.2500  -999.2500
 2083.0000   -41.7337    14.2342     8.8706   108.1533     8.7046     0.0063     2.4731  -999.2500  -999.2500
 2083.5000   -42.3249    14.3877     8.8735   110.6151     8.7045     0.0155     2.4868  -999.2500  -999.2500
 2084.0000   -41.7073    14.5412     8.8764   112.9228     8.7043     0.0232     2.5005  -999.2500  -999.2500
 2084.5000   -41.0899    14.6946     8.7613   115.5391     8.7042     0.0156     2.5066  -999.2500  -999.2500
 2085.0000   -41.0823    14.6961     8.7613   118.0003     8.7040     0.0065     2.4823  -999.2500  -999.2500
 2085.5000   -41.0203    14.6976     8.7613   120.1540     8.7039     0.0050     2.4473  -999.2500  -999.2500
 2086.0000   -40.7622    14.3952     8.7613   122.7688     8.7037     0.0127     2.4625  -999.2500  -999.2500
 2086.5000   -40.4497    14.3967     8.7558   125.3846     8.7035     0.0203     2.4762  -999.2500  -999.2500
 2087.0000   -40.8272    14.2462     8.6103   126.0000     8.7034     0.0265     2.4853  -999.2500  -999.2500
 2087.5000   -41.4381    14.2477     8.6103   123.0769     8.7032     0.0274     2.4747  -999.2500  -999.2500
 2088.0000   -41.9524    14.4093     8.6103   120.3078     8.6724     0.0174     2.4564  -999.2500  -999.2500
 2088.5000   -41.6387    14.8668     8.6103   120.7689     8.6723     0.0098     2.4443  -999.2500  -999.2500
 2089.0000   -41.2113    15.0122     8.6103   122.4617     8.6721     0.0053     2.4351  -999.2500  -999.2500
 2089.5000   -40.7089    15.0137     8.6103   122.7692     8.6720     0.0084     2.4473  -999.2500  -999.2500
 2090.0000   -41.4430    14.8229     8.6406   122.6152     8.6718     0.0130     2.4494  -999.2500  -999.2500
 2090.5000   -41.9131    14.3844     8.7613   122.1540     8.6716     0.0130     2.4397  -999.2500  -999.2500
 2091.0000   -41.7561    14.0781     8.7613   115.6923     8.6715     0.0146     2.4428  -999.2500  -999.2500
 2091.5000   -41.2772    13.9558     8.7613   106.9231     8.6713     0.0253     2.4778  -999.2500  -999.2500
 2092.0000   -40.3659    14.2979     8.7613   103.6923     8.6712     0.0223     2.4920  -999.2500  -999.2500
 2092.5000   -41.3184    14.4554     8.8092    99.3854     8.6710     0.0177     2.4763  -999.2500  -999.2500
 2093.0000   -41.8735    14.7649     8.9124    98.3077     8.6709     0.0162     2.4717  -999.2500  -999.2500
 2093.5000   -41.8660    14.9224     8.9124   100.6158     8.6707     0.0178     2.4687  -999.2500  -999.2500
 2094.0000   -41.5536    15.0273     8.9124   102.0000     8.6706     0.0163     2.4657  -999.2500  -999.2500
 2094.5000   -40.9363    15.2376     9.0634   102.0000     8.6704     0.0209     2.4748  -999.2500  -999.2500
 2095.0000   -41.5386    15.4863     9.2145   102.1537     8.6703     0.0332     2.4763  -999.2500  -999.2500
 2095.5000   -41.5311    15.6398     9.3656   104.0000     8.6701     0.0408     2.4885  -999.2500  -999.2500
 2096.0000   -41.5235    15.7933     9.5166   108.9231     8.6700     0.0444     2.5114  -999.2500  -999.2500
 2096.5000   -41.5160    15.9468     9.5927   124.1539     8.7005     0.0287     2.5022  -999.2500  -999.2500
 2097.0000   -41.5085    16.1003     9.7472   132.7689     8.7003     0.0181     2.4885  -999.2500  -999.2500
 2097.5000   -41.5010    16.1018     9.8187   134.4614     8.7002     0.0135     2.4748  -999.2500  -999.2500
 2098.0000   -41.7984    16.0183     9.8187   132.6166     8.7000     0.0075     2.4520  -999.2500  -999.2500
 2098.5000   -41.4860    15.8636     9.8187   128.1537     8.6999    -0.0016     2.4322  -999.2500  -999.2500
 2099.0000   -41.4784    15.6507     9.8187   127.2306     8.7304     0.0030     2.4277  -999.2500  -999.2500
 2099.5000   -41.4709    15.6522     9.6677   124.9220     8.7302     0.0076     2.4262  -999.2500  -999.2500
 2100.0000   -41.4634    15.6537     9.5166   119.8463     8.7301     0.0107     2.4277  -999.2500  -999.2500
 2100.5000   -41.4558    15.6552     9.2145   120.7692     8.7299     0.0183     2.4399  -999.2500  -999.2500
 2101.0000   -41.4654    15.5048     8.9124   122.4615     8.7298     0.0275     2.4612  -999.2500  -999.2500
 2101.5000   -41.4634    15.5063     8.9124   124.1538     8.7296     0.0291     2.4810  -999.2500  -999.2500
 2102.0000   -41.4634    15.3558     8.9124   123.5390     8.7295     0.0276     2.4719  -999.2500  -999.2500
 2102.5000   -41.4634    15.2053     8.9124   120.1541     8.7293     0.0292     2.4612  -999.2500  -999.2500
 2103.0000   -41.4331    15.0548     8.9124   118.3074     8.7292     0.0368     2.4547  -999.2500  -999.2500
 2103.5000   -40.8180    14.9044     8.9124   114.8573     8.7290     0.0338     2.4468  -999.2500  -999.2500
 2104.0000   -40.2439    14.7539     8.7613   115.7712     8.6344     0.0156     2.4396  -999.2500  -999.2500
 2104.5000   -40.6401    14.6034     8.6103   116.2236     8.6339     0.0202     2.4692  -999.2500  -999.2500
 2105.0000   -41.5142    14.4529     8.4592   116.6769     8.6335     0.0217     2.4700  -999.2500  -999.2500
 2105.5000   -41.7683    14.5930     8.4758   118.5129     8.6330     0.0187     2.4639  -999.2500  -999.2500
 2106.0000   -41.7073    14.3987     8.3907   120.3508     8.6325     0.0105     2.4639  -999.2500  -999.2500
 2106.5000   -41.4634    14.1376     8.3278   118.0330     8.6321     0.0077     2.4569  -999.2500  -999.2500
 2107.0000   -41.3923    13.9363     8.1785   118.9469     8.6316     0.0119     2.4516  -999.2500  -999.2500
 2107.5000   -41.0823    13.6292     8.1800   120.3223     8.6311     0.0364     2.4628  -999.2500  -999.2500
 2108.0000   -40.7723    13.5306     8.0305   112.9286     8.6307     0.0596     2.4952  -999.2500  -999.2500
 2108.5000   -40.5488    13.3790     7.8809   106.9194     8.6302     0.0475     2.4827  -999.2500  -999.2500
 2109.0000   -40.9450    13.3155     7.8824   105.0640     8.6298     0.0113     2.4554  -999.2500  -999.2500
 2109.5000   -41.4634    13.2276     7.8839   105.0041     8.6293     0.0032     2.4393  -999.2500  -999.2500
 2110.0000   -41.4634    13.0051     7.7343   105.5072     8.6289     0.0097     2.4563  -999.2500  -999.2500
 2110.5000   -41.4634    12.8498     7.7358   106.4211     8.5977     0.0124     2.4764  -999.2500  -999.2500
 2111.0000   -41.0468    12.6947     7.7373   105.4889     8.5972     0.0108     2.4950  -999.2500  -999.2500
 2111.5000   -40.7368    12.5394     7.7388   104.5566     8.5967     0.0164     2.4970  -999.2500  -999.2500
 2112.0000   -40.4268    12.3842     7.5893   106.3936     8.5877     0.0085     2.4864  -999.2500  -999.2500
 2112.5000   -40.2439    12.3176     7.5908   103.6152     8.5652    -0.0090     2.4817  -999.2500  -999.2500
 2113.0000   -40.2439    12.3180     7.5923   105.4522     8.5647    -0.0018     2.4894  -999.2500  -999.2500
 2113.5000   -40.2439    12.3183     7.5746   106.3661     8.5642     0.0059     2.4999  -999.2500  -999.2500
 2114.0000   -40.3863    12.3186     7.7463   104.0492     8.5638     0.0164     2.4914  -999.2500  -999.2500
 2114.5000   -40.5488    12.4709     7.7478    97.5785     8.5633     0.0231     2.4932  -999.2500  -999.2500
 2115.0000   -40.5488    12.4712     7.5982    99.9000     8.5629     0.0100     2.5012  -999.2500  -999.2500
 2115.5000   -40.8537    12.4715     7.1466   102.2279     8.5624    -0.0017     2.5090  -999.2500  -999.2500
 2116.0000   -40.8537    12.3198     6.6949   105.4527     8.5734     0.0028     2.4917  -999.2500  -999.2500
 2116.5000   -40.8537    11.8642     6.2432   107.2341     8.5923     0.0109     2.4845  -999.2500  -999.2500
 2117.0000   -40.6810    10.9646     6.0915   107.2246     8.5610     0.0116     2.4886  -999.2500  -999.2500
 2117.5000   -40.3708    10.2029     5.7880   106.4782     8.5606     0.0236     2.4967  -999.2500  -999.2500
