~VERSION INFORMATION
 VERS.                2.0:   CWLS LOG ASCII STANDARD - VERSION 2.0
 WRAP.                 NO:   ONE LINE PER DEPTH STEP
~WELL INFORMATION
#MNEM.UNIT      DATA TYPE    INFORMATION
#----------   ------------   ------------------------------
 STRT.F          200.5000:   START DEPTH
 STOP.F         3164.0000:   STOP DEPTH
 STEP.F            0.5000:   STEP LENGTH
 NULL.          -999.2500:   NO VALUE
 COMP. FENIX & SCISSON U.S NAVY:   COMPANY
 WELL. FENIX & SCISSON "A" #83-4:   WELL
 FLD .              NPR-3:   FIELD
 LOC .       S4 T38N R78W:   LOCATION
 CNTY.            NATRONA:   COUNTY
 STAT.            WYOMING:   STATE
 CTRY. UNITED STATES OF AMERICA:   COUNTRY
 SRVC.       SCHLUMBERGER:   SERVICE COMPANY
 DATE.        25-MAY-1977:   LOGDATE
 API .     49025103660000:   API NUMBER
~CURVE INFORMATION
#MNEM.UNIT       API CODE    CURVE DESCRIPTION
#----------   ------------   ------------------------------
 DEPT.F                  :   
 CALD.IN     45 280 60 00:   CALIPER FROM DENSITY LOG
 GRD .GAPI   45 310 01 00:   GAMMA RAY FROM DENSITY LOG
 RHOB.G/C3   45 350 01 00:   BULK DENSITY
 CORR.G/C3   45 356 01 00:   DENSITY CORRECTION
 SPR .MV     07 010 01 00:   SPONTANEOUS POTENTIAL
 SFLU.OHMM   07 220 01 00:   SPHERICALLY FOCUSED LOG UNAVERAGED RESISTIVITY
 ILD .OHMM   07 120 46 00:   DEEP INDUCTION RESISTIVITY
 ILM .OHMM   07 120 44 00:   INDUCTION LOG MEDIUM RESISTIVITY
~PARAMETER INFORMATION
#MNEM.UNIT          VALUE    DESCRIPTION
#----------   ------------   ------------------------------
 EKB .F         5163.0000:   Kelly bushing
 EGL .F         5149.0000:   Ground level
 EDF .F            0.0000:   Drilling floor
 EPD .F            0.0000:   Permanent datum
 TD  .F         3173.0000:   Total depth
 DATE.        25-MAY-1977:   Date logged
 CLNT.            A2DTECH:   Client Code
 SL  . 1650' FNL & 330 ' FEL:   Surface Location
 PD  .                 GL:   Permanent Datum
 DAPD.F                14:   Feet Above Permanent Datum
 DD  .F              3173:   Depth driller
 DL  .F              3157:   Depth logger
 BLI .F              3165:   Bottom log interval
 TLI .F               200:   Top log interval
 CS1 .IN            8.625:   Casing size
 CBD1.      8.625" @ 204':   Casing driller 1
 CBL1.F               220:   Casing logger 1
 BS1 .IN            7.875:   Bit size
 BSD1.F              3173:   Depth drilled with bit1
 DFT .            KCL MUD:   Type fluid in hole
 DFD .                8.8:   Density
 DFV .                 37:   Viscosity
 DFPH.                7.5:   pH
 DFL .                4.4:   Fluid loss
 MSS .           FLOWLINE:   Source of sample
 RMS .OHMM            .39:   Rm
 MST .F                79:   Rm Meas. temp.
 RMF .OHMM            .31:   Rmf
 MFST.F                79:   Rmf Meas. temp.
 RMC .OHMM            .63:   Rmc
 MCST.F                79:   Rmc Meas. temp.
 MFSS.           FANN KIT:   Source Rmf.
 MCSS.           FANN KIT:   Source Rmc.
 RMB .OHMM            .27:   Rm. at BHT
 BHT .F               112:   BHT.
 TCS .HRS             2.5:   Time Circ. stopped
 MRT .F               112:   Maximum recorded temp.
 LUN .               8611:   Logging unit number
 LUL .             CASPER:   Logging unit location
 ENGI.            C. DOAK:   Recorded By
 WITN.      B. HARRINGTON:   Witnessed by
 ORIG.       2.5"5" PRINT:   Origin of data
 UWI .     49025103660000:   Unique Well ID
 DICO. A2D TECHNOLOGIES, INC.:   Digitizing Company
~OTHER INFORMATION
~A   DEPT     CALD        GRD         RHOB     CORR        SPR       SFLU        ILD        ILM   
# ...
 1375.0000     8.7053   106.4476     2.5314     0.0256   -36.4480    12.5751    10.2721     7.5492
 1375.5000     8.7055   106.4471     2.5333     0.0256   -36.4495    12.8054    10.8455     7.8272
 1376.0000     8.7057   108.0029     2.5314     0.0256   -36.4504    13.0395    11.2448     8.1156
 1376.5000     8.7059   109.5583     2.5334     0.0256   -36.4519    13.2783    11.4497     7.8257
 1377.0000     8.7061   108.7798     2.5393     0.0216   -36.4529    13.2768    11.2428     7.8252
 1377.5000     8.7062   108.0011     2.5451     0.0216   -36.4543    13.2759    10.8416     7.8243
 1378.0000     8.6676   106.4451     2.5373     0.0216   -36.4553    13.0347    11.4464     7.8238
 1378.5000     8.6677   105.6668     2.5451     0.0255   -36.4567    13.5176    11.6550     7.8229
 1379.0000     8.6290   105.6665     2.5471     0.0255   -36.4577    13.5161    11.6546     7.8223
 1379.5000     8.5903   103.3330     2.5373     0.0255   -36.4592    13.2710    10.4514     7.8215
 1380.0000     8.6294   102.5552     2.5255     0.0216   -36.4601    13.0300    10.2628     7.8209
 1380.5000     8.6296   101.0000     2.5079     0.0176   -36.4616    13.0290    10.4499     7.8201
 1381.0000     8.6298   101.0000     2.5059     0.0137   -36.4626    13.5112    10.6595     7.9623
 1381.5000     8.6688   101.0000     2.5059     0.0137   -36.4640    13.7586    10.8734     7.9617
 1382.0000     8.7079   102.5547     2.5059     0.0137   -36.4650    13.7571    11.0915     7.9609
 1382.5000     8.6692   105.6639     2.5079     0.0060   -36.4664    14.0091    11.3141     7.9603
 1383.0000     8.6694   107.9953     2.5079     0.0060   -36.4674    13.7546    11.4361     7.9594
 1383.5000     8.7084   107.9949     2.5118     0.0060   -36.4689    13.5053    11.4352     7.9588
 1384.0000     8.7086   108.7713     2.5079     0.0060   -36.4698    13.7521    11.0268     8.1036
 1384.5000     8.7088   109.3250     2.5020     0.0021   -36.4713    13.0195    10.6333     8.1030
 1385.0000     8.7089   106.2161     2.5020     0.0021   -36.4728    13.0181    10.2539     8.1021
 1385.5000     8.7480   104.6617     2.5000     0.0021   -36.4737    13.5004    10.2528     8.1015
 1386.0000     8.7093   103.1075     2.5059     0.0060   -36.4752    13.9999    10.2517     7.9551
 1386.5000     8.7095   102.3305     2.5079     0.0021   -36.4762    13.9989    10.2510     8.1001
 1387.0000     8.7097   102.3302     2.5059     0.0060   -36.4776    13.4964    10.2498     7.9537
 1387.5000     8.7087   101.5534     2.5177     0.0100   -36.4786    13.4954    10.2491     7.9531
 1388.0000     8.7089   103.1066     2.5295     0.0100   -36.4801    13.2503    10.2480     7.8093
 1388.5000     8.7867   103.1064     2.5275     0.0137   -36.4810    13.0101    10.2476     7.8088
 1389.0000     8.8257   103.8826     2.5236     0.0255   -36.4825    12.5431     9.5294     7.8079
 1389.5000     8.8647   103.8824     2.5157     0.0294   -36.4835    12.0933     9.8805     7.8073
 1390.0000     8.8649   101.7764     2.5157     0.0294   -36.4849    13.0063     9.8795     7.8065
 1390.5000     8.9039   101.0000     2.5314     0.0294   -36.4859    13.0053     9.8788     7.8059
 1391.0000     8.9052   101.0000     2.5373     0.0294   -36.4873    13.0039     9.8780     7.8051
 1391.5000     8.9054   101.0000     2.5334     0.0216   -36.4883    13.0030     9.8773     7.8045
 1392.0000     8.9443   100.9999     2.5275     0.0176   -36.4898    12.5362     9.6984     7.8037
 1392.5000     8.9445   100.9999     2.5059     0.0137   -36.4907    12.5353     9.6977     7.8031
 1393.0000     8.9447   101.0001     2.5098     0.0137   -36.4922    12.9992    10.4257     7.8023
 1393.5000     8.9449   101.0000     2.5177     0.0137   -36.4932    12.9983    10.4253     7.8017
 1394.0000     8.9838   101.7760     2.5138     0.0098   -36.4946    12.9968    10.2369     7.8009
 1394.5000     8.9840   101.7759     2.5098     0.0098   -36.4956    12.9959     9.8716     7.8003
 1395.0000     8.9841   101.7758     2.5098     0.0098   -36.4970    12.3031     9.6932     7.9421
 1395.5000     9.0231   102.5515     2.5098     0.0098   -36.4980    12.3022     9.6925     7.7989
 1396.0000     9.0620   105.6541     2.5118     0.0176   -36.4995    12.9921     9.8687     7.9407
 1396.5000     9.0233   107.9805     2.5138     0.0202   -36.5004    12.9912     9.8680     7.9401
 1397.0000     9.0235   109.5312     2.5138     0.0216   -36.5019    12.9897    10.0475     7.7966
 1397.5000     9.0624   109.5304     2.5157     0.0137   -36.5029    12.5239    10.2306     7.9387
 1398.0000     9.0626   108.7544     2.5098     0.0137   -36.5043    12.5226    10.2298     7.7952
 1398.5000     9.0627   107.9783     2.5079     0.0137   -36.5053    12.9864    10.2287     7.7946
 1399.0000     9.0629   106.4272     2.5040     0.0137   -36.5067    12.5203    10.4147     7.7938
 1399.5000     9.0630   102.5504     2.5040     0.0137   -36.5077    12.5194    10.4140     7.7932
 1400.0000     9.0632   102.5503     2.5040     0.0176   -36.5092    12.5180    10.4129     7.7924
 1400.5000     9.0634   101.0153     2.5056     0.0144   -36.5105    12.5167    10.4118     7.7916
 1401.0000     9.0635   101.0069     2.5079     0.0138   -36.5130    12.9825    10.6033     7.7923
 1401.5000     9.0636   101.0116     2.5079     0.0138   -36.5145    12.9825    10.6033     7.7923
 1402.0000     9.0637   101.0146     2.5138     0.0061   -36.5169    12.2918    10.6033     7.7923
 1402.5000     9.0638   101.7946     2.5256     0.0101   -36.5200    12.5179    10.4127     7.7923
 1403.0000     9.0639   101.7977     2.5256     0.0101   -36.1331    12.5179    10.4127     7.6523
 1403.5000     9.0640   101.8024     2.5236     0.0101   -36.9099    12.5179    10.2257     7.6523
 1404.0000     9.0642   101.8055     2.5178     0.0180   -36.5246    12.2918    10.2257     7.6523
 1404.5000     9.0643   101.8101     2.5080     0.0258   -36.5262    12.0698    10.0419     7.6523
 1405.0000     9.0644   101.8133     2.5060     0.0258   -36.5285    12.5179     9.3395     7.3783
 1405.5000     9.0645   102.5934     2.5060     0.0296   -36.5300    12.5179     9.0069     7.3783
 1406.0000     9.1034   102.5965     2.5099     0.0296   -36.5324    12.9825     8.5300     7.3783
 1406.5000     9.0648   104.9279     2.5119     0.0297   -36.5339    12.9825     8.3768     7.3783
 1407.0000     9.0649   106.2579     2.5178     0.0297   -36.9238    12.7481     8.2263     7.3783
 1407.5000     9.1038   105.7116     2.5237     0.0297   -36.9254    12.5179     8.2263     7.3783
 1408.0000     9.1039   104.9375     2.5237     0.0297   -36.9277    12.2918     8.2263     7.6523
 1408.5000     9.0652   104.1667     2.5198     0.0297   -36.9293    12.5179     8.0785     7.7923
 1409.0000     9.0653   104.1698     2.5257     0.0337   -36.9316    12.7481     7.9333     7.7923
 1409.5000     9.0655   102.6247     2.5414     0.0376   -36.9331    12.7481     7.9349     7.7923
 1410.0000     8.9880   102.6278     2.5532     0.0494   -36.9355    12.7481     7.9349     7.7923
 1410.5000     9.0657   102.6325     2.5630     0.0574   -36.9370    12.5179     8.0801     7.7923
 1411.0000     9.0658   104.9632     2.5610     0.0574   -36.9393    12.7481     7.7908     7.7923
 1411.5000     9.0659   107.2956     2.5552     0.0575   -36.9409    12.5179     7.2458     7.7923
 1412.0000     9.0660   108.8507     2.5513     0.0496   -36.9432    12.5179     7.2458     7.7923
 1412.5000     9.0662   111.1835     2.5434     0.0457   -36.9448    12.0698     7.2458     7.7923
 1413.0000     9.0663   111.1869     2.5336     0.0418   -36.9471    12.0698     7.1156     7.6508
 1413.5000     9.0664   109.6400     2.5297     0.0340   -36.9486    11.6379     7.1156     7.6508
 1414.0000     9.0665   108.8690     2.5317     0.0262   -36.9510    11.4277     6.9877     7.6508
 1414.5000     9.1054   108.0963     2.5238     0.0221   -36.9525    11.2214     6.9877     7.6508
 1415.0000     9.1443   106.5490     2.5199     0.0182   -36.9548    10.6244     6.9877     7.5133
