~VERSION INFORMATION
 VERS.                2.0:   CWLS LOG ASCII STANDARD - VERSION 2.0
 WRAP.                 NO:   ONE LINE PER DEPTH STEP
~WELL INFORMATION
#MNEM.UNIT      DATA TYPE    INFORMATION
#----------   ------------   ------------------------------
 STRT.F          174.0000:   START DEPTH
 STOP.F         3492.0000:   STOP DEPTH
 STEP.F            0.5000:   STEP LENGTH
 NULL.          -999.2500:   NO VALUE
 COMP.    FENIX & SCISSON:   COMPANY
 WELL.   FENIX "AX" #18-3:   WELL
 FLD .        TEAPOT DOME:   FIELD
 LOC .       S3 T38N R78W:   LOCATION
 CNTY.            NATRONA:   COUNTY
 STAT.            WYOMING:   STATE
 CTRY. UNITED STATES OF AMERICA:   COUNTRY
 SRVC.       SCHLUMBERGER:   SERVICE COMPANY
 DATE.        09-FEB-1981:   LOGDATE
 API .     49025108630000:   API NUMBER
~CURVE INFORMATION
#MNEM.UNIT       API CODE    CURVE DESCRIPTION
#----------   ------------   ------------------------------
 DEPT.F                  :   
 CALD.IN     45 280 60 00:   CALIPER FROM DENSITY LOG
 GRD .GAPI   45 310 01 00:   GAMMA RAY FROM DENSITY LOG
 RHOB.G/C3   45 350 01 00:   BULK DENSITY
 DRHO.G/C3   45 356 01 00:   DENSITY CORRECTION
 TENR.LBS    07 635 01 00:   TENSION FROM RESISTIVITY
 SPR .MV     07 010 01 00:   SPONTANEOUS POTENTIAL
 ILM .OHMM   07 120 44 00:   INDUCTION LOG MEDIUM RESISTIVITY
 ILD .OHMM   07 120 46 00:   INDUCTION LOG DEEP RESISTIVITY
 SFLU.OHMM   07 220 01 00:   SPHERICALLY FOCUSED LOG UNAVERAGED RESISTIVITY
~PARAMETER INFORMATION
#MNEM.UNIT          VALUE    DESCRIPTION
#----------   ------------   ------------------------------
 EKB .F         5267.0000:   Kelly bushing
 EGL .F         5257.0000:   Ground level
 EDF .F            0.0000:   Drilling floor
 TD  .F         3472.0000:   Total depth
 DATE.        09-FEB-1981:   Date logged
 CLNT.            A2DTECH:   Client Code
 SL  . 669' FSL & 42' FWL:   Surface Location
 PD  .                 GL:   Permanent Datum
 DD  .F              3401:   Depth driller
 DL  .F              3472:   Depth logger
 BLI .F              3466:   Bottom log interval
 CS1 .IN            8.625:   Casing size
 CBD1.      8.625" @ 200':   Casing driller 1
 CBL1.F               196:   Casing logger 1
 BS1 .IN            7.875:   Bit size
 DFT .            KCL/GEL:   Type fluid in hole
 DFD .                  9:   Density
 DFV .                 60:   Viscosity
 DFPH.                8.5:   pH
 DFL .                 10:   Fluid loss
 MSS .            MUD/PIT:   Source of sample
 RMS .OHMM           1.88:   Rm
 MST .F                75:   Rm Meas. temp.
 RMF .OHMM           1.12:   Rmf
 MFST.F                75:   Rmf Meas. temp.
 MFSS.               MEAS:   Source Rmf.
 RMB .OHMM           1.21:   Rm. at BHT
 BHT .F               120:   BHT.
 TCS .HRS            1800:   Time Circ. stopped
 MRT .F               120:   Maximum recorded temp.
 LUN .               8043:   Logging unit number
 LUL .               CSPR:   Logging unit location
 ENGI.            CONNETT:   Recorded By
 WITN.              SCOTT:   Witnessed by
 ORIG.           5" PRINT:   Origin of data
 UWI .     49025108630000:   Unique Well ID
 DICO. A2D TECHNOLOGIES, INC.:   Digitizing Company
 DAPD.F                10:   Feet Above Permanent Datum
 BSD1.F              3401:   Depth drilled with bit1
 EPD .F              5257:   Elevation Permanent Datum
 LMF .                 KB:   Log Measured From
 DMF .                 KB:   Drilling Measured From
 TLI .F               196:   Top log interval
 TLAB.               0000:   Time logger at bottom
~OTHER INFORMATION
~A   DEPT     CALD         GRD      RHOB       DRHO       TENR        SPR        ILM        ILD       SFLU   
# ...
 1269.0000     9.1160    93.3040     2.5550     0.0720  1071.0710   -56.3360    10.7840    11.2920    12.5080
 1269.5000     9.1170    93.5340     2.5650     0.0800  1071.0710   -56.3370    10.5870    11.2870    12.3920
 1270.0000     9.1170    94.1020     2.5760     0.0850  1071.0710   -56.3370    10.4890    11.2460    12.2690
 1270.5000     9.1180    94.6730     2.5880     0.0900  1071.0710   -56.3370    10.4890    11.2050    12.1570
 1271.0000     9.1180    95.4520     2.5830     0.0920  1071.0710   -56.3360    10.3930    11.1630    11.9350
 1271.5000     9.1190    96.5210     2.5730     0.0840  1071.0710   -56.3700    10.2980    11.1220    11.8060
 1272.0000     9.1190    97.5750     2.5460     0.0710  1071.0710   -56.4230    10.1100    11.0810    11.7540
 1272.5000     9.1190    96.6830     2.5200     0.0480  1071.0710   -56.4750    10.1190    11.0400    11.7020
 1273.0000     9.1200    95.4710     2.5140     0.0360  1071.0710   -56.5280    10.1460    10.9990    11.6490
 1273.5000     9.1200    94.5540     2.5120     0.0310  1071.0710   -56.5750    10.1730    10.9580    11.5970
 1274.0000     9.1210    94.3410     2.5400     0.0480  1071.0710   -56.6210    10.2000    10.9170    11.5450
 1274.5000     9.1210    94.8300     2.5590     0.0710  1071.0710   -56.6680    10.2270    10.8590    11.5020
 1275.0000     9.1220    96.6450     2.5520     0.0720  1071.0710   -56.7140    10.2540    10.7340    11.6580
 1275.5000     9.1220    98.9860     2.5440     0.0690  1071.0710   -56.7610    10.2810    10.6850    11.8140
 1276.0000     9.1220    99.8810     2.5410     0.0660  1071.0710   -56.8070    10.3080    10.7840    11.9710
 1276.5000     9.1230    96.9740     2.5470     0.0700  1071.0710   -56.8540    10.3350    10.7840    12.1270
 1277.0000     9.1230    93.2620     2.5530     0.0760  1071.0710   -56.8990    10.3620    10.8830    12.2840
 1277.5000     9.1240    90.7220     2.5530     0.0760  1071.0710   -56.9040    10.3890    10.9840    12.4790
 1278.0000     9.1240    91.9810     2.5510     0.0740  1071.0710   -56.8090    10.4150    10.9980    12.2410
 1278.5000     9.1240    94.2230     2.5470     0.0720  1071.0710   -56.7180    10.4420    11.0190    11.6090
 1279.0000     9.1250    94.3210     2.5480     0.0680  1071.0710   -56.6280    10.4700    11.0400    11.6970
 1279.5000     9.1250    93.8810     2.5460     0.0640  1071.0710   -56.5370    10.4880    11.0620    11.8930
 1280.0000     9.1260    93.8120     2.5400     0.0530  1071.0710   -56.4460    10.4870    11.0830    12.0900
 1280.5000     9.1260    95.8130     2.5060     0.0410  1071.0710   -56.3560    10.4920    11.1890    12.1570
 1281.0000     9.1270    97.7910     2.5020     0.0360  1071.0710   -56.2650    10.3930    11.1890    11.8830
 1281.5000     9.1270    99.7400     2.5220     0.0490  1071.0710   -56.1740    10.2030    11.0860    11.6270
 1282.0000     9.1270    99.6340     2.5440     0.0620  1071.0710   -56.0840    10.1100    10.7840    11.3710
 1282.5000     9.1280    97.1290     2.5660     0.0740  1071.0710   -55.9940    10.1100    10.4890    10.9840
 1283.0000     9.1280    93.7170     2.5770     0.0810  1072.8070   -55.9660    10.1100    10.3930    11.0910
 1283.5000     9.1290    90.4970     2.5770     0.0770  1074.7560   -56.0250    10.1100    10.4990    11.3080
 1284.0000     9.1290    92.3690     2.5720     0.0750  1076.7050   -56.0830    10.1100    10.7110    11.5240
 1284.5000     9.1300    94.6640     2.5860     0.0810  1078.6541   -56.1420    10.0880    10.9840    11.6900
 1285.0000     9.1300    96.7640     2.6060     0.0930  1080.6030   -56.2000    10.0190    10.8820    11.4520
 1285.5000     9.1300    96.3480     2.6160     0.1010  1082.5520   -56.2590     9.9490    10.7390    11.2140
 1286.0000     9.1310    95.8740     2.6130     0.1020  1084.5010   -56.3200     9.8800    10.5960    10.9760
 1286.5000     9.1310    95.4090     2.6040     0.0940  1086.4500   -56.3360     9.8100    10.4520    10.7390
 1287.0000     9.1320    95.0320     2.5930     0.0910  1088.3990   -56.3370     9.7410    10.3090    10.5010
 1287.5000     9.1320    95.6270     2.5830     0.0890  1090.3480   -56.3370     9.6540    10.1660    10.2630
 1288.0000     9.1330    96.9990     2.5720     0.0910  1092.2970   -56.3370     9.6740    10.0170    10.1280
 1288.5000     9.1330    99.1450     2.5620     0.0890  1094.2469   -56.3370     9.7010    10.0170    10.3480
 1289.0000     9.1330    98.3350     2.5510     0.0750  1096.1960   -56.3370     9.7270    10.1100    10.5240
 1289.5000     9.1340    97.3040     2.5450     0.0620  1098.1450   -56.3370     9.7540    10.2030    10.7000
 1290.0000     9.1340    97.7570     2.5620     0.0570  1100.0940   -56.3370     9.7800    10.2980    10.8760
 1290.5000     9.1350    99.4640     2.5830     0.0760  1102.0430   -56.3370     9.8070    10.2980    10.9670
 1291.0000     9.1350   101.1740     2.5990     0.0790  1103.9919   -56.3370     9.8340    10.2030    10.8050
 1291.5000     9.1350   102.8920     2.5910     0.0750  1105.9410   -56.3340     9.8000    10.2030    10.6760
 1292.0000     9.1360   104.6160     2.5830     0.0750  1107.8900   -56.3340     9.7440    10.1100    10.5470
 1292.5000     9.1360   104.1610     2.5750     0.0750  1109.8390   -56.0450     9.6870    10.1400    10.3930
 1293.0000     9.1370   101.3530     2.5680     0.0710  1111.7880   -55.5470     9.6540    10.1780    10.5260
 1293.5000     9.1370    98.3220     2.5650     0.0660  1113.7371   -55.4250     9.6880    10.2160    10.7440
 1294.0000     9.1380    96.0740     2.5770     0.0680  1115.6860   -55.5460     9.7290    10.2540    11.0860
 1294.5000     9.1380    95.1420     2.5920     0.0880  1117.6350   -55.6680     9.7700    10.2980    11.0000
 1295.0000     9.1380    96.6210     2.6080     0.1040  1119.5840   -55.7660     9.8110    10.2190    10.8000
 1295.5000     9.1390    99.8040     2.6130     0.1020  1121.5330   -55.8260     9.8340    10.1260    10.6000
 1296.0000     9.1390   101.4130     2.6070     0.0970  1123.4821   -55.8850     9.7320    10.0320    10.4890
 1296.5000     9.1400    98.8170     2.6010     0.0930  1125.4310   -55.9360     9.7070     9.9380    10.5930
 1297.0000     9.1400    96.8530     2.6060     0.0970  1127.3800   -56.0260     9.6820     9.9250    10.6760
 1297.5000     9.1410    95.0350     2.6100     0.1010  1129.3290   -56.1240     9.6570     9.9250    10.7590
 1298.0000     9.1410    95.1390     2.6000     0.0970  1131.1310   -56.2250     9.6540    10.1150    10.8420
 1298.5000     9.1410    95.3600     2.5880     0.0870  1130.5420   -56.3240     9.6860    10.2920    10.9250
 1299.0000     9.1420    96.9310     2.5770     0.0760  1129.9950   -56.4090     9.7340    10.4890    11.0860
 1299.5000     9.1420    98.5270     2.5740     0.0680  1129.4470   -56.4920     9.7810    10.3520    11.0860
 1300.0000     9.1420    98.7670     2.5790     0.0690  1128.9000   -56.4580     9.8340    10.1540    10.6790
 1300.5000     9.1420    98.1940     2.5720     0.0690  1128.3530   -56.3070     9.8340     9.9550    10.3640
 1301.0000     9.1420    96.5030     2.5630     0.0690  1127.8051   -56.1560     9.6430     9.6540    10.1100
 1301.5000     9.1430    94.8430     2.5560     0.0740  1127.2581   -56.0050     9.4950     9.6710    10.2000
 1302.0000     9.1430    95.1980     2.5660     0.0870  1126.7100   -55.8530     9.3810     9.7050    10.2700
 1302.5000     9.1430    98.1660     2.5770     0.0940  1126.1630   -55.7260     9.3440     9.7390    10.3400
 1303.0000     9.1430   101.0550     2.5800     0.0960  1125.6150   -55.6730     9.3070     9.7740    10.4090
 1303.5000     9.1430   103.9260     2.5840     0.0960  1125.0680   -55.6190     9.2700     9.8080    10.4890
 1304.0000     9.1440   106.0240     2.5960     0.1030  1124.5210   -55.5620     9.2330     9.8340    10.3930
 1304.5000     9.1440   105.9950     2.6110     0.1140  1123.9730   -55.5260     9.1960     9.6390    10.2450
 1305.0000     9.1440   104.2680     2.6190     0.1070  1123.4260   -55.4970     9.1590     9.4830    10.0970
