~VERSION INFORMATION
 VERS.                2.0:   CWLS LOG ASCII STANDARD - VERSION 2.0
 WRAP.                 NO:   ONE LINE PER DEPTH STEP
~WELL INFORMATION
#MNEM.UNIT      DATA TYPE    INFORMATION
#----------   ------------   ------------------------------
 STRT.F          500.0000:   START DEPTH
 STOP.F         4646.0000:   STOP DEPTH
 STEP.F            0.5000:   STEP LENGTH
 NULL.          -999.2500:   NO VALUE
 COMP.    FENIX & SCISSON:   COMPANY
 WELL. LAWRENCE NPR 3 "X" #34-10:   WELL
 FLD .                NPR:   FIELD
 LOC .      S10 T38N R78W:   LOCATION
 CNTY.            NATRONA:   COUNTY
 STAT.            WYOMING:   STATE
 CTRY. UNITED STATES OF AMERICA:   COUNTRY
 SRVC.              WELEX:   SERVICE COMPANY
 DATE.        12-OCT-1979:   LOGDATE
 API .     49025109290000:   API NUMBER
~CURVE INFORMATION
#MNEM.UNIT       API CODE    CURVE DESCRIPTION
#----------   ------------   ------------------------------
 DEPT.F                  :   
 SPR .MV     07 010 01 00:   SPONTANEOUS POTENTIAL
 SGRD.OHMM   07 220 05 00:   SHALLOW GUARD LOG RESISTIVITY
 ILD .OHMM   07 120 46 00:   DEEP INDUCTION RESISTIVITY
 ILM .OHMM   07 120 44 00:   INDUCTION LOG MEDIUM RESISTIVITY
 TEND.LBS    45 635 01 00:   TENSION FROM DENSITY LOG
 CORR.G/C3   45 356 01 00:   DENSITY CORRECTION
 RHOB.G/C3   45 350 01 00:   BULK DENSITY
 NPHI.DEC    42 890 03 00:   NEUTRON POROSITY SANDSTONE
 GRD .GAPI   45 310 01 00:   GAMMA RAY FROM DENSITY LOG
 CALD.IN     45 280 60 00:   CALIPER FROM DENSITY LOG
~PARAMETER INFORMATION
#MNEM.UNIT          VALUE    DESCRIPTION
#----------   ------------   ------------------------------
 EKB .F         5234.0000:   Kelly bushing
 EGL .F         5224.0000:   Ground level
 EDF .F            0.0000:   Drilling floor
 TD  .F         4650.0000:   Total depth
 DATE.        12-OCT-1979:   Date logged
 CLNT.            A2DTECH:   Client Code
 SL  . 2055' FNL & 1509' FWL:   Surface Location
 PD  .                 GL:   Permanent Datum
 DD  .F              4650:   Depth driller
 DL  .F              4646:   Depth logger
 BLI .F              4644:   Bottom log interval
 CS1 .IN              500:   Casing size
 CBD1.      8.625" @ 500':   Casing driller 1
 CBL1.F               502:   Casing logger 1
 BS1 .IN            7.875:   Bit size
 DFT .           CHEM/GEL:   Type fluid in hole
 DFD .                8.8:   Density
 DFV .                 62:   Viscosity
 DFPH.               11.2:   pH
 DFL .                4.5:   Fluid loss
 MSS .            MUD/PIT:   Source of sample
 RMS .OHMM           1.18:   Rm
 MST .F                60:   Rm Meas. temp.
 RMF .OHMM            .94:   Rmf
 MFST.F                60:   Rmf Meas. temp.
 RMC .OHMM           1.41:   Rmc
 MCST.F                60:   Rmc Meas. temp.
 MFSS.               MEAS:   Source Rmf.
 RMB .OHMM            .81:   Rm. at BHT
 BHT .F                87:   BHT.
 TCS .HRS               2:   Time Circ. stopped
 MRT .F                87:   Maximum recorded temp.
 LUN .               1892:   Logging unit number
 LUL .             CASPER:   Logging unit location
 ENGI.               REIN:   Recorded By
 WITN.           DINSMORE:   Witnessed by
 ORIG.           5" PRINT:   Origin of data
 UWI .     49025109290000:   Unique Well ID
 DICO. A2D TECHNOLOGIES, INC.:   Digitizing Company
 DAPD.                 10:   Feet Above Permanent Datum
 BSD1.F              4650:   Depth drilled with bit1
 MCSS.               MEAS:   Source Rmc.
 EPD .F              5224:   Elevation Permanent Datum
 LMF .                 KB:   Log Measured From
 DMF .                 KB:   Drilling Measured From
 TLI .F               500:   Top log interval
~OTHER INFORMATION
~A   DEPT      SPR         SGRD      ILD         ILM      TEND         CORR       RHOB       NPHI       GRD        CALD 
# ...
 4620.5000   -26.8050     6.4940     5.6080     6.4350  2478.3420     0.1320     2.2900     0.2160  -999.2500     7.9530
 4621.0000   -26.7580     6.4350     5.6400     6.4350  2476.2019     0.1340     2.2920     0.2130  -999.2500     7.9540
 4621.5000   -26.7100     6.4700     5.6730     6.4350  2474.0610     0.1380     2.2940     0.2110  -999.2500     7.9560
 4622.0000   -26.6660     6.5040     5.7080     6.4350  2472.4719     0.1470     2.3020     0.2100  -999.2500     7.9580
 4622.5000   -26.4400     6.5380     5.7510     6.4350  2472.4719     0.1550     2.3090     0.2070  -999.2500     7.9590
 4623.0000   -26.1250     6.5720     5.8310     6.4350  2472.4719     0.1530     2.3080     0.2020  -999.2500     7.9610
 4623.5000   -25.8070     6.6060     5.9100     6.4350  2472.4719     0.1500     2.3060     0.2000  -999.2500     7.9630
 4624.0000   -25.4890     6.6400     5.9220     6.4360  2472.4719     0.1470     2.3050     0.2030  -999.2500     7.9640
 4624.5000   -25.1690     6.6770     5.9000     6.3760  2472.4719     0.1450     2.3070     0.2040  -999.2500     7.9710
 4625.0000   -25.0130     6.5600     5.8270     6.2590  2472.4719     0.1450     2.3100     0.2020  -999.2500     7.9800
 4625.5000   -24.9510     6.4340     5.7530     6.1420  2472.4719     0.1460     2.3080     0.2010  -999.2500     7.9730
 4626.0000   -24.8920     6.3080     5.6800     6.0250  2472.4719     0.1470     2.3040     0.2030  -999.2500     7.9680
 4626.5000   -24.9260     6.1820     5.5530     5.9080  2472.4719     0.1470     2.2990     0.2050  -999.2500     8.0040
 4627.0000   -25.1680     6.0260     5.3980     5.7910  2472.4719     0.1480     2.2990     0.2050  -999.2500     8.0400
 4627.5000   -25.4090     5.9760     5.2420     5.7170  2472.4719     0.1490     2.2960     0.2080  -999.2500     8.0600
 4628.0000   -25.4890     5.9260     5.0870     5.6590  2472.4719     0.1490     2.2920     0.2110  -999.2500     8.0390
 4628.5000   -25.5370     5.8750     4.9320     5.6000  2472.4719     0.1490     2.2900     0.2130  -999.2500     8.0190
 4629.0000   -25.5850     5.7270     4.7910     5.5420  2472.4719     0.1490     2.2920     0.2120  -999.2500     7.9980
 4629.5000   -25.6330     5.5520     4.7910     5.4830  2472.4719     0.1500     2.2930     0.2110  -999.2500     7.9780
 4630.0000   -25.6810     5.6210     4.7910     5.4250  2472.4719     0.1500     2.2930     0.2120  -999.2500     7.9570
 4630.5000   -25.7290     5.7450     4.7910     5.4010  2472.4719     0.1500     2.2900     0.2140  -999.2500     7.9370
 4631.0000   -25.7770     6.1620     4.7910     5.6280  2472.4719     0.1500     2.2890     0.2150  -999.2500     7.9260
 4631.5000   -25.8250     6.9460     4.7910     5.7910  2472.4719     0.1500     2.2870     0.2140  -999.2500     7.9260
 4632.0000   -25.8270     7.3210     4.7910     5.8680  2472.4719     0.1440     2.2860     0.2140  -999.2500     7.9260
 4632.5000   -25.7860     6.2010     4.7910     5.6510  2472.4719     0.1370     2.2850  -999.2500  -999.2500     7.9260
 4633.0000   -25.7450     5.5010     4.7910     5.4790  2472.4719     0.1330     2.2850  -999.2500  -999.2500     7.9260
 4633.5000   -25.7030     5.5490     4.7910     5.3020  2472.4719     0.1330     2.2840  -999.2500  -999.2500     7.9320
 4634.0000   -25.6650     5.5820     4.7910     5.2910  2472.4719     0.1330     2.2840  -999.2500  -999.2500     7.9260
 4634.5000   -25.4460     5.6150     4.7910     5.2540  -999.2500  -999.2500  -999.2500  -999.2500  -999.2500     7.9280
 4635.0000   -25.1530     5.6490     4.7790     5.2170  -999.2500  -999.2500  -999.2500  -999.2500  -999.2500     7.8840
 4635.5000   -24.8600     5.6560     4.7460     5.1800  -999.2500  -999.2500  -999.2500  -999.2500  -999.2500     7.8870
 4636.0000   -24.7880     5.6560     4.7140     5.1430  -999.2500  -999.2500  -999.2500  -999.2500  -999.2500     7.8860
 4636.5000   -24.7270     5.6560     4.6820     5.1050  -999.2500  -999.2500  -999.2500  -999.2500  -999.2500  -999.2500
 4637.0000   -24.6640     5.6550     4.6500     5.0680  -999.2500  -999.2500  -999.2500  -999.2500  -999.2500  -999.2500
 4637.5000   -24.6020     5.6500     4.6170     5.0170  -999.2500  -999.2500  -999.2500  -999.2500  -999.2500  -999.2500
 4638.0000   -24.5390     5.7130     4.5170     5.0370  -999.2500  -999.2500  -999.2500  -999.2500  -999.2500  -999.2500
 4638.5000   -24.4780     5.7070     4.4170     5.0710  -999.2500  -999.2500  -999.2500  -999.2500  -999.2500  -999.2500
 4639.0000   -24.2890     5.7080     4.3290     5.1040  -999.2500  -999.2500  -999.2500  -999.2500  -999.2500  -999.2500
 4639.5000   -24.0190     5.7080     4.3690     5.1370  -999.2500  -999.2500  -999.2500  -999.2500  -999.2500  -999.2500
 4640.0000   -23.7510     5.7080     4.3530     5.1700  -999.2500  -999.2500  -999.2500  -999.2500  -999.2500  -999.2500
 4640.5000   -23.4560     5.7080     4.3370     5.2040  -999.2500  -999.2500  -999.2500  -999.2500  -999.2500  -999.2500
 4641.0000   -22.3340     5.7080     4.3290     5.2370  -999.2500  -999.2500  -999.2500  -999.2500  -999.2500  -999.2500
 4641.5000   -21.2750     5.7080     4.4540     5.2540  -999.2500  -999.2500  -999.2500  -999.2500  -999.2500  -999.2500
 4642.0000   -19.9390     5.7510     4.5400     5.2540  -999.2500  -999.2500  -999.2500  -999.2500  -999.2500  -999.2500
 4642.5000   -17.2280     5.8290     5.0630     5.2540  -999.2500  -999.2500  -999.2500  -999.2500  -999.2500  -999.2500
 4643.0000   -14.0280     5.9060     5.0630     5.2540  -999.2500  -999.2500  -999.2500  -999.2500  -999.2500  -999.2500
 4643.5000   -10.0380     5.9770     5.0630     5.2540  -999.2500  -999.2500  -999.2500  -999.2500  -999.2500  -999.2500
 4644.0000    -5.9870     8.6930     5.0630     5.2540  -999.2500  -999.2500  -999.2500  -999.2500  -999.2500  -999.2500
 4644.5000    -4.3180    14.0850     5.0630     5.2540  -999.2500  -999.2500  -999.2500  -999.2500  -999.2500  -999.2500
 4645.0000    -4.2860    23.6100     5.0120     5.2540  -999.2500  -999.2500  -999.2500  -999.2500  -999.2500  -999.2500
 4645.5000    -4.2880    23.6100     5.0160     5.2540  -999.2500  -999.2500  -999.2500  -999.2500  -999.2500  -999.2500
 4646.0000    -4.2910    23.6100     5.0170     5.2540  -999.2500  -999.2500  -999.2500  -999.2500  -999.2500  -999.2500
