~VERSION INFORMATION
 VERS.                2.0:   CWLS LOG ASCII STANDARD - VERSION 2.0
 WRAP.                 NO:   ONE LINE PER DEPTH STEP
~WELL INFORMATION
#MNEM.UNIT      DATA TYPE    INFORMATION
#----------   ------------   ------------------------------
 STRT.F           54.0000:   START DEPTH
 STOP.F         5201.0000:   STOP DEPTH
 STEP.F            0.5000:   STEP LENGTH
 NULL.          -999.2500:   NO VALUE
 COMP.   TESORO PETROLEUM:   COMPANY
 WELL. TESORO DX NPR-3 #51-26:   WELL
 FLD .        TEAPOT DOME:   FIELD
 LOC .      S26 T38N R78W:   LOCATION
 CNTY.            NATRONA:   COUNTY
 STAT.            WYOMING:   STATE
 CTRY. UNITED STATES OF AMERICA:   COUNTRY
 SRVC.      DRESSER ATLAS:   SERVICE COMPANY
 DATE.        27-AUG-1976:   LOGDATE
 API .     49025102680000:   API NUMBER
~CURVE INFORMATION
#MNEM.UNIT       API CODE    CURVE DESCRIPTION
#----------   ------------   ------------------------------
 DEPT.F                  :   
 GRD .GAPI   45 310 01 00:   GAMMA RAY FROM DENSITY LOG
 CALD.IN     45 280 60 00:   CALIPER FROM DENSITY LOG
 CORR.G/C3   45 356 01 00:   DENSITY CORRECTION
 RHOB.G/C3   45 350 01 00:   BULK DENSITY
 SPR .MV     07 010 01 00:   SPONTANEOUS POTENTIAL
 ILD .OHMM   07 120 46 00:   DEEP INDUCTION RESISTIVITY
 ILM .OHMM   07 120 44 00:   INDUCTION LOG MEDIUM RESISTIVITY
 RFOC.OHMM   07 220 04 00:   RESISTIVITY FOCUSED LOG RES.
 TEND.LBS    45 635 01 00:   TENSION FORM DENSITY LOG
 NPHI.DEC    42 890 03 00:   NEUTRON POROSITY SANDSTONE
~PARAMETER INFORMATION
#MNEM.UNIT          VALUE    DESCRIPTION
#----------   ------------   ------------------------------
 EKB .F         5453.5000:   Kelly bushing
 EGL .F         5442.0000:   Ground level
 EDF .F         5452.0000:   Drilling floor
 EPD .F            0.0000:   Permanent datum
 TD  .F         5193.0000:   Total depth
 CLNT.            A2DTECH:   Client Code
 SL  . 2000' FEL & 600' FNL:   Surface Location
 PD  .                 GL:   Permanent Datum
 DAPD.F              11.5:   Feet Above Permanent Datum
 DATE.        27-AUG-1976:   Date Logged [DD-MMM-YYYY]
 DD  .F              5193:   Depth driller
 DL  .F              5193:   Depth logger
 BLI .F              5191:   Bottom log interval
 TLI .F              1726:   Top log interval
 CS1 .IN            8.625:   Casing size
 CBD1.     8.625" @ 1724':   Casing driller 1
 CBL1.F              1726:   Casing logger 1
 BS1 .IN            7.875:   Bit size
 BSD1.F              5193:   Depth drilled with bit1
 DFT .           CHEM GEL:   Type fluid in hole
 DFD .                9.2:   Density
 DFV .                 65:   Viscosity
 DFPH.                 10:   pH
 DFL .                5.8:   Fluid loss
 MSS .           FLOWLINE:   Source of sample
 RMS .OHMM           1.70:   Rm
 MST .F                71:   Rm Meas. temp.
 RMF .OHMM              1:   Rmf
 MFST.F                68:   Rmf Meas. temp.
 MFSS.               MEAS:   Source Rmf.
 RMC .OHMM           1.30:   Rmc
 MCST.F                66:   Rmc Meas. temp.
 MCSS.               MEAS:   Source Rmc.
 RMB .OHMM           0.85:   Rm. at BHT
 BHT .F               142:   BHT.
 TCS .HRS               6:   Time Circ. stopped
 MRT .F               142:   Maximum recorded temp.
 LUN .               6145:   Logging unit number
 LUL .              GLTTE:   Logging unit location
 ENGI.        GOULD-HOYER:   Recorded By
 WITN.        WOLF-CARTER:   Witnessed by
 ORIG.           5" PRINT:   Origin of data
 UWI .     49025102680000:   Unique Well ID
 DICO. A2D TECHNOLOGIES, INC.:   Digitizing Company
~OTHER INFORMATION
~A   DEPT      GRD       CALD       CORR       RHOB        SPR         ILD        ILM      RFOC       TEND       NPHI   
# ...
 4476.0000   113.6116     8.0676     0.0536     2.5313   -38.6689     4.4567     5.1626     6.3464    50.9720     0.1781
 4476.5000   110.7838     8.0700     0.0553     2.5322   -38.9323     4.5846     5.2385     6.7401    50.2248     0.1765
 4477.0000   110.3289     8.0723     0.0584     2.5363   -39.0071     4.7163     5.3148     6.4715    49.3500     0.1820
 4477.5000   110.3668     8.0766     0.0631     2.5557   -39.0442     4.8853     5.5815     5.8800    41.1329     0.1782
 4478.0000   109.9195     8.0925     0.0377     2.5737   -38.9938     5.2745     6.1093     6.1755    40.4128     0.1564
 4478.5000   107.0842     8.0948     0.0274     2.5820   -39.1834     5.7944     7.0178     7.0456    32.3754     0.1449
 4479.0000   101.6220     8.0816     0.0232     2.5911   -39.1904     6.3220     7.7485     7.9891    46.4770     0.1383
 4479.5000   102.3862     8.0840     0.0234     2.6017   -39.1869     6.7787     8.5851     9.0468    53.2429     0.1337
 4480.0000   103.1154     8.0716     0.0251     2.6026   -39.1709     7.5240     9.2681    11.2124    60.0184     0.1289
 4480.5000   101.2429     8.0741     0.0252     2.6041   -39.0736     8.4674     9.8684    13.7059    59.1172     0.1270
 4481.0000   100.5492     8.0765     0.0239     2.6147   -38.9769     9.1421    10.5803    14.3945    58.3964     0.1312
 4481.5000   107.5124     8.0788     0.0271     2.6276   -38.8798    10.2415    11.1881    13.4447    65.1718     0.1348
 4482.0000   110.4109     8.0664     0.0333     2.6344   -38.7950    10.8821    11.6707    12.3004    64.4510     0.1375
 4482.5000   109.9636     8.0089     0.0350     2.6292   -38.8808    11.0408    12.0882    12.6120    71.2264     0.1416
 4483.0000   108.0835     7.9802     0.0336     2.6241   -38.9697    11.0482    12.1800    15.0496    70.3253     0.1425
 4483.5000   109.3079     7.9538     0.0308     2.6181   -39.0574    10.9020    12.1043    16.0254    69.6044     0.1383
 4484.0000   111.2486     7.9567     0.0279     2.5947   -39.1457    10.5405    11.6212    13.9702    68.8836     0.1407
 4484.5000   113.9058     7.9587     0.0312     2.5865   -39.1858     9.7314    11.1573    10.3201    60.6666     0.1503
 4485.0000   115.6077     7.9614     0.0313     2.5794   -39.1865     8.8816    10.4204     9.9775    59.9458     0.1635
 4485.5000   119.6977     7.9638     0.0330     2.5719   -39.1866     7.6342     9.2902     9.4486    51.7243     0.1760
 4486.0000   128.0863     7.9811     0.0317     2.5675   -39.1866     6.5168     7.1901     8.1507    50.8282     0.1869
 4486.5000   130.2805     7.9889     0.0319     2.5533   -39.1874     5.7585     6.4876     7.8557    42.6112     0.1844
 4487.0000   131.2890     8.0007     0.0321     2.5309   -39.1930     5.3038     5.8134     7.4393    41.8904     0.1946
 4487.5000   134.1549     8.0275     0.0322     2.5295   -38.9451     4.9197     5.3182     6.3524    41.1696     0.2054
 4488.0000   144.6927     8.0353     0.0324     2.5281   -38.6538     4.5627     4.9328     5.2766    40.4487     0.2099
 4488.5000   143.5290     8.0377     0.0371     2.5229   -38.4207     4.0878     4.2591     5.3909    39.7279     0.2127
 4489.0000   143.0741     8.0401     0.0448     2.5140   -37.9565     3.4895     3.6217     5.5870    46.5034     0.2140
 4489.5000   144.0672     8.0063     0.0480     2.4841   -37.6386     3.1063     3.0500     5.8255    45.6022     0.2143
 4490.0000   156.5154     7.9854     0.0362     2.4430   -37.5924     2.5781     2.7142     5.9918    44.8814     0.2131
 4490.5000   159.8891     7.9728     0.0288     2.3995   -37.5984     2.3394     2.3989     5.0472    44.1606     0.2106
 4491.0000   161.3522     7.9602     0.0275     2.3741   -37.5991     2.3114     2.3650     4.0503    51.1164     0.2091
 4491.5000   173.4433     7.9626     0.0277     2.3660   -37.5986     2.3781     2.5385     3.0128    57.7210     0.2181
 4492.0000   189.0197     7.9494     0.0309     2.3803   -37.6022     2.4804     2.7118     2.6446    72.7564     0.1823
 4492.5000   177.2119     7.9578     0.0310     2.5006   -37.6915     2.5871     2.9999     2.9496   101.2474     0.1666
 4493.0000   159.8094     7.9696     0.0267     2.5567   -37.7840     2.6984     3.3292     6.4504   130.5116     0.1702
 4493.5000   124.2576     8.0018     0.0224     2.5368   -37.8779     2.9070     3.9860    12.1775    69.6404     0.1798
 4494.0000   128.5864     8.0191     0.0211     2.5257   -37.9526     3.3480     4.4849     7.7825    38.9345     0.1843
 4494.5000   132.9152     8.0215     0.0182     2.5415   -38.1950     4.0653     5.1876     5.7096    98.1837     0.1758
 4495.0000   124.3485     8.0239     0.0161     2.5584   -38.3789     5.1098     5.7734     6.1643    89.4654     0.1698
 4495.5000   117.2147     8.0267     0.0141     2.5493   -38.2421     6.0355     6.4788     7.9080    59.0812     0.1731
 4496.0000   117.4838     8.0291     0.0143     2.5299   -38.1737     6.3827     6.9462     9.4035    65.8567     0.1820
 4496.5000   120.3798     8.0342     0.0130     2.5420   -38.1446     6.6653     7.3452     7.4957    65.1359     0.1811
 4497.0000   119.6313     8.0487     0.0132     2.5526   -38.1141     6.9449     7.8209     7.1462    72.0917     0.1739
 4497.5000   113.2838     8.0315     0.0133     2.5573   -38.0825     7.1442     8.2134     8.5580    71.1905     0.1687
 4498.0000   110.6797     8.0229     0.0135     2.5558   -38.0511     7.5032     8.6304    10.2469    70.4646     0.1699
 4498.5000   112.8668     8.0259     0.0152     2.5635   -38.0204     7.8260     8.8742    10.5578    62.0722     0.1720
 4499.0000   114.8076     8.0282     0.0184     2.5764   -37.9899     8.1065     9.0035    10.1189    61.3514     0.1731
 4499.5000   116.7483     8.0305     0.0231     2.6110   -37.8632     8.3394     9.0094     9.7198    60.6306     0.1758
 4500.0000   116.0327     8.0478     0.0203     2.5713   -37.7326     8.2886     9.0154     9.2046    59.9098     0.1818
 4500.5000   114.4195     8.0502     0.0174     2.5586   -37.6054     8.0680     9.1582     8.8974    59.1890     0.1797
 4501.0000   114.9261     8.0226     0.0161     2.5564   -37.5354     7.7992     9.0900     9.0917    65.9674     0.1754
 4501.5000   117.3510     8.0100     0.0193     2.5579   -37.6316     7.3847     8.6606     9.7483    68.7957     0.1718
 4502.0000   118.0886     8.0440     0.0240     2.5625   -37.6949     6.8488     7.8758    10.2381    62.8626     0.1784
 4502.5000   117.6400     8.0583     0.0331     2.5686   -37.7537     6.4775     7.2549     9.9498    56.9295     0.1848
 4503.0000   121.4971     8.0604     0.0318     2.5670   -37.9138     6.3132     6.9653     8.9909    54.8787     0.1895
 4503.5000   121.7577     8.0627     0.0350     2.5708   -38.5190     6.2729     6.5504     7.9449    54.0852     0.1945
 4504.0000   120.3611     8.0647     0.0412     2.5836   -38.8462     6.2781     6.3763     7.4728    45.7954     0.1993
 4504.5000   119.4349     8.0369     0.0459     2.5822   -38.9484     6.2823     6.3366     6.4693    45.0019     0.2029
 4505.0000   118.2699     8.0239     0.0460     2.5762   -38.7856     6.4161     6.5635     6.0839    44.2083     0.2038
 4505.5000   116.6272     8.0209     0.0417     2.5657   -38.6338     6.2377     6.8502     6.4780    43.4035     0.1947
 4506.0000   111.0255     8.0131     0.0239     2.5432   -38.4819     5.8342     7.0429     9.1540    42.4227     0.1803
 4506.5000   108.0955     8.0306     0.0181     2.5298   -38.3401     5.6795     6.7154    11.3445    41.6292     0.1902
 4507.0000   109.7961     8.0476     0.0183     2.5102   -38.1932     5.6048     6.0592     9.2297    40.8357     0.2067
 4507.5000   119.6162     8.0643     0.0230     2.4931   -37.9985     5.4573     5.6982     6.4517    40.0421     0.2226
 4508.0000   127.5258     8.0512     0.0309     2.4803   -37.6311     5.3126     5.5843     5.0361    39.2486     0.2319
 4508.5000   127.3160     8.0383     0.0398     2.4834   -37.6110     5.1717     5.5505     5.3995    45.9521     0.2325
 4509.0000   123.7629     8.0407     0.0415     2.4939   -37.6136     4.9994     5.4778     5.7502    45.1273     0.2303
