~VERSION INFORMATION
 VERS.                2.0:   CWLS LOG ASCII STANDARD - VERSION 2.0
 WRAP.                 NO:   ONE LINE PER DEPTH STEP
~WELL INFORMATION
#MNEM.UNIT      DATA TYPE    INFORMATION
#----------   ------------   ------------------------------
 STRT.F          206.0000:   START DEPTH
 STOP.F         2974.0000:   STOP DEPTH
 STEP.F            0.5000:   STEP LENGTH
 NULL.          -999.2500:   NO VALUE
 COMP.    FENIX & SCISSON:   COMPANY
 WELL.    FENIX AX #32-21:   WELL
 FLD .                NPR:   FIELD
 LOC .      S21 T39N R78W:   LOCATION
 CNTY.            NATRONA:   COUNTY
 STAT.            WYOMING:   STATE
 CTRY. UNITED STATES OF AMERICA:   COUNTRY
 SRVC.              WELEX:   SERVICE COMPANY
 DATE.        29-JUL-1977:   LOGDATE
 API .     49025104050000:   API NUMBER
~CURVE INFORMATION
#MNEM.UNIT       API CODE    CURVE DESCRIPTION
#----------   ------------   ------------------------------
 DEPT.F                  :   
 SPR .MV     07 010 01 00:   SPONTANEOUS POTENTIAL
 RILM.OHMM   07 120 44 00:   INDUCTION LOG MEDIUM RESISTIVITY
 RILD.OHMM   07 120 46 00:   INDUCTION LOG DEEP RESISTIVITY
 SGRD.OHMM   07 220 05 00:   SHALLOW GUARD LOG RESISTIVITY
 CALD.IN     45 280 60 00:   CALIPER FROM DENSITY LOG
 RHOB.G/C3   45 350 01 00:   BULK DENSITY
 DCOR.G/C3   45 356 01 00:   DENSITY CORRECTION
 GRD .GAPI   45 310 01 00:   GAMMA RAY FROM DENSITY LOG
~PARAMETER INFORMATION
#MNEM.UNIT          VALUE    DESCRIPTION
#----------   ------------   ------------------------------
 EKB .F         4995.0000:   Kelly bushing
 EGL .F         4985.0000:   Ground level
 EDF .F            0.0000:   Drilling floor
 EPD .F         4985.0000:   Permanent datum
 TD  .F         2978.0000:   Total depth
 DATE.        29-JUL-1977:   Date logged
 CLNT.            A2DTECH:   Client Code
 SL  . 1040' FNL & 1500' FWL:   Surface Location
 PD  .                 GL:   Permanent Datum
 LMF .                 KB:   Log Measured From
 DMF .                 KB:   Drilling Measured From
 DAPD.F                10:   Feet Above Permanent Datum
 DD  .F              2972:   Depth driller
 DL  .F              2978:   Depth logger
 BLI .F              2976:   Bottom log interval
 TLI .F               120:   Top log interval
 CS1 .IN            8.625:   Casing size
 CBD1.      8.625" @ 205':   Casing driller 1
 CBL1.F               220:   Casing logger 1
 BS1 .IN            7.875:   Bit size
 BSD1.F              2972:   Depth drilled with bit1
 DFT .                KCL:   Type fluid in hole
 DFD .                9.2:   Density
 DFV .                 43:   Viscosity
 DFPH.                 10:   pH
 DFL .                  8:   Fluid loss
 MSS .            MUD PIT:   Source of sample
 RMS .OHMM            .21:   Rm
 MST .F                91:   Rm Meas. temp.
 RMF .OHMM            .18:   Rmf
 MFST.F                91:   Rmf Meas. temp.
 RMC .OHMM            .23:   Rmc
 MCST.F                91:   Rmc Meas. temp.
 MFSS.               MEAS:   Source Rmf.
 MCSS.               MEAS:   Source Rmc.
 RMB .OHMM            .17:   Rm. at BHT
 BHT .F               110:   BHT.
 TCS .HRS               3:   Time Circ. stopped
 MRT .F               110:   Maximum recorded temp.
 LUN .               9685:   Logging unit number
 LUL .             CASPER:   Logging unit location
 ENGI.   T JOYNER/ E HOCH:   Recorded By
 WITN.         PETTINGILL:   Witnessed by
 ORIG.     2.5", 5" PRINT:   Origin of data
 UWI .     49025104050000:   Unique Well ID
 DICO. A2D TECHNOLOGIES, INC.:   Digitizing Company
~OTHER INFORMATION
~A   DEPT      SPR       RILM       RILD       SGRD       CALD       RHOB       DCOR         GRD  
# ...
 1299.5000   -78.5140     6.6130     7.1550    10.1030     8.7760     2.5500     0.0530   118.6930
 1300.0000   -78.6870     6.4600     7.1760     9.5580     8.7640     2.5500     0.0500   118.0660
 1300.5000   -78.8600     6.3680     7.1960     9.6310     8.7540     2.5470     0.0470   117.6070
 1301.0000   -79.0310     6.4180     7.2160     9.9180     8.7420     2.5360     0.0440   117.2500
 1301.5000   -79.2010     6.4680     7.2370     9.8560     8.7380     2.5250     0.0410   117.6640
 1302.0000   -79.3880     6.6080     7.2570     9.7060     8.7370     2.5130     0.0390   118.0240
 1302.5000   -79.4710     6.5350     7.2770     9.5580     8.7350     2.5060     0.0360   118.4160
 1303.0000   -79.4020     6.4460     7.2970     9.8710     8.7330     2.5070     0.0330   118.7900
 1303.5000   -79.3510     6.3560     7.3180    10.2910     8.7310     2.5120     0.0350   119.1700
 1304.0000   -79.2960     6.2520     7.3380    10.0020     8.7300     2.5200     0.0390   119.5500
 1304.5000   -79.2410     6.2360     7.3580     9.5580     8.7280     2.5290     0.0420   119.9290
 1305.0000   -79.1850     6.2170     7.3790     9.9020     8.7260     2.5260     0.0460   120.3050
 1305.5000   -79.1310     6.1980     7.3720    10.2330     8.7240     2.5280     0.0500   120.6800
 1306.0000   -79.0910     6.1790     7.3620    10.4480     8.7220     2.5330     0.0530   121.0340
 1306.5000   -79.1570     6.1600     7.3510    10.3060     8.7200     2.5370     0.0570   121.3890
 1307.0000   -79.2160     6.1380     7.3400    10.1640     8.7190     2.5420     0.0600   121.8140
 1307.5000   -79.2800     6.2230     7.3290    10.0220     8.7170     2.5440     0.0570   121.7810
 1308.0000   -79.3420     6.3220     7.3180     9.8940     8.7150     2.5390     0.0530   121.1140
 1308.5000   -79.4010     6.4210     7.3070     9.8040     8.7130     2.5350     0.0500   120.4870
 1309.0000   -79.4640     6.5210     7.2960     9.7140     8.7110     2.5300     0.0470   120.9980
 1309.5000   -79.4000     6.6200     7.2850     9.6240     8.7100     2.5260     0.0430   121.7430
 1310.0000   -79.2800     6.7310     7.2750     9.5580     8.7080     2.5210     0.0400   121.1770
 1310.5000   -79.1630     6.8290     7.2630     9.5580     8.7060     2.5210     0.0360   118.9560
 1311.0000   -79.0470     6.9400     7.2490     9.5580     8.7040     2.5210     0.0370   120.2200
 1311.5000   -78.9300     7.0510     7.2660     9.8850     8.7020     2.5210     0.0380   120.5890
 1312.0000   -78.8140     7.1620     7.3110    10.2910     8.7000     2.5190     0.0400   119.5110
 1312.5000   -78.6970     7.2730     7.3530    10.1660     8.7040     2.5100     0.0400   118.4250
 1313.0000   -78.5800     7.3840     7.3960    10.0270     8.7100     2.5090     0.0400   118.1160
 1313.5000   -78.4640     7.4950     7.4380     9.8880     8.7150     2.5170     0.0400   118.4690
 1314.0000   -78.3460     7.6590     7.4800     9.7370     8.7210     2.5200     0.0400   118.7630
 1314.5000   -78.2320     7.6260     7.5170     9.8760     8.7270     2.5170     0.0400   119.0710
 1315.0000   -78.1110     7.5610     7.4720    10.0290     8.7320     2.5200     0.0430   119.3930
 1315.5000   -77.9990     7.4970     7.4320    10.1030     8.7380     2.5250     0.0460   119.4410
 1316.0000   -77.9060     7.4320     7.3920    10.1030     8.7440     2.5320     0.0490   118.8760
 1316.5000   -78.0810     7.3670     7.3520    10.1030     8.7500     2.5400     0.0530   118.2520
 1317.0000   -78.2480     7.3030     7.3110     9.9210     8.7550     2.5470     0.0560   118.3470
 1317.5000   -78.4290     7.2470     7.2710     9.6720     8.7610     2.5530     0.0590   119.2440
 1318.0000   -78.6000     7.2470     7.2300     9.4240     8.7670     2.5550     0.0600   120.1560
 1318.5000   -78.7760     7.2470     7.1890     9.2120     8.7720     2.5540     0.0570   119.9720
 1319.0000   -78.9540     7.3020     7.1490    10.2910     8.7780     2.5540     0.0540   119.1200
 1319.5000   -79.0820     7.3760     7.1140     9.3840     8.7800     2.5530     0.0510   118.3610
 1320.0000   -79.0820     7.4500     7.1360     9.5490     8.7780     2.5530     0.0480   117.6140
 1320.5000   -79.0850     7.5240     7.1560    10.0080     8.7780     2.5520     0.0450   116.7960
 1321.0000   -79.0830     7.5980     7.1740    10.4830     8.7770     2.5520     0.0470   116.2740
 1321.5000   -79.0840     7.6590     7.1940    10.3290     8.7760     2.5520     0.0540   116.0910
 1322.0000   -79.0840     8.0480     7.2130    10.1030     8.7750     2.5620     0.0590   115.8640
 1322.5000   -79.0840     8.3790     7.2320    10.2690     8.7740     2.5710     0.0650   115.5840
 1323.0000   -79.0850     8.7160     7.2520    10.6780     8.7730     2.5770     0.0710   114.8020
 1323.5000   -79.0820     8.4000     7.2710    10.2970     8.7720     2.5700     0.0760   114.0080
 1324.0000   -79.0870     8.6550     7.2900     9.3840     8.7710     2.5640     0.0720   113.8910
 1324.5000   -79.0870     9.3090     7.3090     9.7220     8.7700     2.5560     0.0670   112.4120
 1325.0000   -79.3120     9.9620     7.3290    10.2910     8.7690     2.5500     0.0630   110.8510
 1325.5000   -79.5910    10.4830     7.3480    10.2910     8.7690     2.5430     0.0580   111.4220
 1326.0000   -79.8650     9.8450     7.3670    10.2910     8.7680     2.5350     0.0550   112.7920
 1326.5000   -79.8770     9.3140     7.3780    10.2910     8.7670     2.5310     0.0540   112.5930
 1327.0000   -79.8840     8.7840     7.3570    10.2910     8.7660     2.5320     0.0530   111.2090
 1327.5000   -79.8770     8.2540     7.3370    10.2910     8.7650     2.5360     0.0520   109.8660
 1328.0000   -79.8820     7.8460     7.3170    10.2910     8.7640     2.5430     0.0560   109.5340
 1328.5000   -79.8790     7.6380     7.2960    10.2910     8.7630     2.5500     0.0600   110.7240
 1329.0000   -79.8720     7.5440     7.2760    10.3240     8.7620     2.5520     0.0590   111.7800
 1329.5000   -79.7190     7.4500     7.2550    10.3640     8.7610     2.5490     0.0560   112.8680
 1330.0000   -79.5560     7.3550     7.2350    10.4040     8.7600     2.5480     0.0530   113.9570
 1330.5000   -79.3890     7.2610     7.2150    10.4440     8.7590     2.5560     0.0540   115.0440
 1331.0000   -79.2240     7.1670     7.1940    10.4830     8.7590     2.5660     0.0620   116.1320
 1331.5000   -79.0600     7.0720     7.1740    10.1610     8.7580     2.5600     0.0610   117.1920
 1332.0000   -78.8930     6.9780     7.1540     9.8550     8.7570     2.5480     0.0540   118.3700
 1332.5000   -78.7290     6.8840     7.1340     9.3840     8.7560     2.5370     0.0490   118.4660
 1333.0000   -78.5650     6.7900     7.1150     9.4590     8.7550     2.5250     0.0430   117.5910
 1333.5000   -78.3860     6.6950     7.1150     9.6210     8.7540     2.5170     0.0380   116.8560
 1334.0000   -78.2780     6.6080     7.1140     9.7840     8.7530     2.5120     0.0330   116.1060
 1334.5000   -78.2900     6.6910     7.1140     9.9470     8.7520     2.5170     0.0360   115.2340
 1335.0000   -78.2870     6.7310     7.1140    10.1090     8.7510     2.5290     0.0390   115.0160
 1335.5000   -78.2870     6.6280     7.1140    10.2910     8.7500     2.5400     0.0420   115.8710
 1336.0000   -78.2850     6.4000     7.1140    10.1430     8.7500     2.5400     0.0460   116.6320
 1336.5000   -78.3140     6.4040     7.1150     9.9760     8.7490     2.5400     0.0490   117.5260
 1337.0000   -78.3760     6.5270     7.1150     9.8090     8.7480     2.5440     0.0520   117.7550
 1337.5000   -78.4320     6.6490     7.0930     9.5580     8.7470     2.5450     0.0480   116.6650
 1338.0000   -78.4920     6.8560     7.0210     9.6340     8.7460     2.5430     0.0440   115.7110
 1338.5000   -78.5510     6.8390     6.9490     9.7840     8.7450     2.5370     0.0400   114.7310
 1339.0000   -78.6030     6.7810     6.8660     9.9180     8.7440     2.5290     0.0350   113.6340
 1339.5000   -78.6790     6.7230     6.8880     9.7910     8.7430     2.5210     0.0310   113.5170
