~VERSION INFORMATION
 VERS.                2.0:   CWLS LOG ASCII STANDARD - VERSION 2.0
 WRAP.                 NO:   ONE LINE PER DEPTH STEP
~WELL INFORMATION
#MNEM.UNIT      DATA TYPE    INFORMATION
#----------   ------------   ------------------------------
 STRT.F          450.0000:   START DEPTH
 STOP.F         3098.0000:   STOP DEPTH
 STEP.F            0.5000:   STEP LENGTH
 NULL.          -999.2500:   NO VALUE
 COMP. FENIX & SCISSON - U.S NAVY:   COMPANY
 WELL. FENIX NPR 3 "AX" #11-33:   WELL
 FLD .              N P R:   FIELD
 LOC .      S33 T39N R78W:   LOCATION
 CNTY.            NATRONA:   COUNTY
 STAT.            WYOMING:   STATE
 CTRY. UNITED STATES OF AMERICA:   COUNTRY
 SRVC.              WELEX:   SERVICE COMPANY
 DATE.        12-MAR-1977:   LOGDATE
 API .     49025103210000:   API NUMBER
~CURVE INFORMATION
#MNEM.UNIT       API CODE    CURVE DESCRIPTION
#----------   ------------   ------------------------------
 DEPT.F                  :   
 CALD.IN     45 280 60 00:   CALIPER FROM DENSITY LOG
 GRD .GAPI   45 310 01 00:   GAMMA RAY FROM DENSITY LOG
 RHOB.G/C3   45 350 01 00:   BULK DENSITY
 CORR.G/C3   45 356 01 00:   DENSITY CORRECTION
 SPR .MV     07 010 01 00:   SPONTANEOUS POTENTIAL
 SGRD.MV     07 010 01 00:   SHALLOW GUARD RESISTIVITY
 ILD .OHMM   07 120 46 00:   DEEP INDUCTION RESISTIVITY
 ILM .OHMM   07 120 44 00:   INDUCTION LOG MEDIUM RESISTIVITY
~PARAMETER INFORMATION
#MNEM.UNIT          VALUE    DESCRIPTION
#----------   ------------   ------------------------------
 EKB .F         5133.0000:   Kelly bushing
 EGL .F         5122.0000:   Ground level
 TD  .F         3130.0000:   Total depth
 DATE.        12-MAR-1977:   Date logged
 CLNT.            A2DTECH:   Client Code
 SL  . 331' FNL & 430' FWL:   Surface Location
 PD  .                 GL:   Permanent Datum
 DD  .F              3130:   Depth driller
 DL  .F              3102:   Depth logger
 BLI .F              3100:   Bottom log interval
 CS1 .IN            8.625:   Casing size
 CBD1.      8.625" @ 459':   Casing driller 1
 CBL1.F               455:   Casing logger 1
 BS1 .IN            7.875:   Bit size
 DFT .                KCL:   Type fluid in hole
 DFD .                9.3:   Density
 DFV .                 36:   Viscosity
 DFL .               16.2:   Fluid loss
 MSS .           FLOWLINE:   Source of sample
 RMS .OHMM           0.37:   Rm
 MST .F                50:   Rm Meas. temp.
 RMF .OHMM           0.32:   Rmf
 MFST.F                55:   Rmf Meas. temp.
 RMC .OHMM           0.58:   Rmc
 MCST.F                55:   Rmc Meas. temp.
 MFSS.               MEAS:   Source Rmf.
 RMB .OHMM           .168:   Rm. at BHT
 BHT .F               110:   BHT.
 TCS .HRS               4:   Time Circ. stopped
 MRT .F               110:   Maximum recorded temp.
 LUN .               0716:   Logging unit number
 LUL .             VERNAT:   Logging unit location
 ENGI.        E. CALLAHAN:   Recorded By
 WITN.            K. JAPP:   Witnessed by
 ORIG.           5" PRINT:   Origin of data
 UWI .     49025103210000:   Unique Well ID
 DICO. A2D TECHNOLOGIES, INC.:   Digitizing Company
 DAPD.F                11:   Feet Above Permanent Datum
 BSD1.               3950:   Depth drilled with bit1
 MCSS.               CALC:   Source Rmc.
 EPD .F              5122:   Elevation Permanent Datum
 LMF .                 KB:   Log Measured From
 DMF .                 KB:   Drilling Measured From
 TLI .F               455:   Top log interval
~OTHER INFORMATION
~A   DEPT       CALD       GRD        RHOB      CORR       SPR       SGRD        ILD        ILM   
# ...
 1989.0000     8.8770   159.3254     2.3964     0.0191   -43.2089    13.1733     8.0105    11.0583
 1989.5000     8.8770   159.5238     2.4245     0.0462   -43.0071    13.1753     8.0862    10.9576
 1990.0000     8.8571   159.5238     2.4325     0.0482   -43.2028    13.1774     8.1623    11.0618
 1990.5000     8.8373   156.7460     2.4255     0.0342   -43.0009    13.1795     8.1638    11.0635
 1991.0000     8.7976   154.5635     2.4355     0.0321   -42.7991    13.1816     8.3137    11.0639
 1991.5000     8.7976   152.5794     2.4495     0.0442   -42.9947    13.1837     8.3150    10.9645
 1992.0000     8.7778   151.1905     2.4695     0.0642   -43.1898    13.1858     8.3930    11.0688
 1992.5000     8.7778   151.1905     2.4586     0.0462   -42.9879    13.1879     8.3945    11.0691
 1993.0000     8.7778   151.3889     2.4525     0.0482   -42.9848    13.3120     8.3956    11.2767
 1993.5000     8.8770   152.1825     2.4625     0.0441   -42.7830    13.4373     8.3971    11.0740
 1994.0000     8.8770   153.7698     2.4625     0.0361   -42.5811    13.3162     8.1724    11.0757
 1994.5000     8.8770   155.1587     2.4545     0.0401   -42.5780    12.7188     8.1742    11.1800
 1995.0000     8.8738   158.7302     2.4505     0.0361   -42.5749    12.7209     8.1752    10.9773
 1995.5000     8.8706   160.1190     2.4374     0.0321   -42.7706    12.7229     8.1765    11.0806
 1996.0000     8.8675   160.3175     2.4444     0.0341   -42.5687    12.7249     8.1775    10.9845
 1996.5000     8.8643   160.4796     2.4544     0.0381   -42.7644    13.2045     8.1788    11.0837
 1997.0000     8.8611   160.7143     2.4454     0.0401   -42.5625    13.2066     8.1798    10.8835
 1997.5000     8.8579   160.9127     2.4544     0.0381   -42.5594    12.3839     8.1811    10.9863
 1998.0000     8.8548   163.4439     2.4554     0.0401   -42.3575    12.9697     8.1824    10.9880
 1998.5000     8.8516   165.9750     2.4349     0.0361   -42.1556    13.2129     8.1842    11.0907
 1999.0000     8.8484   168.0556     2.4289     0.0381   -42.1525    13.2150     8.1854    10.9918
 1999.5000     8.8452   168.8492     2.4359     0.0401   -42.1494    13.2171     8.1867    11.0953
 2000.0000     8.8421   168.9026     2.4259     0.0260   -42.1469    13.2192     8.1877    11.0970
 2000.5000     8.8389   168.9560     2.4098     0.0311   -42.2617    12.6288     8.1896    11.0988
 2001.0000     8.8373   169.0032     2.4379     0.0440   -42.3086    12.7430     8.1894    11.0523
 2001.5000     8.8372   169.0471     2.4659     0.0520   -42.5389    13.1010     8.1896    11.0060
 2002.0000     8.8570   169.0470     2.4649     0.0440   -42.5380    13.3455     8.1902    10.9983
 2002.5000     8.8570   168.4514     2.4478     0.0379   -42.5366    12.7457     8.1908    10.8982
 2003.0000     8.8570   168.0546     2.4318     0.0339   -42.5352    12.7466     8.1914    10.8992
 2003.5000     8.8569   165.3330     2.4443     0.0319   -42.7326    13.2260     8.1920    11.0005
 2004.0000     8.8569   162.6115     2.4368     0.0279   -42.7311    13.7174     8.1931    11.2060
 2004.5000     8.8569   157.9358     2.4172     0.0098   -42.5309    13.5926     8.1936    11.0024
 2005.0000     8.8569   157.9357     2.4182     0.0098   -42.5295    12.6335     8.1943    10.8023
 2005.5000     8.8568   159.7212     2.4423     0.0238   -42.7269    11.7369     8.1947    10.6055
 2006.0000     8.8965   160.9114     2.4574     0.0398   -42.9242    12.6353     8.1953    10.6067
 2006.5000     8.8965   160.1178     2.4663     0.0498   -42.9228    13.1105     8.1957    10.7051
 2007.0000     8.8930   158.7290     2.4593     0.0498   -43.1202    13.1114     8.1967    11.0059
 2007.5000     8.8896   157.7370     2.4893     0.0758   -43.1188    13.1123     8.1972    11.2119
 2008.0000     8.8862   159.5223     2.4913     0.0597   -42.7198    13.1133     8.1979    11.1098
 2008.5000     8.8828   161.3076     2.4492     0.0537   -42.5196    13.1142     8.1983    11.0086
 2009.0000     8.8793   162.2994     2.4622     0.0476   -42.7169    13.1151     8.1240    10.9084
 2009.5000     8.8764   162.6960     2.4402     0.0396   -42.7155    12.7586     7.7591    10.8095
 2010.0000     8.8764   160.1171     2.4402     0.0195   -42.9131    12.1852     7.7593    10.8100
 2010.5000     8.8764   161.9023     2.3966     0.0255   -42.9458    11.8540     7.7600    10.7118
 2011.0000     8.8764   161.7038     2.3981     0.0275   -42.9784    12.6443     7.7605    10.5170
 2011.5000     8.8763   161.7037     2.4271     0.0355   -43.0111    12.4144     7.7611    10.4212
 2012.0000     8.8763   162.1003     2.4071     0.0395   -43.0437    12.4153     7.6880    10.2319
 2012.5000     8.8961   161.3067     2.4071     0.0384   -43.0763    12.3024     7.6883    10.2325
 2013.0000     8.8961   159.9181     2.4231     0.0404   -43.1090    12.3033     7.5484    10.2331
 2013.5000     8.8961   158.9262     2.3970     0.0334   -43.1416    11.9688     7.4799    10.2341
 2014.0000     8.8960   157.7360     2.4131     0.0314   -43.1742    11.4310     7.4804    10.4251
 2014.5000     8.8960   160.5129     2.4065     0.0333   -43.2069    12.0813     7.4809    10.7178
 2015.0000     8.8960   161.5045     2.4095     0.0313   -43.2395    12.8868     7.5507    11.0190
 2015.5000     8.8959   164.8764     2.4125     0.0293   -43.2721    12.6524     7.8346    10.9185
 2016.0000     8.8959   167.4548     2.4190     0.0272   -43.3048    12.4224     7.8352    10.5246
 2016.5000     8.8959   168.6447     2.4180     0.0272   -43.3374    12.7713     7.7639    10.5254
 2017.0000     8.8959   170.2313     2.4330     0.0312   -43.3701    12.7722     7.6932    10.5260
 2017.5000     8.8958   172.6112     2.4275     0.0312   -43.4027    12.1983     7.6939    10.5268
 2018.0000     8.8958   178.1646     2.3970     0.0151   -43.4353    11.1258     7.6240    10.5275
 2018.5000     8.8759   179.7509     2.4160     0.0231   -43.4840    12.0884     7.4854    10.5284
 2019.0000     8.8561   180.9408     2.4120     0.0491   -43.2847    12.7759     7.4859    10.5290
 2019.5000     8.8362   182.1305     2.4120     0.0471   -43.2833    13.0143     7.4865    10.5298
 2020.0000     8.8163   182.9236     2.4330     0.0441   -43.4806    13.0152     7.4870    10.5310
 2020.5000     8.7965   183.7165     2.4300     0.0380   -43.4792    12.6615     7.6268    10.8265
 2021.0000     8.7766   180.3445     2.4210     0.0140   -43.6765    12.7795     7.9165    10.7274
 2021.5000     8.7766   178.1627     2.3929     0.0363   -43.6750    12.7804     7.9171    10.8276
 2022.0000     8.7766   175.5841     2.4169     0.0410   -43.8723    12.7813     7.9909    10.9290
 2022.5000     8.7765   172.6089     2.4019     0.0389   -43.8709    12.7823     8.1401    10.8296
 2023.0000     8.7765   169.8322     2.4159     0.0449   -44.0682    12.7832     8.0661    10.8299
 2023.5000     8.7765   169.4354     2.4104     0.0449   -44.2655    13.1422     8.0664    11.1346
 2024.0000     8.7765   168.2453     2.4199     0.0449   -44.2640    13.1431     8.0671    11.5532
 2024.5000     8.7764   166.0636     2.4209     0.0468   -44.0639    14.2799     8.0678    11.5534
 2025.0000     8.7764   166.2618     2.3988     0.0448   -44.0624    14.5464     7.9945    11.7693
 2025.5000     8.7764   166.8566     2.4289     0.0448   -44.0610    14.4140     7.9951    12.5545
 2026.0000     8.7764   169.8310     2.4091     0.0368   -44.2583    13.7664     8.2196    11.7714
 2026.5000     8.7962   169.8309     2.4043     0.0327   -44.2569    13.5161     8.1449    11.1394
 2027.0000     8.7961   168.8391     2.3993     0.0347   -44.2554    13.3931     8.1455    10.8365
 2027.5000     8.7961   166.2610     2.3943     0.0367   -44.0553    12.3288     7.9974    10.5420
 2028.0000     8.7961   164.0795     2.4148     0.0387   -43.8551    13.2726     7.9980    10.1614
 2028.5000     8.8359   161.5014     2.4128     0.0406   -43.6550    13.3902     7.9986     9.9769
 2029.0000     8.8358   159.9149     2.4138     0.0386   -43.6536    13.7658     8.0732     9.8861
