~VERSION INFORMATION
 VERS.                2.0:   CWLS LOG ASCII STANDARD - VERSION 2.0
 WRAP.                 NO:   ONE LINE PER DEPTH STEP
~WELL INFORMATION
#MNEM.UNIT      DATA TYPE    INFORMATION
#----------   ------------   ------------------------------
 STRT.F          407.0000:   START DEPTH
 STOP.F         3228.0000:   STOP DEPTH
 STEP.F            0.5000:   STEP LENGTH
 NULL.          -999.2500:   NO VALUE
 COMP.    FENIX & SCISSON:   COMPANY
 WELL.   FENIX "A" #21-34:   WELL
 FLD .             N.P.R.:   FIELD
 LOC .      S34 T39N R78W:   LOCATION
 CNTY.            NATRONA:   COUNTY
 STAT.            WYOMING:   STATE
 CTRY. UNITED STATES OF AMERICA:   COUNTRY
 SRVC.       SCHLUMBERGER:   SERVICE COMPANY
 DATE.        05-MAY-1977:   LOGDATE
 API .     49025103710000:   API NUMBER
~CURVE INFORMATION
#MNEM.UNIT       API CODE    CURVE DESCRIPTION
#----------   ------------   ------------------------------
 DEPT.F                  :   
 SPR .MV     11 010 01 00:   SPONTANEOUS POTENTIAL FROM RES.
 LLS .OHMM   11 220 09 00:   LATEROLOG LOG SHALLOW
 LLD .OHMM   11 220 10 00:   LATEROLOG DEEP
 MSFL.OHMM   11 270 04 00:   MICRO SPHERICALLY FOCUSED
 CALD.IN     45 280 60 00:   CALIPER FROM DENSITY LOG
 NPHI.DEC    42 890 03 00:   NEUTRON POROSITY SANDSTONE
 GRD .GAPI   45 310 01 00:   GAMMA RAY FROM DENSITY LOG
 CORR.G/C3   45 356 01 00:   DENSITY CORRECTION
 RHOB.G/C3   45 350 01 00:   BULK DENSITY
~PARAMETER INFORMATION
#MNEM.UNIT          VALUE    DESCRIPTION
#----------   ------------   ------------------------------
 EKB .F         5086.0000:   Kelly bushing
 EGL .F         5074.0000:   Ground level
 TD  .F         3226.0000:   Total depth
 CLNT.            A2DTECH:   Client Code
 SL  . 990' FWL & 330' FNL:   Surface Location
 PD  .                 GL:   Permanent Datum
 EPD .F              5074:   Elevation Permanent Datum
 LMF .                 KB:   Log Measured From
 DMF .                 KB:   Drilling Measured From
 DAPD.F                12:   Feet Above Permanent Datum
 DATE.        05-MAY-1977:   Date Logged [DD-MMM-YYYY]
 DD  .F              3226:   Depth driller
 DL  .F              3229:   Depth logger
 BLI .F              3227:   Bottom log interval
 TLI .F               430:   Top log interval
 CS1 .IN            8.625:   Casing size
 CBD1.      8.625" @ 424':   Casing driller 1
 CBL1.F               430:   Casing logger 1
 BS1 .IN            7.875:   Bit size
 BSD1.F              3226:   Depth drilled with bit1
 DFT .                KCL:   Type fluid in hole
 DFD .                9.4:   Density
 DFV .                 31:   Viscosity
 DFPH.                  8:   pH
 DFL .                9.6:   Fluid loss
 MSS .           MUD TANK:   Source of sample
 RMS .OHMM          0.202:   Rm
 MST .F                78:   Rm Meas. temp.
 RMF .OHMM          0.191:   Rmf
 MFST.F                76:   Rmf Meas. temp.
 MFSS.               MEAS:   Source Rmf.
 RMC .OHMM           0.30:   Rmc
 MCST.F                78:   Rmc Meas. temp.
 MCSS.               CALC:   Source Rmc.
 RMB .OHMM          0.123:   Rm. at BHT
 BHT .F               128:   BHT.
 TCS .HRS            1400:   Time Circ. stopped
 TLAB.HRS            0300:   Time logger at bottom
 MRT .F               128:   Maximum recorded temp.
 LUN .               5642:   Logging unit number
 LUL .               CSPR:   Logging unit location
 ENGI.                FIX:   Recorded By
 WITN.         HARRINGTON:   Witnessed by
 ORIG.           5" PRINT:   Origin of data
 UWI .     49025103710000:   Unique Well ID
 DICO. A2D TECHNOLOGIES, INC.:   Digitizing Company
~OTHER INFORMATION
~A   DEPT      SPR        LLS        LLD       MSFL       CALD       NPHI         GRD      CORR       RHOB   
# ...
 1319.5000   -60.3914     7.9203     7.4493     9.1865     8.2306     0.3589    99.2259     0.0143     2.5174
 1320.0000   -59.4207     7.8744     7.3558     9.0080     8.2301     0.3469   105.3383     0.0085     2.4938
 1320.5000   -57.0787     7.8831     7.2657     8.8331     8.2295     0.3435   108.0673     0.0079     2.4849
 1321.0000   -56.2137     7.8919     7.1745     8.7797     8.2290     0.3402   106.4509     0.0103     2.4820
 1321.5000   -56.2568     7.9006     7.0841     8.8535     8.2285     0.3350   109.2450     0.0105     2.4896
 1322.0000   -56.2360     7.9110     6.9470     9.0498     8.2279     0.3344   111.5229     0.0061     2.4927
 1322.5000   -56.0629     7.9747     6.9076     9.2505     8.2274     0.3470   112.8984     0.0001     2.4905
 1323.0000   -58.0359     8.0389     7.0128     9.3904     8.2269     0.3446   113.3662     0.0025     2.5019
 1323.5000   -58.0089     8.0476     7.0770     9.5324     8.2264     0.3400   109.1082     0.0064     2.5080
 1324.0000   -57.9337     8.0564     7.2297     9.6116     8.2258     0.3538   105.5214     0.0103     2.5036
 1324.5000   -59.6587     7.8993     7.3906     9.6880     8.2253     0.3504   101.7090     0.0127     2.4939
 1325.0000   -58.9570     7.7991     7.5552     9.6994     8.2248     0.3453    97.6710     0.0121     2.4883
 1325.5000   -57.8754     7.7516     7.5644     9.5794     8.2242     0.3498    94.0842     0.0153     2.4956
 1326.0000   -57.0086     7.6533     7.0178     9.4585     8.2237     0.3419    95.2342     0.0192     2.5047
 1326.5000   -58.1429     7.5581     6.6937     9.2108     8.2232     0.3440    99.7677     0.0284     2.5200
 1327.0000   -57.9150     7.5666     6.7019     9.0318     8.2227     0.3491   101.3688     0.0368     2.5305
 1327.5000   -56.2466     7.6823     6.8988     8.8538     8.2221     0.3479   102.2932     0.0392     2.5238
 1328.0000   -54.3479     7.7963     6.8122     8.7421     8.2216     0.3397   105.7742     0.0174     2.4878
 1328.5000   -54.3104     7.9138     6.7246     8.7548     8.2211     0.3358   109.4518     0.0009     2.4758
 1329.0000   -56.2314     8.0330     6.6419     8.7044     8.2205     0.3414   112.7413    -0.0028     2.4872
 1329.5000   -56.7598     8.0993     6.7432     8.5353     8.2200     0.3480   115.2447     0.0072     2.4812
 1330.0000   -56.8358     8.0522     6.8457     8.4274     8.2195     0.3525   119.3270     0.0111     2.4941
 1330.5000   -56.5036     8.0053     6.9019     8.5551     8.2190     0.3609   113.2590     0.0120     2.4875
 1331.0000   -55.5102     7.8492     6.8625     8.5655     8.2184     0.3624   105.1609     0.0114     2.4988
 1331.5000   -53.4658     7.7476     6.7764     8.6947     8.2179     0.3566   104.9519     0.0115     2.5193
 1332.0000   -50.9686     7.6494     6.8815     8.7655     8.2174     0.3551   106.1075     0.0177     2.5329
 1332.5000   -50.2648     7.5524     6.9378     8.8388     8.2168     0.3611   108.3853     0.0054     2.4916
 1333.0000   -50.2485     7.5626     7.0433     8.9105     8.2163     0.3604   108.8531     0.0088     2.5082
 1333.5000   -49.3278     7.6235     7.1504     9.0452     8.2158     0.3558   104.3695     0.0226     2.5143
 1334.0000   -48.3260     7.7920     7.1075     9.1186     8.2153     0.3496   102.8128     0.0205     2.5114
 1334.5000   -47.7627     7.9677     7.0671     9.2565     8.2147     0.3438    98.5492     0.0078     2.4995
 1335.0000   -49.0311     8.1406     7.1767     9.3965     8.2142     0.3377    92.7068     0.0079     2.4965
 1335.5000   -50.3061     8.1513     7.2355     9.5385     8.2137     0.3293    95.2556     0.0095     2.5087
 1336.0000   -50.2997     8.1602     7.2444     9.6159     8.2131     0.3322    98.2855     0.0157     2.5231
 1336.5000   -50.3733     8.1691     7.2032     9.6940     8.2126     0.3416   100.8992     0.0241     2.5179
 1337.0000   -50.6885     8.0655     7.1621     9.7052     8.2123     0.3557   101.3725     0.0069     2.5255
 1337.5000   -50.6288     7.9632     7.1215     9.5828     8.2123     0.3596   102.0714     0.0009     2.5211
 1338.0000   -50.2947     7.8622     6.9805     9.3318     8.2123     0.3616   105.4715     0.0049     2.5276
 1338.5000   -49.9078     7.7604     6.7950     8.3531     8.2123     0.3483   100.0857     0.0156     2.5318
 1339.0000   -50.1152     7.5587     6.5340     8.0874     8.2123     0.3390   101.0101     0.0188     2.5033
 1339.5000   -50.6144     7.4113     6.3631     8.1554     8.2123     0.3447   102.8368     0.0045     2.4981
 1340.0000   -50.7332     7.3174     6.2813     8.2787     8.2123     0.3495   107.3703     0.0016     2.4884
 1340.5000   -50.2586     7.1747     6.4231     8.4039     8.2123     0.3524   109.4225     0.0058     2.4930
 1341.0000   -49.9108     7.2827     6.5661     8.3532     8.2123     0.3506   109.2136     0.0170     2.5006
 1341.5000   -49.9735     7.3459     6.6199     8.1933     8.2123     0.3494   108.3383     0.0156     2.5083
 1342.0000   -52.7205     7.5122     6.6741     8.1438     8.2123     0.3511   107.6846     0.0044     2.5038
 1342.5000   -51.6385     7.6715     6.6823     8.2122     8.2123     0.3453   107.0301     0.0037     2.4964
 1343.0000   -50.3926     7.6798     6.7839     8.2217     8.2123     0.3393   106.6011     0.0062     2.4867
 1343.5000   -49.8917     7.6331     7.0806     8.4041     8.2123     0.3432   108.9697     0.0093     2.4800
 1344.0000   -49.9012     7.4863     6.9917     8.5904     8.2123     0.3513   114.5458     0.0125     2.4944
 1344.5000   -50.3140     7.4407     6.8089     8.6601     8.2123     0.3519   115.6903     0.0148     2.5013
 1345.0000   -51.0198     7.3464     6.5396     8.7304     8.2123     0.3491   113.1127     0.0044     2.4953
 1345.5000   -51.0972     7.3056     6.3629     8.8013     8.2123     0.3557   111.3760     0.0053     2.4994
 1346.0000   -51.0606     7.2611     6.1967     8.7506     8.2123     0.3695   109.8279     0.0152     2.5077
 1346.5000   -50.3190     7.2710     6.2548     8.5214     8.2123     0.3804   107.3776     0.0116     2.5047
 1347.0000   -49.8729     7.4317     6.3941     8.3559     8.2123     0.3860   104.9273     0.0034     2.5017
 1347.5000   -49.4881     7.4915     6.5819     8.2529     8.2123     0.3790   103.1537     0.0027     2.5101
 1348.0000   -49.8214     7.6043     6.5900     8.2624     8.2123     0.3716   101.6057     0.0037     2.5139
 1348.5000   -50.9524     7.6717     6.5052     8.3295     8.2123     0.3644   100.7343    -0.0015     2.4929
 1349.0000   -51.5509     7.7292     6.3812     8.3686     8.2123     0.3612    98.7352    -0.0052     2.4614
 1349.5000   -52.5713     7.7376     6.2143     8.5833     8.2123     0.3639    94.9315    -0.0028     2.4690
 1350.0000   -53.6179     7.5344     6.1771     8.7130     8.2123     0.3657    94.5113     0.0042     2.4932
 1350.5000   -53.7233     7.2859     6.3605     8.9681     8.2123     0.3659    98.2302     0.0073     2.4872
 1351.0000   -52.6945     7.0456     6.5473     9.1529     8.2123     0.3626   103.9792    -0.0047     2.4891
 1351.5000   -52.0279     6.9544     6.7864     9.2756     8.2123     0.3577   100.7020    -0.0055     2.5025
 1352.0000   -51.1712     7.1100     6.8022     9.3983     8.2122     0.3508    99.8229     0.0032     2.5086
 1352.5000   -50.6774     7.2672     6.8185     9.5164     8.2166     0.3480   100.9893     0.0086     2.5027
 1353.0000   -50.2990     7.4472     6.8348     9.5943     8.2214     0.3519    99.2157     0.0133     2.5254
 1353.5000   -50.2913     7.5903     6.8509     9.5377     8.2263     0.3491    96.5399     0.0141     2.5414
 1354.0000   -50.2931     7.1909     6.7552     8.9086     8.2311     0.3443    93.6385     0.0120     2.5693
 1354.5000   -50.3273     6.8108     6.4493     7.5502     8.2360     0.3397    91.6393     0.0150     2.5928
 1355.0000   -51.0406     6.5861     6.0647     7.7185     8.2408     0.3442    95.2792     0.0212     2.5763
 1355.5000   -51.4664     6.6421     5.3581     8.0541     8.2456     0.3397   101.6259     0.0487     2.5719
