~VERSION INFORMATION
 VERS.                2.0:   CWLS LOG ASCII STANDARD - VERSION 2.0
 WRAP.                 NO:   ONE LINE PER DEPTH STEP
~WELL INFORMATION
#MNEM.UNIT      DATA TYPE    INFORMATION
#----------   ------------   ------------------------------
 STRT.F          748.0000:   START DEPTH
 STOP.F         2734.0000:   STOP DEPTH
 STEP.F            0.5000:   STEP LENGTH
 NULL.          -999.2500:   NO VALUE
 COMP.    FENIX & SCISSON:   COMPANY
 WELL. FENIX NPR 3 "SHX" #84-4:   WELL
 FLD .             TEAPOT:   FIELD
 LOC .       S4 T38N R78W:   LOCATION
 CNTY.            NATRONA:   COUNTY
 STAT.            WYOMING:   STATE
 CTRY. UNITED STATES OF AMERICA:   COUNTRY
 SRVC.              WELEX:   SERVICE COMPANY
 DATE.        08-MAY-1980:   LOGDATE
 API .     49025108050000:   API NUMBER
~CURVE INFORMATION
#MNEM.UNIT       API CODE    CURVE DESCRIPTION
#----------   ------------   ------------------------------
 DEPT.F                  :   
 CALD.IN     45 280 60 00:   CALIPER FROM DENSITY LOG
 GRD .GAPI   45 310 01 00:   GAMMA RAY FROM DENSITY LOG
 RHOB.G/C3   45 350 01 00:   BULK DENSITY
 CORR.G/C3   45 356 01 00:   DENSITY CORRECTION
~PARAMETER INFORMATION
#MNEM.UNIT          VALUE    DESCRIPTION
#----------   ------------   ------------------------------
 EKB .F         5244.0000:   Kelly bushing
 EGL .F         5234.0000:   Ground level
 EDF .F            0.0000:   Drilling floor
 TD  .F         2733.0000:   Total depth
 DATE.        08-MAY-1980:   Date logged
 CLNT.            A2DTECH:   Client Code
 SL  . 7461' FNL & 383' FEL:   Surface Location
 PD  .                 GL:   Permanent Datum
 EPD .F              5234:   Elevation Permanent Datum
 LMF .                 KB:   Log Measured From
 DMF .                 KB:   Drilling Measured From
 DAPD.F                10:   Feet Above Permanent Datum
 DD  .F              2700:   Depth driller
 DL  .F              2733:   Depth logger
 BLI .F              2731:   Bottom log interval
 TLI .F               752:   Top log interval
 CS1 .IN            9.625:   Casing size
 CBD1.      9.625" @ 260':   Casing driller 1
 BS1 .IN              8.5:   Bit size
 BSD1.F              2700:   Depth drilled with bit1
 DFT .                AIR:   Type fluid in hole
 MRT .F               118:   Maximum recorded temp.
 LUN .                  2:   Logging unit number
 ENGI.           TORTILLE:   Recorded By
 WITN.              AMEND:   Witnessed by
 ORIG.           5" PRINT:   Origin of data
 UWI .     49025108050000:   Unique Well ID
 DICO. A2D TECHNOLOGIES, INC.:   Digitizing Company
~OTHER INFORMATION
~A   DEPT       CALD       GRD        RHOB       CORR 
  748.0000     9.1000    58.5000     2.2540     0.3060
  748.5000     9.1000    58.5000     2.2540     0.3060
  749.0000     9.1000    58.5000     2.2540     0.3060
  749.5000     9.1050    58.3120     2.2540     0.3060
  750.0000     9.1130    58.1340     2.2540     0.3060
  750.5000     9.1210    57.9560     2.2540     0.3060
  751.0000     9.1290    57.8160     2.2540     0.2860
  751.5000     9.1420    57.7120     2.2540     0.2750
  752.0000     9.1910    57.3630     2.2680     0.2850
  752.5000     9.8110    57.4150     2.2940     0.3200
  753.0000    10.2310    57.7740     2.3240     0.3490
  753.5000    10.2400    58.1090     2.3540     0.3580
  754.0000    10.2160    58.4560     2.3870     0.3090
  754.5000    10.6130    58.8010     2.4240     0.2560
  755.0000    10.9770    59.0850     2.4110     0.2000
  755.5000    11.3610    59.1470     2.3300     0.1470
  756.0000    11.7290    59.3170     2.2590     0.1060
  756.5000    12.1200    59.4720     2.2110     0.1480
  757.0000    12.3500    59.6360     2.2040     0.1820
  757.5000    12.2880    59.7980     2.1970     0.2350
  758.0000    11.9720    59.9590     2.1920     0.2120
  758.5000    11.7010    60.1210     2.3800     0.1400
  759.0000    11.6400    60.2830     2.4260     0.1090
  759.5000    11.1050    60.4450     2.4670     0.1260
  760.0000    10.6340    60.6070     2.4800     0.1370
  760.5000    10.0620    60.7680     2.4730     0.1370
  761.0000     9.9710    60.9300     2.4640     0.1190
  761.5000     9.8930    61.0930     2.4600     0.1130
  762.0000     9.8370    61.2530     2.4850     0.1300
  762.5000     9.7650    61.4160     2.4690     0.1140
  763.0000     9.7030    61.5820     2.4440     0.0940
  763.5000     9.6330    61.7310     2.4460     0.1040
  764.0000     9.6250    61.9190     2.4620     0.1210
  764.5000     9.5890    62.0810     2.4760     0.1370
  765.0000     9.6760    63.3970     2.4830     0.1510
  765.5000     9.8010    65.1320     2.4520     0.1290
  766.0000     9.9300    66.8560     2.4600     0.1030
  766.5000    10.0600    68.5730     2.4670     0.1170
  767.0000    10.1790    70.2520     2.4600     0.1120
  767.5000    10.1740    72.2320     2.4510     0.1050
  768.0000    10.0620    74.5100     2.4420     0.0910
  768.5000     9.8240    76.7390     2.4380     0.0750
  769.0000     9.5760    78.9430     2.4510     0.0760
  769.5000     9.4130    81.2360     2.4410     0.0800
  770.0000     9.3590    83.3870     2.4470     0.0840
  770.5000     9.2990    85.3810     2.4630     0.0870
  771.0000     9.2410    84.2890     2.4630     0.0900
  771.5000     9.1830    84.8030     2.4550     0.0840
  772.0000     9.1400    85.0860     2.4610     0.0730
  772.5000     9.1180    85.5450     2.4800     0.0830
  773.0000     9.0900    85.8740     2.4920     0.0930
  773.5000     9.0630    86.2600     2.4720     0.0790
  774.0000     9.0340    86.6330     2.4770     0.0760
  774.5000     9.0190    87.0030     2.4990     0.0920
  775.0000     9.0200    87.3680     2.4880     0.0860
  775.5000     9.0200    87.7620     2.4790     0.0810
  776.0000     9.0200    87.8360     2.4690     0.0740
  776.5000     9.0200    87.6700     2.4590     0.0680
  777.0000     9.0200    87.5320     2.4530     0.0610
  777.5000     9.0200    87.3920     2.4540     0.0620
  778.0000     9.0200    87.2490     2.4500     0.0650
  778.5000     9.0200    87.1060     2.4470     0.0600
  779.0000     9.0200    86.9690     2.4370     0.0550
  779.5000     9.0200    86.8210     2.4270     0.0530
  780.0000     9.0200    86.6770     2.4250     0.0580
  780.5000     9.0200    86.3080     2.4360     0.0640
  781.0000     9.0200    85.9800     2.4460     0.0700
  781.5000     9.0200    85.6190     2.4570     0.0760
  782.0000     9.0200    85.2960     2.4670     0.0820
  782.5000     9.0200    84.9340     2.4770     0.0880
  783.0000     9.0200    85.0910     2.4730     0.0890
  783.5000     9.0200    85.2940     2.4660     0.0820
  784.0000     9.0200    85.4940     2.4590     0.0740
  784.5000     9.0200    85.4970     2.4440     0.0660
  785.0000     9.0200    85.5070     2.4330     0.0600
  785.5000     9.0200    85.4910     2.4270     0.0560
  786.0000     9.0210    85.5120     2.4180     0.0490
  786.5000     9.0290    85.5220     2.4070     0.0440
  787.0000     9.0380    86.3340     2.4120     0.0390
  787.5000     9.0470    87.3990     2.4340     0.0610
  788.0000     9.0560    88.4160     2.4540     0.0890
  788.5000     9.0600    89.4360     2.4760     0.1030
  789.0000     9.0600    88.8440     2.4830     0.1010
  789.5000     9.0600    87.9290     2.4830     0.1020
  790.0000     9.0600    87.9040     2.4840     0.1030
  790.5000     9.0600    87.8890     2.4820     0.1030
  791.0000     9.0600    87.9230     2.4790     0.1040
  791.5000     9.0600    87.6560     2.4760     0.1040
  792.0000     9.0600    87.1280     2.4740     0.1050
  792.5000     9.0600    86.6420     2.4820     0.1050
  793.0000     9.0550    86.1450     2.4880     0.1030
  793.5000     9.0490    85.6410     2.4860     0.0980
  794.0000     9.0420    85.1750     2.4810     0.0930
  794.5000     9.0350    84.3940     2.4760     0.0910
  795.0000     9.0290    83.3200     2.4720     0.0980
  795.5000     9.0220    82.2440     2.4770     0.1030
  796.0000     9.0160    81.8770     2.4900     0.1090
  796.5000     9.0090    81.9040     2.5020     0.1150
  797.0000     9.0020    81.9030     2.5040     0.1170
  797.5000     8.9960    81.8980     2.4960     0.1070
  798.0000     8.9890    81.9020     2.4870     0.0930
  798.5000     8.9820    81.9000     2.4770     0.0810
  799.0000     8.9820    81.9000     2.4680     0.0660
  799.5000     8.9880    81.9000     2.4730     0.0640
  800.0000     8.9930    81.9000     2.4820     0.0590
  800.5000     8.9970    81.9000     2.4640     0.0550
  801.0000     9.0020    81.9000     2.4510     0.0540
  801.5000     9.0070    81.9000     2.4460     0.0620
  802.0000     9.0120    81.9000     2.4800     0.0700
  802.5000     9.0160    81.9000     2.4760     0.0770
  803.0000     9.0180    81.9000     2.4590     0.0860
  803.5000     9.0110    81.9000     2.4650     0.0900
  804.0000     9.0050    81.9000     2.5000     0.1110
  804.5000     8.9980    81.8980     2.4960     0.1050
  805.0000     8.9910    81.9050     2.4740     0.0950
  805.5000     8.9840    81.8340     2.4460     0.0850
  806.0000     8.9770    81.6500     2.4530     0.0840
  806.5000     8.9700    81.5010     2.4660     0.1210
  807.0000     8.9630    81.3240     2.4790     0.1250
  807.5000     8.9560    81.6720     2.4910     0.1260
  808.0000     8.9490    82.0940     2.4930     0.1190
  808.5000     8.9420    82.4810     2.4700     0.0890
  809.0000     8.9410    82.5060     2.4410     0.0640
  809.5000     8.9430    82.3660     2.4250     0.0390
  810.0000     8.9460    82.0310     2.4330     0.0360
  810.5000     8.9490    81.7240     2.4500     0.0540
  811.0000     8.9510    81.4110     2.4540     0.0700
  811.5000     8.9540    81.0950     2.4820     0.0880
  812.0000     8.9570    80.7820     2.5010     0.1010
  812.5000     8.9590    80.4710     2.5040     0.1010
  813.0000     8.9620    80.1510     2.4970     0.1010
  813.5000     8.9640    79.8470     2.4970     0.1010
  814.0000     8.9670    79.5240     2.5080     0.1010
  814.5000     8.9700    79.5030     2.5080     0.1020
  815.0000     8.9720    79.4970     2.5070     0.0960
  815.5000     8.9750    79.5020     2.4990     0.0880
  816.0000     8.9780    79.4980     2.4900     0.0770
  816.5000     8.9800    79.5060     2.4860     0.0850
  817.0000     8.9830    79.4180     2.4980     0.1030
  817.5000     8.9870    79.1620     2.5070     0.1030
  818.0000     8.9910    78.9150     2.4960     0.0980
  818.5000     8.9940    78.6610     2.4780     0.0950
  819.0000     8.9980    78.4170     2.4670     0.0850
  819.5000     9.0020    78.1560     2.4460     0.0690
  820.0000     9.0060    77.9120     2.4340     0.0580
  820.5000     9.0100    77.7400     2.4470     0.0630
