~VERSION INFORMATION
 VERS.                2.0:   CWLS LOG ASCII STANDARD - VERSION 2.0
 WRAP.                 NO:   ONE LINE PER DEPTH STEP
~WELL INFORMATION
#MNEM.UNIT      DATA TYPE    INFORMATION
#----------   ------------   ------------------------------
 STRT.F           22.5000:   START DEPTH
 STOP.F         4120.0000:   STOP DEPTH
 STEP.F            0.5000:   STEP LENGTH
 NULL.          -999.2500:   NO VALUE
 COMP. LAWRENCE ALLISON & ASSOCIATES:   COMPANY
 WELL. LAWRENCE-ALLISON SHX #37-10:   WELL
 FLD .              N P R:   FIELD
 LOC .      S10 T38N R78W:   LOCATION
 CNTY.            NATRONA:   COUNTY
 STAT.            WYOMING:   STATE
 CTRY. UNITED STATES OF AMERICA:   COUNTRY
 SRVC.      DRESSER ATLAS:   SERVICE COMPANY
 DATE.        29-JUN-1983:   LOGDATE
 API .     49025107370001:   API NUMBER
~CURVE INFORMATION
#MNEM.UNIT       API CODE    CURVE DESCRIPTION
#----------   ------------   ------------------------------
 DEPT.F                  :   
 TEND.LBS    45 635 01 00:   TENSION FROM DENSITY LOG
 CORR.G/C3   45 356 01 00:   DENSITY CORRECTION
 NPHI.DEC    42 890 03 00:   NEUTRON POROSITY SANDSTONE
 CALD.IN     45 280 60 00:   CALIPER FROM DENSITY LOG
 GRR .GAPI   07 310 01 00:   GAMMA RAY FROM RESISTIVITY
 SPR .MV     07 010 01 00:   SPONTANEOUS POTENTIAL
 TENR.LBS    07 635 01 00:   TENSION FROM RESISTIVITY
 RILD.OHMM   07 120 46 00:   DEEP INDUCTION RESISTIVITY
 RILM.OHMM   07 120 44 00:   INDUCTION LOG MEDIUM RESISTIVITY
 RFOC.OHMM   07 220 04 00:   RESISTIVITY FOCUSED LOG RES.
 RHOB.G/C3   45 350 01 00:   BULK DENSITY
~PARAMETER INFORMATION
#MNEM.UNIT          VALUE    DESCRIPTION
#----------   ------------   ------------------------------
 EKB .F         5228.0000:   Kelly bushing
 EGL .F         5218.0000:   Ground level
 EDF .F            0.0000:   Drilling floor
 EPD .F         5218.0000:   Permanent datum
 TD  .F         4125.0000:   Total depth
 DATE.        29-JUN-1983:   Date logged
 CLNT.            A2DTECH:   Client Code
 SL  . 984' FWL & 1620' FEL:   Surface Location
 PD  .                 GL:   Permanent Datum
 DD  .F              4125:   Depth driller
 DL  .F              4107:   Depth logger
 BLI .F              4105:   Bottom log interval
 CS1 .IN              4.5:   Casing size
 CBD1.       4.5" @ 2213':   Casing driller 1
 CBL1.F              2213:   Casing logger 1
 BS1 .IN             6.25:   Bit size
 DFT .                KCL:   Type fluid in hole
 DFD .                8.8:   Density
 DFV .                 45:   Viscosity
 DFPH.                  9:   pH
 DFL .               10.8:   Fluid loss
 MSS .            MUDTANK:   Source of sample
 RMS .OHMM            .44:   Rm
 MST .F               108:   Rm Meas. temp.
 RMF .OHMM            .37:   Rmf
 MFST.F               108:   Rmf Meas. temp.
 RMC .OHMM            .55:   Rmc
 MCST.F               108:   Rmc Meas. temp.
 MFSS.               MEAS:   Source Rmf.
 RMB .OHMM            .36:   Rm. at BHT
 BHT .F               126:   BHT.
 TCS .HRS               2:   Time Circ. stopped
 MRT .F               126:   Maximum recorded temp.
 LUN .               6343:   Logging unit number
 LUL .                 FM:   Logging unit location
 ENGI.          I. GOVETT:   Recorded By
 WITN.          G. STRONG:   Witnessed by
 ORIG.     2.5", 5" PRINT:   Origin of data
 UWI .     49025107370001:   Unique Well ID
 DICO. A2D TECHNOLOGIES, INC.:   Digitizing Company
 DAPD.                 10:   Feet Above Permanent Datum
 BSD1.               4125:   Depth drilled with bit1
 MCSS.               CALC:   Source Rmc.
 TLI .               2213:   Top log interval
~OTHER INFORMATION
~A   DEPT     TEND       CORR       NPHI       CALD         GRR       SPR       TENR       RILD       RILM       RFOC       RHOB   
# ...
 2706.5000     9.9400     0.0110     0.2010     7.1400    73.3240   -20.1070    13.8980    17.5000    13.2580    14.4150     2.4160
 2707.0000     9.9400     0.0160     0.2020     7.1380    66.2620   -19.6970    14.0890    16.9970    12.7800    13.6300     2.4160
 2707.5000     9.9400     0.0210     0.2030     7.1370    68.0900   -19.7480    14.2800    16.4690    12.3010    12.8450     2.4180
 2708.0000     9.9400     0.0280     0.2050     7.1360    70.3800   -19.7870    14.4710    15.9410    11.9960    12.0590     2.4200
 2708.5000     9.9400     0.0360     0.2050     7.1340    72.6260   -19.8250    14.6620    15.4140    11.9290    11.5780     2.4220
 2709.0000     9.9400     0.0440     0.2040     7.1330    74.0570   -19.8630    14.8510    14.8860    11.8120    11.7470     2.4170
 2709.5000     9.9400     0.0460     0.2020     7.1320    74.7810   -19.8990    14.7510    14.5040    11.6940    11.8860     2.4110
 2710.0000     9.9400     0.0480     0.2090     7.1300    73.2460   -19.9040    14.6520    14.3660    11.5770    11.5830     2.4080
 2710.5000     9.9400     0.0460     0.2180     7.1290    71.1110   -20.0370    14.5530    14.2270    11.4590    11.1440     2.4100
 2711.0000     9.9400     0.0320     0.2170     7.1270    68.6440   -20.6980    14.4530    14.0890    11.3420    11.1890     2.4140
 2711.5000     9.9400     0.0170     0.2080     7.1260    66.6690   -21.3510    14.3540    13.9510    11.2470    11.2670     2.4170
 2712.0000     9.9400     0.0070     0.2040     7.1250    66.7800   -22.0010    14.2540    13.8130    11.3520    11.3440     2.4210
 2712.5000     9.9400     0.0300     0.2060     7.1230    68.1130   -22.6500    14.1550    13.6470    11.4410    11.4220     2.4240
 2713.0000     9.9400     0.0350     0.2080     7.1220    69.4510   -23.2800    14.0560    13.8020    11.5300    11.4990     2.4200
 2713.5000     9.9400     0.0130     0.2100     7.1210    70.6660   -23.9080    13.9560    13.9960    11.6190    11.5770     2.4170
 2714.0000     9.9400     0.0050     0.2100     7.1190    70.5460   -24.5180    13.8570    14.1900    11.7070    11.6540     2.4110
 2714.5000     9.9400     0.0080     0.2030     7.1180    70.4110   -25.1270    13.7570    14.3840    11.7770    11.6690     2.4170
 2715.0000     9.9400     0.0230     0.1970     7.1170    70.6530   -25.7360    13.6580    14.5780    12.2870    11.1540     2.4360
 2715.5000     9.9400     0.0310     0.1910     7.1150    72.1170   -26.3450    13.5590    15.4020    13.0800    10.7410     2.4550
 2716.0000     9.9400     0.0400     0.1870     7.1140    73.5460   -26.9610    13.4590    17.0860    14.8860    11.2660     2.4750
 2716.5000     9.9400     0.0480     0.1820     7.1130    74.9720   -27.5960    13.3600    18.7710    16.6920    12.0320     2.4950
 2717.0000     9.9400     0.0380     0.1780     7.1110    76.1700   -27.5120    13.2610    20.4560    18.4980    12.9130     2.5140
 2717.5000     9.9400     0.0370     0.1750     7.1100    75.2180   -27.2190    13.1610    22.1410    20.3040    18.7870     2.5390
 2718.0000     9.9400     0.0500     0.1760     7.1080    67.4350   -26.4470    13.0620    23.8250    22.0310    24.4570     2.5310
 2718.5000     9.9400     0.0620     0.1780     7.1070    57.0000   -25.7000    12.9620    25.7650    20.5900    29.8560     2.5080
 2719.0000     9.9400     0.0750     0.1790     7.1070    54.0710   -24.9590    12.8630    25.6640    19.2890    26.2660     2.4870
 2719.5000     9.9400     0.0790     0.1800     7.1080    53.3830   -24.4610    12.7640    25.5460    18.1140    22.8400     2.4670
 2720.0000     9.9400     0.0750     0.1800     7.1090    53.2550   -24.5230    12.6640    24.2140    17.0050    19.4140     2.4570
 2720.5000     9.9400     0.0700     0.1820     7.1100    56.0430   -24.5720    12.5650    22.6790    15.8970    15.9880     2.4510
 2721.0000     9.9400     0.0640     0.1890     7.1120    58.8280   -24.6200    12.4660    21.1440    14.7890    13.9660     2.4510
 2721.5000     9.9400     0.0590     0.1970     7.1130    61.8630   -24.5770    12.3660    19.6090    14.0320    13.5530     2.4510
 2722.0000     9.9400     0.0570     0.2050     7.1140    65.6080   -24.3540    12.2670    18.0740    13.4480    13.1400     2.4510
 2722.5000     9.9400     0.0590     0.2120     7.1150    69.4580   -24.1320    12.1670    16.5390    12.8640    12.7270     2.4520
 2723.0000     9.9400     0.0600     0.2100     7.1170    70.9440   -23.8990    12.0680    15.0040    12.7040    12.5000     2.4520
 2723.5000     9.9400     0.0620     0.2040     7.1180    70.6040   -24.1430    11.9690    14.7370    12.6010    12.2990     2.4550
 2724.0000     9.9400     0.0630     0.1980     7.1190    70.4420   -24.4970    11.8690    14.6350    12.4970    12.0980     2.4570
 2724.5000     9.9400     0.0640     0.1980     7.1200    74.8240   -24.8560    11.7700    14.5340    12.3940    11.9960     2.4660
 2725.0000     9.9400     0.0590     0.2000     7.1210    78.2850   -25.2170    11.6700    14.4220    12.2910    12.1270     2.4730
 2725.5000     9.9400     0.0540     0.2020     7.1230    76.0000   -25.5850    11.5710    14.5210    12.2190    12.2280     2.4820
 2726.0000     9.9400     0.0480     0.2040     7.1240    72.8310   -25.4210    11.4720    14.6310    12.4460    12.3300     2.4790
 2726.5000     9.9400     0.0470     0.2060     7.1250    75.0890   -25.1600    11.3720    14.7410    12.6200    12.4310     2.4690
 2727.0000     9.9400     0.0530     0.2060     7.1260    79.3440   -24.3810    11.2730    14.8510    12.7940    12.5610     2.4600
 2727.5000     9.9400     0.0590     0.2020     7.1270    80.6690   -23.3110    11.1740    14.9620    12.9680    12.4250     2.4500
 2728.0000     9.9400     0.0560     0.1990     7.1290    80.7120   -22.2390    11.0740    15.0720    13.1420    12.2350     2.4450
 2728.5000     9.9400     0.0470     0.1970     7.1300    79.1720   -21.1690    10.9750    15.9210    13.3160    12.1070     2.4460
 2729.0000     9.9400     0.0370     0.1960     7.1310    76.5410   -20.1030    10.8750    17.0510    13.9000    12.2730     2.4500
 2729.5000     9.9400     0.0370     0.1960     7.1320    73.3680   -19.3970    10.7760    18.1810    13.6470    12.6840     2.4530
 2730.0000     9.9400     0.0500     0.1960     7.1330    70.0490   -19.1460    10.6770    19.3100    15.1480    13.3440     2.4570
 2730.5000     9.9400     0.0580     0.1840     7.1350    62.2520   -18.9140    10.5770    20.3430    16.1260    15.4730     2.4610
 2731.0000     9.9400     0.0590     0.1730     7.1360    54.6020   -18.9090    10.4780    20.7950    17.1040    18.8440     2.4710
 2731.5000     9.9400     0.0610     0.1660     7.1370    46.9890   -18.9070    10.3790    21.2470    18.3240    22.2160     2.4640
 2732.0000     9.9400     0.0630     0.1670     7.1380    43.8350   -18.9340    10.2790    21.6290    17.8660    25.0630     2.4580
 2732.5000     9.9400     0.0650     0.1720     7.1400    45.6080   -19.4840    10.1800    20.7400    17.1410    20.8340     2.4540
 2733.0000     9.9400     0.0540     0.1780     7.1410    51.1450   -20.0220    10.0800    19.9710    16.4970    16.6520     2.4600
 2733.5000     9.9400     0.0340     0.1850     7.1420    57.2250   -20.5570     9.9810    19.2020    15.8530    15.1400     2.4660
 2734.0000     9.9400     0.0330     0.1910     7.1430    63.3450   -21.0890     9.8820    18.4330    15.2090    14.4480     2.4650
 2734.5000     9.9400     0.0350     0.1980     7.1440    69.6850   -21.6220     9.7820    17.6640    14.5660    13.7560     2.4650
 2735.0000     9.9400     0.0430     0.1990     7.1460    73.8260   -21.9050     9.6830    16.8940    14.0320    12.9130     2.4620
 2735.5000     9.9400     0.0490     0.2000     7.1460    77.3980   -21.9560     9.5830    15.9600    13.5220    13.0320     2.4580
 2736.0000     9.9400     0.0570     0.2010     7.1460    73.2240   -22.0070     9.4840    16.0010    13.5220    13.1840     2.4540
 2736.5000     9.9400     0.0560     0.2000     7.1460    67.6260   -22.0560     9.3850    16.1080    13.5220    13.3360     2.4500
