~VERSION INFORMATION
 VERS.                2.0:   CWLS LOG ASCII STANDARD - VERSION 2.0
 WRAP.                 NO:   ONE LINE PER DEPTH STEP
~WELL INFORMATION
#MNEM.UNIT      DATA TYPE    INFORMATION
#----------   ------------   ------------------------------
 STRT.F          200.0000:   START DEPTH
 STOP.F         3196.5000:   STOP DEPTH
 STEP.F            0.5000:   STEP LENGTH
 NULL.          -999.2500:   NO VALUE
 COMP.    FENIX & SCISSON:   COMPANY
 WELL. FENIX & SCISSON #82-15:   WELL
 FLD .                NPR:   FIELD
 LOC .      S15 T38N R78W:   LOCATION
 CNTY.            NATRONA:   COUNTY
 STAT.            WYOMING:   STATE
 CTRY. UNITED STATES OF AMERICA:   COUNTRY
 SRVC.              WELEX:   SERVICE COMPANY
 DATE.        14-AUG-1977:   LOGDATE
 API .     49025104100000:   API NUMBER
~CURVE INFORMATION
#MNEM.UNIT       API CODE    CURVE DESCRIPTION
#----------   ------------   ------------------------------
 DEPT.F                  :   
 CALD.IN     45 280 60 00:   CALIPER FROM DENSITY LOG
 GRD .GAPI   45 310 01 00:   GAMMA RAY FROM DENSITY LOG
 RHOB.G/C3   45 350 01 00:   BULK DENSITY
 CORR.G/C3   45 356 01 00:   DENSITY CORRECTION
 SPR .MV     07 010 01 00:   SPONTANEOUS POTENTIAL
 ILD .OHMM   07 120 46 00:   DEEP INDUCTION RESISTIVITY
 ILM .OHMM   07 120 44 00:   INDUCTION LOG MEDIUM RESISTIVITY
 GURD.OHMM   07 220 05 00:   GUARD LOG RESISTIVITY
~PARAMETER INFORMATION
#MNEM.UNIT          VALUE    DESCRIPTION
#----------   ------------   ------------------------------
 EKB .F         5259.0000:   Kelly bushing
 EGL .F         5249.0000:   Ground level
 EDF .F            0.0000:   Drilling floor
 EPD .F            0.0000:   Permanent datum
 TD  .F         3197.0000:   Total depth
 CLNT.            A2DTECH:   Client Code
 SL  . 990' FNL & 330' FEL:   Surface Location
 PD  .                 GL:   Permanent Datum
 DAPD.F                10:   Feet Above Permanent Datum
 DATE.        14-AUG-1977:   Date Logged [DD-MMM-YYYY]
 DD  .F              3197:   Depth driller
 DL  .F              3200:   Depth logger
 BLI .F              3198:   Bottom log interval
 TLI .F               200:   Top log interval
 CS1 .IN            8.625:   Casing size
 CBD1.      8.625" @ 236':   Casing driller 1
 CBL1.F               220:   Casing logger 1
 BS1 .IN            7.875:   Bit size
 BSD1.F              3197:   Depth drilled with bit1
 DFT .            KCL MUD:   Type fluid in hole
 DFD .                9.1:   Density
 DFV .                 42:   Viscosity
 DFPH.               10.5:   pH
 DFL .                7.2:   Fluid loss
 MSS .           FLOWLINE:   Source of sample
 RMS .OHMM          0.240:   Rm
 MST .F                92:   Rm Meas. temp.
 RMF .OHMM          0.160:   Rmf
 MFST.F                92:   Rmf Meas. temp.
 MFSS.               MEAS:   Source Rmf.
 RMC .OHMM          0.238:   Rmc
 MCST.F                92:   Rmc Meas. temp.
 MCSS.               MEAS:   Source Rmc.
 RMB .OHMM          0.194:   Rm. at BHT
 BHT .F               114:   BHT.
 TCS .HRS               3:   Time Circ. stopped
 MRT .F               114:   Maximum recorded temp.
 LUN .               9685:   Logging unit number
 LUL .             CASPER:   Logging unit location
 ENGI.            C. DOAK:   Recorded By
 WITN.      W. PETTINGILL:   Witnessed by
 ORIG.           5" PRINT:   Origin of data
 UWI .     49025104100000:   Unique Well ID
 DICO. A2D TECHNOLOGIES, INC.:   Digitizing Company
~OTHER INFORMATION
~A   DEPT       CALD       GRD        RHOB      CORR       SPR        ILD        ILM       GURD   
# ...
  402.5000    12.7684   118.1871     2.4295     0.0365   -53.2940     5.7469     5.8893     5.7557
  403.0000    12.7697   118.9454     2.4318     0.0411   -53.1316     5.5939     5.7318     5.6803
  403.5000    12.7536   119.4038     2.4364     0.0458   -53.1186     5.5147     5.6119     5.6060
  404.0000    12.7123   119.5624     2.4380     0.0459   -53.1057     5.4123     5.5052     5.4575
  404.5000    12.6986   119.5712     2.4343     0.0460   -53.0927     5.3038     5.4327     5.4226
  405.0000    12.7003   119.5819     2.4253     0.0461   -53.2292     5.3087     5.2882     5.3147
  405.5000    12.6866   119.5905     2.4186     0.0477   -53.3657     5.2393     5.2178     5.1730
  406.0000    12.6729   119.7491     2.4135     0.0479   -53.3495     5.0999     5.1144     5.1062
  406.5000    12.6592   119.7578     2.4105     0.0465   -53.3365     5.0278     5.0038     5.0393
  407.0000    12.6458   119.6165     2.3991     0.0436   -53.3235     4.8993     4.7456     4.9050
  407.5000    12.6471   119.3228     2.3867     0.0405   -53.3106     4.6394     4.5869     4.7743
  408.0000    12.6634   119.0341     2.3777     0.0334   -53.2975     4.3319     4.3423     4.6478
  408.5000    12.6797   118.4452     2.3725     0.0260   -53.2814     3.9891     4.1393     4.4004
  409.0000    12.7259   117.5543     2.3726     0.0201   -52.9694     3.8295     3.8115     3.9692
  409.5000    12.7298   116.8141     2.3794     0.0217   -52.8070     3.7534     3.7096     3.3967
  410.0000    12.7588   114.7238     2.3968     0.0263   -52.4951     3.8624     3.8166     3.8135
  410.5000    12.7751   113.8329     2.4215     0.0295   -52.3326     3.9465     3.8722     4.4129
  411.0000    12.7914   114.2913     2.4305     0.0326   -52.1702     4.0604     3.9558     4.7651
  411.5000    12.7927   115.4994     2.4313     0.0327   -51.7085     4.1776     4.0694     5.0049
  412.0000    12.8090   118.2349     2.4292     0.0313   -51.3936     4.2981     4.2446     5.2205
  412.5000    12.7953   119.2670     2.4300     0.0299   -51.3806     4.5572     4.4045     5.3367
  413.0000    12.7969   119.2757     2.4353     0.0271   -51.2182     4.9453     4.9156     5.3751
  413.5000    12.7832   119.5842     2.4383     0.0257   -51.0557     5.1590     5.2712     5.4536
  414.0000    12.7096   120.3424     2.4376     0.0243   -51.0428     5.3820     5.4981     5.5333
  414.5000    12.6509   119.9013     2.4362     0.0244   -51.0298     5.5373     5.5014     5.6531
  415.0000    12.6072   119.6101     2.4363     0.0261   -51.0164     5.5799     5.5047     5.6962
  415.5000    12.5804   120.3706     2.4394     0.0277   -51.0006     5.7024     5.6262     5.7000
  416.0000    12.5516   119.7795     2.4431     0.0278   -50.9895     5.8264     5.7460     5.7047
  416.5000    12.5378   116.6398     2.4439     0.0277   -50.6757     5.7904     5.7894     5.7481
  417.0000    12.5092   115.4490     2.4387     0.0250   -50.5133     5.7139     5.7520     5.7519
  417.5000    12.4951   114.8580     2.4298     0.0236   -50.3508     5.6794     5.7563     5.7558
  418.0000    12.5116   113.9671     2.4329     0.0178   -50.3378     5.6445     5.7598     5.7199
  418.5000    12.5128   116.2249     2.4451     0.0194   -50.3244     5.6033     5.7235     5.7237
  419.0000    12.5290   115.0339     2.4525     0.0270   -50.3087     5.5749     5.6490     5.7284
  419.5000    12.5453   116.3940     2.4593     0.0301   -50.2957     5.6189     5.6125     5.7323
  420.0000    12.5467   117.8695     2.4556     0.0288   -50.2827     5.5838     5.6167     5.7361
  420.5000    12.5630   119.0803     2.4474     0.0259   -50.2697     5.5882     5.6201     5.7399
  421.0000    12.5642   118.6395     2.4422     0.0230   -50.2568     5.5923     5.5461     5.7437
  421.5000    12.5654   117.8959     2.4415     0.0231   -50.2436     5.5132     5.5102     5.7070
  422.0000    12.5819   118.8155     2.4476     0.0247   -50.2276     5.4474     5.4018     5.6332
  422.5000    12.6431   117.4466     2.4515     0.0296   -50.2146     5.4524     5.3670     5.6770
  423.0000    12.6744   117.6293     2.4552     0.0325   -50.5038     5.5325     5.4837     5.6808
  423.5000    12.6906   118.2395     2.4575     0.0311   -50.7866     5.5366     5.5635     5.6846
  424.0000    12.6918   118.9999     2.4583     0.0282   -50.9231     5.5406     5.5669     5.6883
  424.5000    12.6930   120.0606     2.4554     0.0253   -51.0598     5.5064     5.5702     5.6921
  425.0000    12.6641   121.1213     2.4487     0.0240   -51.2083     5.5114     5.5351     5.6961
  425.5000    12.6203   121.7476     2.4420     0.0211   -51.3326     5.4764     5.5002     5.7006
  426.0000    12.5765   122.7946     2.4368     0.0182   -51.3164     5.4435     5.4286     5.6642
  426.5000    12.5626   123.1045     2.4301     0.0138   -51.6024     5.4097     5.4318     5.6288
  427.0000    12.5488   123.4144     2.4242     0.0124   -51.5894     5.4138     5.3968     5.5937
  427.5000    12.5804   123.4240     2.4198     0.0111   -51.7259     5.4180     5.3635     5.4456
  428.0000    12.6129   123.1334     2.4168     0.0097   -51.8625     5.4228     5.2929     5.3372
  428.5000    12.6581   123.1540     2.4124     0.0098   -52.1484     5.2784     5.2604     5.3039
  429.0000    12.6593   123.7556     2.4065     0.0100   -52.1322     5.1735     5.1553     5.2354
  429.5000    12.6605   123.4649     2.3998     0.0116   -52.1192     5.1773     5.0874     5.2019
  430.0000    12.6314   122.8739     2.3961     0.0147   -52.1062     5.1811     5.0905     5.2788
  430.5000    12.5728   123.1839     2.3954     0.0193   -52.0932     5.1859     5.0935     5.2823
  431.0000    12.5440   122.8932     2.3966     0.0209   -52.0803     5.0829     5.0222     5.2859
  431.5000    12.5302   121.8402     2.3985     0.0210   -52.0673     4.9475     4.8255     5.2166
  432.0000    12.5501   119.6115     2.4023     0.0227   -51.9043     4.7495     4.6641     5.0086
  432.5000    12.5930   117.0686     2.4091     0.0243   -51.7392     4.2541     4.2947     4.4250
  433.0000    12.6392   114.6758     2.4174     0.0264   -51.4272     4.0838     4.0933     3.8026
  433.5000    12.6854   112.8836     2.4242     0.0281   -51.2648     4.2951     4.1249     4.1922
  434.0000    12.7167   111.8422     2.4289     0.0321   -51.2518     4.5702     4.2203     4.8286
  434.5000    12.6581   111.2512     2.4326     0.0355   -51.2388     4.8009     4.4574     5.1316
  435.0000    12.5992   111.8869     2.4342     0.0398   -51.3753     4.8379     4.8130     5.2427
  435.5000    12.5701   112.7744     2.4320     0.0400   -51.3591     4.9090     5.1613     5.3193
  436.0000    12.5566   112.4813     2.4260     0.0404   -51.3462     5.0858     5.2002     5.3598
  436.5000    12.5578   113.2441     2.4186     0.0417   -51.4827     5.1251     5.2034     5.4006
  437.0000    12.5443   114.1546     2.4093     0.0448   -51.6224     5.2012     5.1349     5.4043
  437.5000    12.5605   114.9150     2.3933     0.0475   -51.6062     5.1324     4.8618     5.3705
  438.0000    12.5767   115.6957     2.3806     0.0510   -51.5932     4.9621     4.5707     5.3370
  438.5000    12.5929   116.2856     2.3724     0.0541   -51.5800     4.7306     4.1797     5.2680
  439.0000    12.6392   114.9463     2.3642     0.0588   -51.5640     4.5729     3.7436     5.1991
  439.5000    12.6862   113.9048     2.3545     0.0634   -51.5511     4.3003     3.3068     5.1309
  440.0000    12.7470   113.9144     2.3531     0.0590   -51.5381     4.1282     2.8782     4.7846
  440.5000    12.7932   114.0742     2.3667     0.0344   -51.5251     4.0120     2.7845     3.3460
  441.0000    12.8245   113.4384     2.3824     0.0233   -51.5122     3.9334     3.1784     2.9556
  441.5000    12.8857   111.5433     2.3990     0.0219   -51.0508     3.9835     3.8077     4.2983
  442.0000    12.9620   110.5019     2.4043     0.0220   -50.8879     4.0855     4.7552     5.0432
  442.5000    12.8406   110.2088     2.4074     0.0222   -50.4237     4.1875     4.4397     5.0116
