~VERSION INFORMATION
 VERS.                2.0:   CWLS LOG ASCII STANDARD - VERSION 2.0
 WRAP.                 NO:   ONE LINE PER DEPTH STEP
~WELL INFORMATION
#MNEM.UNIT      DATA TYPE    INFORMATION
#----------   ------------   ------------------------------
 STRT.F          388.0000:   START DEPTH
 STOP.F         3166.0000:   STOP DEPTH
 STEP.F            0.5000:   STEP LENGTH
 NULL.          -999.2500:   NO VALUE
 COMP.    PENIX & SCISSON:   COMPANY
 WELL. PENIX NPR 3 "AX" #34-28:   WELL
 FLD .                NPR:   FIELD
 LOC .      S28 T39N R78W:   LOCATION
 CNTY.            NATRONA:   COUNTY
 STAT.            WYOMING:   STATE
 CTRY. UNITED STATES OF AMERICA:   COUNTRY
 SRVC.              WELEX:   SERVICE COMPANY
 DATE.        15-DEC-1978:   LOGDATE
 API .     49025107950000:   API NUMBER
~CURVE INFORMATION
#MNEM.UNIT       API CODE    CURVE DESCRIPTION
#----------   ------------   ------------------------------
 DEPT.F                  :   
 CALD.IN     45 280 60 00:   CALIPER FROM DENSITY LOG
 GRD .GAPI   45 310 01 00:   GAMMA RAY FROM DENSITY LOG
 RHOB.G/C3   45 350 01 00:   BULK DENSITY
 CORR.G/C3   45 356 01 00:   DENSITY CORRECTION
 NPHI.DEC    42 890 03 00:   NEUTRON POROSITY SANDSTONE
 SPR .MV     07 010 01 00:   SPONTANEOUS POTENTIAL
 SGRD.OHMM   07 220 05 00:   SHALLOW GUARD
 ILD .OHMM   07 120 46 00:   DEEP INDUCTION RESISTIVITY
 ILM .OHMM   07 120 44 00:   INDUCTION LOG MEDIUM RESISTIVITY
 TENR.LBS    07 635 01 00:   TENSION FROM RESISTIVITY
~PARAMETER INFORMATION
#MNEM.UNIT          VALUE    DESCRIPTION
#----------   ------------   ------------------------------
 EKB .F         5039.0000:   Kelly bushing
 EGL .F         5029.0000:   Ground level
 EDF .F            0.0000:   Drilling floor
 TD  .F         3159.0000:   Total depth
 DATE.        15-DEC-1978:   Date logged
 CLNT.            A2DTECH:   Client Code
 SL  . 2434' FNL & 1651' FWL:   Surface Location
 PD  .                 GL:   Permanent Datum
 EPD .F              5029:   Elevation Permanent Datum
 LMF .                 KB:   Log Measured From
 DMF .                 KB:   Drilling Measured From
 DAPD.F                10:   Feet Above Permanent Datum
 DD  .F              3155:   Depth driller
 DL  .F              3159:   Depth logger
 BLI .F              3157:   Bottom log interval
 TLI .F               350:   Top log interval
 CS1 .IN            8.625:   Casing size
 CBD1.      8.625" @ 383':   Casing driller 1
 CBL1.F               398:   Casing logger 1
 BS1 .IN            7.875:   Bit size
 BSD1.F              3155:   Depth drilled with bit1
 DFT .           CHEM/GEL:   Type fluid in hole
 DFD .                8.5:   Density
 DFV .                 55:   Viscosity
 DFPH.                 10:   pH
 DFL .               10.8:   Fluid loss
 MSS .           FLOWLINE:   Source of sample
 RMS .OHMM           1.65:   Rm
 MST .F                65:   Rm Meas. temp.
 RMF .OHMM           1.32:   Rmf
 MFST.F                65:   Rmf Meas. temp.
 RMC .OHMM           1.98:   Rmc
 MCST.F                65:   Rmc Meas. temp.
 MFSS.               CALC:   Source Rmf.
 RMB .OHMM              1:   Rm. at BHT
 BHT .F               107:   BHT.
 TCS .HRS               8:   Time Circ. stopped
 MRT .F               107:   Maximum recorded temp.
 LUN .               1892:   Logging unit number
 LUL .             CASPER:   Logging unit location
 ENGI.               REIN:   Recorded By
 WITN.              AMEND:   Witnessed by
 ORIG.           5" PRINT:   Origin of data
 UWI .     49025107950000:   Unique Well ID
 DICO. A2D TECHNOLOGIES, INC.:   Digitizing Company
~OTHER INFORMATION
~A   DEPT     CALD         GRD      RHOB       CORR       NPHI        SPR       SGRD        ILD        ILM       TENR   
# ...
 2766.5000     8.9822   176.5606     2.4560    -0.0507     0.2295   -68.3237     5.1008     3.9548     4.3400  1806.2305
 2767.0000     8.9810   195.0114     2.4559    -0.0407     0.2315   -68.3246     4.7366     3.8107     4.1050  1826.3854
 2767.5000     8.9598   199.8374     2.4488    -0.0347     0.2206   -68.3256     4.2776     3.5381     3.8111  1826.3621
 2768.0000     8.9588   199.4179     2.4356    -0.0104     0.2077   -68.3265     3.7922     3.4411     3.6047  1826.3386
 2768.5000     8.9579   199.4048     2.4416     0.0017     0.2013   -68.1260     3.6206     3.0218     3.4095  1846.4924
 2769.0000     8.9568   171.2068     2.4507     0.0056     0.1944   -68.1270     3.3003     2.9939     3.1951  1826.2917
 2769.5000     8.9553   150.2011     2.4688     0.0218     0.1908   -68.1279     3.1804     2.9118     3.0788  1826.2683
 2770.0000     8.9746   145.7374     2.5060    -0.0169     0.1924   -68.3302     3.4575     2.8585     3.2254  1846.4214
 2770.5000     8.9735   144.9275     2.5302    -0.0088     0.1928   -68.5326     4.5245     2.8323     3.3791  1826.2202
 2771.0000     8.9724   140.8738     2.5453    -0.0069     0.1920   -68.5336     5.6524     2.8589     3.6065  1826.1968
 2771.5000     8.9712   129.5709     2.5493     0.0153     0.1904   -68.5345     5.7055     3.0513     3.9214  1826.1733
 2772.0000     8.9500   138.4208     2.5492     0.0031     0.1896   -68.5354     5.9767     3.1967     4.0701  1846.3254
 2772.5000     8.9489   131.1448     2.5431    -0.0011     0.1928   -68.5364     5.9768     3.7441     4.3440  1826.1266
 2773.0000     8.9480   129.9160     2.5380    -0.0053     0.1941   -68.5373     6.1460     3.8501     4.7672  1826.1031
 2773.5000     8.9469   141.9888     2.5420     0.0028     0.1957   -68.5382     6.2038     3.9961     4.9024  1846.2545
 2774.0000     8.9457   145.1957     2.5480     0.0209     0.2005   -68.5392     6.2042     4.3856     5.0783  1846.2308
 2774.5000     9.0051   154.0481     2.5379    -0.0076     0.1985   -68.9432     6.0907     4.5520     5.2663  1826.0317
 2775.0000     9.0040   156.0496     2.5277    -0.0259     0.1937   -68.5413     5.7616     4.5948     5.3147  1826.0083
 2775.5000     8.9827   148.3693     2.5145    -0.0402     0.1925   -68.5425     5.5524     4.5952     5.3151  1846.1586
 2776.0000     8.9816   139.8818     2.4923    -0.0647     0.1889   -68.5432     5.5526     4.5955     5.3155  1846.1349
 2776.5000     9.0007   144.2991     2.4902    -0.0648     0.1909   -68.5441     5.5017     4.5533     5.2678  1825.9381
 2777.0000     8.9995   151.9433     2.5023    -0.0628     0.1909   -68.3435     5.4514     4.5115     5.2206  1825.9194
 2777.5000     8.9783   153.9415     2.5204    -0.0487     0.1877   -68.3444     5.4518     4.5119     5.2210  1825.8960
 2778.0000     8.9774   161.9901     2.5335    -0.0183     0.1857   -68.3454     5.6060     4.3075     4.9901  1805.7002
 2778.5000     8.9964   163.9888     2.5506    -0.0144     0.1857   -68.5480     5.9271     4.3078     4.9904  1825.8479
 2779.0000     8.9953   155.0965     2.5475    -0.0064     0.1885   -68.1457     5.8186     4.2288     4.9010  1825.8245
 2779.5000     8.9942   161.1255     2.5434    -0.0064     0.1893   -68.1466     5.6075     4.0749     4.7269  1825.8011
 2780.0000     8.9931   167.5692     2.5363     0.0036     0.1913   -68.3492     5.4036     4.0001     4.6422  1805.6017
 2780.5000     8.9920   177.6335     2.5333     0.0015     0.1865   -68.1485     5.0178     3.8905     4.5180  1825.7544
 2781.0000     8.9908   190.5196     2.5352     0.0095     0.1829   -68.1494     4.8355     3.7143     4.3182  1845.9019
 2781.5000     8.9897   185.2645     2.5422     0.0257     0.1696   -68.1503     4.3268     3.5791     4.1646  1845.8782
 2782.0000     8.9886   169.1082     2.5422     0.0175     0.1680   -68.3529     4.0553     3.3541     3.9089  1845.8546
 2782.5000     8.9676   144.8804     2.5129    -0.0111     0.1696   -68.1522     3.9443     3.2320     3.7699  1825.6595
 2783.0000     8.9866   144.4696     2.5048    -0.0396     0.1716   -68.3548     4.3279     3.0570     3.4177  1825.6361
 2783.5000     8.9855   154.5279     2.5279    -0.0295     0.1736   -67.9524     4.7484     2.9458     3.4497  1825.6127
 2784.0000     8.9844   148.4635     2.5501     0.0090     0.1716   -68.3567     6.4479     2.9188     3.6139  1825.5894
 2784.5000     8.9833   139.9703     2.5419    -0.0013     0.1716   -68.5593     5.3079     3.0015     3.7162  1825.5659
 2785.0000     8.9822   143.5836     2.5641     0.0047     0.1720   -68.9637     5.5088     3.2034     3.9297  1865.8802
 2785.5000     8.9810   145.1791     2.5741     0.0087     0.1708   -69.3681     5.7705     3.3561     4.0035  1845.6877
 2786.0000     8.9799   147.5893     2.5569     0.0005     0.1704   -68.9656     5.8247     3.4191     4.4761  1845.6641
 2786.5000     8.9788   139.0910     2.5559    -0.0057     0.1688   -68.9667     5.8793     3.6491     4.6459  1825.4711
 2787.0000     8.9779   141.0864     2.5528    -0.0220     0.1640   -69.1694     5.9898     3.8229     4.7774  1845.6155
 2787.5000     8.9768   143.8931     2.5396    -0.0323     0.1612   -69.3721     6.1023     4.1181     5.0517  1845.5919
 2788.0000     8.9757   136.1968     2.5184    -0.0405     0.1604   -69.3731     6.2748     4.1567     5.1948  1845.5684
 2788.5000     8.9746   135.7816     2.5153    -0.0487     0.1600   -69.3741     6.1601     4.4364     5.2926  1845.5446
 2789.0000     8.9735   139.8033     2.5173    -0.0468     0.1584   -69.1732     6.1604     4.6046     5.4425  1825.3542
 2789.5000     8.9723   132.1136     2.5394    -0.0225     0.1580   -69.3760     6.3346     4.7792     5.5449  1845.4973
 2790.0000     8.9712   126.8495     2.5495    -0.0063     0.1572   -69.3770     6.7595     4.8692     5.6493  1784.9749
 2790.5000     8.9701   133.2862     2.5545     0.0017     0.1568   -69.5799     7.0806     5.0073     5.7022  1805.1167
 2791.0000     8.9690   127.2103     2.5625     0.0097     0.1576   -69.5809     7.0811     5.1490     5.8097  1825.2594
 2791.5000     8.8871   135.2705     2.5725     0.0198     0.1624   -69.3800     7.0815     5.3444     5.9192  1845.4062
 2792.0000     8.8862   152.6112     2.5947     0.0400     0.1640   -70.1885     7.0820     5.4957     5.9747  1845.3826
 2792.5000     8.8851   142.9010     2.5967     0.0440     0.1632   -69.1801     7.0827     5.6516     6.0308  1845.3590
 2793.0000     8.8638   147.7282     2.5986     0.0500     0.1616   -69.1811     7.0179     5.6518     6.0874  1845.3353
 2793.5000     8.8218   149.3250     2.5986     0.0601     0.1596   -68.9802     6.8894     5.7582     6.1449  1845.3116
 2794.0000     8.8010   139.2095     2.5945     0.0437     0.1596   -69.3849     6.8264     5.8123     6.2025  1845.2881
 2794.5000     8.7998   138.7904     2.5864     0.0355     0.1629   -69.3860     6.9545     5.8670     6.3195  1825.0991
 2795.0000     8.7785   137.1558     2.5843     0.0354     0.1669   -69.9927     7.3527     5.8673     6.3786  1845.2395
 2795.5000     8.7370   138.7523     2.5843     0.0313     0.1733   -69.5899     7.5605     5.9225     6.3793  1845.2159
 2796.0000     8.7159   143.5805     2.5802     0.0230     0.1758   -69.5909     7.8465     5.9230     6.3797  1845.1923
 2796.5000     8.6948   150.8329     2.5690     0.0108     0.1770   -69.5919     8.0686     5.9234     6.3803  1845.1686
 2797.0000     8.6728   150.0064     2.5649     0.0127     0.1762   -69.5929     7.8268     5.9239     6.3807  1845.1450
 2797.5000     8.6723   147.9679     2.5578     0.0207     0.1810   -69.5939     7.4032     5.8154     6.2638  1845.1213
 2798.0000     8.6104   158.8573     2.5578     0.0349     0.1826   -69.7968     6.9378     5.5520     6.0359  1845.0977
 2798.5000     8.5891   151.9707     2.5658     0.0531     0.1814   -69.9998     6.5217     5.3004     5.8161  1824.9121
 2799.0000     8.5475   153.9761     2.5778     0.0692     0.1839   -70.0008     6.1693     5.0604     5.6046  1845.0505
 2799.5000     8.5069   157.1864     2.5768     0.0773     0.1879   -70.2039     5.8904     4.6985     5.4317  1845.0269
