~VERSION INFORMATION
 VERS.                2.0:   CWLS LOG ASCII STANDARD - VERSION 2.0
 WRAP.                 NO:   ONE LINE PER DEPTH STEP
~WELL INFORMATION
#MNEM.UNIT      DATA TYPE    INFORMATION
#----------   ------------   ------------------------------
 STRT.F          482.0000:   START DEPTH
 STOP.F         4000.0000:   STOP DEPTH
 STEP.F            0.5000:   STEP LENGTH
 NULL.          -999.2500:   NO VALUE
 COMP.    FENIX & SCISSON:   COMPANY
 WELL. FENIX  NPR 3 "LX" #56-10:   WELL
 FLD .              N P R:   FIELD
 LOC .      S10 T38N R78W:   LOCATION
 CNTY.            NATRONA:   COUNTY
 STAT.            WYOMING:   STATE
 CTRY. UNITED STATES OF AMERICA:   COUNTRY
 SRVC.       SCHLUMBERGER:   SERVICE COMPANY
 DATE.        11-JUL-1978:   LOGDATE
 API .     49025107100000:   API NUMBER
~CURVE INFORMATION
#MNEM.UNIT       API CODE    CURVE DESCRIPTION
#----------   ------------   ------------------------------
 DEPT.F                  :   
 GRD .GAPI   45 310 01 00:   GAMMA RAY FROM DENSITY LOG
 CALD.IN     45 280 60 00:   CALIPER FROM DENSITY LOG
 RHOB.G/C3   45 350 01 00:   BULK DENSITY
 NPHI.DEC    42 890 03 00:   NEUTRON POROSITY SANDSTONE
 DRHO.G/C3   45 356 01 00:   DENSITY CORRECTION
 TEND.LBS    45 635 01 00:   TENSION FROM DENSITY LOG
 SPR .MV     07 010 01 00:   SPONTANEOUS POTENTIAL
 TENR.LBS    07 635 01 00:   TENSION FROM RESISTIVITY
 ILD .OHMM   07 120 46 00:   DEEP INDUCTION RESISTIVITY
 ILM .OHMM   07 120 44 00:   INDUCTION LOG MEDIUM RESISTIVITY
 SFLU.OHMM   07 220 01 00:   SPHERICALLY FOCUSED LOG UNAVERAGED RESISTIVITY
~PARAMETER INFORMATION
#MNEM.UNIT          VALUE    DESCRIPTION
#----------   ------------   ------------------------------
 EKB .F         5212.0000:   Kelly bushing
 EGL .F         5202.0000:   Ground level
 EDF .F            0.0000:   Drilling floor
 TD  .F         4000.0000:   Total depth
 DATE.        11-JUL-1978:   Date logged
 CLNT.            A2DTECH:   Client Code
 SL  . 1144' FSL & 2183' FEL:   Surface Location
 PD  .                 GL:   Permanent Datum
 EPD .F              5202:   Elevation Permanent Datum
 LMF .                 KB:   Log Measured From
 DMF .                 KB:   Drilling Measured From
 DD  .F              4000:   Depth driller
 DL  .F              3990:   Depth logger
 BLI .F              3985:   Bottom log interval
 TLI .F               501:   Top log interval
 CS1 .IN            9.625:   Casing size
 CBD1.      9.625" @ 500':   Casing driller 1
 CBL1.F               501:   Casing logger 1
 BS1 .IN            7.875:   Bit size
 DFT .                FGM:   Type fluid in hole
 DFD .                9.1:   Density
 DFV .                 50:   Viscosity
 DFPH.                 12:   pH
 DFL .                4.4:   Fluid loss
 MSS .           MUD/TANK:   Source of sample
 RMS .OHMM           .714:   Rm
 MST .F                83:   Rm Meas. temp.
 RMF .OHMM           .585:   Rmf
 MFST.F                83:   Rmf Meas. temp.
 MFSS.               MEAS:   Source Rmf.
 RMB .OHMM            .42:   Rm. at BHT
 BHT .F               140:   BHT.
 TCS .HRS            1000:   Time Circ. stopped
 MRT .F               140:   Maximum recorded temp.
 LUN .               8035:   Logging unit number
 LUL .       ROCK SPRINGS:   Logging unit location
 ENGI.             MARTIN:   Recorded By
 WITN.           MCCINLEY:   Witnessed by
 ORIG.           5" PRINT:   Origin of data
 UWI .     49025107100000:   Unique Well ID
 DICO. A2D TECHNOLOGIES, INC.:   Digitizing Company
 DAPD.F                10:   Feet Above Permanent Datum
 BSD1.F              4000:   Depth drilled with bit1
 TLAB.HRS            1300:   Time logger at bottom
~OTHER INFORMATION
~A   DEPT       GRD      CALD       RHOB         NPHI     DRHO       TEND        SPR       TENR        ILD        ILM       SFLU   
# ...
 1397.0000    97.5290    10.1170     2.5260     0.3140     0.0310   798.4770   -46.1690   698.6030     6.6370     5.9330     6.7600
 1397.5000    95.4170    10.1190     2.5370     0.3170     0.0410   798.6110   -46.0840   698.6030     6.6860     5.8950     6.7600
 1398.0000    96.8670    10.1210     2.5340     0.3220     0.0410   798.7440   -45.9980   698.6030     6.8000     5.8360     6.7600
 1398.5000    98.1190    10.1230     2.5340     0.3180     0.0280   798.8770   -45.9130   698.6030     6.9150     5.9150     6.7600
 1399.0000    99.7910    10.1250     2.5440     0.3120     0.0240   799.0110   -45.8270   698.6030     7.0300     6.1070     7.0530
 1399.5000    96.4370    10.1280     2.5470     0.3050     0.0280   799.1440   -45.7410   698.6030     7.1440     6.2990     7.3420
 1400.0000    92.0990    10.1310     2.5360     0.2980     0.0110   799.2770   -45.6570   698.6030     7.0450     6.4910     7.6890
 1400.5000    87.3410    10.1610     2.5230     0.2960    -0.0060   799.4110   -45.5680   698.6030     6.9470     6.7600     7.5490
 1401.0000    86.6070    10.2010     2.5150     0.2960    -0.0020   799.5440   -45.4870   698.6030     6.8490     6.6790     7.5490
 1401.5000    88.6880    10.2410     2.5270     0.2980     0.0140   799.6770   -45.4100   698.6030     6.7510     6.5430     7.3280
 1402.0000    90.4570    10.2800     2.5440     0.3000     0.0360   799.8110   -45.5170   698.6030     6.6530     6.4070     7.1430
 1402.5000    92.2390    10.3190     2.5360     0.3080     0.0600   799.9440   -45.6280   698.6030     6.5550     6.2710     6.9590
 1403.0000    94.0740    10.3590     2.5200     0.3300     0.0790   800.0770   -45.7470   698.6030     6.4570     6.1350     6.7740
 1403.5000    96.3850    10.3980     2.5270     0.3260     0.1120   800.2100   -45.8610   698.6030     6.3590     5.9990     6.5900
 1404.0000    98.4570    10.4380     2.5380     0.3580     0.1630   800.3440   -45.9760   698.6030     6.2810     5.8360     6.4720
 1404.5000    99.5650    10.4460     2.5430     0.3750     0.2140   800.4770   -46.0930   698.6030     6.1670     5.8560     6.3980
 1405.0000   100.5380    10.4460     2.5040     0.3600     0.1900   800.6100   -46.2050   698.6030     6.1670     5.8800     6.5530
 1405.5000   100.3630    10.3820     2.4480     0.3460     0.1440   800.7440   -46.3230   698.6030     6.3110     5.9050     6.7090
 1406.0000    99.7840    10.2910     2.4550     0.3290     0.1030   800.8770   -46.4440   698.6030     6.4300     5.9300     6.8640
 1406.5000    99.1010    10.2050     2.4820     0.3290     0.0650   801.0100   -46.5300   698.6030     6.5500     5.9550     7.0190
 1407.0000    98.6020    10.1400     2.5010     0.3300     0.0360   801.1440   -46.8750   698.6030     6.6700     5.9800     7.2100
 1407.5000    96.2870    10.2360     2.5150     0.3310     0.0330   801.2770   -47.4050   698.6030     6.7900     6.0050     7.2760
 1408.0000    96.1040    10.3200     2.5210     0.3440     0.0430   801.4100   -47.8980   698.6030     6.8860     6.0300     7.1660
 1408.5000    95.8870    10.4120     2.5270     0.3440     0.0580   801.5440   -48.4100   699.6350     6.8860     6.0540     6.9810
 1409.0000    97.1510    10.5010     2.5320     0.3430     0.0720   801.6770   -48.6170   700.4960     6.7680     6.0890     6.7600
 1409.5000    98.6610    10.5270     2.5370     0.3390     0.0860   801.8100   -48.6020   701.3560     6.6510     6.1250     6.7860
 1410.0000    96.5640    10.5250     2.5330     0.3350     0.0950   801.9440   -48.6000   702.2160     6.5330     6.1670     6.8490
 1410.5000    92.3340    10.5270     2.5270     0.3310     0.0890   802.0770   -48.6000   703.0770     6.4160     6.1670     6.9120
 1411.0000    91.4900    10.5050     2.5120     0.3380     0.0740   802.2100   -48.6240   703.9370     6.2980     6.1380     6.9760
 1411.5000    90.8220    10.4570     2.4960     0.3480     0.0590   802.3430   -48.3340   704.7970     6.1810     6.0890     7.0140
 1412.0000    90.8950    10.4140     2.4910     0.3590     0.0470   802.4770   -47.6160   705.6580     6.0630     6.0410     6.8340
 1412.5000    97.4010    10.3690     2.4840     0.3530     0.0400   802.6100   -46.9270   706.5180     5.9460     5.9920     6.5340
 1413.0000   100.1340    10.3220     2.4780     0.3430     0.0320   802.7430   -46.1830   707.3780     5.8280     5.9440     6.2340
 1413.5000   100.0940    10.2850     2.4820     0.3310     0.0240   802.8770   -45.7080   708.2390     5.7110     5.8950     6.0540
 1414.0000    97.8850    10.2900     2.4980     0.3190     0.0230   803.0100   -45.6100   709.0990     5.5930     5.8370     6.0540
 1414.5000    92.4410    10.2880     2.5140     0.3130     0.0430   803.1430   -45.4510   709.9590     5.5230     5.8360     6.1070
 1415.0000    92.2520    10.2760     2.5180     0.3120     0.1010   803.2770   -45.4160   710.8200     5.3980     5.8360     6.1730
 1415.5000    92.2950    10.2620     2.4990     0.3120     0.0950   803.4100   -45.4740   711.6800     5.3230     5.8360     6.2390
 1416.0000    92.5050    10.2500     2.4680     0.3190     0.1000   803.5430   -45.5170   712.5400     5.5450     5.8360     6.3050
 1416.5000    92.5880    10.2490     2.4690     0.3310     0.0330   803.6770   -45.5620   713.4010     5.7670     5.8360     6.3710
 1417.0000    92.7520    10.2480     2.5020     0.3430     0.0560   803.8100   -45.6090   714.2610     5.9440     5.8360     6.3980
 1417.5000    92.8610    10.2690     2.5590     0.3480     0.0840   803.9430   -45.6540   715.1210     5.8490     5.7790     6.2270
 1418.0000    92.7580    10.3450     2.6160     0.3410     0.2500   804.0770   -45.6990   715.9820     5.7290     5.6360     6.0910
 1418.5000    90.9370    10.4200     2.6440     0.3340     0.2460   804.2100   -45.7460   716.8420     5.6100     5.4940     5.9560
 1419.0000    89.1900    10.4950     2.6340     0.3360     0.2500   804.3430   -45.7980   717.7030     5.4900     5.3510     5.8210
 1419.5000    87.2720    10.5730     2.5850     0.3440     0.2480   804.4770   -45.9500   718.5630     5.3230     5.2090     5.6850
 1420.0000    85.5840    10.6500     2.5950     0.3520     0.2500   804.6100   -46.1430   719.4230     5.3990     5.0380     5.5230
 1420.5000    83.5920    10.8040     2.3810     0.3560     0.2420   804.7430   -46.3340   720.2840     5.5250     4.9460     5.6430
 1421.0000    84.9040    10.9540     2.4010     0.3500     0.2190   804.8760   -46.5230   721.1440     5.6250     4.9460     5.7940
 1421.5000    86.6400    11.1060     2.3950     0.3400     0.2010   805.0100   -46.7170   722.0040     5.8280     5.1510     5.9440
 1422.0000    88.4920    11.2610     2.4340     0.3290     0.1760   805.1430   -46.9040   722.8650     5.9960     5.3220     6.2060
 1422.5000    90.3140    11.3160     2.4670     0.3190     0.1610   805.2760   -47.0930   723.7250     6.1650     5.4940     6.4670
 1423.0000    91.8400    11.2220     2.5010     0.3160     0.1660   805.4100   -47.3060   724.5850     6.3340     5.6650     6.7290
 1423.5000    93.0530    11.1020     2.5330     0.3150     0.2320   805.5430   -47.3170   725.4460     6.5020     5.8360     7.0140
 1424.0000    93.7150    10.9430     2.5470     0.3220     0.2500   805.6760   -47.0460   726.3060     6.6370     6.0540     6.9660
 1424.5000    93.6140    11.0400     2.5100     0.3380     0.2500   805.8100   -46.8010   727.1660     6.6370     6.0540     6.8860
 1425.0000    91.8130    11.2880     2.4560     0.3420     0.2500   805.9430   -46.5530   728.0270     6.5830     6.0540     6.8350
 1425.5000    89.4700    11.5110     2.3780     0.3460     0.2500   806.0760   -46.2970   728.8870     6.4910     5.9850     6.7510
 1426.0000    88.1970    11.7380     2.2820     0.3550     0.2500   806.2100   -46.0520   729.7470     6.4000     5.9270     6.6670
 1426.5000    87.4600    11.8770     2.1860     0.3650     0.2170   806.3430   -45.8090   730.6080     6.3090     5.8690     6.5830
 1427.0000    86.7150    11.9420     2.2320     0.3760     0.2000   806.4760   -45.7210   731.4680     6.2180     5.8110     6.4990
