~VERSION INFORMATION
 VERS.                2.0:   CWLS LOG ASCII STANDARD - VERSION 2.0
 WRAP.                 NO:   ONE LINE PER DEPTH STEP
~WELL INFORMATION
#MNEM.UNIT      DATA TYPE    INFORMATION
#----------   ------------   ------------------------------
 STRT.F          218.0000:   START DEPTH
 STOP.F         3062.0000:   STOP DEPTH
 STEP.F            0.5000:   STEP LENGTH
 NULL.          -999.2500:   NO VALUE
 COMP.    FEXIN & SCISSON:   COMPANY
 WELL. FEXIN 32 "A" #3-34:   WELL
 FLD .              N P R:   FIELD
 LOC .      S34 T39N R78W:   LOCATION
 CNTY.            NATRONA:   COUNTY
 STAT.            WYOMING:   STATE
 CTRY. UNITED STATES OF AMERICA:   COUNTRY
 SRVC.              WELEX:   SERVICE COMPANY
 DATE.        18-JUL-1977:   LOGDATE
 API .     49025103960000:   API NUMBER
~CURVE INFORMATION
#MNEM.UNIT       API CODE    CURVE DESCRIPTION
#----------   ------------   ------------------------------
 DEPT.F                  :   
 CALD.IN     45 280 60 00:   CALIPER FROM DENSITY LOG
 RHOB.G/C3   45 350 01 00:   BULK DENSITY
 GRD .GAPI   45 310 01 00:   GAMMA RAY FROM DENSITY LOG
 CORR.G/C3   45 356 01 00:   DENSITY CORRECTION
 SPR .MV     07 010 01 00:   SPONTANEOUS POTENTIAL
 SGRD.OHMM   07 220 05 00:   SHALLOW SHORT GUARD RESISTIVITY
 ILM .OHMM   07 120 44 00:   INDUCTION LOG MEDIUM RESISTIVITY
 ILD .OHMM   07 120 46 00:   DEEP INDUCTION RESISTIVITY
~PARAMETER INFORMATION
#MNEM.UNIT          VALUE    DESCRIPTION
#----------   ------------   ------------------------------
 EKB .F         5080.0000:   Kelly bushing
 EGL .F         5070.0000:   Ground level
 TD  .F         3070.0000:   Total depth
 DATE.        18-JUL-1977:   Date logged
 CLNT.            A2DTECH:   Client Code
 SL  . 900' FNL & 1650'FWL:   Surface Location
 PD  .                 GL:   Permanent Datum
 DD  .F              3070:   Depth driller
 DL  .F              3063:   Depth logger
 BLI .F              3061:   Bottom log interval
 CS1 .IN            8.625:   Casing size
 CBD1.      8.625" @ 212':   Casing driller 1
 CBL1.F               222:   Casing logger 1
 BS1 .IN            7.875:   Bit size
 DFT .           CEHM-GEL:   Type fluid in hole
 DFD .                8.8:   Density
 DFV .                 42:   Viscosity
 DFPH.                7.5:   pH
 DFL .                  8:   Fluid loss
 MSS .           FLOWLINE:   Source of sample
 RMS .OHMM            .89:   Rm
 MST .F                94:   Rm Meas. temp.
 RMF .OHMM            .54:   Rmf
 MFST.F                94:   Rmf Meas. temp.
 RMC .OHMM           1.24:   Rmc
 MCST.F                94:   Rmc Meas. temp.
 MFSS.               FANN:   Source Rmf.
 RMB .OHMM            .67:   Rm. at BHT
 BHT .F               122:   BHT.
 TCS .HRS               4:   Time Circ. stopped
 MRT .F               122:   Maximum recorded temp.
 LUN .               8611:   Logging unit number
 LUL .             CASPER:   Logging unit location
 ENGI.          C.A. DOAK:   Recorded By
 WITN.         PETTINGILL:   Witnessed by
 ORIG.           5" PRINT:   Origin of data
 UWI .     49025103960000:   Unique Well ID
 DICO. A2D TECHNOLOGIES, INC.:   Digitizing Company
 DAPD.                 12:   Feet Above Permanent Datum
 BSD1.F              3950:   Depth drilled with bit1
 MCSS.                KIT:   Source Rmc.
 EPD .F              5070:   Elevation Permanent Datum
 LMF .                 KB:   Log Measured From
 DMF .                 KB:   Drilling Measured From
 TLI .F               200:   Top log interval
~OTHER INFORMATION
~A   DEPT     CALD       RHOB        GRD       CORR        SPR       SGRD        ILM        ILD   
# ...
  785.0000     8.4840     2.4920    93.9010     0.0280   -63.2780    45.9800    37.6410    31.5450
  785.5000     8.4900     2.4880    94.8600     0.0280   -63.3420    45.4170    37.5910    31.4760
  786.0000     8.4950     2.4840    95.8160     0.0280   -63.4070    44.9910    37.5410    31.4060
  786.5000     8.5010     2.4800    96.7750     0.0280   -63.4720    45.6040    37.4920    31.3370
  787.0000     8.5060     2.4870    97.7130     0.0280   -63.5360    46.0970    37.4420    31.2680
  787.5000     8.5110     2.4960    97.4830     0.0320   -63.6010    46.5650    37.3920    31.2300
  788.0000     8.5170     2.5050    96.2190     0.0370   -63.6660    45.3010    37.3430    31.2100
  788.5000     8.5220     2.5140    94.9030     0.0420   -63.7310    45.8110    37.2930    31.1900
  789.0000     8.5280     2.5230    93.5960     0.0470   -63.7960    46.4090    37.2430    31.1690
  789.5000     8.5330     2.5280    93.1350     0.0520   -63.8570    47.0060    37.1940    31.1490
  790.0000     8.5380     2.5240    93.9390     0.0520   -63.7680    47.2100    37.1440    31.1290
  790.5000     8.5440     2.5170    94.7320     0.0510   -63.6700    42.8220    37.1070    31.1080
  791.0000     8.5490     2.5100    95.5310     0.0500   -63.5720    40.8590    37.1070    31.0880
  791.5000     8.5550     2.5040    96.3220     0.0480   -63.4750    44.3760    37.1070    31.0680
  792.0000     8.5660     2.4970    96.9900     0.0430   -63.3780    44.4780    37.1070    31.0480
  792.5000     8.5780     2.4900    95.4850     0.0390   -63.2810    44.6320    37.1070    31.0270
  793.0000     8.5900     2.4830    94.2870     0.0340   -63.1830    45.3850    37.1070    31.0070
  793.5000     8.6010     2.4770    94.7350     0.0290   -63.0840    46.5650    37.1070    30.9870
  794.0000     8.6130     2.4770    94.4520     0.0260   -63.1140    46.1170    37.1070    30.9670
  794.5000     8.6240     2.4840    92.0440     0.0260   -63.1660    45.1740    37.1070    30.9460
  795.0000     8.6330     2.4900    92.1670     0.0260   -63.2200    44.6820    37.1070    30.9260
  795.5000     8.6260     2.4960    93.6850     0.0270   -63.2730    45.5660    37.1070    30.9060
  796.0000     8.6110     2.4890    95.1620     0.0280   -63.3270    46.8870    37.1070    30.8860
  796.5000     8.5950     2.4750    96.3650     0.0250   -63.3800    46.5320    37.1070    30.8650
  797.0000     8.5800     2.4660    95.8240     0.0230   -63.4330    45.8020    37.1070    30.8450
  797.5000     8.5640     2.4780    95.3020     0.0260   -63.4870    45.0710    37.1070    30.8250
  798.0000     8.5490     2.4890    95.2000     0.0300   -63.5400    44.3760    37.1070    30.8050
  798.5000     8.5340     2.4870    95.8790     0.0280   -63.5930    45.3680    37.1070    30.7840
  799.0000     8.5180     2.4810    96.5520     0.0260   -63.6500    45.9290    37.1090    30.7640
  799.5000     8.5030     2.4740    97.0800     0.0250   -63.6130    44.3810    37.0740    30.7440
  800.0000     8.4940     2.4740    95.8690     0.0230   -63.5420    42.5810    36.9520    30.7230
  800.5000     8.4930     2.4760    94.6820     0.0220   -63.4700    42.5810    36.8330    30.7030
  801.0000     8.4910     2.4780    93.5000     0.0220   -63.3980    43.2430    36.7140    30.6830
  801.5000     8.4900     2.4810    92.3500     0.0220   -63.3260    44.3760    36.5950    30.6630
  802.0000     8.4890     2.4830    93.8640     0.0230   -63.2540    43.1330    36.4750    30.6430
  802.5000     8.4870     2.4840    95.5510     0.0230   -63.1820    41.9990    36.3490    30.6220
  803.0000     8.4860     2.4820    94.9820     0.0230   -63.1100    46.5280    36.5450    30.6090
  803.5000     8.4840     2.4840    93.8010     0.0240   -63.0380    51.2740    36.7540    30.9650
  804.0000     8.4830     2.4890    92.6400     0.0240   -62.9660    48.7730    36.9630    31.2790
  804.5000     8.4810     2.4910    92.3950     0.0250   -62.8940    45.4730    37.1710    31.5930
  805.0000     8.4800     2.4910    93.9100     0.0270   -62.8220    43.7690    37.3800    31.9070
  805.5000     8.4780     2.4910    95.3840     0.0290   -62.7500    45.0700    37.5890    32.2200
  806.0000     8.4770     2.4960    96.8540     0.0300   -62.6780    47.3010    37.7970    32.5340
  806.5000     8.4750     2.5000    98.0770     0.0320   -62.6050    48.2570    38.2290    32.8080
  807.0000     8.4770     2.4990    98.1270     0.0340   -62.5340    48.5650    38.8100    32.9230
  807.5000     8.4800     2.4990    98.1260     0.0330   -62.4730    48.8740    39.3900    33.0390
  808.0000     8.4820     2.4980    98.1240     0.0330   -62.4750    49.1820    40.3010    33.1540
  808.5000     8.4850     2.4950    98.1340     0.0320   -62.4750    49.4900    40.2430    33.2690
  809.0000     8.4880     2.4930    97.8710     0.0310   -62.4830    49.7960    40.1090    33.3840
  809.5000     8.4900     2.4890    96.9220     0.0310   -62.4930    50.1960    39.9750    33.5000
  810.0000     8.4930     2.4910    95.9670     0.0300   -62.5030    50.5730    39.8410    33.6150
  810.5000     8.4880     2.4990    95.0140     0.0310   -62.5130    50.2050    39.7070    33.7000
  811.0000     8.4580     2.5080    94.0610     0.0350   -62.5220    49.4120    39.5740    33.6800
  811.5000     8.4350     2.5160    93.1100     0.0390   -62.5320    48.6190    39.4200    33.6650
  812.0000     8.4590     2.5240    92.2240     0.0430   -62.5420    48.5120    39.2180    33.6490
  812.5000     8.4950     2.5330    92.1680     0.0470   -62.5520    48.4800    39.0150    33.6330
  813.0000     8.5140     2.5390    93.2290     0.0460   -62.5620    48.4480    38.8130    33.6180
  813.5000     8.4950     2.5340    94.4220     0.0440   -62.5710    48.4150    38.6100    33.6020
  814.0000     8.4760     2.5290    95.6010     0.0430   -62.5810    48.3830    38.4080    33.5870
  814.5000     8.4570     2.5250    93.7670     0.0410   -62.5910    48.3510    38.2050    33.5710
  815.0000     8.4380     2.5290    91.6680     0.0410   -62.6010    48.3190    38.0030    33.5560
  815.5000     8.4190     2.5330    90.9170     0.0430   -62.6110    48.2860    37.8000    33.5400
  816.0000     8.4000     2.5370    92.0120     0.0410   -62.6210    48.2540    37.5980    33.5250
  816.5000     8.4010     2.5390    91.5640     0.0350   -62.6300    48.2220    37.3960    33.5090
  817.0000     8.4220     2.5160    90.2510     0.0300   -62.6400    48.1950    37.1930    33.4940
  817.5000     8.4430     2.4960    91.5580     0.0300   -62.6500    47.8820    37.0770    33.4780
  818.0000     8.4630     2.4890    91.4100     0.0310   -62.6600    47.3380    36.9970    33.3490
  818.5000     8.4840     2.4830    90.0000     0.0270   -62.6700    46.7940    36.9170    33.0390
  819.0000     8.5050     2.4760    88.5910     0.0220   -62.6790    46.2500    36.8530    32.7290
  819.5000     8.5260     2.4780    88.2940     0.0200   -62.6890    45.9290    36.8520    32.4190
  820.0000     8.5470     2.4830    89.3560     0.0210   -62.6990    45.9290    36.8530    32.1150
  820.5000     8.5540     2.4880    90.3950     0.0210   -62.7090    45.9290    36.8520    32.3650
  821.0000     8.5520     2.4920    91.2390     0.0210   -62.7190    46.5050    36.7920    32.6100
  821.5000     8.5500     2.4910    91.2440     0.0220   -62.7280    47.6120    36.6980    32.8560
  822.0000     8.5470     2.4880    90.5300     0.0220   -62.7380    48.7190    36.6030    33.1010
  822.5000     8.5440     2.4850    89.6890     0.0230   -62.7480    49.5400    36.5080    33.3460
  823.0000     8.5410     2.4840    88.8700     0.0230   -62.7580    48.7620    36.4130    33.5920
  823.5000     8.5380     2.4880    88.8930     0.0230   -62.7680    47.8590    36.3180    33.8370
  824.0000     8.5330     2.4920    90.3290     0.0240   -62.7780    47.2100    36.2230    34.0820
  824.5000     8.5550     2.4960    91.8180     0.0260   -62.7870    47.2100    36.1280    34.3270
  825.0000     8.5820     2.5030    93.3390     0.0290   -62.7970    48.7180    36.0330    34.4020
