~VERSION INFORMATION
 VERS.                2.0:   CWLS LOG ASCII STANDARD - VERSION 2.0
 WRAP.                 NO:   ONE LINE PER DEPTH STEP
~WELL INFORMATION
#MNEM.UNIT      DATA TYPE    INFORMATION
#----------   ------------   ------------------------------
 STRT.F          500.0000:   START DEPTH
 STOP.F         2517.0000:   STOP DEPTH
 STEP.F            0.5000:   STEP LENGTH
 NULL.          -999.2500:   NO VALUE
 COMP.    FENIX & SCISSON:   COMPANY
 WELL. FENIX & SCISSON SHX #46-33:   WELL
 FLD .  TEAPOT DOME NPR-3:   FIELD
 LOC .      S33 T39N R78W:   LOCATION
 CNTY.            NATRONA:   COUNTY
 STAT.            WYOMING:   STATE
 CTRY. UNITED STATES OF AMERICA:   COUNTRY
 SRVC.           BIRDWELL:   SERVICE COMPANY
 DATE.        04-APR-1979:   LOGDATE
 API .     49025107670000:   API NUMBER
~CURVE INFORMATION
#MNEM.UNIT       API CODE    CURVE DESCRIPTION
#----------   ------------   ------------------------------
 DEPT.F                  :   
 GRD .GAPI   45 310 01 00:   GAMMA RAY FROM DENSITY LOG
 CALD.IN     45 280 60 00:   CALIPER FROM DENSITY LOG
 CORR.G/C3   45 356 01 00:   DENSITY CORRECTION
 RHOB.G/C3   45 350 01 00:   BULK DENSITY
~PARAMETER INFORMATION
#MNEM.UNIT          VALUE    DESCRIPTION
#----------   ------------   ------------------------------
 EKB .F         5217.0000:   Kelly bushing
 EGL .F         5207.0000:   Ground level
 EDF .F            0.0000:   Drilling floor
 TD  .F         2630.0000:   Total depth
 CLNT.            A2DTECH:   Client Code
 SL  . 1955' FSL & 1970' FWL:   Surface Location
 PD  .                 GL:   Permanent Datum
 EPD .F              5207:   Elevation Permanent Datum
 LMF .                 KB:   Log Measured From
 DMF .                 KB:   Drilling Measured From
 DAPD.                 10:   Feet Above Permanent Datum
 DATE.        04-APR-1979:   Date Logged [DD-MMM-YYYY]
 DD  .F              2630:   Depth driller
 DL  .F              2517:   Depth logger
 BLI .F              2517:   Bottom log interval
 TLI .F               504:   Top log interval
 CS1 .              9.625:   Casing size
 CBD1.      9.625" @ 300':   Casing driller 1
 CBL1.IN              306:   Casing logger 1
 BS1 .IN            7.875:   Bit size
 BSD1.F              2630:   Depth drilled with bit1
 DFT .                OIL:   Type fluid in hole
 LUL .             CASPER:   Logging unit location
 ENGI.            ROLLINS:   Recorded By
 ORIG.           5" PRINT:   Origin of data
 UWI .     49025107670000:   Unique Well ID
 DICO. A2D TECHNOLOGIES ,INC.:   Digitizing Company
 WITN.              AMUND:   Witnessed by
~OTHER INFORMATION
~A   DEPT      GRD       CALD       CORR       RHOB   
# ...
 2471.0000    47.4159     9.2917     0.1732     2.5642
 2471.5000    39.9938     9.2923     0.1750     2.5570
 2472.0000    42.3785     9.2777     0.1795     2.5496
 2472.5000    40.0084     9.2934     0.1420     2.5421
 2473.0000    30.5060     9.2940     0.1543     2.5528
 2473.5000    32.8907     9.2796     0.1785     2.5784
 2474.0000    34.0849     9.2802     0.1876     2.5898
 2474.5000    32.4577     9.2495     0.1637     2.5883
 2475.0000    42.5709     9.2365     0.1594     2.5832
 2475.5000    49.8590     9.2221     0.1536     2.5689
 2476.0000    53.4324     9.2229     0.1462     2.5660
 2476.5000    48.5104     9.2234     0.1389     2.5668
 2477.0000    47.3383     9.2240     0.1420     2.5729
 2477.5000    47.5819     9.2246     0.1467     2.5715
 2478.0000    52.8691     9.2252     0.1378     2.5678
 2478.5000    56.8883     9.2258     0.1455     2.5834
 2479.0000    60.6103     9.2264     0.1427     2.6218
 2479.5000    62.8464     9.2270     0.1353     2.6282
 2480.0000    63.1491     9.2276     0.1355     2.6343
 2480.5000    58.9978     9.2282     0.1419     2.6494
 2481.0000    52.0214     9.2287     0.1499     2.6616
 2481.5000    45.4908     9.2293     0.1571     2.6579
 2482.0000    44.4577     9.2299     0.1602     2.6497
 2482.5000    46.2484     9.2307     0.1709     2.6686
 2483.0000    53.2393     9.2312     0.1771     2.6731
 2483.5000    56.8127     9.2318     0.1713     2.6710
 2484.0000    56.6578     9.2324     0.1624     2.6695
 2484.5000    57.2217     9.2330     0.1490     2.6553
 2485.0000    58.7681     9.2336     0.1281     2.6306
 2485.5000    57.5867     9.2342     0.1177     2.6230
 2486.0000    51.2047     9.2348     0.1194     2.6315
 2486.5000    45.8628     9.2354     0.1256     2.6330
 2487.0000    41.2639     9.2360     0.1303     2.6331
 2487.5000    42.1627     9.2365     0.1305     2.6300
 2488.0000    42.7644     9.2371     0.1231     2.6077
 2488.5000    46.1892     9.2377     0.1097     2.6032
 2489.0000    48.2768     9.2383     0.1145     2.6086
 2489.5000    48.4326     9.2390     0.1161     2.5951
 2490.0000    43.9823     9.2396     0.0937     2.5869
 2490.5000    41.0166     9.2402     0.1029     2.6028
 2491.0000    38.8795     9.2408     0.1031     2.6194
 2491.5000    36.4052     9.2414     0.1123     2.6263
 2492.0000    36.1363     9.2420     0.1395     2.6429
 2492.5000    39.2658     9.2426     0.1381     2.6407
 2493.0000    42.2449     9.2432     0.1353     2.6370
 2493.5000    42.6979     9.2437     0.1355     2.6379
 2494.0000    49.0945     9.2443     0.1431     2.6387
 2494.5000    56.2341     9.2150     0.1493     2.6372
 2495.0000    60.6990     9.1707     0.1540     2.6115
 2495.5000    61.4475     9.1558     0.1361     2.6019
 2496.0000    53.5814     9.1269     0.1440     2.5957
 2496.5000    50.4683     9.1275     0.1364     2.5856
 2497.0000    48.6926     9.1432     0.1306     2.5699
 2497.5000    47.2140     9.1438     0.1276     2.5655
 2498.0000    46.7526     9.1444     0.1279     2.5557
 2498.5000    40.0600     9.1450     0.1313     2.5709
 2499.0000    38.9168     9.1456     0.1358     2.5898
 2499.5000    37.7354     9.1462     0.1420     2.5959
 2500.0000    40.7144     9.1617     0.1782     2.6185
 2500.5000    39.3844     9.1623     0.1919     2.6321
 2501.0000    31.2194     9.1629     0.1891     2.6254
 2501.5000    30.4819     9.1785     0.1757     2.6075
 2502.0000    34.0572     9.1940     0.1668     2.6036
 2502.5000    33.9159     9.1946     0.1550     2.6091
 2503.0000    34.2204     9.1952     0.1401     2.5964
 2503.5000    36.4565     9.1808     0.1297     2.6059
 2504.0000    34.0864     9.1664     0.1359     2.6176
 2504.5000    30.5276     9.1672     0.1391     2.6026
 2505.0000    30.6835     9.1678     0.1377     2.5771
 2505.5000    29.6919     9.1532     0.1274     2.5501
 2506.0000    26.0865     9.1390     0.1124     2.5336
 2506.5000    29.3699     9.1396     0.1006     2.5284
 2507.0000    35.1721     9.1402     0.1102     2.5571
 2507.5000    39.6371     9.1408     0.1145     2.5625
 2508.0000    41.1284     9.1413     0.1162     2.5640
 2508.5000    33.8567     9.1419     0.1329     2.5784
 2509.0000    32.8184     9.1425     0.1391     2.5695
 2509.5000  -999.2500     9.1431     0.1423     2.5643
 2510.0000  -999.2500     9.1437     0.1560     2.5643
 2510.5000  -999.2500     9.1443     0.1757     2.5712
 2511.0000  -999.2500     9.1450     0.2149     2.6217
 2511.5000  -999.2500     9.1456     0.2466     2.6429
 2512.0000  -999.2500     9.1311     0.2273     2.6436
 2512.5000  -999.2500     9.1318     0.2244     2.6274
 2513.0000  -999.2500     9.1324     0.2291     2.6159
 2513.5000  -999.2500     9.1330     0.2609     2.6394
 2514.0000  -999.2500     9.1185     0.3001     2.6176
 2514.5000  -999.2500     9.1041     0.2792     2.5605
 2515.0000  -999.2500     9.0449     0.2795     2.5530
 2515.5000  -999.2500  -999.2500     0.2917     2.5637
 2516.0000  -999.2500  -999.2500     0.2914     2.5675
 2516.5000  -999.2500  -999.2500     0.2859     2.5638
 2517.0000  -999.2500  -999.2500     0.3042     2.5729
