~VERSION INFORMATION
 VERS.                2.0:   CWLS LOG ASCII STANDARD - VERSION 2.0
 WRAP.                 NO:   ONE LINE PER DEPTH STEP
~WELL INFORMATION
#MNEM.UNIT      DATA TYPE    INFORMATION
#----------   ------------   ------------------------------
 STRT.F           76.0000:   START DEPTH
 STOP.F         4972.0000:   STOP DEPTH
 STEP.F            0.5000:   STEP LENGTH
 NULL.          -999.2500:   NO VALUE
 COMP.    PENIX & SCISSON:   COMPANY
 WELL. FENIX NPR 3 "LX" #85-9:   WELL
 FLD .                NPR:   FIELD
 LOC .       S9 T38N R78W:   LOCATION
 CNTY.            NATRONA:   COUNTY
 STAT.            WYOMING:   STATE
 CTRY. UNITED STATES OF AMERICA:   COUNTRY
 SRVC.       SCHLUMBERGER:   SERVICE COMPANY
 DATE.        10-OCT-1978:   LOGDATE
 API .     49025107250000:   API NUMBER
~CURVE INFORMATION
#MNEM.UNIT       API CODE    CURVE DESCRIPTION
#----------   ------------   ------------------------------
 DEPT.F                  :   
 TENR.LBS    07 635 01 00:   TENSION FROM RESISTIVITY
 SPR .MV     07 010 01 00:   SPONTANEOUS POTENTIAL
 SFL .OHMM   07 220 01 00:   SHALLOW FOCUSED LOG RESISTIVITY
 ILD .OHMM   07 120 46 00:   DEEP INDUCTION RESISTIVITY
 ILM .OHMM   07 120 44 00:   INDUCTION LOG MEDIUM RESISTIVITY
 CALD.IN     45 280 60 00:   CALIPER FROM DENSITY LOG
 GRD .GAPI   45 310 01 00:   GAMMA RAY FROM DENSITY LOG
 CORR.G/C3   45 356 01 00:   DENSITY CORRECTION
 TEND.LBS    45 635 01 00:   TENSION FROM DENSITY LOG
 RHOB.G/C3   45 350 01 00:   BULK DENSITY
 NPHI.DEC    42 890 03 00:   NEUTRON POROSITY SANDSTONE
~PARAMETER INFORMATION
#MNEM.UNIT          VALUE    DESCRIPTION
#----------   ------------   ------------------------------
 EKB .F         5288.0000:   Kelly bushing
 EGL .F         5278.0000:   Ground level
 EDF .F            0.0000:   Drilling floor
 TD  .F         4950.0000:   Total depth
 DATE.        10-OCT-1978:   Date logged
 CLNT.            A2DTECH:   Client Code
 SL  . 2310' FSL & 230' FEL:   Surface Location
 PD  .                 GL:   Permanent Datum
 EPD .F              5278:   Elevation Permanent Datum
 LMF .                 KB:   Log Measured From
 DMF .                 KB:   Drilling Measured From
 DAPD.F                10:   Feet Above Permanent Datum
 DD  .F              4950:   Depth driller
 DL  .F              4950:   Depth logger
 BLI .F              4947:   Bottom log interval
 TLI .F               499:   Top log interval
 CS1 .IN            8.625:   Casing size
 CBD1.      8.625" @ 489':   Casing driller 1
 CBL1.F               499:   Casing logger 1
 BS1 .IN            7.875:   Bit size
 BSD1.F              4950:   Depth drilled with bit1
 DFT .            GEL/MUD:   Type fluid in hole
 DFD .                9.3:   Density
 DFV .                175:   Viscosity
 DFPH.                 12:   pH
 DFL .                  4:   Fluid loss
 MSS .               TANK:   Source of sample
 RMS .OHMM           .600:   Rm
 MST .F                71:   Rm Meas. temp.
 RMF .OHMM           .804:   Rmf
 MFST.F                71:   Rmf Meas. temp.
 MFSS.               MEAS:   Source Rmf.
 RMB .OHMM           .308:   Rm. at BHT
 BHT .F               138:   BHT.
 TCS .HRS            1200:   Time Circ. stopped
 TLAB.HRS            0330:   Time logger at bottom
 MRT .F               138:   Maximum recorded temp.
 LUN .               8035:   Logging unit number
 LUL .               CSPR:   Logging unit location
 ENGI.        CRAIG/DFARR:   Recorded By
 WITN.              AMEND:   Witnessed by
 ORIG.           5" PRINT:   Origin of data
 UWI .     49025107250000:   Unique Well ID
 DICO. A2D TECHNOLOGIES, INC.:   Digitizing Company
~OTHER INFORMATION
~A   DEPT     TENR        SPR        SFL        ILD        ILM       CALD         GRD      CORR       TEND       RHOB         NPHI 
# ...
 1692.5000   910.9310   -21.8870     5.9620     6.7170     5.5220  -999.2500   106.8150     0.2500  1117.8860     2.4750     0.2960
 1693.0000   910.9310   -21.6900     6.0340     6.7930     5.5940  -999.2500   107.7310     0.2490  1117.8860     2.4760     0.2970
 1693.5000   910.9310   -22.5250     6.0860     6.8460     5.6670    15.5860   106.6070     0.2500  1117.8860     2.4270     0.3040
 1694.0000   910.9310   -22.8270     6.1380     6.7610     5.7390    15.6240   105.5950     0.2490  1117.8860     2.3960     0.3130
 1694.5000   910.9310   -22.6280     6.1910     6.6650     5.7890    15.8840   105.9510     0.2430  1117.8860     2.3750     0.3120
 1695.0000   910.9310   -22.3640     6.2370     6.5700     5.6670    15.7860   106.4240     0.2350  1117.8860     2.3540     0.3080
 1695.5000   910.9310   -22.1070     6.0680     6.4740     5.5770    15.6580   106.8530     0.2280  1117.8860     2.3400     0.2970
 1696.0000   910.9310   -21.8490     5.9160     6.3590     4.7150    15.5330   107.1220     0.2420  1117.8860     2.3740     0.2870
 1696.5000   910.9310   -21.5910     5.7650     6.3690     4.7890    15.4920   105.1300     0.2500  1117.8860     2.4100     0.2970
 1697.0000   910.9310   -21.3320     5.5940     6.3890     5.0060    15.3920   103.3450     0.2500  1117.8860     2.4390     0.3120
 1697.5000   910.9310   -21.0730     5.6280     6.4100     5.2230    15.9160   101.4090     0.2500  1117.8860     2.4080     0.3340
 1698.0000   910.9310   -20.8170     5.6960     6.4300     5.4410  -999.2500   101.4410     0.2500  1117.8860     2.3740     0.3560
 1698.5000   910.9310   -20.5510     5.7640     6.4500     5.5850  -999.2500   102.7250     0.2390  1117.8860     2.3830     0.3460
 1699.0000   910.9310   -20.3020     5.8320     6.4700     5.6070  -999.2500   103.9270     0.2300  1117.8860     2.4110     0.3370
 1699.5000   910.9310   -20.0640     5.9000     6.4910     5.6290  -999.2500   102.8230     0.2430  1117.8860     2.4480     0.3310
 1700.0000   910.9310   -20.2220     5.9680     6.5110     5.6510  -999.2500   100.6000     0.2500  1117.8860     2.4360     0.3300
 1700.5000   910.9310   -20.3930     6.0160     6.5310     5.6820  -999.2500    97.9130     0.2380  1117.8860     2.4080     0.3300
 1701.0000   910.9310   -20.5980     6.0330     6.5510     5.6040  -999.2500    97.6640     0.2100  1117.8860     2.3710     0.3270
 1701.5000   910.9310   -20.7340     6.0510     6.5710     5.4760  -999.2500    99.0390     0.2130  1117.8860     2.3810     0.3250
 1702.0000   910.9310   -20.9930     6.0690     6.5950     5.2730  -999.2500   101.9120     0.2440  1117.8860     2.4100     0.3220
 1702.5000   910.9310   -21.3280     6.0870     6.5410     5.3050  -999.2500   104.8280     0.2500  1117.8860     2.4500     0.3230
 1703.0000   910.9310   -22.5540     6.1040     6.4750     5.3810  -999.2500   106.8410     0.2500  1117.8860     2.4430     0.3290
 1703.5000   910.9310   -23.0140     6.1220     6.4090     5.4570  -999.2500   107.7490     0.2500  1117.8860     2.3730     0.3360
 1704.0000   910.9310   -23.3200     6.0580     6.3430     5.5770  -999.2500   106.7160     0.2500  1117.8860     2.3150     0.3430
 1704.5000   910.9310   -23.4340     5.9970     6.2770     5.5480  -999.2500   103.4830     0.1970  1117.8860     2.3210     0.3370
 1705.0000   910.9310   -23.5680     5.9360     6.2110     5.4800  -999.2500   102.1140     0.1710  1117.8860     2.3580     0.3220
 1705.5000   910.9310   -23.7080     5.8740     6.1450     5.4130  -999.2500   101.1410     0.1820  1117.8860     2.3980     0.3200
 1706.0000   910.9310   -23.8330     5.8130     6.1220     5.3460  -999.2500   100.1920     0.2040  1117.8860     2.4530     0.3230
 1706.5000   910.9310   -23.9700     5.7520     6.1220     5.2790  -999.2500    99.2930     0.2410  1117.8860     2.4450     0.3360
 1707.0000   910.9310   -23.9190     5.6820     6.1220     5.2120  -999.2500    98.7920     0.2500  1117.8860     2.3930     0.3360
 1707.5000   910.9310   -23.7560     5.7040     6.1220     5.1760  -999.2500    99.6810     0.2500  1117.8860     2.2990     0.3360
 1708.0000   910.9310   -23.6070     5.7530     6.2200     5.2280  -999.2500   101.6970     0.2500  1117.8860     2.2200     0.3520
 1708.5000   910.9310   -23.0460     5.8030     6.3690     5.2780  -999.2500   103.5770     0.2260  1117.8860     2.1740     0.3600
 1709.0000   910.9310   -22.3870     5.8520     6.5170     5.3270  -999.2500   103.8030     0.1690  1117.8860     2.1920     0.3450
 1709.5000   910.9310   -21.2370     5.8970     6.5960     5.3730  -999.2500   103.9860     0.1940  1117.8860     2.3150     0.3310
 1710.0000   910.9310   -20.8590     5.8540     6.4810     5.3390  -999.2500   104.0680     0.2310  1117.8860     2.3790     0.3170
 1710.5000   910.9310   -20.5060     5.8140     6.3740     5.2200  -999.2500   104.2750     0.2500  1117.8860     2.4070     0.3110
 1711.0000   910.9310   -20.1720     5.7740     6.2680     5.1020  -999.2500   103.7710     0.2500  1117.8860     2.3660     0.3140
 1711.5000   910.9310   -20.0280     5.7330     6.1610     4.9830  -999.2500   101.5750     0.2490  1117.8860     2.3240     0.3170
 1712.0000   910.9310   -20.0370     5.6930     6.0550     4.8040  -999.2500    99.5030     0.2500  1117.8860     2.2930     0.3250
 1712.5000   910.9310   -20.0400     5.6530     5.9480     4.8420  -999.2500    98.9760     0.2490  1117.8860     2.2650     0.3420
 1713.0000   910.9310   -20.0410     5.6130     5.8420     4.8940  -999.2500    99.5020     0.2440  1117.8860     2.2310     0.3400
 1713.5000   910.9310   -20.0200     5.5770     5.7350     4.7800  -999.2500   100.0940     0.2030  1117.8860     2.1970     0.3350
 1714.0000   910.9310   -20.2840     5.4500     5.5770     4.6540  -999.2500   100.6960     0.1790  1117.8860     2.2130     0.3260
 1714.5000   910.9310   -20.9340     5.3360     5.5830     4.5430  -999.2500   101.2600     0.2500  1117.8860     2.3040     0.3320
 1715.0000   910.9310   -21.5590     5.2230     5.5960     4.5430  -999.2500   101.2940     0.2500  1117.8860     2.2740     0.3430
 1715.5000   910.9310   -22.0480     5.1090     5.6080     4.5930  -999.2500   101.2820     0.2500  1117.8860     2.2230     0.3530
 1716.0000   910.9310   -22.1670     4.9860     5.6210     4.6490  -999.2500   101.4410     0.2460  1117.8860     2.1760     0.3650
 1716.5000   910.9310   -22.2900     4.9860     5.6330     4.7040  -999.2500   101.6920     0.2170  1117.8860     2.1900     0.3730
 1717.0000   910.9310   -22.4060     5.0950     5.6460     4.7590  -999.2500   101.8140     0.2370  1117.8860     2.2420     0.3710
 1717.5000   910.9310   -22.5240     5.2430     5.6580     4.8140  -999.2500   100.8640     0.2500  1117.8860     2.2960     0.3630
 1718.0000   910.9310   -22.6410     5.3910     5.6710     4.8690  -999.2500   100.0930     0.2500  1117.8860     2.3220     0.3500
 1718.5000   910.9310   -22.7640     5.5390     5.6820     4.8940  -999.2500    99.2200     0.2370  1117.8860     2.2920     0.3390
 1719.0000   910.9310   -22.8230     5.5770     5.7560     4.8940  -999.2500    98.6880     0.2250  1117.8860     2.2630     0.3510
 1719.5000   910.9310   -22.8180     5.5770     5.8210     4.8940  -999.2500    98.3510     0.2140  1117.8860     2.2760     0.3590
 1720.0000   910.9310   -22.8170     5.5770     5.8860     4.8940  -999.2500    98.7590     0.2310  1117.8860     2.2980     0.3610
 1720.5000   910.9310   -22.8180     5.5770     5.9510     5.0300  -999.2500    99.2090     0.2480  1117.8860     2.3210     0.3600
 1721.0000   910.9310   -22.8260     5.5890     6.0160     5.2730  -999.2500    99.6200     0.2480  1117.8860     2.2880     0.3550
 1721.5000   910.9310   -22.7080     5.6220     6.0810     5.4740  -999.2500   100.1290     0.2480  1117.8860     2.2720     0.3510
 1722.0000   910.9310   -22.3670     5.6550     6.1510     5.5760  -999.2500    99.6630     0.2420  1117.8860     2.2580     0.3410
 1722.5000   910.9310   -22.0390     5.6880     6.2310     5.6630  -999.2500    98.6930     0.2280  1117.8860     2.2860     0.3300
