~VERSION INFORMATION
 VERS.                2.0:   CWLS LOG ASCII STANDARD - VERSION 2.0
 WRAP.                 NO:   ONE LINE PER DEPTH STEP
~WELL INFORMATION
#MNEM.UNIT      DATA TYPE    INFORMATION
#----------   ------------   ------------------------------
 STRT.F           61.5000:   START DEPTH
 STOP.F         4220.0000:   STOP DEPTH
 STEP.F            0.5000:   STEP LENGTH
 NULL.          -999.2500:   NO VALUE
 COMP.   LAWRENCE ALLISON:   COMPANY
 WELL. ALLISON NPR 3 "LX" #28-34:   WELL
 FLD .                NPR:   FIELD
 LOC .      S34 T39N R78W:   LOCATION
 CNTY.            NATRONA:   COUNTY
 STAT.            WYOMING:   STATE
 CTRY. UNITED STATES OF AMERICA:   COUNTRY
 SRVC.       DRESER ATLAS:   SERVICE COMPANY
 DATE.        23-MAR-1983:   LOGDATE
 API .     49025109190000:   API NUMBER
~CURVE INFORMATION
#MNEM.UNIT       API CODE    CURVE DESCRIPTION
#----------   ------------   ------------------------------
 DEPT.F                  :   
 TEND.LBS    45 635 01 00:   TENSION FROM DENSITY LOG
 CORR.G/C3   45 356 01 00:   DENSITY CORRECTION
 RHOB.G/C3   45 350 01 00:   BULK DENSITY
 CN  .DEC    42 890 00 00:   Neutron Porosity
 SPR .MV     07 010 01 00:   SPONTANEOUS POTENTIAL
 GRR .GAPI   07 310 01 00:   GAMMA RAY FROM RESISTIVITY
 TENR.LBS    07 635 01 00:   TENSION FROM RESISTIVITY
 RILD.OHMM   07 120 46 00:   DEEP INDUCTION RESISTIVITY
 RILM.OHMM   07 120 44 00:   INDUCTION LOG MEDIUM RESISTIVITY
 RFOC.OHMM   07 220 01 00:   RESISTIVITY FOCUSED LOG RES.
 TENS.LBS    60 635 01 00:   TENSION FROM SONIC LOG
 DT  .US/F   60 520 00 00:   DELTA TIME
 CALS.IN     60 280 50 00:   CALIPER FROM SONIC LOG
~PARAMETER INFORMATION
#MNEM.UNIT          VALUE    DESCRIPTION
#----------   ------------   ------------------------------
 EKB .F         5184.0000:   Kelly bushing
 EGL .F         5174.0000:   Ground level
 EDF .F            0.0000:   Drilling floor
 TD  .F         4397.0000:   Total depth
 DATE.        23-MAR-1983:   Date logged
 CLNT.            A2DTECH:   Client Code
 SL  . 942' FWL & 645' FSL:   Surface Location
 PD  .                 GL:   Permanent Datum
 EPD .F              5174:   Elevation Permanent Datum
 LMF .                 KB:   Log Measured From
 DMF .                 KB:   Drilling Measured From
 DAPD.F                10:   Feet Above Permanent Datum
 DD  .F              4397:   Depth driller
 DL  .F              4203:   Depth logger
 BLI .F              4201:   Bottom log interval
 CS1 .IN            9.625:   Casing size
 CBD1.      9.625" @ 659':   Casing driller 1
 CBL1.F               658:   Casing logger 1
 BS1 .IN             8.75:   Bit size
 BSD1.F              4397:   Depth drilled with bit1
 DFT .   GEL/DRISPACK/KCL:   Type fluid in hole
 DFD .                8.6:   Density
 DFV .                 36:   Viscosity
 DFPH.                8.5:   pH
 DFL .                 18:   Fluid loss
 MSS .               TANK:   Source of sample
 RMS .OHMM           0.55:   Rm
 MST .F                74:   Rm Meas. temp.
 RMF .OHMM           0.43:   Rmf
 MFST.F                66:   Rmf Meas. temp.
 RMC .OHMM           0.69:   Rmc
 MCST.F                74:   Rmc Meas. temp.
 MFSS.               MEAS:   Source Rmf.
 MCSS.               CALC:   Source Rmc.
 RMB .OHMM           0.33:   Rm. at BHT
 BHT .F               122:   BHT.
 TCS .HRS             5.5:   Time Circ. stopped
 MRT .F               122:   Maximum recorded temp.
 LUN .               6270:   Logging unit number
 LUL .              WLSTN:   Logging unit location
 ENGI.             REEVES:   Recorded By
 WITN.             STRONG:   Witnessed by
 ORIG.           5" PRINT:   Origin of data
 UWI .     49025109190000:   Unique Well ID
 DICO. A2D TECHNOLOGIES, INC.:   Digitizing Company
~OTHER INFORMATION
~A   DEPT     TEND       CORR       RHOB         CN        SPR         GRR      TENR       RILD       RILM       RFOC       TENS         DT       CALS   
# ...
 2531.5000    31.0330     0.0270     2.0110     0.2960   -54.2730   121.1640  -164.8300     4.1810     4.0220     4.5300  -178.1900    87.0030    14.6650
 2532.0000    14.8010     0.1370     2.0030     0.3040   -54.0370   119.7700  -164.8300     4.0040     3.8640     4.5540  -185.9440    87.0370    14.7690
 2532.5000    -1.4310     0.1160     2.0040     0.3380   -53.7920   113.5140  -164.8300     3.8270     3.7060     4.5680  -194.7790    87.0700    14.8780
 2533.0000   -17.6640     0.0480     2.0050     0.3650   -53.3730   105.4360  -164.8300     3.6500     3.5470     4.5680  -194.7790    87.7100    14.9870
 2533.5000   -33.8960    -0.0080     2.0060     0.3800   -52.9440   101.6370  -164.8300     3.4740     3.3890     4.1520  -194.7790    90.6360    15.0960
 2534.0000   -53.2060    -0.0420     2.0070     0.3810   -52.4420   103.2440  -164.8300     3.2970     3.2310     3.7860  -194.7790    97.9080    15.1700
 2534.5000   -74.6490    -0.0420     2.0020     0.3630   -51.6580   107.2220  -164.8300     3.1200     3.0730     3.4100  -178.5740   105.1800    15.2200
 2535.0000   -71.4760    -0.0410     2.1750     0.3470   -51.3840   111.3110  -164.8300     2.9430     2.8270     3.0350  -164.6590   108.9760    15.2700
 2535.5000   -67.2680    -0.0380     2.2950     0.3430   -51.4230   112.9980  -148.6540     2.7750     2.8780     2.8270  -139.7170   106.8980    15.3200
 2536.0000   -64.6290    -0.0340     2.3780     0.3440   -51.7780   114.8450  -112.4390     2.8770     2.9920     3.1430  -116.6160    99.5540    15.3700
 2536.5000   -64.6290    -0.0020     2.4360     0.3330   -52.1180   116.2830   -76.2240     2.9740     3.1060     3.4430   -93.5160    88.4940    15.4210
 2537.0000   -67.6510     0.0050     2.4610     0.3310   -52.4830   116.0060   -54.6090     3.0710     3.2200     3.7440   -70.4150    89.2970    15.4590
 2537.5000   -75.4200     0.0050     2.4720     0.3290   -52.8350   115.7620   -34.5690     3.1580     3.3340     4.0150   -66.7670    87.8920    15.4600
 2538.0000   -83.1890     0.0000     2.4830     0.3170   -53.1870   116.4200  -108.8510     3.3340     3.4480     3.9540  -108.7680    89.0960    15.4600
 2538.5000   -90.9590    -0.0060     2.4950     0.2920   -53.5470   119.4310  -176.4530     3.4950     3.5620     3.9000  -150.7700    89.4980    15.4600
 2539.0000   -98.7280    -0.0120     2.4970     0.2950   -53.8990   123.0570  -176.4530     3.7290     3.6770     3.8450  -204.8190    89.4980    15.4600
 2539.5000  -105.1400    -0.0180     2.5000     0.3010   -54.1880   123.4160  -115.4110     3.7210     3.7290     3.7290  -174.6790    88.0920    15.4600
 2540.0000  -107.0100    -0.0160     2.5000     0.3060   -54.1520   120.8600   -24.1480     3.7070     3.7290     3.8600   -78.9160    87.0530    15.4600
 2540.5000  -108.8810    -0.0120     2.5000     0.3030   -54.1210   118.4890    25.5510     3.6920     3.7290     4.1660   -14.0560    86.5560    15.4600
 2541.0000  -110.7510    -0.0080     2.5000     0.3010   -54.0770   116.6950   -48.0960     3.6780     3.7290     4.1230   -48.5140    87.2890    15.4600
 2541.5000  -112.6220    -0.0030     2.5050     0.3060   -54.0390   115.7040  -124.7490     3.6610     3.6610     4.0690  -114.0360    88.8520    15.4600
 2542.0000  -114.4920     0.0120     2.5090     0.3110   -54.0000   114.5340  -124.7490     3.7290     3.6610     4.0150  -137.8510    89.6770    15.4600
 2542.5000  -116.3620     0.0320     2.5050     0.3100   -53.9610   113.4880  -114.7290     3.8030     3.7890     3.9410  -125.2510    90.0130    15.4600
 2543.0000  -118.2330     0.0320     2.5000     0.3100   -53.9220   112.6030   -90.3810     3.9250     3.9160     3.9750  -112.6510    90.3010    15.4600
 2543.5000  -120.1030     0.0300     2.5010     0.3100   -53.8810   114.9980   -24.5490     4.0470     4.0430     4.0170   -84.0360    90.2140    15.4600
 2544.0000  -121.9740     0.0290     2.5060     0.3100   -53.8460   117.3590   -52.2900     4.1690     4.1710     4.0590   -34.1370    89.9340    15.4600
 2544.5000  -123.8440     0.0280     2.5170     0.3060   -53.8060   119.9570  -113.8560     4.2910     4.2980     4.1380  -100.4590    89.6320    15.4600
 2545.0000  -123.8810     0.0250     2.5260     0.3020   -53.9100   122.7900  -194.8900     4.4130     4.4250     4.3210  -158.0610    89.2170    15.4600
 2545.5000  -122.1980     0.0340     2.5360     0.2940   -54.0350   126.5380  -169.8510     4.5340     4.5530     4.5040  -190.2110    88.7130    15.4600
 2546.0000  -120.5140     0.0620     2.5480     0.2790   -54.1650   127.8260  -133.2330     4.6560     4.6800     4.6870  -177.6100    88.2090    15.4600
 2546.5000  -118.8310     0.0900     2.5630     0.2620   -54.2890   127.4580   -96.6150     4.7600     4.8070     4.8080  -116.5660    87.7050    15.4610
 2547.0000  -117.1480     0.1160     2.5560     0.2510   -54.4140   123.2450   -64.6290     4.8250     4.9180     4.9050   -54.2170    87.2010    15.4600
 2547.5000  -115.4640     0.1520     2.5310     0.2540   -54.5520   120.6010   -42.2510     4.8890     5.0790     5.0020   -34.4710    86.9690    15.4590
 2548.0000   -93.3870     0.1330     2.5010     0.2530   -54.5530   120.0450   -25.3510     4.9530     5.2220     5.0980   -17.6710    87.1850    15.4690
 2548.5000   -55.5110     0.0790     2.4670     0.2490   -54.4370   124.3260   -18.1720     5.0180     5.3650     5.1980   -14.0560    87.4010    15.3510
 2549.0000   -24.5490     0.0220     2.5020     0.2490   -54.3350   128.1600   -28.3000     5.0820     5.5970     5.1650   -29.6220    87.3910    15.0560
 2549.5000   -24.5490     0.0340     2.5240     0.2520   -54.2320   129.6230   -38.4280     5.1470     5.5900     5.1310   -45.3770    87.2230    14.7650
 2550.0000   -24.5490     0.0360     2.5320     0.2560   -54.1260   129.8720   -48.5570     5.1980     5.5740     5.1030   -64.2570    87.0880    14.5370
 2550.5000   -24.5490     0.0380     2.5350     0.2560   -54.0230   130.3330   -55.2840     5.2470     5.5580     5.4470   -64.2570    86.5830    14.4250
 2551.0000   -24.5490     0.0370     2.5300     0.2570   -53.9180   130.8520   -56.9610     5.2880     5.5420     5.5970   -64.2570    86.0840    14.4140
 2551.5000   -24.5490     0.0360     2.5230     0.2570   -53.8140   130.9450   -58.6370     5.3290     5.5260     5.5670   -64.2570    86.1760    14.3980
 2552.0000   -24.5490     0.0150     2.5150     0.2610   -53.7100   135.3800   -60.3140     5.3700     5.5100     5.5300   -64.2570    86.2890    14.3860
 2552.5000   -24.5490     0.0000     2.5060     0.2640   -53.6050   138.1060   -61.9910     5.4350     5.4940     5.4940   -64.2570    86.4010    14.3860
 2553.0000   -24.5490    -0.0110     2.5000     0.2560   -53.5010   134.8930   -63.6670     5.5340     5.5200     5.3940   -64.2570    86.4440    14.4040
 2553.5000   -24.5490    -0.0250     2.5000     0.2470   -53.4000   132.5050   -63.2890     5.6330     5.6350     5.5910   -64.2570    86.2850    14.4210
 2554.0000   -25.2100    -0.0130     2.5030     0.2520   -53.3140   133.7160   -60.1450     5.7320     5.7510     5.8310   -64.2570    85.5910    14.4380
 2554.5000   -27.7350     0.0130     2.5080     0.2570   -53.2300   138.4540   -57.0020     5.8320     5.8660     6.0700   -64.2570    84.9330    14.4550
 2555.0000   -30.2610     0.0210     2.5130     0.2600   -53.1470   136.9580   -66.6330     5.9310     5.9810     6.3680   -64.2570    84.2750    14.4710
 2555.5000   -32.7860     0.0280     2.5150     0.2620   -53.0630   135.5240  -116.9340     6.0250     6.1380     6.2940   -97.6910    83.6750    14.4880
 2556.0000   -35.3110     0.0350     2.5180     0.2700   -52.9790   134.6850  -164.8300     5.8600     6.0110     6.1260  -135.6430    83.9720    14.5050
 2556.5000   -37.8360     0.0420     2.5200     0.2770   -52.8960   134.4550  -147.8460     5.7010     5.8140     5.9570  -154.6180    84.9840    14.5220
 2557.0000   -40.3610     0.0430     2.5190     0.2710   -52.8120   131.9010  -110.1200     5.5430     5.6180     5.7890  -154.6180    85.9960    14.5380
