~VERSION INFORMATION
 VERS.                2.0:   CWLS LOG ASCII STANDARD - VERSION 2.0
 WRAP.                 NO:   ONE LINE PER DEPTH STEP
~WELL INFORMATION
#MNEM.UNIT      DATA TYPE    INFORMATION
#----------   ------------   ------------------------------
 STRT.F          210.0000:   START DEPTH
 STOP.F         2998.0000:   STOP DEPTH
 STEP.F            0.5000:   STEP LENGTH
 NULL.          -999.2500:   NO VALUE
 COMP.    FENIX & SCISSON:   COMPANY
 WELL. FENIX & SCISSON "A" #41-28:   WELL
 FLD .          N.P.R. #3:   FIELD
 LOC .      S28 T39N R78W:   LOCATION
 CNTY.            NATRONA:   COUNTY
 STAT.            WYOMING:   STATE
 CTRY. UNITED STATES OF AMERICA:   COUNTRY
 SRVC.       SCHLUMBERGER:   SERVICE COMPANY
 DATE.        08-MAY-1977:   LOGDATE
 API .     49025103670000:   API NUMBER
~CURVE INFORMATION
#MNEM.UNIT       API CODE    CURVE DESCRIPTION
#----------   ------------   ------------------------------
 DEPT.F                  :   
 CALD.IN     45 280 60 00:   CALIPER FROM DENSITY LOG
 GRD .GAPI   45 310 01 00:   GAMMA RAY FROM DENSITY LOG
 CORR.G/C3   45 356 01 00:   DENSITY CORRECTION
 RHOB.G/C3   45 350 01 00:   BULK DENSITY
 SPR .MV     07 010 01 00:   SPONTANEOUS POTENTIAL
 LL8 .OHMM   07 220 08 00:   LATEROLOG-8 RES.
 ILM .OHMM   07 120 44 00:   INDUCTION LOG MEDIUM RESISTIVITY
 ILD .OHMM   07 120 46 00:   DEEP INDUCTION RESISTIVITY
~PARAMETER INFORMATION
#MNEM.UNIT          VALUE    DESCRIPTION
#----------   ------------   ------------------------------
 EKB .F         5012.0000:   Kelly bushing
 EGL .F         5002.0000:   Ground level
 TD  .F         3000.0000:   Total depth
 CLNT.            A2DTECH:   Client Code
 SL  . 330' FNL & 2310' FWL:   Surface Location
 DATE.        08-MAY-1977:   Date Logged [DD-MMM-YYYY]
 DD  .F              3000:   Depth driller
 DL  .F              2999:   Depth logger
 BLI .F              2993:   Bottom log interval
 TLI .F               222:   Top log interval
 CS1 .              8.625:   Casing size
 CBD1.      8.625" @ 112':   Casing driller 1
 CBL1.IN              222:   Casing logger 1
 BS1 .IN            7.875:   Bit size
 BSD1.F              3000:   Depth drilled with bit1
 DFT .                KCL:   Type fluid in hole
 DFD .                8.8:   Density
 DFV .                 32:   Viscosity
 DFPH.                8.0:   pH
 DFL .                8.8:   Fluid loss
 MSS .           FLOWLINE:   Source of sample
 RMS .OHMM          0.124:   Rm
 MST .F                80:   Rm Meas. temp.
 RMF .OHMM          0.117:   Rmf
 MFST.F                80:   Rmf Meas. temp.
 MFSS.               MEAS:   Source Rmf.
 RMB .OHMM         0.0886:   Rm. at BHT
 BHT .F               112:   BHT.
 TCS .HRS            0200:   Time Circ. stopped
 TLAB.HRS            0515:   Time logger at bottom
 MRT .F               112:   Maximum recorded temp.
 LUN .               5642:   Logging unit number
 LUL .               CSPR:   Logging unit location
 ENGI.            MARATIN:   Recorded By
 WITN.         PETTINGILL:   Witnessed by
 ORIG.      2.5" 5" PRINT:   Origin of data
 UWI .     49025103670000:   Unique Well ID
 DICO. A2D TECHNOLOGIES, INC.:   Digitizing Company
 PD  .                 GL:   Permanent Datum
 EPD .               5002:   Elevation Permanent Datum
 LMF .                 KB:   Log Measured From
 DMF .                 KB:   Drilling Measured From
 DAPD.                 10:   Feet Above Permanent Datum
~OTHER INFORMATION
~A   DEPT     CALD         GRD      CORR       RHOB        SPR        LL8        ILM        ILD   
# ...
 1141.5000     8.8526   109.1818     0.1081     2.5262   -70.9120    11.8059    11.0813     9.7986
 1142.0000     8.8551   108.4625     0.1053     2.5143   -70.9074    11.8051    11.0805     9.6655
 1142.5000     8.8421   106.2521     0.1015     2.5259   -70.5942    11.8043    11.0797     9.5084
 1143.0000     8.8452   104.4867     0.0992     2.5334   -70.1770    11.8034    11.0790     9.2525
 1143.5000     8.8477   103.6020     0.0986     2.5434   -69.6590    11.8026    11.0782     8.7786
 1144.0000     8.8352   101.9424     0.1017     2.5636   -69.2346    11.8017    11.0774     8.7798
 1144.5000     8.8378   100.9871     0.1078     2.5921   -68.6090    11.8009    11.0766     8.7811
 1145.0000     8.8553   102.2107     0.1176     2.5989   -68.2922    11.6327    10.9190     8.7823
 1145.5000     8.8578   104.3222     0.1199     2.5781   -68.0972    11.5818    10.8993     8.7835
 1146.0000     8.8603   110.7555     0.1133     2.5564   -67.9671    11.4662    10.7628     8.7912
 1146.5000     8.8628   113.1651     0.1117     2.5505   -67.7793    11.4653    10.7621     9.0319
 1147.0000     8.8803   113.6310     0.1155     2.5513   -67.7747    11.3020    10.7613     9.1588
 1147.5000     8.8829   111.8676     0.1179     2.5597   -67.7701    11.3012    10.7605     9.1601
 1148.0000     8.8854   112.0480     0.1036     2.5418   -67.7655    11.4630    10.7598     9.1613
 1148.5000     8.8735   114.1595     0.1045     2.5306   -68.0694    11.4621    10.7590     9.1626
 1149.0000     8.8760   117.4632     0.1075     2.5247   -68.2120    11.4613    10.7582     9.1639
 1149.5000     8.8934   118.8295     0.1114     2.5225   -68.6704    11.6254    10.7575     9.2926
 1150.0000     8.8959   117.6788     0.1136     2.5403   -69.1358    11.6801    10.7567     9.2939
 1150.5000     8.8938   108.8647     0.1106     2.5463   -69.2855    11.7909    10.7825     9.4244
 1151.0000     8.8914   107.3889     0.1025     2.5472   -69.2809    11.9596    10.9097     9.2966
 1151.5000     8.8886   106.5008     0.1017     2.5465   -68.9676    11.9586    10.9088     9.2979
 1152.0000     8.8911   105.8317     0.1056     2.5466   -68.9629    11.9578    10.9081     9.5595
 1152.5000     8.8936   106.0101     0.1116     2.5429   -68.9583    11.7874    10.9073     9.6938
 1153.0000     8.8961   108.4181     0.1178     2.5266   -68.7778    11.6195    10.9065     9.5621
 1153.5000     8.8986   110.3790     0.1208     2.5251   -68.6405    11.5599    10.7513     9.5634
 1154.0000     8.9011   111.2966     0.1194     2.5425   -68.6358    11.2907    10.4178     9.3041
 1154.5000     8.9036   110.7240     0.1126     2.5500   -68.3216    11.0725    10.1235     8.9279
 1155.0000     8.9061   110.4436     0.1082     2.5501   -68.3170    10.9713     9.8375     8.4493
 1155.5000     8.9087   112.5594     0.1060     2.5435   -68.3124    10.8149     9.6969     8.2202
 1156.0000     8.8961   114.6693     0.1105     2.5323   -68.3078    10.6043     9.5890     8.1086
 1156.5000     8.9137   116.1831     0.1099     2.5287   -68.3032    10.4528     9.5883     7.8888
 1157.0000     8.9012   115.7595     0.1061     2.5258   -68.2986    10.3591     9.5876     7.8899
 1157.5000     8.9038   112.6533     0.1040     2.5243   -68.6033    10.2115     9.6202     8.0082
 1158.0000     8.9063   111.4666     0.1062     2.5198   -68.9067    10.2108     9.7584     8.1131
 1158.5000     8.9237   113.4545     0.1115     2.5186   -69.2107    10.3571     9.8985     8.2271
 1159.0000     8.9262   114.8462     0.1146     2.5351   -69.2061    10.3562    10.0406     8.3426
 1159.5000     8.9288   115.6006     0.1191     2.5322   -69.5102    10.5643    10.1848     8.5981
 1160.0000     8.9314   114.7141     0.1161     2.5181   -69.8142    10.7160    10.4794     8.8187
 1160.5000     8.9339   113.2473     0.1147     2.5458   -69.8096    11.0262    10.7407     9.0955
 1161.0000     8.9369   112.8237     0.1246     2.5444   -70.1136    11.3454    10.9373     9.3222
 1161.5000     8.9239   111.8039     0.1254     2.5392   -70.1090    11.6738    11.2085     9.4899
 1162.0000     8.9419   106.7604     0.1225     2.5505   -70.1044    12.0117    11.3687     9.7191
 1162.5000     8.9594   104.8406     0.1158     2.5401   -69.7912    12.1842    11.5311     9.8556
 1163.0000     8.9619   107.2544     0.1037     2.5154   -69.7866    12.2118    11.5302     9.8570
 1163.5000     8.9488   108.0231     0.1015     2.5304   -69.7820    11.8664    11.5293     9.7229
 1164.0000     8.9371   104.7679     0.1129     2.5477   -69.7774    11.5310    11.3159     9.5368
 1164.5000     8.9396   104.9404     0.1220     2.5597   -69.4641    11.3662    11.0450     9.2193
 1165.0000     8.9265   105.1071     0.1243     2.5358   -69.4595    11.0448    10.7338     8.8310
 1165.5000     8.9297   103.6461     0.1175     2.5389   -69.1463    10.9548    10.6841     8.7110
 1166.0000     8.9322   104.4148     0.1154     2.5524   -69.1417    10.9540    10.3823     8.6501
 1166.5000     8.9191   104.4441     0.1176     2.5539   -69.1371    10.8844    10.1366     8.5939
 1167.0000     8.8924   104.3127     0.1215     2.5435   -68.8238    10.7971     9.9448     8.7146
 1167.5000     8.8794   106.0508     0.1252     2.5323   -68.8192    10.7964     9.6638     8.7161
 1168.0000     8.8825   108.7783     0.1292     2.5279   -68.8146    10.7956     9.3908     8.8385
 1168.5000     8.8850   107.5187     0.1306     2.5340   -68.8100    10.7948     9.1255     8.8397
 1169.0000     8.8876   105.5990     0.1284     2.5452   -69.1142    10.7941     9.0407     8.8409
 1169.5000     8.8901   107.7148     0.1247     2.5505   -69.4181    10.7224     9.0400     8.8421
 1170.0000     8.8926   109.3776     0.1195     2.5476   -69.7221    10.6395     9.0870     8.7218
 1170.5000     8.8951   110.2953     0.1129     2.5506   -69.7175    10.4879     9.1686     8.7232
 1171.0000     8.8976   110.9149     0.1121     2.5496   -70.0216    10.4872     9.2996     8.6047
 1171.5000     8.8852   111.5345     0.1151     2.5365   -70.0170    10.4864     9.2988     8.6059
 1172.0000     8.8878   111.1109     0.1205     2.5306   -70.0124    10.4857     9.4318     8.6071
 1172.5000     8.8903   109.4950     0.1250     2.5366   -70.0077    10.5578     9.4310     8.6083
 1173.0000     8.8928   108.0282     0.1229     2.5546   -70.0143    10.6350     9.5659     8.7292
 1173.5000     8.8959   106.5614     0.1169     2.5644   -70.3072    10.7871     9.5651     8.7304
 1174.0000     8.8984   106.4173     0.1161     2.5427   -70.3210    10.7864     9.6203     8.7316
 1174.5000     8.8853   108.2477     0.1208     2.5465   -70.6066    10.7856     9.7011     8.7327
 1175.0000     8.8885   109.4635     0.1252     2.5578   -70.6018    10.7848     9.8397     8.7339
 1175.5000     8.8761   109.6360     0.1291     2.5736   -70.2886    10.7840     9.8390     8.6153
 1176.0000     8.8630   107.5798     0.1321     2.5759   -70.2840    10.7833     9.9795     8.6165
 1176.5000     8.8363   100.8790     0.1315     2.5744   -69.9707    10.7825     9.9788     8.3829
 1177.0000     8.8233    99.8704     0.1300     2.5722   -69.6574    10.7817     9.9781     8.3719
 1177.5000     8.8115   103.1785     0.1260     2.5671   -69.6090    10.7810     9.9151     8.1568
 1178.0000     8.8140   106.0336     0.1177     2.5601   -69.3395    10.7802     9.8355     8.1580
 1178.5000     8.8010   108.5906     0.1136     2.5514   -69.0262    10.7794     9.6955     8.1591
 1179.0000     8.7885   110.4025     0.1220     2.5724   -68.9670    10.6258     9.4958     8.1603
 1179.5000     8.7917   110.8672     0.1175     2.5546   -68.7084    10.6251     9.3601     8.1614
 1180.0000     8.7942   108.2081     0.1115     2.5456   -68.7037    10.6243     9.0956     8.1032
 1180.5000     8.7662   110.4729     0.1124     2.5345   -68.6991    10.4729     9.0259     7.9411
 1181.0000     8.7694   111.6887     0.1101     2.5345   -69.0036    10.4722     8.8975     7.7991
 1181.5000     8.7719   112.1593     0.1088     2.5346   -69.3796    10.3908     8.8968     7.6210
