~VERSION INFORMATION
 VERS.                2.0:   CWLS LOG ASCII STANDARD - VERSION 2.0
 WRAP.                 NO:   ONE LINE PER DEPTH STEP
~WELL INFORMATION
#MNEM.UNIT      DATA TYPE    INFORMATION
#----------   ------------   ------------------------------
 STRT.F            5.5000:   START DEPTH
 STOP.F         3006.0000:   STOP DEPTH
 STEP.F            0.5000:   STEP LENGTH
 NULL.          -999.2500:   NO VALUE
 COMP.    FENIX & SCISSON:   COMPANY
 WELL.  FENIX "AX" #28-28:   WELL
 FLD .  TEAPOT DOME NPR-3:   FIELD
 LOC .      S28 T39N R78W:   LOCATION
 CNTY.            NATRONA:   COUNTY
 STAT.            WYOMING:   STATE
 CTRY. UNITED STATES OF AMERICA:   COUNTRY
 SRVC.           BIRDWELL:   SERVICE COMPANY
 DATE.        23-JAN-1980:   LOGDATE
 API .     49025107960000:   API NUMBER
~CURVE INFORMATION
#MNEM.UNIT       API CODE    CURVE DESCRIPTION
#----------   ------------   ------------------------------
 DEPT.F                  :   
 GRD .GAPI   45 310 01 00:   GAMMA RAY FROM DENSITY LOG
 CALD.IN     45 280 60 00:   CALIPER FROM DENSITY LOG
 DPHI.DEC    45 890 12 00:   DENSITY POROSITY SANDSTONE
 NPHI.DEC    42 890 03 00:   NEUTRON POROSITY SANDSTONE
 CORR.G/C3   45 356 01 00:   DENSITY CORRECTION
 SPR .MV     05 010 01 00:   SPONTANEOUS POTENTIAL FROM RES.
 ILD .OHMM   05 120 40 00:   INDUCTION LOG DEEP RESISTIVITY
 SN  .OHMM   05 040 16 00:   SHORT NORMAL 16"
~PARAMETER INFORMATION
#MNEM.UNIT          VALUE    DESCRIPTION
#----------   ------------   ------------------------------
 EKB .F         5120.0000:   Kelly bushing
 EGL .F         5110.0000:   Ground level
 EDF .F         5119.0000:   Drilling floor
 EPD .F         5110.0000:   Permanent datum
 TD  .F         3006.0000:   Total depth
 CLNT.            A2DTECH:   Client Code
 SL  . 600' FSL & 1300' FWL:   Surface Location
 PD  .                 GL:   Permanent Datum
 DAPD.F                 9:   Feet Above Permanent Datum
 DATE.        23-JAN-1980:   Date Logged [DD-MMM-YYYY]
 DD  .F              3006:   Depth driller
 DL  .F              3006:   Depth logger
 BLI .F              3006:   Bottom log interval
 TLI .F                10:   Top log interval
 CS1 .IN            8.625:   Casing size
 CBD1.      8.625" @ 440':   Casing driller 1
 CBL1.F               460:   Casing logger 1
 BS1 .IN            7.875:   Bit size
 BSD1.F              3006:   Depth drilled with bit1
 DFT .       GEL MUD FULL:   Type fluid in hole
 DFD .                  9:   Density
 DFV .                 46:   Viscosity
 DFPH.                 11:   pH
 DFL .               17.2:   Fluid loss
 MSS .           MUD TANK:   Source of sample
 RMS .OHMM            1.9:   Rm
 MST .F                60:   Rm Meas. temp.
 RMF .OHMM            .73:   Rmf
 MFST.F                62:   Rmf Meas. temp.
 MFSS.               MEAS:   Source Rmf.
 RMC .OHMM            .95:   Rmc
 MCST.F                62:   Rmc Meas. temp.
 TCS .HRS               5:   Time Circ. stopped
 MRT .F               110:   Maximum recorded temp.
 LUN .               3029:   Logging unit number
 LUL .             CASPER:   Logging unit location
 ENGI.           T. WOLFF:   Recorded By
 WITN.           DINSMORE:   Witnessed by
 ORIG.           5" PRINT:   Origin of data
 UWI .     49025107960000:   Unique Well ID
 DICO. A2D TECHNOLOGIES, INC.:   Digitizing Company
~OTHER INFORMATION
~A    DEPT      GRD      CALD       DPHI         NPHI     CORR        SPR        ILD         SN   
# ...
 1949.5000   130.0000     8.4351     0.2545     0.1314    -0.0022   -35.4084    10.9388    12.8873
 1950.0000   130.0000     8.3589     0.2484     0.1214     0.0071   -35.7724    11.0762    12.7940
 1950.5000   130.0000     8.3914     0.2582     0.1079     0.0148   -36.4170    11.1894    12.7255
 1951.0000   130.0000     8.3783     0.2707     0.1104     0.0030   -36.4511    11.1166    12.8265
 1951.5000   128.2978     8.3813     0.2741     0.1156    -0.0013   -36.4430    11.0447    13.0208
 1952.0000   127.2840     8.3682     0.2711     0.1186    -0.0011   -36.2411    10.9732    13.0309
 1952.5000   125.3813     8.3711     0.2650     0.1197     0.0006   -35.9048    11.1380    13.0409
 1953.0000   120.3675     8.3585     0.2629     0.1164     0.0054   -36.0166    11.3068    13.1445
 1953.5000   123.2055     8.3609     0.2619     0.1119     0.0086   -36.0053    11.4765    13.1546
 1954.0000   127.2288     8.3632     0.2586     0.1184    -0.0002   -35.9350    11.5659    13.2590
 1954.5000   124.8816     8.3804     0.2556     0.1172    -0.0061   -35.4072    11.4909    13.2692
 1955.0000   118.9789     8.3828     0.2576     0.1120    -0.0073   -34.6841    11.2547    13.1851
 1955.5000   113.9651     8.3702     0.2690     0.1111     0.0050   -34.5169    11.1799    13.0921
 1956.0000   113.2474     8.3434     0.2728     0.1063     0.0218   -34.8591    11.0302    12.7427
 1956.5000   114.1954     8.3457     0.2671     0.1084     0.0070   -34.7794    10.9570    12.3961
 1957.0000   116.9753     8.3481     0.2551     0.1209     0.0041   -34.8900    10.8874    11.8858
 1957.5000   122.3602     8.3504     0.2503     0.1097     0.0105   -35.2912    10.8945    12.2394
 1958.0000   125.1983     8.3527     0.2478     0.1061     0.0107   -35.6586    10.9014    12.0729
 1958.5000   125.3638     8.3550     0.2454     0.1145     0.0049   -35.6268    10.9975    13.1647
 1959.0000   122.7262     8.3425     0.2409     0.1255     0.0006   -35.8916    11.3942    14.3525
 1959.5000   120.9659     8.3597     0.2339     0.1300    -0.0037   -36.0750    12.4204    14.9918
 1960.0000   128.1060     8.3620     0.2333     0.1347    -0.0050   -35.9570    13.8320    15.5482
 1960.5000   130.0000     8.3644     0.2385     0.1365    -0.0003   -36.0088    14.9706    16.0106
 1961.0000   130.0000     8.3668     0.2424     0.1340     0.0017   -36.2846    15.5240    16.6049
 1961.5000   130.0000     8.3547     0.2506     0.1280     0.0062   -36.2775    15.8699    16.8565
 1962.0000   130.0000     8.3571     0.2655     0.1250     0.0125   -36.6214    16.2234    17.1120
 1962.5000   130.0000     8.3594     0.2751     0.1243     0.0112   -36.9874    16.3498    17.1356
 1963.0000   130.0000     8.3766     0.2763     0.1274     0.0024   -37.0246    16.3601    17.2805
 1963.5000   130.0000     8.3789     0.2693     0.1354    -0.0094   -37.4492    16.2540    17.4014
 1964.0000   130.0000     8.3812     0.2624     0.1362    -0.0077   -37.1131    16.2644    17.4148
 1964.5000   127.4281     8.3681     0.2600     0.1338    -0.0015   -36.7233    16.2958    17.3010
 1965.0000   127.7478     8.3710     0.2581     0.1343     0.0033   -36.8603    16.4038    17.4417
 1965.5000   119.1211     8.3585     0.2485     0.1337     0.0080   -36.4826    16.6500    17.4552
 1966.0000   110.6091     8.3608     0.2305     0.1259     0.0097   -36.5733    16.8999    17.4686
 1966.5000   115.3788     8.3632     0.2220     0.1204     0.0101   -37.2659    17.0316    17.6073
 1967.0000   121.4762     8.3656     0.2217     0.1189     0.0122   -36.8609    17.1643    17.7470
 1967.5000   120.4565     8.3684     0.2286     0.1198     0.0105   -36.1263    17.1751    17.7607
 1968.0000   120.6338     8.3707     0.2351     0.1242     0.0047   -36.0706    16.9425    17.7744
 1968.5000   119.9163     8.3730     0.2513     0.1263     0.0004   -36.2478    16.1167    17.2877
 1969.0000   116.3781     8.3754     0.2495     0.1247    -0.0054   -36.2472    15.1354    16.8143
 1969.5000   117.1479     8.3777     0.2404     0.1206    -0.0113   -36.4792    14.7188    16.3538
 1970.0000   115.2452     8.3646     0.2365     0.1160    -0.0020   -36.6333    14.4162    15.9060
 1970.5000   115.8610     8.3521     0.2541     0.1189     0.0133   -36.6066    14.3205    15.4734
 1971.0000   119.8478     8.3550     0.2664     0.1282     0.0090   -36.4670    14.2276    15.2630
 1971.5000   130.0000     8.3573     0.2697     0.1314     0.0047   -37.2408    14.4434    15.4973
 1972.0000   130.0000     8.3893     0.2639     0.1356     0.0079   -37.1363    14.7652    15.5093
 1972.5000   128.1041     8.3916     0.2557     0.1379     0.0065   -36.8712    14.9868    15.4079
 1973.0000   126.7940     8.3643     0.2489     0.1391     0.0019   -36.7868    15.2117    15.6444
 1973.5000   129.1876     8.3672     0.2455     0.1412    -0.0035   -36.2749    15.4402    15.9952
 1974.0000   120.5818     8.3695     0.2467     0.1354    -0.0032   -36.3647    15.6721    16.2376
 1974.5000   115.9066     8.3719     0.2467     0.1213     0.0031   -36.4324    15.5725    16.4836
 1975.0000   116.3742     8.3742     0.2496     0.1114     0.0093   -35.8591    15.4691    16.6145
 1975.5000   121.8790     8.3765     0.2556     0.1078     0.0186   -35.6823    15.0457    16.2752
 1976.0000   125.0133     8.3634     0.2645     0.1118     0.0128   -35.2229    14.5276    15.6053
 1976.5000   123.5493     8.3509     0.2594     0.1191     0.0054   -35.0303    14.2289    15.1733
 1977.0000   124.4672     8.3686     0.2471     0.1208     0.0102   -35.8561    13.8373    14.7389
 1977.5000   123.1571     8.3710     0.2392     0.1172     0.0104   -35.6095    13.3608    14.3580
 1978.0000   115.6248     8.3733     0.2482     0.1213     0.0076   -35.0353    13.0861    14.7879
 1978.5000   113.5733     8.3757     0.2585     0.1225     0.0079   -35.2804    13.1881    15.2278
 1979.0000   112.2639     8.3780     0.2607     0.1225    -0.0010   -35.2480    13.2934    15.2395
 1979.5000   110.9462     8.3809     0.2523     0.1215    -0.0007   -35.4616    13.5982    15.2513
 1980.0000   107.8566     8.3683     0.2517     0.1170     0.0025   -35.5022    13.9912    15.2630
 1980.5000   102.5558     8.3707     0.2504     0.1071     0.0088   -35.6267    14.2012    15.1633
 1981.0000   106.5848     8.3433     0.2471     0.0998     0.0120   -35.2146    14.2102    15.0671
 1981.5000   110.1636     8.3456     0.2444     0.0989     0.0107   -35.0770    14.1158    15.0816
 1982.0000   111.6626     8.3480     0.2425     0.1086     0.0094   -35.1828    14.1269    15.0933
 1982.5000   109.0191     8.3503     0.2407     0.1111     0.0097   -35.6712    14.1358    15.2131
 1983.0000   109.6408     8.3675     0.2395     0.1185     0.0099   -35.8639    14.2459    15.3338
 1983.5000   112.6270     8.3698     0.2376     0.1215     0.0116   -36.2136    14.3569    15.4556
 1984.0000   118.8724     8.3573     0.2334     0.1299    -0.0017   -36.1321    14.4688    15.5785
 1984.5000   119.6364     8.3596     0.2273     0.1295    -0.0045   -36.4023    14.4779    15.5907
 1985.0000   123.2152     8.3620     0.2243     0.1259     0.0053   -36.6647    14.4872    15.4913
 1985.5000   118.6344     8.3648     0.2354     0.1172     0.0171   -36.0228    14.3777    15.3931
 1986.0000   117.0395     8.3672     0.2380     0.1171     0.0203   -35.9191    14.1981    15.0817
 1986.5000   118.4997     8.3695     0.2386     0.1159     0.0145   -35.0583    13.9084    14.9831
 1987.0000   122.1288     8.3718     0.2383     0.1164     0.0117   -34.7209    13.8160    14.6800
 1987.5000   120.0779     8.3741     0.2361     0.1188     0.0120   -35.4378    13.8269    14.5840
 1988.0000   118.9102     8.3765     0.2352     0.1209     0.0092   -34.8267    13.6395    14.9139
 1988.5000   120.8652     8.3788     0.2460     0.1212     0.0034   -34.1055    13.4548    15.0323
 1989.0000   122.9567     8.3811     0.2540     0.1232     0.0021   -34.0882    13.3675    15.1516
 1989.5000   115.2820     8.3685     0.2558     0.1225     0.0023   -34.4416    13.1864    15.0555
