~VERSION INFORMATION
 VERS.                2.0:   CWLS LOG ASCII STANDARD - VERSION 2.0
 WRAP.                 NO:   ONE LINE PER DEPTH STEP
~WELL INFORMATION
#MNEM.UNIT      DATA TYPE    INFORMATION
#----------   ------------   ------------------------------
 STRT.F          502.0000:   START DEPTH
 STOP.F         4210.0000:   STOP DEPTH
 STEP.F            0.5000:   STEP LENGTH
 NULL.          -999.2500:   NO VALUE
 COMP.   FENIX & SCISSION:   COMPANY
 WELL. FENIX NPR 3 "JX" #43-34:   WELL
 FLD .              N P R:   FIELD
 LOC .      S34 T39N R78W:   LOCATION
 CNTY.            NATRONA:   COUNTY
 STAT.            WYOMING:   STATE
 CTRY. UNITED STATES OF AMERICA:   COUNTRY
 SRVC.              WELEX:   SERVICE COMPANY
 DATE.        05-FEB-1979:   LOGDATE
 API .     49025107690000:   API NUMBER
~CURVE INFORMATION
#MNEM.UNIT       API CODE    CURVE DESCRIPTION
#----------   ------------   ------------------------------
 DEPT.F                  :   
 TENR.LBS    07 635 01 00:   TENSION FROM RESISTIVITY
 SPR .MV     07 010 01 00:   SPONTANEOUS POTENTIAL
 SFL .OHMM   07 220 01 00:   SHALLOW FOCUSED LOG RESISTIVITY
 ILD .OHMM   07 120 46 00:   DEEP INDUCTION RESISTIVITY
 ILM .OHMM   07 120 44 00:   INDUCTION LOG MEDIUM RESISTIVITY
 TEND.LBS    45 635 01 00:   TENSION FROM DENSITY LOG
 CALD.IN     45 280 60 00:   CALIPER FROM DENSITY LOG
 GRD .GAPI   45 310 01 00:   GAMMA RAY FROM DENSITY LOG
 CORR.G/C3   45 356 01 00:   DENSITY CORRECTION
 NPHI.DEC    42 890 03 00:   NEUTRON POROSITY SANDSTONE
 RHOB.G/C3   45 350 01 00:   BULK DENSITY
~PARAMETER INFORMATION
#MNEM.UNIT          VALUE    DESCRIPTION
#----------   ------------   ------------------------------
 EKB .F         5108.0000:   Kelly bushing
 EGL .F         5098.0000:   Ground level
 TD  .F         4204.0000:   Total depth
 DATE.        05-FEB-1979:   Date logged
 CLNT.            A2DTECH:   Client Code
 SL  . 1627' FNL & 2110' FWL:   Surface Location
 PD  .                 GL:   Permanent Datum
 DD  .F              4200:   Depth driller
 DL  .F              4204:   Depth logger
 BLI .F              4202:   Bottom log interval
 CS1 .IN            8.625:   Casing size
 CBD1.      8.625" @ 506':   Casing driller 1
 CBL1.F               506:   Casing logger 1
 BS1 .IN            7.875:   Bit size
 DFT .           CHEM/GEL:   Type fluid in hole
 DFD .                9.2:   Density
 DFV .                 55:   Viscosity
 DFPH.                9.5:   pH
 DFL .                5.7:   Fluid loss
 MSS .            MUD/PIT:   Source of sample
 RMS .OHMM            1.1:   Rm
 MST .F                52:   Rm Meas. temp.
 RMF .OHMM            .45:   Rmf
 MFST.F                52:   Rmf Meas. temp.
 RMC .OHMM            1.8:   Rmc
 MCST.F                52:   Rmc Meas. temp.
 MFSS.               MEAS:   Source Rmf.
 RMB .OHMM           5.06:   Rm. at BHT
 BHT .F               128:   BHT.
 TCS .HRS               8:   Time Circ. stopped
 MRT .F               128:   Maximum recorded temp.
 LUN .               9685:   Logging unit number
 LUL .             CASPER:   Logging unit location
 ENGI.        KEIN/JOINER:   Recorded By
 WITN.        J. DINSMORE:   Witnessed by
 ORIG.           5" PRINT:   Origin of data
 UWI .     49025107690000:   Unique Well ID
 DICO. A2D TECHNOLOGIES, INC.:   Digitizing Company
 DAPD.F                10:   Feet Above Permanent Datum
 BSD1.F              4200:   Depth drilled with bit1
 MCSS.               MEAS:   Source Rmc.
 EPD .F              5098:   Elevation Permanent Datum
 LMF .                 KB:   Log Measured From
 DMF .                 KB:   Drilling Measured From
 TLI .F               500:   Top log interval
~OTHER INFORMATION
~A   DEPT     TENR        SPR        SFL        ILD        ILM        TEND        CALD       GRD        CORR       NPHI       RHOB 
# ...
 3186.0000  1489.7460   -48.9700     4.8670     4.7860     3.8350  1534.7570     8.7830   155.5180    -0.0150     0.2420     2.4160
 3186.5000  1489.9600   -48.9460     4.7980     4.6590     3.7680  1534.9430     8.7860   158.0590    -0.0110     0.2400     2.4160
 3187.0000  1490.1740   -48.9230     4.7190     4.5320     3.7010  1535.1281     8.7900   161.0210    -0.0070     0.2370     2.4160
 3187.5000  1490.3879   -48.9000     4.6460     4.4050     3.6340  1535.3130     8.7930   163.2470    -0.0030     0.2380     2.4160
 3188.0000  1490.6030   -48.8770     4.8340     4.2780     3.5670  1535.4990     8.7970   167.2680    -0.0010     0.2400     2.4080
 3188.5000  1490.8170   -48.8530     4.9780     4.2170     3.5080  1535.6840     8.8000   171.2020    -0.0030     0.2420     2.3990
 3189.0000  1491.0310   -48.8300     4.7270     4.0190     3.3320  1535.8700     8.8040   174.8260    -0.0050     0.2430     2.3930
 3189.5000  1491.2450   -48.8060     4.3350     3.8430     3.2640  1536.0551     8.8070   174.8770    -0.0070     0.2420     2.3970
 3190.0000  1491.4590   -48.7970     3.8330     3.6670     3.1960  1536.2410     8.8110   173.6730    -0.0090     0.2370     2.4010
 3190.5000  1491.6730   -48.7880     3.5540     3.4900     3.1280  1536.4260     8.8140   172.5680    -0.0110     0.2350     2.3870
 3191.0000  1491.8879   -48.7800     3.6390     3.3660     3.0600  1536.6121     8.8180   171.6900    -0.0150     0.2370     2.3770
 3191.5000  1492.1021   -48.7710     3.7760     3.3280     2.9920  1536.7970     8.8210   172.2700    -0.0180     0.2390     2.3740
 3192.0000  1492.3160   -48.7630     3.7080     3.2890     2.9240  1536.9821     8.8250   172.8000    -0.0210     0.2390     2.3720
 3192.5000  1492.5300   -48.7540     3.5400     3.1990     2.8570  1537.1680     8.8280   173.8260    -0.0240     0.2390     2.3760
 3193.0000  1492.7440   -48.7460     3.4440     3.1760     2.7890  1537.3530     8.8320   175.6040    -0.0230     0.2420     2.3810
 3193.5000  1492.9580   -48.7370     3.4080     3.1210     2.7100  1537.5389     8.8350   177.3550    -0.0170     0.2450     2.3860
 3194.0000  1493.1730   -48.7290     3.3730     3.0660     2.7100  1537.7240     8.8380   179.1380    -0.0130     0.2430     2.3830
 3194.5000  1493.3870   -48.7200     3.3380     3.0110     2.6760  1537.9100     8.8420   179.6330    -0.0080     0.2410     2.3800
 3195.0000  1493.6010   -48.7110     3.3190     2.9560     2.6430  1538.0950     8.8450   179.6180    -0.0040     0.2450     2.3770
 3195.5000  1493.8149   -48.7030     3.2350     2.9010     2.6110  1538.2810     8.8490   179.5060     0.0020     0.2510     2.3660
 3196.0000  1494.0291   -48.6940     3.1120     2.8460     2.5780  1538.4659     8.8520   180.3940    -0.0020     0.2530     2.3570
 3196.5000  1494.2430   -48.6860     3.0270     2.7910     2.5460  1538.6510     8.8560   181.1560    -0.0130     0.2520     2.3470
 3197.0000  1494.4580   -48.6770     2.9850     2.7360     2.5130  1538.8370     8.8590   180.5490    -0.0230     0.2540     2.3490
 3197.5000  1494.6720   -48.6690     2.9390     2.6810     2.4800  1539.0220     8.8600   181.0380    -0.0200     0.2560     2.3580
 3198.0000  1494.8860   -48.6600     2.8940     2.6260     2.4480  1539.2080     8.8600   182.9360    -0.0130     0.2570     2.3570
 3198.5000  1495.1000   -48.6520     2.8640     2.5410     2.4270  1539.3929     8.8600   184.7580    -0.0060     0.2590     2.3540
 3199.0000  1495.3140   -48.6430     2.8210     2.4760     2.3900  1539.5790     8.8600   186.5400     0.0000     0.2610     2.3490
 3199.5000  1495.5280   -48.6350     2.7460     2.4110     2.3250  1539.7640     8.8600   188.2970     0.0070     0.2630     2.3290
 3200.0000  1495.7430   -48.6260     2.6710     2.3460     2.2610  1539.9500     8.8600   188.4160     0.0140     0.2660     2.3040
 3200.5000  1495.9570   -48.6170     2.5950     2.2810     2.1960  1540.1350     8.8600   188.5260     0.0200     0.2680     2.2840
 3201.0000  1496.1710   -48.6090     2.5650     2.2150     2.1310  1540.3199     8.8600   190.5080     0.0240     0.2700     2.2720
 3201.5000  1496.3850   -48.6000     2.4740     2.1500     2.0670  1540.5060     8.8610   190.0980     0.0260     0.2730     2.2580
 3202.0000  1496.5990   -48.5920     2.3080     2.0850     2.0020  1540.6910     8.8530   191.6500     0.0140     0.2750     2.2790
 3202.5000  1496.8130   -48.5830     2.1040     2.0190     1.9370  1540.8770     8.8400   193.1910    -0.0060     0.2760     2.3760
 3203.0000  1497.0280   -48.5750     1.9820     1.9820     1.9100  1541.0620     8.8280   192.6970     0.0160     0.2740     2.3710
 3203.5000  1497.2419   -48.5660     2.3740     1.9820     1.8750  1541.2480     8.8170   191.0030     0.0190     0.2660     2.3840
 3204.0000  1497.4561   -48.5580     2.5180     2.0560     1.9100  1541.4330     8.8040   188.1330     0.0220     0.2560     2.3990
 3204.5000  1497.6700   -48.5490     2.5370     2.2000     2.0200  1541.6190     8.7920   180.4060     0.0120     0.2440     2.4000
 3205.0000  1497.8840   -48.5410     2.5540     2.4630     2.1630  1541.8040     8.7800   166.9290    -0.0040     0.2280     2.4080
 3205.5000  1498.0980   -48.5320     2.6120     2.8330     2.3390  1541.9900     8.7680   153.8780    -0.0050     0.2130     2.4240
 3206.0000  1498.3120   -48.5230     4.0150     3.2030     2.5760  1542.1750     8.7560   139.8400    -0.0050     0.2080     2.4250
 3206.5000  1498.5270   -48.5150     5.5590     3.5600     2.8140  1542.3600     8.7450   132.6340    -0.0050     0.2030     2.4170
 3207.0000  1498.7410   -48.5060     7.9740     3.8910     3.0510  1542.5460     8.7300   134.4240    -0.0050     0.2040     2.4310
 3207.5000  1498.9550   -48.4980     7.5400     4.2220     3.2880  1542.7310     8.7120   135.2510    -0.0050     0.2060     2.4550
 3208.0000  1499.1689   -48.4890     6.6720     4.6220     3.5250  1542.9170     8.6950   135.4430    -0.0010     0.2030     2.4780
 3208.5000  1499.3831   -48.4810     6.4420     5.0800     3.7630  1543.1021     8.6790   134.9440     0.0030     0.1960     2.5000
 3209.0000  1499.5970   -48.4720     7.0270     5.5380     4.0000  1543.2880     8.6620   135.4440     0.0010     0.1890     2.5170
 3209.5000  1499.8120   -48.4640     9.0310     5.9100     4.1280  1543.4730     8.6750   136.7780    -0.0010     0.1840     2.5200
 3210.0000  1500.0000   -48.4550    12.9730     6.2090     4.4570  1543.6591     8.6900   140.9050    -0.0030     0.1870     2.5010
 3210.5000  1500.0450   -48.4470    12.0270     5.9850     4.4220  1543.8440     8.7170   151.1860    -0.0050     0.2030     2.4710
 3211.0000  1500.0861   -48.4380     9.0470     5.7040     4.3120  1544.0291     8.7540   161.8610    -0.0080     0.2230     2.4410
 3211.5000  1500.1260   -48.4290     7.7650     5.1570     4.2020  1544.2150     8.7910   168.9510    -0.0100     0.2420     2.4240
 3212.0000  1500.1660   -48.4210     6.4070     4.7580     4.0920  1544.4000     8.8270   172.7910    -0.0120     0.2510     2.4160
 3212.5000  1500.2070   -48.4120     5.4580     4.5030     3.9820  1544.5861     8.8580   172.0120    -0.0140     0.2570     2.4070
 3213.0000  1500.2469   -48.4040     5.3130     4.3470     3.8720  1544.7710     8.8470   170.9270    -0.0160     0.2550     2.4040
 3213.5000  1500.2880   -48.4000     5.1520     4.2910     3.7620  1544.9570     8.8370   168.4390    -0.0170     0.2540     2.4140
 3214.0000  1500.3280   -48.3940     4.9780     4.2170     3.6520  1545.1420     8.8250   165.9630    -0.0170     0.2510     2.4220
 3214.5000  1500.3680   -48.3890     5.0700     4.2460     3.5730  1545.3280     8.8200   163.3780    -0.0170     0.2450     2.4300
 3215.0000  1500.4091   -48.3840     5.2270     4.3460     3.5320  1545.5129     8.8200   160.8220    -0.0170     0.2390     2.4350
 3215.5000  1500.4490   -48.3780     5.5520     4.4470     3.4860  1545.6980     8.8200   158.3770    -0.0170     0.2350     2.4350
 3216.0000  1500.4900   -48.3730     5.9850     4.5400     3.4440  1545.8840     8.8200   155.8880    -0.0210     0.2310     2.4310
