~VERSION INFORMATION
 VERS.                2.0:   CWLS LOG ASCII STANDARD - VERSION 2.0
 WRAP.                 NO:   ONE LINE PER DEPTH STEP
~WELL INFORMATION
#MNEM.UNIT      DATA TYPE    INFORMATION
#----------   ------------   ------------------------------
 STRT.F            5.5000:   START DEPTH
 STOP.F         3261.0000:   STOP DEPTH
 STEP.F            0.5000:   STEP LENGTH
 NULL.          -999.2500:   NO VALUE
 COMP. LAWRENCE ALLISON & ASSOCIATES:   COMPANY
 WELL. LAWRENCE "X" #12-14:   WELL
 FLD .              NPR 3:   FIELD
 LOC .      S14 T38N R78W:   LOCATION
 CNTY.            NATRONA:   COUNTY
 STAT.            WYOMING:   STATE
 CTRY. UNITED STATES OF AMERICA:   COUNTRY
 SRVC.      DRESSER ATLAS:   SERVICE COMPANY
 DATE.        18-AUG-1986:   LOGDATE
 API .     49025111080000:   API NUMBER
~CURVE INFORMATION
#MNEM.UNIT       API CODE    CURVE DESCRIPTION
#----------   ------------   ------------------------------
 DEPT.F                  :   
 RILM.OHMM   07 120 44 00:   INDUCTION LOG MEDIUM RESISTIVITY
 GRR .GAPI   07 310 01 00:   GAMMA RAY FROM RESISTIVITY
 SPR .MV     07 010 01 00:   SPONTANEOUS POTENTIAL
 NPHI.DEC    42 890 03 00:   NEUTRON POROSITY SANDSTONE
 CALD.IN     45 280 60 00:   CALIPER FROM DENSITY LOG
 TEND.LBS    45 635 01 00:   TENSION FORM DENSITY LOG
 DRHO.G/C3   45 356 01 00:   DENSITY CORRECTION
 DEN .G/C3   45 350 01 00:   BULK DENSITY
 RILD.OHMM   07 120 46 00:   DEEP INDUCTION RESISTIVITY
 RFOC.OHMM   07 220 04 00:   RESISTIVITY FOCUSED LOG RES.
~PARAMETER INFORMATION
#MNEM.UNIT          VALUE    DESCRIPTION
#----------   ------------   ------------------------------
 EKB .F         5245.0000:   Kelly bushing
 EGL .F         5234.0000:   Ground level
 TD  .F         3250.0000:   Total depth
 CLNT.            A2DTECH:   Client Code
 SL  . 901' FNL & 485' FWL:   Surface Location
 PD  .                 GL:   Permanent Datum
 EPD .F              5234:   Elevation Permanent Datum
 LMF .                 KB:   Log Measured From
 DMF .                 KB:   Drilling Measured From
 DAPD.F                11:   Feet Above Permanent Datum
 DATE.        18-AUG-1986:   Date Logged [DD-MMM-YYYY]
 DD  .F              3250:   Depth driller
 DL  .F              3246:   Depth logger
 BLI .F              3244:   Bottom log interval
 TLI .F                 0:   Top log interval
 CS1 .IN            8.625:   Casing size
 CBD1.      8.625" @ 733':   Casing driller 1
 CBL1.F               735:   Casing logger 1
 BS1 .IN            7.875:   Bit size
 BSD1.F              3250:   Depth drilled with bit1
 DFT .            KCL-GEL:   Type fluid in hole
 DFD .                8.8:   Density
 DFV .                 36:   Viscosity
 DFPH.                8.5:   pH
 DFL .               12.8:   Fluid loss
 MSS .           FLOWLINE:   Source of sample
 RMS .OHMM          0.292:   Rm
 MST .F                73:   Rm Meas. temp.
 RMF .OHMM          0.224:   Rmf
 MFST.F                73:   Rmf Meas. temp.
 MFSS.               MEAS:   Source Rmf.
 RMC .OHMM          0.365:   Rmc
 MCST.F                73:   Rmc Meas. temp.
 MCSS.               CALC:   Source Rmc.
 RMB .OHMM          0.154:   Rm. at BHT
 BHT .F               138:   BHT.
 TCS .HRS               5:   Time Circ. stopped
 MRT .F               138:   Maximum recorded temp.
 LUN .            HL-6214:   Logging unit number
 LUL .           GILLETTE:   Logging unit location
 ENGI.             RAUTIO:   Recorded By
 WITN.             STRONG:   Witnessed by
 ORIG.        2" 5" PRINT:   Origin of data
 UWI .     49025111080000:   Unique Well ID
 DICO. A2D TECHNOLOGIES, INC.:   Digitizing Company
~OTHER INFORMATION
~A    DEPT    RILM         GRR       SPR       NPHI       CALD       TEND       DRHO        DEN       RILD       RFOC   
# ...
 2451.0000  -999.2500   119.1427   -42.7647  -999.2500  -999.2500  -999.2500  -999.2500  -999.2500     3.7674     4.7212
 2451.5000  -999.2500   118.2293   -42.7670  -999.2500  -999.2500  -999.2500  -999.2500  -999.2500     3.7173     4.6189
 2452.0000     3.8047   121.8141   -41.6861  -999.2500  -999.2500  -999.2500  -999.2500  -999.2500     3.6948     4.9234
 2452.5000     3.8054   121.8287   -41.2271  -999.2500  -999.2500  -999.2500  -999.2500  -999.2500     3.6032     4.8033
 2453.0000     3.7275   121.8433   -41.3705  -999.2500  -999.2500  -999.2500  -999.2500  -999.2500     3.5056     4.4505
 2453.5000     3.6512   120.9515   -41.3785  -999.2500  -999.2500  -999.2500  -999.2500  -999.2500     3.4345     4.3599
 2454.0000     3.5738   120.0597   -41.6553  -999.2500  -999.2500  -999.2500  -999.2500  -999.2500     3.3649     4.3006
 2454.5000     3.4550   120.4319   -42.0998  -999.2500  -999.2500  -999.2500  -999.2500  -999.2500     3.2511     4.2429
 2455.0000     3.3608   122.3059   -42.5443  -999.2500  -999.2500  -999.2500  -999.2500  -999.2500     3.1414     4.1248
 2455.5000     3.3381   124.6399   -42.6895  -999.2500  -999.2500  -999.2500  -999.2500  -999.2500     3.0778     4.0436
 2456.0000     3.3388   124.9530   -42.6804  -999.2500  -999.2500  -999.2500  -999.2500  -999.2500     3.0576     3.9859
 2456.5000     3.3163   124.3633   -42.6732  -999.2500  -999.2500  -999.2500  -999.2500  -999.2500     3.0589     3.9627
 2457.0000     3.2939   124.3815   -42.5151  -999.2500  -999.2500  -999.2500  -999.2500  -999.2500     3.0815     3.9644
 2457.5000     3.2267   124.3961   -42.3556  -999.2500  -999.2500  -999.2500  -999.2500  -999.2500     3.0589     3.9382
 2458.0000     3.1387   124.4109   -42.1977  -999.2500  -999.2500  -999.2500  -999.2500  -999.2500     3.0202     3.9395
 2458.5000     3.0744   124.4288   -42.0399  -999.2500  -999.2500  -999.2500  -999.2500  -999.2500     2.9183     3.9134
 2459.0000     2.9698   124.4434   -41.7314  -999.2500  -999.2500  -999.2500  -999.2500  -999.2500     2.7043     3.8338
 2459.5000     2.8654   127.4791   -41.7241  -999.2500  -999.2500  -999.2500  -999.2500  -999.2500     2.5411     3.6274
 2460.0000     2.7521   134.7444   -41.8675  -999.2500  -999.2500  -999.2500  -999.2500  -999.2500     2.4212     3.0699
 2460.5000     2.7335   138.6865   -42.1831  -999.2500  -999.2500  -999.2500  -999.2500  -999.2500     2.3690     2.6715
 2461.0000     2.7341   137.4926   -42.4535  -999.2500  -999.2500  -999.2500  -999.2500  -999.2500     2.3081     2.6911
 2461.5000     2.7347   131.2879   -42.5987  -999.2500  -999.2500  -999.2500  -999.2500  -999.2500     2.3252     3.0359
 2462.0000     2.7543   128.4582   -42.5896  -999.2500  -999.2500  -999.2500  -999.2500  -999.2500     2.3752     3.6338
 2462.5000     2.8132   127.8686   -42.5823  -999.2500  -999.2500  -999.2500  -999.2500  -999.2500     2.4603     3.6857
 2463.0000     2.8932   126.9804   -42.5751  -999.2500  -999.2500  -999.2500  -999.2500  -999.2500     2.5485     3.5610
 2463.5000     2.8938   125.1823   -42.5678  -999.2500  -999.2500  -999.2500  -999.2500  -999.2500     2.6783     3.3691
 2464.0000     2.8943   126.4053   -42.5602     0.3723  -999.2500   -54.5113     0.1226     2.4143     2.7157     3.3005
 2464.5000     2.8949   128.2381   -42.5515     0.3847  -999.2500   -54.5113     0.1242     2.4198     2.7358     3.3480
 2465.0000     2.8754   129.1541   -42.5442     0.3934  -999.2500   -24.4361     0.1287     2.4377     2.7560     3.3258
 2465.5000     2.8962   129.1717   -42.5369     0.3922  -999.2500    -9.3985     0.1332     2.4460     2.7764     3.3505
 2466.0000     2.9170   127.9778   -42.5297     0.3813  -999.2500    -1.8797     0.1453     2.4429     2.7969     3.3986
 2466.5000     2.9176   125.5754   -42.5224     0.4007  -999.2500    -9.3985     0.1619     2.4437     2.7786     3.4474
 2467.0000     2.9182   124.3779   -42.5151     0.4073  -999.2500    -9.3985     0.1709     2.4474     2.7800     3.4486
 2467.5000     2.9188   126.2088   -42.5061     0.4055  -999.2500   -24.4361     0.1534     2.4398     2.7615     3.3552
 2468.0000     2.8991   128.9426   -42.4988     0.2976  -999.2500   -32.9574     0.0592     2.4232     2.7435     3.3327
 2468.5000     2.8596   127.7521   -42.4915     0.2997    10.1212   -39.4737     0.0230     2.4632     2.7255     3.3574
 2469.0000     2.8803   124.1413   -42.4843     0.3046    10.1212   -31.9549     0.0094     2.5011     2.7079     3.3586
 2469.5000     2.9010   121.4368   -42.3264     0.3275    10.1212   -24.4361    -0.0011     2.4994     2.7091     3.3597
 2470.0000     2.9016   122.6598   -42.3191     0.3402    10.1212   -24.4361    -0.0072     2.4858     2.7676     3.3608
 2470.5000     2.8611   128.7167   -42.4625     0.3390    10.1212   -24.4361    -0.0102     2.4842     2.7495     3.2246
 2471.0000     2.9436   133.2630   -42.4534     0.3203    10.1212   -24.4361    -0.0097     2.4918     2.7123     3.1807
 2471.5000     2.9442   131.7324   -42.4461     0.3082    10.1212   -24.4361     0.0381     2.5114     2.7137     3.2267
 2472.0000     2.9448   131.4794   -42.4389     0.3045    10.1212   -24.4361     0.0366     2.5174     2.7914     3.3656
 2472.5000     2.9454   131.1918   -42.4316     0.3012    10.1212   -24.4361     0.0185     2.5083     2.8518     3.3690
 2473.0000     2.9872   130.6058   -42.4243     0.2976    10.1212   -31.9549     0.0079     2.4947     2.8729     3.1797
 2473.5000     3.0992   129.7140   -42.4171     0.2943    10.1212   -31.9549     0.0140     2.5030     2.9347     3.0987
 2474.0000     3.2490   125.4990   -42.4096     0.2897    10.1212   -39.4737     0.0550     2.5203     2.9564     3.1655
 2474.5000     3.2952   120.3776   -42.4007     0.2855    10.1212   -39.4737     0.0517     2.5369     2.9164     3.4668
 2475.0000     3.2501   121.3996   -42.3934     0.2940    10.1212   -39.4737     0.0321     2.5353     2.8774     4.1277
 2475.5000     3.0963   124.3378   -42.3862     0.3015    10.1212   -38.4732     0.0064     2.5307     2.8987     3.9320
 2476.0000     2.9281   126.7693   -42.3789     0.3190    10.1212   -24.4361    -0.0026     2.5141     2.8567     3.5438
 2476.5000     2.7520   129.8050   -42.3717     0.3193    10.1212   -24.4361    -0.0042     2.4930     2.7442     3.1490
 2477.0000     2.6583   132.8407   -42.3644     0.3021    10.1212   -24.4361     0.0066     2.4771     2.6699     2.7595
 2477.5000     2.5859   141.3145   -42.3569     0.2897    10.1212   -39.4737     0.0396     2.4808     2.5793     2.5927
 2478.0000     2.5328   142.8396   -42.3480     0.2819    10.1212   -31.9549     0.0577     2.4995     2.4923     2.6668
 2478.5000     2.5158   138.0240   -42.3408     0.2837    10.1212   -24.4361     0.0502     2.5110     2.4081     3.0316
 2479.0000     2.5339   131.3920   -42.3335     0.2867    10.1212   -16.9173     0.0336     2.5004     2.3734     3.2890
 2479.5000     2.5523   131.7087   -42.3262     0.2993    10.1212    -1.8797     0.0140     2.4928     2.3602     3.0476
 2480.0000     2.6067   132.0254   -42.3190     0.3051    10.1515     5.6391    -0.0011     2.4686     2.4112     2.9442
 2480.5000     2.6808   132.0399   -42.6129     0.3227    10.1364    -1.8797     0.0064     2.4754     2.4803     2.8640
 2481.0000     2.7189   130.5439   -42.6054     0.3281    10.1364    -9.3985     0.0049     2.4837     2.5161     2.8256
 2481.5000     2.8159   128.7108   -42.4460     0.3302    10.1212   -31.9549     0.0004     2.4874     2.5524     2.9552
 2482.0000     2.9163   124.8365   -42.2881     0.3178    10.1212   -39.4737     0.0019     2.4927     2.6461     3.2505
 2482.5000     3.0413   119.1109   -42.1302     0.3082    10.1212   -24.4361     0.0079     2.4964     2.7967     3.2972
 2483.0000     3.1278   117.3128   -41.9724     0.3002    10.1061     5.6391     0.0140     2.4979     3.0415     3.3680
 2483.5000     3.2392   116.1189   -41.8145     0.2970    10.1061    -1.8797     0.0108     2.5001     3.3079     3.4643
 2484.0000     3.4254   114.3207   -41.6566     0.2914    10.0909   -24.4361    -0.0011     2.5039     3.4987     3.6393
