~VERSION INFORMATION
 VERS.                2.0:   CWLS LOG ASCII STANDARD - VERSION 2.0
 WRAP.                 NO:   ONE LINE PER DEPTH STEP
~WELL INFORMATION
#MNEM.UNIT      DATA TYPE    INFORMATION
#----------   ------------   ------------------------------
 STRT.F          200.0000:   START DEPTH
 STOP.F         3060.0000:   STOP DEPTH
 STEP.F            0.5000:   STEP LENGTH
 NULL.          -999.2500:   NO VALUE
 COMP.    FENIX & SCISSON:   COMPANY
 WELL. FENIX NPR 3 "AX" #58-21:   WELL
 FLD .      NPR - WILDCAT:   FIELD
 LOC .      S21 T39N R78W:   LOCATION
 CNTY.            NATRONA:   COUNTY
 STAT.            WYOMING:   STATE
 CTRY. UNITED STATES OF AMERICA:   COUNTRY
 SRVC.              WELEX:   SERVICE COMPANY
 DATE.        12-JUN-1977:   LOGDATE
 API .     49025103790000:   API NUMBER
~CURVE INFORMATION
#MNEM.UNIT       API CODE    CURVE DESCRIPTION
#----------   ------------   ------------------------------
 DEPT.F                  :   
 CALD.IN     45 280 60 00:   CALIPER FROM DENSITY LOG
 GRD .GAPI   45 310 01 00:   GAMMA RAY FROM DENSITY LOG
 CORR.G/C3   45 356 01 00:   DENSITY CORRECTION
 RHOB.G/C3   45 350 01 00:   BULK DENSITY
 SPR .MV     07 010 01 00:   SPONTANEOUS POTENTIAL
 ILD .OHMM   07 120 46 00:   DEEP INDUCTION RESISTIVITY
 GURD.OHMM   07 220 05 00:   GUARD LOG RESISTIVITY
 ILM .OHMM   07 120 44 00:   INDUCTION LOG MEDIUM RESISTIVITY
 DT  .US/F   60 520 00 00:   DELTA TIME
 SPHI.DEC    60 890 00 00:   SONIC POROSITY
~PARAMETER INFORMATION
#MNEM.UNIT          VALUE    DESCRIPTION
#----------   ------------   ------------------------------
 EKB .F         5016.0000:   Kelly bushing
 EGL .F         5006.0000:   Ground level
 EDF .F            0.0000:   Drilling floor
 EPD .F            0.0000:   Permanent datum
 TD  .F         3062.0000:   Total depth
 DATE.        12-JUN-1977:   Date logged
 CLNT.            A2DTECH:   Client Code
 SL  . 280' FSL & 2160' FEL:   Surface Location
 PD  .                 GL:   Permanent Datum
 DD  .F              3060:   Depth driller
 DL  .F              3062:   Depth logger
 BLI .F              3060:   Bottom log interval
 TLI .F              2450:   Top log interval
 CS1 .IN            8.625:   Casing size
 CBD1.      8.625" @ 200':   Casing driller 1
 CBL1.F               218:   Casing logger 1
 BS1 .IN            7.875:   Bit size
 BSD1.F              3060:   Depth drilled with bit1
 DFT .            KCL/MUD:   Type fluid in hole
 DFD .                8.7:   Density
 DFV .                 33:   Viscosity
 DFPH.                7.5:   pH
 DFL .                 36:   Fluid loss
 MSS .           FLOWLINE:   Source of sample
 TCS .HRS             4.5:   Time Circ. stopped
 MRT .F               110:   Maximum recorded temp.
 LUN .               8611:   Logging unit number
 LUL .           GILLETTE:   Logging unit location
 ENGI.            C. DOAK:   Recorded By
 WITN.            RHOADES:   Witnessed by
 ORIG.           5" PRINT:   Origin of data
 UWI .     49025103790000:   Unique Well ID
 DICO. A2D TECHNOLOGIES, INC.:   Digitizing Company
 DAPD.                 10:   Feet Above Permanent Datum
 RMS .OHMM            1.3:   Rm
 MST .F                84:   Rm Meas. temp.
 RMF .OHMM            .52:   Rmf
 MFST.F                84:   Rmf Meas. temp.
 MFSS.               FANN:   Source Rmf.
 RMC .OHMM           1.43:   Rmc
 MCST.F                84:   Rmc Meas. temp.
 MCSS.                KIT:   Source Rmc.
 RMB .OHMM            .99:   Rm. at BHT
 BHT .F               110:   BHT.
~OTHER INFORMATION
~A   DEPT     CALD         GRD      CORR       RHOB        SPR        ILD       GURD        ILM         DT       SPHI   
# ...
  233.5000    12.9370    92.9130     0.0200     2.4110   -76.4840     6.6490     6.1910     6.3670  -999.2500  -999.2500
  234.0000    12.9370    92.6080     0.0220     2.4030   -75.7500     6.7310     6.2620     6.4410  -999.2500  -999.2500
  234.5000    12.9370    92.0080     0.0240     2.3950   -75.0150     6.8130     6.3250     6.5150  -999.2500  -999.2500
  235.0000    12.9360    91.4820     0.0260     2.3930   -74.2740     6.8950     6.3250     6.5890  -999.2500  -999.2500
  235.5000    12.9380    90.9360     0.0300     2.3890   -73.7040     6.9350     6.0330     6.6630  -999.2500  -999.2500
  236.0000    12.9220    90.3970     0.0330     2.3850   -73.9830     6.9350     5.7150     6.3970  -999.2500  -999.2500
  236.5000    12.8900    89.8550     0.0370     2.3820   -74.6560     6.2190     5.3980     5.9950  -999.2500  -999.2500
  237.0000    12.8600    89.2730     0.0410     2.3760   -75.3110     5.3580     5.0800     5.5930  -999.2500  -999.2500
  237.5000    12.8310    88.8970     0.0450     2.3650   -76.1990     5.3580     4.7630     5.1910  -999.2500  -999.2500
  238.0000    12.8000    88.9240     0.0430     2.3720   -77.0830     5.3580     4.5400     5.0700  -999.2500  -999.2500
  238.5000    12.7780    89.2220     0.0410     2.3670   -77.9700     5.3580     4.8050     5.2760  -999.2500  -999.2500
  239.0000    12.7950    90.1560     0.0380     2.3750   -78.8920     5.7380     5.1010     5.5060  -999.2500  -999.2500
  239.5000    12.8010    91.2710     0.0400     2.4010   -79.2680     6.2880     5.3980     5.7360  -999.2500  -999.2500
  240.0000    12.7350    90.7050     0.0430     2.4260   -79.2730     6.8080     5.6940     5.9660  -999.2500  -999.2500
  240.5000    12.6720    89.2700     0.0450     2.4520   -78.9040     6.9350     5.9900     6.1960  -999.2500  -999.2500
  241.0000    12.6050    87.7910     0.0410     2.4720   -78.1810     7.1310     6.3250     6.4260  -999.2500  -999.2500
  241.5000    12.5790    86.4550     0.0370     2.4720   -77.5030     7.3140     6.4420     6.6560  -999.2500  -999.2500
  242.0000    12.5800    85.0570     0.0320     2.4650   -76.8270     7.4970     6.4730     6.8860  -999.2500  -999.2500
  242.5000    12.6080    84.8110     0.0280     2.4570   -76.1410     7.6800     6.5900     7.1160  -999.2500  -999.2500
  243.0000    12.7280    83.4640     0.0240     2.4490   -75.4590     7.8630     6.7080     7.3290  -999.2500  -999.2500
  243.5000    12.8730    82.7690     0.0200     2.4410   -74.7800     8.0360     6.8250     7.3290  -999.2500  -999.2500
  244.0000    13.0130    81.6030     0.0160     2.4320   -74.0970     8.0890     6.9420     7.4650  -999.2500  -999.2500
  244.5000    13.1290    82.0130     0.0110     2.4350   -73.4020     8.1700     7.0590     7.5210  -999.2500  -999.2500
  245.0000    13.1410    84.1180     0.0140     2.4390   -72.9300     8.2510     7.1950     7.5870  -999.2500  -999.2500
  245.5000    13.0550    85.7660     0.0180     2.4440   -72.9950     8.3320     7.1950     7.6530  -999.2500  -999.2500
  246.0000    12.8670    87.5380     0.0210     2.4470   -73.0660     8.4130     7.1790     7.7190  -999.2500  -999.2500
  246.5000    12.7010    89.3390     0.0240     2.4510   -73.1460     8.4920     7.1120     7.7850  -999.2500  -999.2500
  247.0000    12.5140    91.2820     0.0270     2.4430   -73.1990     8.4920     7.0450     7.8890  -999.2500  -999.2500
  247.5000    12.4670    91.4510     0.0300     2.4390   -73.3460     8.4920     6.9780     7.7450  -999.2500  -999.2500
  248.0000    12.4650    89.5770     0.0300     2.4430   -72.7860     8.2770     6.9110     7.6170  -999.2500  -999.2500
  248.5000    12.5470    87.9180     0.0300     2.4490   -71.8280     8.1790     6.8440     7.4910  -999.2500  -999.2500
  249.0000    12.6400    86.2420     0.0270     2.4410   -70.9500     8.0810     6.7780     7.3650  -999.2500  -999.2500
  249.5000    12.7290    84.5010     0.0250     2.4340   -70.0670     7.9820     6.7110     7.2390  -999.2500  -999.2500
  250.0000    12.8210    82.8400     0.0220     2.4260   -69.3790     7.8840     6.5060     7.1130  -999.2500  -999.2500
  250.5000    12.9080    81.0040     0.0220     2.4180   -69.3820     7.7860     6.2090     6.9880  -999.2500  -999.2500
  251.0000    13.0040    81.9180     0.0230     2.4110   -69.3500     7.6880     6.2090     6.8620  -999.2500  -999.2500
  251.5000    13.0470    83.6190     0.0260     2.4020   -69.3900     7.5900     6.2090     6.7360  -999.2500  -999.2500
  252.0000    13.0590    85.2250     0.0290     2.4040   -69.3480     7.4920     6.2090     6.6840  -999.2500  -999.2500
  252.5000    13.0530    86.8510     0.0320     2.4120   -69.2690     7.3940     6.2090     6.5940  -999.2500  -999.2500
  253.0000    13.0530    88.2950     0.0350     2.4200   -67.5980     7.2960     6.2090     6.3570  -999.2500  -999.2500
  253.5000    12.9280    88.6800     0.0370     2.4160   -65.7890     7.1950     6.2090     6.1210  -999.2500  -999.2500
  254.0000    12.7500    87.7140     0.0410     2.4090   -64.6760     6.7770     6.2090     5.8850  -999.2500  -999.2500
  254.5000    12.6480    86.9090     0.0440     2.4000   -64.2050     6.3460     5.3150     5.6490  -999.2500  -999.2500
  255.0000    12.7170    86.5570     0.0460     2.3920   -63.6650     5.9850     4.5500     5.2610  -999.2500  -999.2500
  255.5000    12.8120    87.3250     0.0480     2.3690   -63.1340     6.2090     3.7850     5.4320  -999.2500  -999.2500
  256.0000    12.7270    88.4380     0.0490     2.3520   -62.6130     7.1230     3.4440     5.9130  -999.2500  -999.2500
  256.5000    12.6460    88.6300     0.0370     2.3440   -62.0820     7.8890     6.2340     6.3930  -999.2500  -999.2500
  257.0000    12.5480    87.6550     0.0270     2.3420   -61.5550     8.2730     6.3060     6.8730  -999.2500  -999.2500
  257.5000    12.4890    86.9390     0.0150     2.3830   -61.0290     8.6780     6.8160     7.3540  -999.2500  -999.2500
  258.0000    12.3850    85.5120     0.0060     2.4230   -60.4990     9.0830     7.4780     7.8340  -999.2500  -999.2500
  258.5000    12.2720    83.4830     0.0110     2.4360   -59.9730     9.4880     8.1850     8.3140  -999.2500  -999.2500
  259.0000    12.2650    83.3830     0.0140     2.4320   -59.4480     9.8410     8.3370     8.7950  -999.2500  -999.2500
  259.5000    12.2690    82.3080     0.0200     2.4350   -58.5000    10.6480     8.6500     9.3120  -999.2500  -999.2500
  260.0000    12.3650    80.8490     0.0250     2.4400   -56.7500    11.3640     8.8760     9.4850  -999.2500  -999.2500
  260.5000    12.5750    79.2750     0.0300     2.4450   -55.0160    12.0800     9.1420     9.9930  -999.2500  -999.2500
  261.0000    12.8650    75.0860     0.0350     2.4460   -53.2330    12.7960     9.3120    10.4740  -999.2500  -999.2500
  261.5000    13.0190    70.8450     0.0410     2.4400   -51.4980    13.5110    10.2600    10.9540  -999.2500  -999.2500
  262.0000    12.8040    67.4910     0.0460     2.4310   -49.7800    14.2270    11.1130    11.4350  -999.2500  -999.2500
  262.5000    12.6050    64.2330     0.0500     2.4220   -48.6580    14.9430    11.9650    11.9160  -999.2500  -999.2500
  263.0000    12.3970    60.9820     0.0490     2.4130   -47.9620    15.6580    12.7360    12.3960  -999.2500  -999.2500
  263.5000    12.1880    57.7350     0.0470     2.3980   -46.6030    16.3740    12.1240    12.7360  -999.2500  -999.2500
  264.0000    12.0640    54.4550     0.0450     2.3710   -44.8270    17.0900    11.6150    12.9730  -999.2500  -999.2500
  264.5000    12.0130    51.1780     0.0430     2.3430   -43.3750    17.8060    12.2280    12.9190  -999.2500  -999.2500
  265.0000    11.9680    48.6810     0.0410     2.3260   -42.4490    18.5210    12.9730    12.8410  -999.2500  -999.2500
  265.5000    11.9220    48.9500     0.0430     2.3230   -41.3740    18.9330    12.8360    12.7630  -999.2500  -999.2500
  266.0000    11.8770    49.1030     0.0450     2.3160   -41.2660    19.2010    12.3450    12.6860  -999.2500  -999.2500
  266.5000    11.8710    49.4810     0.0460     2.3050   -41.1830    19.4680    11.8530    12.6080  -999.2500  -999.2500
