~VERSION INFORMATION
 VERS.                2.0:   CWLS LOG ASCII STANDARD - VERSION 2.0
 WRAP.                 NO:   ONE LINE PER DEPTH STEP
~WELL INFORMATION
#MNEM.UNIT      DATA TYPE    INFORMATION
#----------   ------------   ------------------------------
 STRT.F          206.0000:   START DEPTH
 STOP.F         3080.5000:   STOP DEPTH
 STEP.F            0.5000:   STEP LENGTH
 NULL.          -999.2500:   NO VALUE
 COMP.    FENIX & SCISSON:   COMPANY
 WELL.   FENIX "A" #61-28:   WELL
 FLD .           N P R #3:   FIELD
 LOC .      S28 T39N R78W:   LOCATION
 CNTY.            NATRONA:   COUNTY
 STAT.            WYOMING:   STATE
 CTRY. UNITED STATES OF AMERICA:   COUNTRY
 SRVC.        SCHLUMBEGER:   SERVICE COMPANY
 DATE.        16-MAY-1977:   LOGDATE
 API .     49025103680000:   API NUMBER
~CURVE INFORMATION
#MNEM.UNIT       API CODE    CURVE DESCRIPTION
#----------   ------------   ------------------------------
 DEPT.F                  :   
 SPR .MV     07 010 01 00:   SPONTANEOUS POTENTIAL
 LL8 .OHMM   07 220 08 00:   LATEROLOG-8 RES.
 ILM .OHMM   07 120 44 00:   INDUCTION LOG MEDIUM RESISTIVITY
 ILD .OHMM   07 120 46 00:   DEEP INDUCTION RESISTIVITY
 CALD.IN     45 280 60 00:   CALIPER FROM DENSITY LOG
 GRD .GAPI   45 310 01 00:   GAMMA RAY FROM DENSITY LOG
 RHOB.G/C3   45 350 01 00:   BULK DENSITY
 CORR.G/C3   45 356 01 00:   DENSITY CORRECTION
~PARAMETER INFORMATION
#MNEM.UNIT          VALUE    DESCRIPTION
#----------   ------------   ------------------------------
 EKB .F         5019.0000:   Kelly bushing
 EGL .F         5009.0000:   Ground level
 EDF .F            0.0000:   Drilling floor
 TD  .F         3050.0000:   Total depth
 DATE.        16-MAY-1977:   Date logged
 CLNT.            A2DTECH:   Client Code
 SL  . 330' FNL & 1650' FEL:   Surface Location
 PD  .                 GL:   Permanent Datum
 DD  .F              3050:   Depth driller
 DL  .F              3079:   Depth logger
 BLI .F              3072:   Bottom log interval
 CS1 .IN            8.625:   Casing size
 CBD1.      8.625" @ 213':   Casing driller 1
 CBL1.F               213:   Casing logger 1
 BS1 .IN            7.875:   Bit size
 DFT .            KCL-MUD:   Type fluid in hole
 DFD .                9.2:   Density
 DFV .                 32:   Viscosity
 DFPH.                  8:   pH
 DFL .                7.6:   Fluid loss
 MSS .              CIRC.:   Source of sample
 RMS .OHMM          0.128:   Rm
 MST .F                62:   Rm Meas. temp.
 RMF .OHMM          0.126:   Rmf
 MFST.F                62:   Rmf Meas. temp.
 RMC .OHMM          0.192:   Rmc
 MCST.F                62:   Rmc Meas. temp.
 MFSS.               MEAS:   Source Rmf.
 RMB .OHMM           0.07:   Rm. at BHT
 BHT .F               112:   BHT.
 TCS .HRS            0900:   Time Circ. stopped
 MRT .F               112:   Maximum recorded temp.
 LUN .               7711:   Logging unit number
 LUL .               CSPR:   Logging unit location
 ENGI.             SAYLER:   Recorded By
 WITN.         PETTINGILL:   Witnessed by
 ORIG.           5" PRINT:   Origin of data
 UWI .     49025103680000:   Unique Well ID
 DICO. A2D TECHNOLOGIES, INC.:   Digitizing Company
 DAPD.                 10:   Feet Above Permanent Datum
 BSD1.               3050:   Depth drilled with bit1
 MCSS.               CALC:   Source Rmc.
 EPD .F              5009:   Elevation Permanent Datum
 LMF .                 KB:   Log Measured From
 DMF .                 KB:   Drilling Measured From
 TLI .F               213:   Top log interval
 TLAB.               1100:   Time logger at bottom
~OTHER INFORMATION
~A   DEPT      SPR        LL8        ILM        ILD       CALD         GRD      RHOB       CORR   
  206.0000  -999.2500  -999.2500  -999.2500  -999.2500  -999.2500    77.5640  -999.2500  -999.2500
  206.5000  -999.2500  -999.2500  -999.2500  -999.2500  -999.2500    77.6760  -999.2500  -999.2500
  207.0000  -999.2500  -999.2500  -999.2500  -999.2500  -999.2500    76.3150  -999.2500  -999.2500
  207.5000  -999.2500  -999.2500  -999.2500  -999.2500  -999.2500    74.7500  -999.2500  -999.2500
  208.0000  -153.2890  -999.2500  -999.2500  -999.2500  -999.2500    72.7950  -999.2500  -999.2500
  208.5000  -152.9930  -999.2500  -999.2500  -999.2500  -999.2500    73.0120  -999.2500  -999.2500
  209.0000  -152.6970  -999.2500  -999.2500  -999.2500  -999.2500    74.0500  -999.2500  -999.2500
  209.5000  -152.7060  -999.2500  -999.2500  -999.2500  -999.2500    75.1330  -999.2500  -999.2500
  210.0000  -153.1020  -999.2500  -999.2500  -999.2500  -999.2500    75.7200  -999.2500  -999.2500
  210.5000  -153.6790  -999.2500  -999.2500  -999.2500  -999.2500    76.1980  -999.2500  -999.2500
  211.0000  -154.8190    10.3180  -999.2500  -999.2500  -999.2500    77.2730  -999.2500  -999.2500
  211.5000  -155.3830    64.5250  -999.2500  -999.2500  -999.2500    78.2540  -999.2500  -999.2500
  212.0000  -156.5290   116.8150   261.7530  -999.2500  -999.2500    79.1110  -999.2500  -999.2500
  212.5000  -157.7410    98.0510   159.2960   286.5930  -999.2500    79.9080  -999.2500  -999.2500
  213.0000  -158.6000    79.4000    54.9730   246.3880  -999.2500    78.5010  -999.2500  -999.2500
  213.5000  -162.5300    60.7500    45.3230   206.1830  -999.2500    75.5470  -999.2500  -999.2500
  214.0000  -169.9530    42.0990    35.4940   165.9780  -999.2500    72.6480     2.2710  -999.2500
  214.5000  -176.7020    32.7740    25.6650   125.7740  -999.2500    73.1460     2.2760    -0.2070
  215.0000  -184.4050    14.1240    15.8350    85.5690  -999.2500    77.7640     2.2410    -0.1990
  215.5000  -186.2390     3.0530    16.2230    45.3640  -999.2500    80.4220     2.2210    -0.1290
  216.0000  -186.2240     3.0870     3.1430    56.8500  -999.2500    87.7740     2.2220    -0.0190
  216.5000  -182.5800     3.9330     2.6960     1.4970     8.8640    98.4510     2.3370     0.0880
  217.0000  -176.4620     4.7800     3.5700     2.2500     9.1970   102.2760     2.3130     0.0870
  217.5000  -164.6570     5.6260     4.4400     2.7840     9.5180   105.8830     2.2570     0.0440
  218.0000  -153.6850     6.4720     5.3100     3.7050     9.7270   109.5390     2.2800    -0.0060
  218.5000  -145.7050     7.0720     6.1810     4.9130     9.7660   113.1180     2.3280    -0.0020
  219.0000  -143.5900     7.2340     7.2040     5.9440     9.7940   115.0940     2.3630     0.0020
  219.5000  -140.3160     5.8360     7.0530     7.2760     9.8120   116.3960     2.3960     0.0060
  220.0000  -138.5970     6.0080     6.7510     6.9510     9.9120   117.4180     2.4160     0.0020
  220.5000  -138.2480     6.3340     6.4490     6.3320    10.0120   117.7140     2.4260    -0.0030
  221.0000  -137.6250     6.6600     6.0540     5.5230    10.1120   116.3970     2.4260    -0.0060
  221.5000  -137.1010     6.7600     6.2080     5.7610    10.2120   113.6670     2.4330     0.0050
  222.0000  -136.6340     6.7600     6.3520     6.1050    10.3120   111.3570     2.4400     0.0120
  222.5000  -136.5680     6.7210     6.5160     6.6370    10.4110   112.3940     2.4340     0.0060
  223.0000  -136.4940     6.5730     6.6370     6.4820    10.5110   114.2270     2.4260     0.0030
  223.5000  -136.4350     6.4250     6.4630     6.1400    10.6120   115.2220     2.4320     0.0040
  224.0000  -136.3850     6.2810     6.2970     5.9300    10.7030   115.6680     2.4370     0.0050
  224.5000  -136.3010     6.3300     6.1670     5.8960    10.7870   115.4940     2.4260     0.0060
  225.0000  -136.2510     6.3780     6.2240     5.8630    10.8710   114.9280     2.4260     0.0060
  225.5000  -136.2820     6.3980     6.2810     5.8360    10.9560   115.5230     2.4280     0.0060
  226.0000  -136.7030     6.5160     5.7070     5.5040    11.0360   116.7520     2.4300     0.0030
  226.5000  -138.1970     6.5160     4.9760     5.0380    11.1120   117.2350     2.4250     0.0000
  227.0000  -140.6700     6.2810     4.2460     4.6260    11.1870   116.4810     2.4190    -0.0030
  227.5000  -142.5910     5.3880     3.6180     4.2740    11.2630   115.2180     2.3990    -0.0060
  228.0000  -143.4400     4.4490     3.7550     3.9210    11.3400   116.1970     2.3800    -0.0090
  228.5000  -144.1850     3.3420     3.9410     3.5680    11.3810   117.3960     2.3500    -0.0110
  229.0000  -144.9460     3.5810     4.1260     3.1810    11.4000   117.6180     2.3180     0.0020
  229.5000  -145.2170     4.0590     4.3120     3.5860    11.4480   117.4860     2.2850     0.0260
  230.0000  -145.4710     4.5950     4.5950     4.2690    11.5110   116.7240     2.2530     0.1020
  230.5000  -145.7200     4.3870     4.4080     3.9690    11.5750   115.0850     2.2220     0.0940
  231.0000  -145.7290     4.1150     4.2080     4.0010    11.9350   112.8110     2.1920     0.0680
  231.5000  -145.5770     4.5060     4.5670     4.4120    12.8890   111.0490     2.1740     0.0120
  232.0000  -145.4480     5.2260     4.9250     4.8230    12.3110   110.3130     2.2850     0.0120
  232.5000  -145.3190     5.2010     5.4220     5.2260    11.7150   110.0130     2.3510     0.0310
  233.0000  -145.1840     5.1310     5.4050     5.2260    11.7400   110.5770     2.3690     0.0440
  233.5000  -145.0540     5.1310     5.3230     5.6380    11.8310   111.9970     2.3650     0.0000
  234.0000  -144.9220     5.6180     5.6510     6.0540    12.0190   112.3580     2.3740     0.0040
  234.5000  -144.7910     6.1070     6.0370     6.4520    11.5860   111.8940     2.4270     0.0080
  235.0000  -144.6590     6.5160     6.4240     6.7870    11.5700   111.3440     2.4330     0.0100
  235.5000  -144.5270     6.7810     6.8100     7.2760    11.5590   111.8910     2.4410     0.0070
  236.0000  -144.3960     7.0140     7.1440     7.2270    11.5480   111.2490     2.4520     0.0060
  236.5000  -144.2630     7.0140     7.1140     7.1360    11.5410   110.0200     2.4650     0.0110
  237.0000  -144.1550     6.8860     7.0230     7.0450    11.5350   108.2910     2.4740     0.0090
  237.5000  -144.0760     6.7730     6.9320     6.9540    11.5290   106.6820     2.4690     0.0050
  238.0000  -143.9930     6.6720     6.8860     6.8630    11.5230   106.1410     2.4640     0.0020
  238.5000  -143.9030     6.5700     6.5790     6.7600    11.5170   107.3120     2.4600     0.0030
  239.0000  -143.8490     6.4040     6.3690     6.5650    11.5110   108.8090     2.4540     0.0040
  239.5000  -143.5770     6.1650     6.1590     6.3420    11.5040   109.7890     2.4490     0.0060
  240.0000  -143.1860     5.9250     5.9490     6.1180    11.4960   110.6180     2.4400     0.0060
  240.5000  -142.8100     5.6860     5.7400     5.8950    11.4880   111.6050     2.4300     0.0020
  241.0000  -142.1270     5.4470     5.5300     5.6720    11.4800   112.7930     2.4270    -0.0020
  241.5000  -140.7120     5.2080     5.3200     5.4480    11.4720   114.3130     2.4260     0.0000
  242.0000  -140.3310     4.9690     5.1100     5.2250    11.4630   117.0090     2.4200     0.0030
  242.5000  -140.3230     4.7290     4.9010     5.0020    11.4530   119.2690     2.4130     0.0050
  243.0000  -140.6630     4.4900     4.6910     4.6800    11.4430   120.8550     2.4130     0.0030
  243.5000  -140.9250     4.2510     4.4810     4.7630    11.4320   120.5460     2.4120     0.0010
  244.0000  -140.9970     4.5160     4.7320     4.9100    11.4220   118.7580     2.4090     0.0000
  244.5000  -140.8840     4.9460     5.1330     5.0380    11.4120   117.1470     2.4180     0.0080
  245.0000  -140.7680     5.3760     5.5340     5.3890    11.4010   115.8870     2.4150     0.0160
  245.5000  -140.6190     5.8060     5.9360     5.6990    11.3910   116.6380     2.4110     0.0180
  246.0000  -140.7530     6.2810     6.0760     6.0090    11.3810   117.3380     2.4100     0.0140
