~VERSION INFORMATION
 VERS.                2.0:   CWLS LOG ASCII STANDARD - VERSION 2.0
 WRAP.                 NO:   ONE LINE PER DEPTH STEP
~WELL INFORMATION
#MNEM.UNIT      DATA TYPE    INFORMATION
#----------   ------------   ------------------------------
 STRT.F            0.0000:   START DEPTH
 STOP.F         3964.0000:   STOP DEPTH
 STEP.F            0.5000:   STEP LENGTH
 NULL.          -999.2500:   NO VALUE
 COMP. LAWRENCE ALLISON & ASSOCIATES:   COMPANY
 WELL. LAWRENCE NPR 3 "X" #43-10:   WELL
 FLD .              N P R:   FIELD
 LOC .      S10 T38N R78W:   LOCATION
 CNTY.            NATRONA:   COUNTY
 STAT.            WYOMING:   STATE
 CTRY. UNITED STATES OF AMERICA:   COUNTRY
 SRVC.      DRESSER ATLAS:   SERVICE COMPANY
 DATE.        07-AUG-1985:   LOGDATE
 API .     49025111390000:   API NUMBER
~CURVE INFORMATION
#MNEM.UNIT       API CODE    CURVE DESCRIPTION
#----------   ------------   ------------------------------
 DEPT.F                  :   
 CNC .DEC    42 890 03 00:   NEUTRON PORISITY SANDSTONE
 RHOB.G/C3   45 350 01 00:   BULK DENSITY
 CORR.G/C3   45 356 01 00:   DENSITY CORRECTION
 TEND.LBS    45 635 01 00:   TENSION FROM DENSITY LOG
 GRR .GAPI   07 310 01 00:   GAMMA RAY FROM RESISTIVITY
 CALR.IN     07 280 01 00:   CALIPER FROM RESISTIVITY
 SPR .MV     07 010 01 00:   SPONTANEOUS POTENTIAL
 TENR.LBS    07 635 01 00:   TENSION FROM RESISTIVITY
 RILD.OHMM   07 120 46 00:   DEEP INDUCTION RESISTIVITY
 RILM.OHMM   07 120 44 00:   INDUCTION LOG MEDIUM RESISTIVITY
 RFOC.OHMM   07 220 04 00:   RESISTIVITY FOCUSED LOG RES.
 DT  .US/F   60 520 00 00:   DELTA TIME
 TENS.LBS    60 635 01 00:   TENSION FROM SONIC
~PARAMETER INFORMATION
#MNEM.UNIT          VALUE    DESCRIPTION
#----------   ------------   ------------------------------
 EKB .F         5223.0000:   Kelly bushing
 EGL .F         5211.0000:   Ground level
 EDF .F            0.0000:   Drilling floor
 EPD .F         5211.0000:   Permanent datum
 TD  .F         3950.0000:   Total depth
 DATE.        07-AUG-1985:   Date logged
 CLNT.            A2DTECH:   Client Code
 SL  . 2016' FNL & 2230' FWL:   Surface Location
 PD  .                 GL:   Permanent Datum
 DD  .F              3950:   Depth driller
 DL  .F              3950:   Depth logger
 BLI .F              3948:   Bottom log interval
 CS1 .IN            8.625:   Casing size
 CBD1.      8.625" @ 518':   Casing driller 1
 CBL1.F               520:   Casing logger 1
 BS1 .IN            7.875:   Bit size
 DFT .            KCL-GEL:   Type fluid in hole
 DFD .                8.9:   Density
 DFV .                 40:   Viscosity
 DFPH.                  9:   pH
 DFL .                 12:   Fluid loss
 MSS .           FLOWLINE:   Source of sample
 RMS .OHMM           .318:   Rm
 MST .F                82:   Rm Meas. temp.
 RMF .OHMM            .24:   Rmf
 MFST.F                82:   Rmf Meas. temp.
 RMC .OHMM            .40:   Rmc
 MCST.F                82:   Rmc Meas. temp.
 MFSS.               CALC:   Source Rmf.
 RMB .OHMM            .19:   Rm. at BHT
 BHT .F               140:   BHT.
 TCS .HRS               4:   Time Circ. stopped
 MRT .F               140:   Maximum recorded temp.
 LUN .               6264:   Logging unit number
 LUL .               GLTE:   Logging unit location
 ENGI.           FAHLSING:   Recorded By
 WITN.             STRONG:   Witnessed by
 ORIG.           5" PRINT:   Origin of data
 UWI .     49025111390000:   Unique Well ID
 DICO. A2D TECHNOLOGIES, INC.:   Digitizing Company
 DAPD.                 12:   Feet Above Permanent Datum
 BSD1.               3950:   Depth drilled with bit1
 MCSS.               CALC:   Source Rmc.
~OTHER INFORMATION
~A    DEPT     CNC       RHOB       CORR       TEND         GRR      CALR        SPR       TENR       RILD       RILM       RFOC         DT       TENS   
# ...
 3692.0000     0.3400     2.5120     0.1450   -26.3220   117.6120     8.3310   -70.8200     7.5240     2.6220     2.6990     3.5610    94.5150   -23.2640
 3692.5000     0.3430     2.4960     0.1170   -27.0380   113.0610     8.3550   -70.4690    11.8640     2.5190     2.5840     3.5610    98.1750   -25.0910
 3693.0000     0.3420     2.4790     0.0760   -27.7530   111.4270     8.3690   -70.4310    11.4990     2.4160     2.5610     3.6380    98.4750   -26.9180
 3693.5000     0.3380     2.4720     0.0510   -28.4690   112.4460     8.3890   -70.4320     8.5050     2.3580     2.5380     3.6600    98.3260   -28.7450
 3694.0000     0.3340     2.4870     0.0440   -29.1850   116.1320     8.4090   -70.4320     5.5110     2.3580     2.5690     3.5670    98.0750   -30.5720
 3694.5000     0.3300     2.5070     0.0540   -29.9010   116.5000     8.4260   -70.4320     2.5170     2.3950     2.6930     3.4960    98.0200   -32.3990
 3695.0000     0.3260     2.5280     0.0830   -30.6160   113.5480     8.4280   -70.4320    -0.4770     2.4510     2.8180     3.4960    98.0760   -34.2260
 3695.5000     0.3270     2.5540     0.0870   -31.3320   110.2300     8.3620   -70.5860    -3.4710     2.5070     2.8970     3.7380    97.5540   -36.0530
 3696.0000     0.3300     2.5830     0.0610   -32.0480   106.9200     8.2710   -70.8930    -6.4650     2.5400     2.9110     4.0550    96.1810   -37.8800
 3696.5000     0.3310     2.5960     0.0520   -32.7630   103.6120     8.1780   -71.1990    -9.4590     2.5700     2.8650     4.3710    91.8440   -39.7070
 3697.0000     0.3250     2.5760     0.0600   -33.4790   101.9190     8.1460   -71.4190   -12.4530     2.5990     2.7950     4.6010    90.1000   -41.5340
 3697.5000     0.3190     2.5560     0.0700   -34.1950   104.2100     8.1380   -71.4150   -15.4470     2.6320     2.7300     4.1910    90.4670   -43.3610
 3698.0000     0.3200     2.5610     0.0580   -34.9110   107.3840     8.1330   -71.4150   -11.9670     2.6170     2.7300     3.6930    91.8910   -45.1880
 3698.5000     0.3280     2.5700     0.0560   -35.6260   110.5840     8.1440   -71.4150    -5.4590     2.5850     2.7300     3.4010    93.3140   -47.0150
 3699.0000     0.3370     2.5690     0.0870   -36.2820   112.2370     8.1550   -71.4150     1.0500     2.5050     2.6690     3.5700    93.5890   -48.8420
 3699.5000     0.3460     2.5760     0.1250   -36.9910   112.3450     8.1670   -71.4140     7.5590     2.4250     2.6000     3.9020    92.8130   -50.6690
 3700.0000     0.3550     2.5860     0.1680   -37.6450   112.4570     8.1780   -71.3880    13.4190     2.3370     2.5300     3.9020    92.3930   -52.4960
 3700.5000     0.3580     2.5920     0.1990   -38.2990   112.5660     8.1900   -71.3590     7.3760     2.3170     2.4690     3.5780    93.7890   -54.3230
 3701.0000     0.3400     2.5690     0.1910   -38.9530   112.5810     8.1930   -71.3300     0.6690     2.2950     2.4730     3.3400    95.2100   -52.1270
 3701.5000     0.3250     2.5560     0.1620   -39.6070   113.1060     8.1940   -71.3010    -6.4610     2.2730     2.4790     3.2490    96.6310   -40.9830
 3702.0000     0.3140     2.5700     0.1340   -40.2610   114.7910     8.1960   -71.2720     4.9780     2.2510     2.4850     3.2740    97.8760   -29.4970
 3702.5000     0.3280     2.5900     0.1100   -40.9150   116.4450     8.1990   -71.2420    20.4540     2.2320     2.4910     3.3090    98.0760   -17.6970
 3703.0000     0.3400     2.6020     0.1250   -41.5690   116.8400     8.2010   -71.1940    33.3000     2.2320     2.4910     3.5210    96.8440    -5.8970
 3703.5000     0.3500     2.5680     0.1430   -42.2230   116.8950     8.2030   -71.0440    24.8680     2.2320     2.4910     3.7410    95.1600     3.7320
 3704.0000     0.3590     2.5320     0.1300   -42.8770   116.8700     8.2050   -70.8930    16.1960     2.2320     2.4920     3.8310    93.3900     0.1500
 3704.5000     0.3670     2.5120     0.0980   -43.5310   118.0230     8.2070   -70.7450     7.5240     2.2320     2.4550     3.5600    93.5890    -3.4330
 3705.0000     0.3740     2.5080     0.0710   -44.1850   118.8530     8.2090   -70.7000    -1.1480     2.2320     2.4170     3.4660    95.0250    -7.0150
 3705.5000     0.3730     2.5100     0.0720   -44.8390   118.1160     8.2150   -71.0930    -9.8200     2.2330     2.3800     3.4290    96.3810   -10.5970
 3706.0000     0.3680     2.5510     0.1240   -45.4930   116.3390     8.2370   -71.4780   -11.8540     2.2070     2.3430     3.4010    96.3810   -14.1790
 3706.5000     0.3640     2.6210     0.1900   -46.1470   116.2650     8.2580   -71.4990     7.0080     2.1780     2.3160     3.2880    96.3810   -17.7610
 3707.0000     0.3600     2.6880     0.2870   -45.8880   117.2690     8.2800   -71.2200     7.1940     2.1480     2.3160     3.1790    96.6420   -21.3430
 3707.5000     0.3560     2.6760     0.3420   -45.5090   115.9340     8.3020   -70.9290    -2.2370     2.1240     2.3160     3.0700    97.3260   -24.9250
 3708.0000     0.3520     2.6550     0.3090   -45.1300   113.9850     8.2960   -70.6370   -11.6670     2.1060     2.3160     2.9650    97.9760   -26.1990
 3708.5000     0.3490     2.6330     0.2570   -44.7510   114.1040     8.2790   -70.4280   -16.4020     2.0890     2.3160     3.0950    98.0120   -26.8630
 3709.0000     0.3460     2.6120     0.2490   -44.3720   116.8240     8.2620   -70.4770   -16.4020     2.0710     2.3160     3.2810    98.0580   -27.5270
 3709.5000     0.3430     2.6000     0.2610   -43.9930   119.6830     8.2450   -70.5260   -16.4020     2.0560     2.3160     3.3700    98.2750   -28.1910
 3710.0000     0.3420     2.6060     0.2290   -43.6140   122.5460     8.2270   -70.5750   -16.4020     2.0750     2.3160     3.2220    98.8470   -28.8550
 3710.5000     0.3410     2.6200     0.1900   -43.2350   125.4680     8.2060   -70.6320   -16.4020     2.0940     2.3830     3.0630    99.1720   -29.5200
 3711.0000     0.3400     2.6520     0.1750   -42.8560   128.0150     8.1860   -70.9120   -16.4020     2.1650     2.4740     2.9920    98.9730   -30.1840
 3711.5000     0.3340     2.6860     0.1460   -42.4770   127.7170     8.1650   -71.2110   -16.4020     2.2390     2.5650     3.1610    96.8790   -30.8480
 3712.0000     0.3210     2.6640     0.1110   -42.0990   119.8290     8.1440   -71.5100   -16.4020     2.3130     2.6560     3.4110    93.3010   -31.5120
 3712.5000     0.2980     2.6310     0.0730   -41.7200   110.3710     8.1280   -71.8040   -16.4020     2.4810     2.9410     3.6600    91.0780   -32.1770
 3713.0000     0.2990     2.5950     0.0680   -41.3410   105.8260     8.1190   -71.9840   -14.6050     2.7920     3.2290     4.2530    90.2000   -32.8410
 3713.5000     0.2810     2.5790     0.0710   -40.9620   104.5690     8.1090   -72.1590   -12.8090     3.1020     3.5900     4.4760    89.3230   -33.5050
 3714.0000     0.2680     2.5930     0.0790   -40.5830   104.3290     8.1000   -72.3320   -11.0120     3.4130     3.9600     4.5760    87.4720   -34.1690
 3714.5000     0.2640     2.6180     0.0860   -40.2040   104.0720     8.0910   -72.6000    -9.2160     3.7230     4.2100     5.0510    85.4660   -34.8340
 3715.0000     0.2640     2.6060     0.0930   -39.8250   103.9520     8.0810   -72.9120    -7.4200     3.9510     4.4190     5.9720    83.3500   -35.4980
 3715.5000     0.2670     2.5870     0.1010   -39.4460   105.4950     8.0730   -73.2270    -5.6230     4.1220     4.5110     6.5160    81.7250   -36.1620
 3716.0000     0.2710     2.5660     0.0920   -39.0670   108.9550     8.0690   -73.5370    -3.8270     4.2370     4.5590     6.5160    81.8250   -36.8260
 3716.5000     0.2830     2.5420     0.0680   -38.6880   113.9470     8.0660   -73.4440    -2.0310     4.2370     4.4360     5.8490    83.5530   -37.4910
 3717.0000     0.2930     2.5330     0.0670   -38.3090   120.9050     8.0630   -73.1720    -0.2340     4.0850     4.2830     5.3430    85.1370   -38.1550
 3717.5000     0.3020     2.5460     0.1130   -37.9300   123.0540     8.0590   -72.9000     1.5620     3.9340     4.1440     4.9070    86.7200   -38.8190
