~VERSION INFORMATION
 VERS.                2.0:   CWLS LOG ASCII STANDARD - VERSION 2.0
 WRAP.                 NO:   ONE LINE PER DEPTH STEP
~WELL INFORMATION
#MNEM.UNIT      DATA TYPE    INFORMATION
#----------   ------------   ------------------------------
 STRT.F           31.5000:   START DEPTH
 STOP.F         4204.0000:   STOP DEPTH
 STEP.F            0.5000:   STEP LENGTH
 NULL.          -999.2500:   NO VALUE
 COMP.   LAWRENCE ALLISON:   COMPANY
 WELL. LAWRENCE 3 "X" #32-10:   WELL
 FLD .                NPR:   FIELD
 LOC .      S10 T38N R78W:   LOCATION
 CNTY.            NATRONA:   COUNTY
 STAT.            WYOMING:   STATE
 CTRY. UNITED STATES OF AMERICA:   COUNTRY
 SRVC.      DRESSER ATLAS:   SERVICE COMPANY
 DATE.        05-NOV-1983:   LOGDATE
 API .     49025109460000:   API NUMBER
~CURVE INFORMATION
#MNEM.UNIT       API CODE    CURVE DESCRIPTION
#----------   ------------   ------------------------------
 DEPT.F                  :   
 CALD.IN     45 280 60 00:   CALIPER FROM DENSITY LOG
 CNC .DEC    42 890 01 00:   NEUTRON POROSITY LIMESTONE
 CORR.G/C3   45 356 01 00:   DENSITY CORRECTION
 TEND.LBS    45 635 01 00:   TENSION FORM DENSITY LOG
 RHOB.G/C3   45 350 01 00:   BULK DENSITY
 DT  .US/F   60 520 00 00:   DELTA TIME
 TENS.LBS    60 635 01 00:   TENSION FROM SONIC
 GRR .GAPI   07 310 01 00:   GAMMA RAY FROM RESISTIVITY
 TENR.LBS    06 635 01 00:   TENSION FROM RESISTIVITY
 RFOC.OHMM   07 220 04 00:   RESISTIVITY FOCUSED LOG RES.
 RILM.OHMM   07 120 44 00:   INDUCTION LOG MEDIUM RESISTIVITY
 RILD.OHMM   07 120 46 00:   DEEP INDUCTION RESISTIVITY
 SPR .MV     07 010 01 00:   SPONTANEOUS POTENTIAL
~PARAMETER INFORMATION
#MNEM.UNIT          VALUE    DESCRIPTION
#----------   ------------   ------------------------------
 EKB .F         5237.0000:   Kelly bushing
 EGL .F         5227.0000:   Ground level
 TD  .F         4202.0000:   Total depth
 CLNT.            A2DTECH:   Client Code
 SL  . 1871' FWL & 1152' FNL:   Surface Location
 PD  .                 GL:   Permanent Datum
 EPD .F              5227:   Elevation Permanent Datum
 LMF .                 KB:   Log Measured From
 DMF .                 KB:   Drilling Measured From
 DAPD.F                10:   Feet Above Permanent Datum
 DATE.        05-NOV-1983:   Date Logged [DD-MMM-YYYY]
 DD  .F              4200:   Depth driller
 DL  .F              4202:   Depth logger
 BLI .F              4200:   Bottom log interval
 TLI .F                30:   Top log interval
 CS1 .IN            8.625:   Casing size
 CBD1.      8.625" @ 545':   Casing driller 1
 CBL1.F               545:   Casing logger 1
 BS1 .IN            7.875:   Bit size
 BSD1.F              4200:   Depth drilled with bit1
 DFT .            GEL KCL:   Type fluid in hole
 DFD .                8.9:   Density
 DFV .                 42:   Viscosity
 DFPH.                8.5:   pH
 DFL .               12.4:   Fluid loss
 MSS .           FLOWLINE:   Source of sample
 RMS .OHMM           0.43:   Rm
 MST .F                97:   Rm Meas. temp.
 RMF .OHMM           0.42:   Rmf
 MFST.F                74:   Rmf Meas. temp.
 MFSS.               MEAS:   Source Rmf.
 RMC .OHMM           0.53:   Rmc
 MCST.F                97:   Rmc Meas. temp.
 MCSS.               CALC:   Source Rmc.
 RMB .OHMM           0.32:   Rm. at BHT
 BHT .F               131:   BHT.
 TCS .HRS               3:   Time Circ. stopped
 MRT .F               131:   Maximum recorded temp.
 LUN .               6307:   Logging unit number
 LUL .               GLTE:   Logging unit location
 ENGI.            DEYOUNG:   Recorded By
 WITN.             STRONG:   Witnessed by
 ORIG.        2" 5" PRINT:   Origin of data
 UWI .     49025109460000:   Unique Well ID
 DICO. A2D TECHNOLOGIES, INC.:   Digitizing Company
~OTHER INFORMATION
~A   DEPT     CALD        CNC       CORR       TEND       RHOB         DT       TENS         GRR      TENR       RFOC       RILM       RILD        SPR   
# ...
 2501.5000     8.7141     0.2641     0.0011   -17.5469     2.5242    85.0488   -30.0877   117.6461   -24.8876     7.9510     6.7768     6.7351   -31.3492
 2502.0000     8.7058     0.2822    -0.0055   -17.7843     2.5349    85.3486   -30.2712   118.5599   -24.5997     7.6233     6.7278     6.6866   -31.0534
 2502.5000     8.6974     0.2732     0.0144   -18.0601     2.5457    85.5568   -30.4279   120.5743   -24.3117     7.1069     6.6325     6.6385   -31.0623
 2503.0000     8.6891     0.2669     0.0328   -19.6579     2.5487    85.2575   -30.7457   122.6112   -24.6908     6.8139     6.5848     6.5444   -31.0695
 2503.5000     8.6820     0.2675     0.0390   -21.2557     2.5434    84.9590   -36.6129   123.8145   -25.6297     6.9598     6.4915     6.4973   -31.0768
 2504.0000     8.6768     0.2733     0.0205   -22.4653     2.5396    84.6604   -36.7742   123.6624   -26.5686     7.4180     6.4448     6.4485   -30.9333
 2504.5000     8.6676     0.2735     0.0066   -22.4037     2.5380    84.5093   -36.9355   122.1549   -27.5075     7.6233     6.4437     6.4040   -30.9422
 2505.0000     8.6582     0.2639     0.0035   -22.3317     2.5388    84.3582   -35.5331   120.7980   -28.4463     7.4124     6.3974     6.3577   -30.9494
 2505.5000     8.6490     0.2525     0.0358   -22.2725     2.5404    84.3547   -31.3674   119.2905   -29.3852     7.0572     6.3963     6.3566   -30.9566
 2506.0000     8.6415     0.2467     0.0557   -19.1316     2.5419    84.3510   -31.5542   119.7409   -30.3241     6.8619     6.3949     6.3555   -31.1695
 2506.5000     8.6427     0.2433     0.0554   -19.0724     2.5427    84.5068   -31.7156   119.4382   -31.2630     6.9102     6.3600     6.3446   -31.3319
 2507.0000     8.6481     0.2408     0.0495   -19.0132     2.5427    84.8066   -31.8768   120.6415   -32.2019     7.0572     6.2903     6.2837   -31.3437
 2507.5000     8.6534     0.2384     0.0556   -18.9522     2.5412    85.2247   -32.0381   122.4554   -32.1469     7.2073     6.1595     6.2074   -31.5061
 2508.0000     8.6586     0.2375     0.0617   -18.8799     2.5389    85.5944   -32.2286   124.1503   -31.8639     7.2580     6.0319     6.0785   -31.8193
 2508.5000     8.6639     0.2458     0.0648   -18.8207     2.5358    85.9434   -32.3852   126.0584   -31.5814     7.1569     5.9068     5.9485   -31.8313
 2509.0000     8.6691     0.2547     0.0432   -18.7615     2.5305    86.2425   -32.5419   127.1112   -31.2980     6.9102     5.7436     5.7472   -31.9963
 2509.5000     8.6743     0.2756     0.0307   -18.7057     2.5251    86.3945   -32.6984   125.9049   -31.0150     6.9102     5.6244     5.6275   -32.1586
 2510.0000     8.6796     0.2900     0.0124   -18.6441     2.5190    86.5196   -32.8550   122.8914   -30.7321     6.8619     5.5077     5.5109   -32.1704
 2510.5000     8.6821     0.2839     0.0047   -18.5824     2.4999    86.6628   -33.0116   121.0830   -30.4491     6.7663     5.4648     5.4346   -32.3328
 2511.0000     8.6823     0.2769    -0.0014   -18.5099     2.4953    86.8943   -33.1682   124.9969   -30.1662     6.5331     5.3564     5.3591   -32.4952
 2511.5000     8.6821     0.2716    -0.0076   -18.4592     2.5068    87.3498   -33.3285   128.5652   -29.8832     6.0905     5.3200     5.3224   -32.8082
 2512.0000     8.6805     0.2686    -0.0079   -18.3975     2.5221    88.1623   -33.4897   133.4275   -29.6003     5.6779     5.2835     5.2859   -33.1212
 2512.5000     8.6361     0.2704     0.0046   -21.4139     2.5306    88.3438   -33.6510   132.5224   -29.3173     5.7582     5.2471     5.2129   -32.8318
 2513.0000     8.5343     0.2711     0.0128   -21.3546     2.5283    87.7294   -33.8123   129.3583   -29.0341     6.0905     5.2482     5.2138   -32.5422
 2513.5000     8.5191     0.2689     0.0184   -21.2943     2.5214    86.6348   -33.9736   127.3990   -28.7507     6.5331     5.3613     5.2889   -31.9509
 2514.0000     8.5201     0.2683     0.0183   -21.2214     2.5237    86.1880   -34.1349   125.5903   -28.4635     6.9102     5.4383     5.3651   -31.3473
 2514.5000     8.5202     0.2714     0.0229   -21.1622     2.5275    86.1838   -40.1295   124.8358   -28.5167     6.9102     5.5164     5.4808   -30.7706
 2515.0000     8.5202     0.2760     0.0306   -21.1094     2.5314    86.1795   -38.1232   125.1407   -29.2366     6.8619     5.6751     5.5990   -30.4841
 2515.5000     8.5202     0.2751     0.0367   -21.0438     2.5329    86.3226   -38.2111   126.3948   -29.9571     6.8139     5.7629     5.7198   -30.1917
 2516.0000     8.5202     0.2736     0.0414   -20.9861     2.5337    86.3184   -38.3145   128.4455   -30.6777     6.7190     5.8396     5.8020   -29.7547
 2516.5000     8.5202     0.2723     0.0428   -24.0070     2.5337    86.4615   -38.2611   128.8962   -31.3982     6.6720     5.8406     5.8030   -29.4653
 2517.0000     8.5202     0.2687     0.0320   -23.9330     2.5345    86.6047   -37.9789   126.3341   -32.1188     6.6720     5.8006     5.8040   -29.1729
 2517.5000     8.5202     0.2678     0.0181   -20.7921     2.5362    86.6107   -37.6968   122.8688   -32.8393     6.7190     5.6403     5.6835   -29.0341
 2518.0000     8.5202     0.2711     0.0089   -21.1610     2.5368    86.8911   -37.4146   122.2653   -33.5599     6.7190     5.4845     5.5255   -29.5006
 2518.5000     8.5202     0.2742     0.0042   -23.7702     2.5384    87.0343   -37.1324   125.4261   -34.2804     6.6720     5.3705     5.3689   -29.8136
 2519.0000     8.5202     0.2739     0.0027   -23.6961     2.5391    87.1775   -36.8502   127.2318   -35.0010     6.5787     5.2592     5.2251   -30.4278
 2519.5000     8.5202     0.2841     0.0011   -23.6364     2.5391    87.1272   -36.5680   126.6280   -35.7215     6.4874     5.2232     5.1890   -30.8916
 2520.0000     8.5202     0.2789     0.0118   -23.5678     2.5384    86.8191   -36.2858   123.9156   -36.4421     6.3971     5.2636     5.2269   -31.3755
 2520.5000     8.5203     0.2641     0.0272   -23.5131     2.5361    86.5737   -36.0036   123.0105   -37.1626     6.2638     5.3211     5.2648   -31.6710
 2521.0000     8.5183     0.2586     0.0425   -23.4515     2.5338    86.6408   -35.7215   124.1318   -37.8831     6.1766     5.3756     5.3405   -31.6828
 2521.5000     8.5156     0.2565     0.0517   -23.3803     2.5338    87.0204   -35.4393   127.9771   -38.6037     6.0905     5.5302     5.4557   -31.8452
 2522.0000     8.5129     0.2602     0.0547   -23.3282     2.5346    87.4446   -35.1571   130.6865   -39.3242     6.0905     5.6893     5.5733   -31.8570
 2522.5000     8.5103     0.2617     0.0439   -23.2666     2.5370    87.4403   -34.8749   133.3961   -40.0448     6.2638     5.8118     5.6935   -31.8687
 2523.0000     8.5076     0.2583     0.0485   -23.2049     2.5423    86.8460   -34.5927   129.7831   -40.5084     6.7190     6.0213     5.8605   -32.0311
 2523.5000     8.5049     0.2524     0.0684   -23.1433     2.5469    85.8093   -34.3105   123.6036   -40.2625     7.2073     6.2520     6.1178   -32.0429
 2524.0000     8.5021     0.2387     0.0607   -23.0744     2.5523    84.0351   -34.0284   118.4817   -40.0166     7.5171     6.5549     6.4680   -31.7535
 2524.5000     8.5002     0.2319     0.0407   -23.9059     2.5554    82.4083   -33.9287   112.7573   -39.7707     7.8993     6.7911     6.7014   -31.6147
 2525.0000     8.5077     0.2310     0.0253   -26.0475     2.5554    81.3716   -34.0176   113.3583   -39.5248     8.1869     7.0898     6.9432   -31.4759
 2525.5000     8.5156     0.2412     0.0028   -27.2970     2.5529    80.6247   -34.1056   114.4110   -39.2789     8.4099     7.3413     7.1937   -31.1865
 2526.0000     8.5235     0.2515    -0.0162   -29.0107     2.5493    80.1716   -34.1935   114.1083   -39.0330     8.2348     7.4995     7.3488   -31.0477
 2526.5000     8.5314     0.2553    -0.0193   -28.9368     2.5462    80.1986   -34.2815   113.9566   -38.7871     7.8954     7.5538     7.4742   -30.6077
 2527.0000     8.5393     0.2541    -0.0132   -29.3759     2.5424    80.7028   -34.3695   116.6656   -38.5412     7.7310     7.6623     7.5617   -30.3212
