~VERSION INFORMATION
 VERS.                2.0:   CWLS LOG ASCII STANDARD - VERSION 2.0
 WRAP.                 NO:   ONE LINE PER DEPTH STEP
~WELL INFORMATION
#MNEM.UNIT      DATA TYPE    INFORMATION
#----------   ------------   ------------------------------
 STRT.F          200.0000:   START DEPTH
 STOP.F         3209.0000:   STOP DEPTH
 STEP.F            0.5000:   STEP LENGTH
 NULL.          -999.2500:   NO VALUE
 COMP.    FENIX & SCISSON:   COMPANY
 WELL. FENIX & SCISSON "AX" #88-3:   WELL
 FLD .             NPR #3:   FIELD
 LOC .       S3 T38N R78W:   LOCATION
 CNTY.            NATRONA:   COUNTY
 STAT.            WYOMING:   STATE
 CTRY. UNITED STATES OF AMERICA:   COUNTRY
 SRVC.              WELEX:   SERVICE COMPANY
 DATE.        27-JUL-1977:   LOGDATE
 API .     49025104060000:   API NUMBER
~CURVE INFORMATION
#MNEM.UNIT       API CODE    CURVE DESCRIPTION
#----------   ------------   ------------------------------
 DEPT.F                  :   
 CALD.IN     45 280 60 00:   CALIPER FROM DENSITY LOG
 GRD .GAPI   45 310 01 00:   GAMMA RAY FROM DENSITY LOG
 RHOB.G/C3   45 350 01 00:   BULK DENSITY
 CORR.G/C3   45 356 01 00:   DENSITY CORRECTION
 NPHI.DEC    42 890 03 00:   NEUTRON POROSITY SANDSTONE
 SPR .MV     07 010 01 00:   SPONTANEOUS POTENTIAL
 SGRD.OHMM   07 220 05 00:   GUARD LOG RESISTIVITY
 FORX.OHMM   07 000 00 00:   
~PARAMETER INFORMATION
#MNEM.UNIT          VALUE    DESCRIPTION
#----------   ------------   ------------------------------
 EKB .F         5134.0000:   Kelly bushing
 EGL .F         5124.0000:   Ground level
 EDF .F            0.0000:   Drilling floor
 TD  .F         3211.0000:   Total depth
 CLNT.            A2DTECH:   Client Code
 SL  . 230' FSL & 380' FEL:   Surface Location
 PD  .                 GL:   Permanent Datum
 EPD .F              5124:   Elevation Permanent Datum
 LMF .                 KB:   Log Measured From
 DMF .                 KB:   Drilling Measured From
 DAPD.F                10:   Feet Above Permanent Datum
 DATE.        27-JUL-1977:   Date Logged [DD-MMM-YYYY]
 DD  .F              3200:   Depth driller
 DL  .F              3211:   Depth logger
 BLI .F              3210:   Bottom log interval
 TLI .F               200:   Top log interval
 CS1 .IN            8.625:   Casing size
 CBD1.      8.625" @ 218':   Casing driller 1
 CBL1.F               218:   Casing logger 1
 BS1 .IN            7.875:   Bit size
 BSD1.F              3200:   Depth drilled with bit1
 DFT .            KCL MUD:   Type fluid in hole
 DFD .                9.2:   Density
 DFV .                 36:   Viscosity
 DFPH.                9.5:   pH
 DFL .                9.6:   Fluid loss
 MSS .           FLOWLINE:   Source of sample
 RMS .OHMM           0.61:   Rm
 MST .F                85:   Rm Meas. temp.
 RMF .OHMM           0.53:   Rmf
 MFST.F                85:   Rmf Meas. temp.
 MFSS.               FANN:   Source Rmf.
 RMC .OHMM           0.48:   Rmc
 MCST.F                85:   Rmc Meas. temp.
 MCSS.                KIT:   Source Rmc.
 RMB .OHMM           0.42:   Rm. at BHT
 BHT .F               122:   BHT.
 TCS .HRS             2.5:   Time Circ. stopped
 MRT .F               122:   Maximum recorded temp.
 LUN .               8611:   Logging unit number
 LUL .             CASPER:   Logging unit location
 ENGI.            C. DOAK:   Recorded By
 WITN.      E. HARRINGTON:   Witnessed by
 ORIG.      2.5" 5" PRINT:   Origin of data
 UWI .     49025104060000:   Unique Well ID
 DICO. A2D TECHNOLOGIES, INC.:   Digitizing Company
~OTHER INFORMATION
~A   DEPT       CALD       GRD        RHOB      CORR        NPHI       SPR      SGRD         FORX 
# ...
 1982.0000     9.9645   135.0861     2.3916     0.1083     0.2898   -68.7410     6.7972     3.6808
 1982.5000    10.0565   135.1368     2.3793     0.1136     0.2889   -68.7147     6.7981     3.3447
 1983.0000    10.1043   134.7626     2.3614     0.1177     0.2901   -68.6884     6.7990     2.9573
 1983.5000    10.1378   133.7457     2.3309     0.1194     0.2975   -68.6620     6.7999     1.4125
 1984.0000    10.1551   131.6991     2.2989     0.1197     0.3072   -68.6357     6.8008     2.1888
 1984.5000    10.1580   129.1437     2.2728     0.1243     0.3072   -68.6094     6.8955     5.5512
 1985.0000    10.1453   125.5875     2.2483     0.1320     0.3059   -68.5830     6.8964     5.3283
 1985.5000    10.1185   123.3492     2.2275     0.1487     0.3035   -68.5567     6.9008     3.4197
 1986.0000    10.0775   120.9323     2.1970     0.1623     0.3005   -68.5304     6.9934     2.9183
 1986.5000    10.0507   118.9014     2.1320     0.1681     0.3019   -68.5040     6.9943     4.4001
 1987.0000    10.0239   114.4967     2.0648     0.1747     0.3019   -68.4777     7.1148     3.2121
 1987.5000    10.0267   110.9821     2.0171     0.1794     0.3009   -68.4514     7.1902     3.8907
 1988.0000    10.0446   108.8665     1.9891     0.1886     0.2975   -68.4250     5.7645     1.8752
 1988.5000    10.1076   106.5067     1.9467     0.1979     0.2979   -68.3987     4.4434     0.9196
 1989.0000    10.2145   103.6682     1.9168     0.2009     0.3027   -68.3724     4.2764     0.6567
 1989.5000    10.3957   101.4525     1.8931     0.1976     0.3073   -68.3460     4.5845     0.6305
 1990.0000    10.6363   100.7056     1.8694     0.1894     0.3089   -68.3197     5.6281     0.6558
 1990.5000    11.8873   102.0726     1.8455     0.1822     0.3083   -68.2934     6.6291     0.7079
 1991.0000    12.3806   107.1634     1.8196     0.1749     0.3072   -68.2758     7.2966     0.8201
 1991.5000    12.6806   111.3582     1.7937     0.1691     0.3060   -68.2743     7.9221     0.9780
 1992.0000    12.9213   115.5109     1.7678     0.1643     0.3036   -67.9762     8.0323     0.9126
 1992.5000    12.7151   117.6880     1.7419     0.1635     0.2985   -67.9748     8.0334     0.8180
 1993.0000    12.3047   123.0755     1.7181     0.1637     0.2959   -67.9733     8.0344     0.6848
 1993.5000    12.5964   125.7924     1.7294     0.1654     0.2912   -67.9718     8.0355     0.6483
 1994.0000    12.9039   127.6571     1.7557     0.1657     0.2864   -67.9703     8.4903     0.6573
 1994.5000    13.0405   130.0508     1.7678     0.1613     0.2852   -67.9688     8.9676     0.6943
 1995.0000    13.1623   131.4936     1.7723     0.1537     0.2892   -67.9674     8.4513     0.8183
 1995.5000    12.5708   133.1108     1.7583     0.1439     0.2923   -67.9659     7.7866     0.7748
 1996.0000    12.2765   134.0472     1.7524     0.1381     0.2903   -67.9644     7.5660     0.6850
 1996.5000    12.7549   133.5001     1.7525     0.1443     0.2894   -67.9629     7.4080     0.6136
 1997.0000    13.2802   131.6360     1.8039     0.1564     0.2928   -67.9614     7.4091     0.5809
 1997.5000    13.8286   129.0509     1.8554     0.1671     0.3000   -67.9599     7.8046     0.5649
 1998.0000    14.8445   126.5250     1.9285     0.1718     0.3038   -67.9585     8.2573     0.5581
 1998.5000    15.3823   124.6473     1.9496     0.1720     0.3059   -67.9570     8.5580     0.5581
 1999.0000    15.6973   122.6784     1.9460     0.1707     0.3068   -67.9555     8.3726     0.5600
 1999.5000    15.9231   119.8427     1.9214     0.1680     0.3071   -68.2505     8.0487     0.5759
 2000.0000    16.0597   118.2491     1.8991     0.1682     0.3065   -68.2490     7.9404     0.6005
 2000.5000    15.8843   116.3745     1.8701     0.1684     0.3047   -68.2476     8.0510     0.6176
 2001.0000    15.5603   114.9371     1.8560     0.1733     0.3006   -68.2461     8.2756     0.6265
 2001.5000    14.9094   113.2029     1.8666     0.1793     0.2970   -68.2425     8.9850     0.6269
 2002.0000    14.3100   112.0623     1.9157     0.1870     0.2917   -68.2383     9.8896     0.6448
 2002.5000    13.6176   112.9988     1.9712     0.1932     0.2876   -68.2342    11.4978     0.7383
 2003.0000    12.8765   115.4189     2.0081     0.1934     0.2828   -68.2301    12.8299     1.0785
 2003.5000    12.0612   116.9834     2.0239     0.1846     0.2769   -68.2259    13.1876     3.7478
 2004.0000    11.5430   119.4661     2.0547     0.1758     0.2751   -68.2218    12.0642    16.6625
 2004.5000    11.0897   120.7670     2.0966     0.1688     0.2745   -68.2177    10.5060     4.2969
 2005.0000    10.7197   121.8122     2.1468     0.1624     0.2768   -68.2135     9.4439     2.2064
 2005.5000    10.4198   124.2294     2.2336     0.1560     0.2804   -68.2094     9.3715     2.4457
 2006.0000    10.1840   124.2727     2.2787     0.1497     0.2791   -68.2053    10.6496     5.2450
 2006.5000    10.0075   121.7916     2.3220     0.1433     0.2771   -68.2012    11.3536    11.0353
 2007.0000     9.8608   119.9191     2.3266     0.1369     0.2749   -68.1973     9.8510    16.3815
 2007.5000     9.7290   119.6588     2.3207     0.1305     0.2748   -68.1936     8.4114     6.1067
 2008.0000     9.6561   121.7860     2.3186     0.1237     0.2772   -68.1899     7.7429     2.5879
 2008.5000     9.6287   128.0644     2.3239     0.1194     0.2768   -68.1862     8.3134     0.8646
 2009.0000     9.6157   131.4007     2.3412     0.1159     0.2751   -68.1825     8.1293     0.8285
 2009.5000     9.7285   133.8918     2.3459     0.1121     0.2727   -68.1788     7.6407     0.9425
 2010.0000    10.1549   134.7188     2.3262     0.1081     0.2715   -68.1751     8.9332     1.7479
 2010.5000    10.7362   132.9406     2.3049     0.1067     0.2828   -68.1714    10.1022     2.7091
 2011.0000    11.1690   129.4954     2.2886     0.1040     0.2887   -68.1677    10.2686     2.8623
 2011.5000    11.5275   126.4012     2.2775     0.1042     0.2916   -68.1639     9.9207     2.3638
 2012.0000    11.2790   124.2203     2.2738     0.1074     0.2928   -68.1602     9.3806     2.2081
 2012.5000    10.7313   123.8873     2.3188     0.1151     0.2928   -68.1565     8.9922     1.5903
 2013.0000    10.3890   125.2602     2.3660     0.1319     0.2922   -68.1528     8.3029     1.6127
 2013.5000    10.1969   127.9480     2.3937     0.1529     0.2910   -68.1491     7.7548     1.6807
 2014.0000    10.3566   130.6249     2.4118     0.1666     0.2904   -68.1454     7.2428     0.9724
 2014.5000    10.7666   130.9649     2.3925     0.1802     0.2912   -68.1417     6.9524     0.9074
 2015.0000    10.5605   128.9121     2.3564     0.1864     0.2924   -68.1380     6.9533     0.8355
 2015.5000    10.6069   126.6113     2.3373     0.1771     0.2944   -68.1343     7.1472     0.7914
 2016.0000    10.8614   124.9891     2.3180     0.1698     0.2976   -68.1306     7.7599     0.7609
 2016.5000    11.0119   123.1045     2.2890     0.1706     0.2994   -68.1269     8.3106     0.7508
 2017.0000    11.2663   121.1031     2.2681     0.1831     0.2967   -68.1231     8.0800     0.7383
 2017.5000    11.4911   119.3660     2.2563     0.1979     0.2937   -68.1194     7.7630     0.8438
 2018.0000    11.7022   116.8307     2.2384     0.1907     0.2915   -68.1157     7.9002     1.2815
 2018.5000    11.8519   113.8146     2.2279     0.1860     0.2898   -68.1120     8.2021     1.5146
 2019.0000    11.9425   110.9060     2.2185     0.1836     0.2898   -68.1083     8.2033     1.3543
 2019.5000    11.0385   109.1534     2.2036     0.1770     0.2904   -68.1046     8.0617     1.1666
 2020.0000    10.4906   110.0977     2.1881     0.1729     0.2910   -68.1009     7.8398     1.0432
 2020.5000    10.2398   113.4051     2.1687     0.1708     0.2922   -68.0972     7.6637     0.9739
 2021.0000    10.3606   116.8527     2.1569     0.1680     0.2934   -68.0935     7.6649     0.9370
 2021.5000    10.5926   120.4760     2.1510     0.1653     0.3011   -68.0898     7.8234     0.9372
 2022.0000    10.7953   123.3272     2.1451     0.1603     0.3012   -68.0861     7.9377     0.9375
