~VERSION INFORMATION
 VERS.                2.0:   CWLS LOG ASCII STANDARD - VERSION 2.0
 WRAP.                 NO:   ONE LINE PER DEPTH STEP
~WELL INFORMATION
#MNEM.UNIT      DATA TYPE    INFORMATION
#----------   ------------   ------------------------------
 STRT.F          705.5000:   START DEPTH
 STOP.F         3212.0000:   STOP DEPTH
 STEP.F            0.5000:   STEP LENGTH
 NULL.          -999.2500:   NO VALUE
 COMP.    FENIX & SCISSON:   COMPANY
 WELL. FENIX 41 "AX" #1-15:   WELL
 FLD .             NPR #3:   FIELD
 LOC .      S15 T38N R78W:   LOCATION
 CNTY.            NATRONA:   COUNTY
 STAT.            WYOMING:   STATE
 CTRY. UNITED STATES OF AMERICA:   COUNTRY
 SRVC.              WELEX:   SERVICE COMPANY
 DATE.        18-NOV-1980:   LOGDATE
 API .     49025108530000:   API NUMBER
~CURVE INFORMATION
#MNEM.UNIT       API CODE    CURVE DESCRIPTION
#----------   ------------   ------------------------------
 DEPT.F                  :   
 SPR .MV     07 010 01 00:   SPONTANEOUS POTENTIAL
 ILD .OHMM   07 120 46 00:   INDUCTION LOG DEEP RESISTIVITY
 ILM .OHMM   07 120 44 00:   INDUCTION LOG MEDIUM RESISTIVITY
 SGRD.OHMM   07 220 05 00:   SHORT GUARD RESISTIVITY
 GRD .GAPI   45 310 01 00:   GAMMA RAY FROM DENSITY LOG
 CALD.IN     45 280 60 00:   CALIPER FROM DENSITY LOG
 RHOB.G/C3   45 350 01 00:   BULK DENSITY
 NPHI.DEC    42 890 03 00:   NEUTRON POROSITY SANDSTONE
~PARAMETER INFORMATION
#MNEM.UNIT          VALUE    DESCRIPTION
#----------   ------------   ------------------------------
 EKB .F         5252.0000:   Kelly bushing
 EGL .F         5242.0000:   Ground level
 EDF .F            0.0000:   Drilling floor
 TD  .F         3214.0000:   Total depth
 CLNT.            A2DTECH:   Client Code
 SL  . 2150' FWL & 550' FNL:   Surface Location
 PD  .                 GL:   Permanent Datum
 EPD .F              5242:   Elevation Permanent Datum
 LMF .                 KB:   Log Measured From
 DMF .                 KB:   Drilling Measured From
 DATE.        18-NOV-1980:   Date Logged [DD-MMM-YYYY]
 DD  .F              3210:   Depth driller
 DL  .F              3214:   Depth logger
 BLI .F              3212:   Bottom log interval
 TLI .F               734:   Top log interval
 CS1 .IN            8.625:   Casing size
 CBD1.      8.625" @ 709':   Casing driller 1
 CBL1.F               734:   Casing logger 1
 BS1 .IN            7.875:   Bit size
 BSD1.F              3210:   Depth drilled with bit1
 DFT .          FRESH MUD:   Type fluid in hole
 DFD .                8.8:   Density
 DFV .                 45:   Viscosity
 DFPH.               10.5:   pH
 DFL .                 12:   Fluid loss
 MSS .           FLOWLINE:   Source of sample
 RMS .OHMM           1.25:   Rm
 MST .F                70:   Rm Meas. temp.
 RMF .OHMM           1.25:   Rmf
 MFST.F                70:   Rmf Meas. temp.
 MFSS.               MEAS:   Source Rmf.
 RMB .OHMM           0.78:   Rm. at BHT
 BHT .F               112:   BHT.
 TCS .HRS               7:   Time Circ. stopped
 MRT .F               112:   Maximum recorded temp.
 LUN .               1892:   Logging unit number
 LUL .             CASPER:   Logging unit location
 ENGI.               REIN:   Recorded By
 WITN.              SCOTT:   Witnessed by
 ORIG.      2.5" 5" PRINT:   Origin of data
 UWI .     49025108530000:   Unique Well ID
 DICO. A2D TECHNOLOGIES, INC.:   Digitizing Company
 DAPD.                 10:   Feet Above Permanent Datum
~OTHER INFORMATION
~A   DEPT      SPR        ILD        ILM       SGRD         GRD      CALD       RHOB       NPHI   
# ...
 3176.0000   -29.2706     3.5363     4.7990     6.7607   103.5394     8.4050     2.5400     0.3052
 3176.5000   -29.2741     3.5257     4.7983     6.6669    98.6631     8.4036     2.5224     0.3028
 3177.0000   -29.2769     3.4861     4.7977     6.3959    95.9927     8.4023     2.5117     0.3013
 3177.5000   -29.2798     3.4852     4.7970     6.2209    93.9840     8.4009     2.5024     0.3014
 3178.0000   -29.2826     3.4366     4.7797     6.2140    95.4989     8.3992     2.4932     0.3029
 3178.5000   -29.2855     3.4357     4.7300     6.1222    97.9020     8.3978     2.5235     0.3090
 3179.0000   -29.2883     3.4348     4.6646     6.0154   100.0845     8.3964     2.4998     0.3090
 3179.5000   -29.2912     3.3867     4.6344     5.6816   104.6935     8.3950     2.5179     0.3042
 3180.0000   -29.2941     3.3396     4.5365     6.1639   115.4731     8.3933     2.5491     0.3094
 3180.5000   -29.2971     3.3387     4.5357     6.9751   124.0526     8.3919     2.5648     0.3006
 3181.0000   -29.3000     3.3378     4.4730     6.9865   128.2204     8.3906     2.5730     0.2932
 3181.5000   -29.3029     3.2914     4.4112     6.6478   136.1382     8.4039     2.5698     0.2807
 3182.0000   -29.3059     3.2456     4.4106     6.2091   160.4977     8.4021     2.5522     0.2565
 3182.5000   -29.3088     3.2447     4.2901     5.7157   195.8650     8.4158     2.5430     0.2520
 3183.0000   -29.3118     3.1559     4.2895     5.4084   237.3123     8.4288     2.5368     0.2554
 3183.5000   -29.3147     3.1550     4.2875     5.7134   263.7595     8.4421     2.5325     0.2729
 3184.0000   -29.3176     3.1541     4.2296     6.1193   243.2124     8.4403     2.5282     0.3211
 3184.5000   -29.3211     3.1418     4.2386     5.6330   201.0598     8.4537     2.5205     0.3206
 3185.0000   -29.3239     3.1094     4.2872     5.2573   149.6413     8.4523     2.5112     0.3203
 3185.5000   -29.3268     3.1517     4.2866     5.5641   128.4376     8.4656     2.5025     0.3228
 3186.0000   -29.3296     3.1507     4.2860     5.8671   116.9494     8.4639     2.4859     0.4932
 3186.5000   -29.3325     3.1731     4.3716     5.2255   123.3427     8.4625     2.5071     0.5399
 3187.0000   -29.3353     3.2367     4.4678     5.1104   127.2586     8.4611     2.5336     0.5396
 3187.5000   -29.3382     3.2805     4.6271     5.4487   129.0000     8.4594     2.5592     0.5397
 3188.0000   -29.3412     3.3250     4.9168     5.7853   119.4913     8.4433     2.5713     0.5397
 3188.5000   -29.3441     3.4168     4.9844     6.9469   105.0912     8.4420     2.5621     0.5397
 3189.0000   -29.3471     3.4631     5.0530     7.1979    91.8652     8.4258     2.5437     0.5398
 3189.5000   -29.3500     3.5587     5.0522     6.6310    85.6653     8.4242     2.5299     0.5398
 3190.0000   -29.3529     3.6570     5.0515     6.1887    84.3184     8.4228     2.5435     0.5398
 3190.5000   -29.3559     3.7134     4.9815     6.1874    83.6332     8.4214     2.5737     0.5399
 3191.0000   -29.3588     3.8089     4.9128     6.5364    82.5011     8.4197     2.5687     0.5399
 3191.5000   -29.3618     3.8606     4.9025     6.8107    82.0365     8.4185     2.5438     0.5399
 3192.0000   -29.3652     3.8594     4.7779     6.7162    81.3514     8.4169     2.5263     0.5399
 3192.5000   -29.3681     3.7884     4.6935     6.3551    80.6662     8.4156     2.5140     0.5400
 3193.0000   -29.3709     3.7015     4.5608     6.0079    79.7547     8.4138     2.5632     0.5397
 3193.5000   -29.3738     3.5772     4.4934     5.8488    79.2901     8.4275     2.5570     0.5397
 3194.0000   -29.3766     3.4285     4.3961     5.7519    79.9285     8.4258     2.5311     0.5398
 3194.5000   -29.0854     3.2678     4.3019     5.6876    82.1110     8.4244     2.5181     0.5398
 3195.0000   -29.1377     3.1784     4.2752     5.6087    85.3906     8.4229     2.4966     0.5398
 3195.5000   -29.1912     3.1341     4.2747     5.6075    88.0143     8.4363     2.4928     0.5399
 3196.0000   -29.2448     3.1767     4.3936     5.6064    89.7614     8.4346     2.5321     0.5399
 3196.5000   -29.2983     3.2199     4.5158     5.6467    83.7763     8.4479     2.5667     0.5399
 3197.0000   -29.3519     3.2635     4.6415     5.7603    79.1148     8.4462     2.5493     0.5399
 3197.5000   -29.3971     3.3078     4.8368     6.0020    78.6561     8.4301     2.5302     0.5400
 3198.0000   -29.4000     3.3991     4.9750     6.3405    80.3915     8.4141     2.5506     0.5400
 3198.5000   -29.2642     3.4516     5.0398     6.8851    81.2505     8.4126     2.5695     0.5400
 3199.0000   -28.8176     3.5113     5.0390     7.0760    82.5448     8.4110     2.5595     0.5398
 3199.5000   -28.8212     3.5884     5.0383     6.9778    77.6685     8.3949     2.5320     0.5398
 3200.0000   -28.8240     3.6537     5.0146     6.4233    73.0186     8.3935     2.5334     0.5395
 3200.5000   -28.8269     3.6864     4.9680     6.1621    75.6364     8.3918     2.5644     0.5395
 3201.0000   -28.5356     3.6852     4.9351     6.1608    79.3572     8.4055     2.5833     0.5393
 3201.5000   -28.5384     3.6339     4.8986     6.1596    82.4221     8.3891     2.5893     0.5393
 3202.0000   -28.5413     3.5831     4.7646     6.1358    84.1634     8.3877     2.5454     0.5393
 3202.5000   -28.5441     3.4850     4.6987     5.9898    77.7430     8.3860     2.5298     0.5394
 3203.0000   -28.2529     3.3896     4.6338     5.9065    76.1755     8.3846     2.5479     0.5394
 3203.5000   -28.2559     3.2968     4.5071     5.5125    82.1021     8.3685     2.5827     0.5391
 3204.0000   -28.2588     3.2065     4.4448     5.0051    81.8582     8.3627     2.5393     0.5392
 3204.5000   -28.1877     3.0342     4.3834     5.2151    79.6289     8.3507     2.5110     0.5392
 3205.0000   -27.8775     2.9511     4.2616     5.2863    76.9303     8.3347     2.4927     0.5389
 3205.5000   -27.6789     2.7924     4.1470     5.2130    78.9145     8.3333     2.5071     0.5389
 3206.0000   -27.0941     2.7110     4.0241     5.0611    82.6411     8.3316     2.5548     0.5390
 3206.5000   -26.6523     2.6344     3.8974     4.9316    81.7354     8.3302     2.5455     0.5393
 3207.0000   -26.0481     2.5692     3.7836     4.9306    79.8991     8.3288     2.5127     0.5393
 3207.5000   -25.0446     2.5219     3.6924     4.8400    78.1534     8.3275     2.4846     0.5394
 3208.0000   -23.5769     2.4846     3.6104     4.7685    78.7918     8.3257     2.4586     0.5391
 3208.5000   -21.8150     2.4298     3.6099     4.6044    80.3125     8.3244     2.4949     0.5392
 3209.0000   -20.0532     2.4291     3.6093     4.4413    81.8529     8.3230     2.5131     0.5392
 3209.5000   -17.4090     2.4960     3.6088     4.2918    83.3481     8.3216     2.4718  -999.2500
 3210.0000   -13.5883     2.6004     3.6585     4.2910    83.7718     8.3199     2.4231  -999.2500
 3210.5000    -9.1036     2.9019     3.7892     4.3496    83.7426     8.3185     2.3865  -999.2500
 3211.0000    -4.8939     3.2384     4.0396     4.4701    83.7188     8.3171     2.4594  -999.2500
 3211.5000    -1.6414     3.5646     4.1932     4.7096    83.6900     8.3157     2.4318  -999.2500
 3212.0000    -0.6585     3.7651  -999.2500  -999.2500    73.8468     8.3142     2.4055  -999.2500
