~VERSION INFORMATION
 VERS.                2.0:   CWLS LOG ASCII STANDARD - VERSION 2.0
 WRAP.                 NO:   ONE LINE PER DEPTH STEP
~WELL INFORMATION
#MNEM.UNIT      DATA TYPE    INFORMATION
#----------   ------------   ------------------------------
 STRT.F           46.0000:   START DEPTH
 STOP.F         2952.5000:   STOP DEPTH
 STEP.F            0.5000:   STEP LENGTH
 NULL.          -999.2500:   NO VALUE
 COMP.    FENIX & SCISSON:   COMPANY
 WELL. FENIX NPR 3 "SHX" #11-15:   WELL
 FLD .        TEAPOT DOME:   FIELD
 LOC .      S15 T38N R78W:   LOCATION
 CNTY.            NATRONA:   COUNTY
 STAT.            WYOMING:   STATE
 CTRY. UNITED STATES OF AMERICA:   COUNTRY
 SRVC.           BIRDWELL:   SERVICE COMPANY
 DATE.        19-JAN-1979:   LOGDATE
 API .     49025107640000:   API NUMBER
~CURVE INFORMATION
#MNEM.UNIT       API CODE    CURVE DESCRIPTION
#----------   ------------   ------------------------------
 DEPT.F                  :   
 GRD .GAPI   45 310 01 00:   GAMMA RAY FROM DENSITY LOG
 CALD.IN     45 280 60 00:   CALIPER FROM DENSITY LOG
 RHOB.G/C3   45 350 01 00:   BULK DENSITY
 CORR.G/C3   45 356 01 00:   DENSITY CORRECTION
 SPR .MV     07 010 01 00:   SPONTANEOUS POTENTIAL
 SN  .OHMM   01 040 00 00:   SHORT NORMAL
 ILD .OHMM   07 120 46 00:   INDUCTION LOG DEEP RESISTIVITY
~PARAMETER INFORMATION
#MNEM.UNIT          VALUE    DESCRIPTION
#----------   ------------   ------------------------------
 EKB .F         5258.0000:   Kelly bushing
 EGL .F         5248.0000:   Ground level
 EDF .F            0.0000:   Drilling floor
 TD  .F         1300.0000:   Total depth
 DATE.        19-JAN-1979:   Date logged
 CLNT.            A2DTECH:   Client Code
 SL  . 177' FNL & 155' FWL:   Surface Location
 PD  .                 GL:   Permanent Datum
 EPD .F              5248:   Elevation Permanent Datum
 LMF .                 KB:   Log Measured From
 DMF .                 KB:   Drilling Measured From
 DAPD.F                10:   Feet Above Permanent Datum
 DD  .F              1300:   Depth driller
 DL  .F              1283:   Depth logger
 BLI .F              1277:   Bottom log interval
 TLI .F               100:   Top log interval
 CBD1.F                40:   Casing driller 1
 CBL1.F                40:   Casing logger 1
 BS1 .IN            7.875:   Bit size
 BSD1.F              1300:   Depth drilled with bit1
 DFT .           CHEM/GEL:   Type fluid in hole
 DFD .                8.8:   Density
 DFV .                 37:   Viscosity
 DFL .               15.4:   Fluid loss
 MSS .           FLOWLINE:   Source of sample
 RMS .OHMM            .75:   Rm
 MST .F                68:   Rm Meas. temp.
 RMF .OHMM            .75:   Rmf
 MFST.F                64:   Rmf Meas. temp.
 RMC .OHMM            1.3:   Rmc
 MCST.F                68:   Rmc Meas. temp.
 MFSS.               MEAS:   Source Rmf.
 MCSS.               MEAS:   Source Rmc.
 RMB .OHMM            .73:   Rm. at BHT
 BHT .F                70:   BHT.
 TCS .HRS               2:   Time Circ. stopped
 MRT .F                70:   Maximum recorded temp.
 LUN .               3029:   Logging unit number
 LUL .               CSPR:   Logging unit location
 ENGI.            ROLLINS:   Recorded By
 WITN.           DINSMORE:   Witnessed by
 ORIG.           5" PRINT:   Origin of data
 UWI .     49025107640000:   Unique Well ID
 DICO. A2D TECHNOLOGIES, INC.:   Digitizing Company
~OTHER INFORMATION
~A   DEPT      GRD       CALD       RHOB       CORR        SPR           SN        ILD 
# ...
 2275.5000   102.6490    10.6690     2.5220     0.1150  -999.2500  -999.2500  -999.2500
 2276.0000    99.9610    10.6610     2.4940     0.1190  -999.2500  -999.2500  -999.2500
 2276.5000    96.0360    10.6540     2.4640     0.1190  -999.2500  -999.2500  -999.2500
 2277.0000    94.3430    10.6460     2.4510     0.2170  -999.2500  -999.2500  -999.2500
 2277.5000    94.4170    10.6380     2.4580     0.2240  -999.2500  -999.2500  -999.2500
 2278.0000   102.1560    10.6330     2.4710     0.2180  -999.2500  -999.2500  -999.2500
 2278.5000   104.2440    10.6340     2.4830     0.1960  -999.2500  -999.2500  -999.2500
 2279.0000   102.9750    10.6340     2.4980     0.1810  -999.2500  -999.2500  -999.2500
 2279.5000    98.3160    10.6340     2.5120     0.1640  -999.2500  -999.2500  -999.2500
 2280.0000    99.5970    10.6340     2.5120     0.1460  -999.2500  -999.2500  -999.2500
 2280.5000   104.9590    10.6340     2.5070     0.1330  -999.2500  -999.2500  -999.2500
 2281.0000   103.3460    10.6340     2.5010     0.1330  -999.2500  -999.2500  -999.2500
 2281.5000   103.0920    10.6350     2.5010     0.1350  -999.2500  -999.2500  -999.2500
 2282.0000   104.0740    10.6700     2.5010     0.1400  -999.2500  -999.2500  -999.2500
 2282.5000   105.2890    10.7060     2.5010     0.1400  -999.2500  -999.2500  -999.2500
 2283.0000   106.5960    10.6430     2.5010     0.1390  -999.2500  -999.2500  -999.2500
 2283.5000   107.7220    10.5980     2.5010     0.1380  -999.2500  -999.2500  -999.2500
 2284.0000   108.0760    10.5950     2.5010     0.1380  -999.2500  -999.2500  -999.2500
 2284.5000   107.9250    10.5930     2.4930     0.1370  -999.2500  -999.2500  -999.2500
 2285.0000   106.0380    10.6100     2.4880     0.1380  -999.2500  -999.2500  -999.2500
 2285.5000   101.5330    10.6600     2.4710     0.1430  -999.2500  -999.2500  -999.2500
 2286.0000    98.0330    10.7080     2.4710     0.1470  -999.2500  -999.2500  -999.2500
 2286.5000    98.3320    10.7510     2.4750     0.1750  -999.2500  -999.2500  -999.2500
 2287.0000    98.5740    10.7640     2.4810     0.1690  -999.2500  -999.2500  -999.2500
 2287.5000    98.7990    10.7760     2.4860     0.1630  -999.2500  -999.2500  -999.2500
 2288.0000    99.1790    10.7880     2.4920     0.1550  -999.2500  -999.2500  -999.2500
 2288.5000    99.7070    10.7990     2.4900     0.1490  -999.2500  -999.2500  -999.2500
 2289.0000   103.7640    10.8110     2.4850     0.1470  -999.2500  -999.2500  -999.2500
 2289.5000   107.4020    10.8220     2.4850     0.1590  -999.2500  -999.2500  -999.2500
 2290.0000   106.5880    10.8310     2.4840     0.1630  -999.2500  -999.2500  -999.2500
 2290.5000   104.2830    10.8330     2.4730     0.1440  -999.2500  -999.2500  -999.2500
 2291.0000   101.6840    10.8730     2.4620     0.1520  -999.2500  -999.2500  -999.2500
 2291.5000   100.5260    10.9120     2.4480     0.1770  -999.2500  -999.2500  -999.2500
 2292.0000   100.2900    10.9510     2.4470     0.1820  -999.2500  -999.2500  -999.2500
 2292.5000   101.5720    10.9880     2.4470     0.1640  -999.2500  -999.2500  -999.2500
 2293.0000   100.1610    10.9720     2.4470     0.1450  -999.2500  -999.2500  -999.2500
 2293.5000    98.7870    10.9440     2.4560     0.1240  -999.2500  -999.2500  -999.2500
 2294.0000    97.1690    10.9170     2.4700     0.1150  -999.2500  -999.2500  -999.2500
 2294.5000    97.3760    10.8890     2.4700     0.1280  -999.2500  -999.2500  -999.2500
 2295.0000    99.8380    10.8710     2.4600     0.1560  -999.2500  -999.2500  -999.2500
 2295.5000    99.4840    10.8750     2.4500     0.1830  -999.2500  -999.2500  -999.2500
 2296.0000    98.8740    10.9360     2.4490     0.1850  -999.2500  -999.2500  -999.2500
 2296.5000    98.0840    11.0080     2.4490     0.1680  -999.2500  -999.2500  -999.2500
 2297.0000    94.7820    10.9890     2.4490     0.1020  -999.2500  -999.2500  -999.2500
 2297.5000    92.6280    10.9140     2.4660     0.1110  -999.2500  -999.2500  -999.2500
 2298.0000    93.8240    10.8360     2.4910     0.1270  -999.2500  -999.2500  -999.2500
 2298.5000    98.8170    10.8340     2.5040     0.1390  -999.2500  -999.2500  -999.2500
 2299.0000   100.7100    10.8030     2.5010     0.1400  -999.2500  -999.2500  -999.2500
 2299.5000   100.5640    10.7510     2.5040     0.1590  -999.2500  -999.2500  -999.2500
 2300.0000   100.5590    10.7130     2.5110     0.1690  -999.2500  -999.2500  -999.2500
 2300.5000    99.7310    10.6910     2.5180     0.1560  -999.2500  -999.2500  -999.2500
 2301.0000    98.6480    10.6620     2.5190     0.1370  -999.2500  -999.2500  -999.2500
 2301.5000    97.4390    10.6370     2.5140     0.1180  -999.2500  -999.2500  -999.2500
 2302.0000    97.5090    10.6320     2.5080     0.1170  -999.2500  -999.2500  -999.2500
 2302.5000    98.6040    10.6580     2.5010     0.1180  -999.2500  -999.2500  -999.2500
 2303.0000    98.9610    10.7340     2.4940     0.1200  -999.2500  -999.2500  -999.2500
 2303.5000    97.7320    10.7330     2.4810     0.1210  -999.2500  -999.2500  -999.2500
 2304.0000    96.6010    10.7200     2.4540     0.1280  -999.2500  -999.2500  -999.2500
 2304.5000    95.7550    10.6250     2.4440     0.1370  -999.2500  -999.2500  -999.2500
 2305.0000    96.0310    10.5550     2.4530     0.1450  -999.2500  -999.2500  -999.2500
 2305.5000    96.1260    10.4690     2.4750     0.1610  -999.2500  -999.2500  -999.2500
 2306.0000    95.9940    10.3250     2.4890     0.1770  -999.2500  -999.2500  -999.2500
 2306.5000    94.2300    10.3250     2.4840     0.1930  -999.2500  -999.2500  -999.2500
 2307.0000    95.7380    10.3350     2.4690     0.2000  -999.2500  -999.2500  -999.2500
 2307.5000   102.3850    10.3550     2.4570     0.2040  -999.2500  -999.2500  -999.2500
 2308.0000   107.6250    10.3410     2.4340     0.2040  -999.2500  -999.2500  -999.2500
 2308.5000   108.0470    10.4610     2.4180     0.2040  -999.2500  -999.2500  -999.2500
 2309.0000   102.8250    10.6520     2.4150     0.1900  -999.2500  -999.2500  -999.2500
 2309.5000   101.6730    10.7140     2.4270     0.1800  -999.2500  -999.2500  -999.2500
 2310.0000   102.2800    10.4380     2.4490     0.1460  -999.2500  -999.2500  -999.2500
 2310.5000   102.5810    10.6270     2.4670     0.1450  -999.2500  -999.2500  -999.2500
 2311.0000   101.1650    10.6340     2.4890     0.1420  -999.2500  -999.2500  -999.2500
 2311.5000    98.2650    10.5080     2.5200     0.1320  -999.2500  -999.2500  -999.2500
 2312.0000    97.4020    10.4790     2.5240     0.1320  -999.2500  -999.2500  -999.2500
 2312.5000    97.2860    10.5220     2.5230     0.1510  -999.2500  -999.2500  -999.2500
 2313.0000    96.5710    10.5740     2.5170     0.1640  -999.2500  -999.2500  -999.2500
 2313.5000    97.2670    10.6260     2.5120     0.1610  -999.2500  -999.2500  -999.2500
 2314.0000    98.8480    10.6770     2.5240     0.1560  -999.2500  -999.2500  -999.2500
 2314.5000    96.8300    10.7280     2.5190     0.1470  -999.2500  -999.2500  -999.2500
 2315.0000    94.4120    10.7790     2.4990     0.1410  -999.2500  -999.2500  -999.2500
 2315.5000    92.0560    10.8300     2.4840     0.1490  -999.2500  -999.2500  -999.2500
 2316.0000    91.9250    10.8860     2.4830     0.1720  -999.2500  -999.2500  -999.2500
 2316.5000    93.8860    10.9640     2.4630     0.1680  -999.2500  -999.2500  -999.2500
 2317.0000    97.0460    11.0360     2.4570     0.1650  -999.2500  -999.2500  -999.2500
 2317.5000    97.9480    11.1120     2.4450     0.1610  -999.2500  -999.2500  -999.2500
 2318.0000    98.3910    11.1460     2.4450     0.1580  -999.2500  -999.2500  -999.2500
 2318.5000   100.9520    11.0670     2.4460     0.1540  -999.2500  -999.2500  -999.2500
 2319.0000   101.3660    11.3910     2.4440     0.1500  -999.2500  -999.2500  -999.2500
 2319.5000   101.3680    11.4220     2.4410     0.1500  -999.2500  -999.2500  -999.2500
 2320.0000    99.6150    11.3620     2.4130     0.1490  -999.2500  -999.2500  -999.2500
 2320.5000    98.5840    11.3450     2.3890     0.1770  -999.2500  -999.2500  -999.2500
