~VERSION INFORMATION
 VERS.                2.0:   CWLS LOG ASCII STANDARD - VERSION 2.0
 WRAP.                 NO:   ONE LINE PER DEPTH STEP
~WELL INFORMATION
#MNEM.UNIT      DATA TYPE    INFORMATION
#----------   ------------   ------------------------------
 STRT.F           36.0000:   START DEPTH
 STOP.F         3488.0000:   STOP DEPTH
 STEP.F            0.5000:   STEP LENGTH
 NULL.          -999.2500:   NO VALUE
 COMP. LAWRENCE - ALLISON  & ASSOCIATE:   COMPANY
 WELL. LAWRENCE "STX" #76-23:   WELL
 FLD .              NPR 3:   FIELD
 LOC .      S23 T38N R78W:   LOCATION
 CNTY.            NATRONA:   COUNTY
 STAT.            WYOMING:   STATE
 CTRY. UNITED STATES OF AMERICA:   COUNTRY
 SRVC.       SCHLUMBERGER:   SERVICE COMPANY
 DATE.        07-MAY-1982:   LOGDATE
 API .     49025108920000:   API NUMBER
~CURVE INFORMATION
#MNEM.UNIT       API CODE    CURVE DESCRIPTION
#----------   ------------   ------------------------------
 DEPT.F                  :   
 CORR.G/C3   45 356 01 00:   DENSITY CORRECTION
 CALD.IN     45 280 60 00:   CALIPER FROM DENSITY LOG
 GRD .GAPI   45 310 01 00:   GAMMA RAY FROM DENSITY LOG
 RHOB.G/C3   45 350 01 00:   BULK DENSITY
 SFL .OHMM   07 220 01 00:   SHALLOW FOCUSED LOG RESISTIVITY
 ILD .OHMM   07 120 46 00:   DEEP INDUCTION RESISTIVITY
 ILM .OHMM   07 120 44 00:   INDUCTION LOG MEDIUM RESISTIVITY
 TENR.LBS    07 635 01 00:   TENSION
 SPR .MV     07 010 01 00:   SPONTANEOUS POTENTIAL
 NPHI.DEC    42 890 03 00:   NEUTRON POROSITY SANDSTONE
 TEND.LBS    45 635 01 00:   TENSION FROM DENSITY LOG
~PARAMETER INFORMATION
#MNEM.UNIT          VALUE    DESCRIPTION
#----------   ------------   ------------------------------
 EKB .F         5441.0000:   Kelly bushing
 EGL .F         5431.0000:   Ground level
 EDF .F            0.0000:   Drilling floor
 EPD .F            0.0000:   Permanent datum
 TD  .F         3788.0000:   Total depth
 DATE.        07-MAY-1982:   Date logged
 CLNT.            A2DTECH:   Client Code
 SL  . 1327' FSL & 1190' FEL:   Surface Location
 PD  .                 GL:   Permanent Datum
 DAPD.F                10:   Feet Above Permanent Datum
 DD  .F              3788:   Depth driller
 DL  .F              3478:   Depth logger
 BLI .F              3471:   Bottom log interval
 TLI .F              1615:   Top log interval
 CS1 .IN            9.625:   Casing size
 CBD1.     9.625" @ 1603':   Casing driller 1
 CBL1.F              1615:   Casing logger 1
 BS1 .IN            7.875:   Bit size
 BSD1.F              3788:   Depth drilled with bit1
 DFT .                AIR:   Type fluid in hole
 TCS .HRS            1230:   Time Circ. stopped
 TLAB.HRS            1500:   Time logger at bottom
 MRT .F               125:   Maximum recorded temp.
 LUN .               8035:   Logging unit number
 LUL .               CSPR:   Logging unit location
 ENGI.              PENNY:   Recorded By
 WITN.    JENNINGS/STRONG:   Witnessed by
 ORIG.       2.5"5" PRINT:   Origin of data
 UWI .     49025108920000:   Unique Well ID
 DICO. A2D TECHNOLOGIES, INC.:   Digitizing Company
~OTHER INFORMATION
~A   DEPT       CORR     CALD        GRD         RHOB      SFL        ILD        ILM       TENR        SPR        NPHI      TEND   
# ...
 1622.0000     0.1670    12.2920   139.9260     2.5200  -999.2500     8.0370     9.3530   504.0320  -999.2500  -999.2500   680.2130
 1622.5000     0.1800    12.4420   138.2300     2.5420  -999.2500     7.7430     7.7430   504.0320  -999.2500  -999.2500   678.2740
 1623.0000     0.1720    12.5860   139.9220     2.5300  -999.2500     8.3630    10.3030   504.0320  -999.2500  -999.2500   676.3350
 1623.5000     0.1620    12.7300   143.1160     2.5120  -999.2500     9.0360    13.0820   504.0320  -999.2500  -999.2500   674.3960
 1624.0000     0.1520    12.8270   146.2870     2.4930  -999.2500     9.7080    14.3080   504.0320  -999.2500  -999.2500   672.4560
 1624.5000     0.1560    12.9280   148.4410     2.4870  -999.2500     9.0880     9.7790   463.7100  -999.2500  -999.2500   670.5170
 1625.0000     0.1630    13.0300   144.9400     2.4990  -999.2500     7.8880     7.8880   463.7100  -999.2500  -999.2500   668.5780
 1625.5000     0.1680    13.1320   141.4990     2.5100  -999.2500     7.8610     7.8610  1636.3640  -999.2500  -999.2500   666.6380
 1626.0000     0.1670    13.2100   140.0070     2.5220  -999.2500     7.7930     7.7930  1636.3640  -999.2500  -999.2500   664.6990
 1626.5000     0.1620    13.2740   142.0470     2.5320  -999.2500     7.7260     7.7260  1636.3640  -999.2500  -999.2500   662.7600
 1627.0000     0.1570    13.3390   144.1150     2.5200  -999.2500     7.6580     7.6580  1636.3640  -999.2500  -999.2500   660.8210
 1627.5000     0.1530    13.4030   146.2450     2.5020  -999.2500     7.5900     7.5900  1636.3640  -999.2500  -999.2500   658.8810
 1628.0000     0.1480    13.4540   146.2440     2.4980  -999.2500     7.5230     7.5230  1636.3640  -999.2500  -999.2500   656.9420
 1628.5000     0.1470    13.4660   144.7220     2.5130  -999.2500     7.4550     7.4550  1636.3640  -999.2500  -999.2500   655.0030
 1629.0000     0.1460    13.4780   142.8380     2.5220  -999.2500     7.3880     7.3880  1636.3640  -999.2500  -999.2500   653.0640
 1629.5000     0.1460    13.4910   140.9550     2.5170  -999.2500     7.3200     7.3200  1636.3640  -999.2500  -999.2500   651.1240
 1630.0000     0.1500    13.5030   139.1260     2.5100  -999.2500     7.2520     7.2520  1636.3640  -999.2500  -999.2500   649.1850
 1630.5000     0.1560    13.5160   138.9480     2.5240  -999.2500     7.1850     7.1850  1636.3640  -999.2500  -999.2500   647.2460
 1631.0000     0.1630    13.5280   142.7130     2.5400  -999.2500     7.1170     7.1170  1636.3640  -999.2500  -999.2500   645.3060
 1631.5000     0.1650    13.5410   146.4620     2.5430  -999.2500     7.0500     7.0500  1636.3640  -999.2500  -999.2500   643.3670
 1632.0000     0.1550    13.5530   149.7730     2.5060  -999.2500     6.9820     6.9820  1637.5060  -999.2500  -999.2500   641.4280
 1632.5000     0.1480    13.5660   148.1950     2.4690  -999.2500     6.9140     6.9140  1640.2419  -999.2500  -999.2500   639.4890
 1633.0000     0.1520    13.5780   146.1710     2.4770  -999.2500     6.8470     6.8470  1642.9790  -999.2500  -999.2500   637.5490
 1633.5000     0.1560    13.5900   144.1260     2.4920  -999.2500     6.7970     6.7970  1645.7159  -999.2500  -999.2500   636.5050
 1634.0000     0.1470    13.6070   146.2750     2.4840  -999.2500     6.6420     6.6420  1648.4530  -999.2500  -999.2500   636.5050
 1634.5000     0.1250    13.6230   149.9530     2.4710  -999.2500     6.4650     6.4650  1651.1890  -999.2500  -999.2500  -999.2500
 1635.0000     0.1160    13.6390   150.4510     2.4640  -999.2500     6.2870     6.2870  1653.9260  -999.2500  -999.2500  -999.2500
 1635.5000     0.1210    13.6090   150.3940     2.3880  -999.2500     6.1100     6.1100  1656.6630  -999.2500  -999.2500  -999.2500
 1636.0000     0.1250    14.3090   148.6820     2.3390  -999.2500     5.9320     5.9320  1659.3990  -999.2500  -999.2500  -999.2500
 1636.5000     0.0320    16.0630   144.3320     1.7330  -999.2500     5.7550     5.7550  1662.1360  -999.2500  -999.2500  -999.2500
 1637.0000    -0.0270    16.0470   146.5120     1.5480  -999.2500     5.5390     5.5390  1664.8730  -999.2500  -999.2500  -999.2500
 1637.5000    -0.0750    16.0800   148.5040     1.4460  -999.2500     5.6500     5.6500  1667.6090  -999.2500  -999.2500  -999.2500
 1638.0000     0.0080    14.7080   149.0120     2.1050  -999.2500     5.9300     5.9300  1670.3459  -999.2500  -999.2500  -999.2500
 1638.5000     0.1170    13.1910   140.3050     2.3460  -999.2500     6.2100     6.2100  1673.0830  -999.2500  -999.2500  -999.2500
 1639.0000     0.1650    13.1400   134.3840     2.5110  -999.2500     6.4900     6.4900  1675.8199  -999.2500  -999.2500  -999.2500
 1639.5000     0.1570    13.0300   134.4760     2.5050  -999.2500     6.7710     6.7710  1678.5560  -999.2500  -999.2500  -999.2500
 1640.0000     0.1390    12.9280   141.6420     2.4980  -999.2500     7.0510     7.0510  1681.2930  -999.2500  -999.2500  -999.2500
 1640.5000     0.1400    12.8650   151.1130     2.5250  -999.2500     7.3310     7.3310  1684.0300  -999.2500  -999.2500  -999.2500
 1641.0000     0.1450    12.8240   148.2300     2.5550  -999.2500     7.6120     7.6120  1686.7660  -999.2500  -999.2500  -999.2500
 1641.5000     0.1490    12.7830   174.0920     2.5600  -999.2500     7.8920     7.8920  1689.5031  -999.2500  -999.2500  -999.2500
 1642.0000     0.1520    12.7430   164.1250     2.5540  -999.2500     8.1870     8.1870  1692.2400  -999.2500  -999.2500  -999.2500
 1642.5000     0.1450    12.7030   153.2230     2.5440  -999.2500     8.1870     8.1870  1694.9760  -999.2500  -999.2500  -999.2500
 1643.0000     0.1390    12.6700   146.2520     2.5340  -999.2500     8.1790     8.1790  1697.7130  -999.2500  -999.2500  -999.2500
 1643.5000     0.1360    12.6700   141.9830     2.5230  -999.2500     8.1550     8.1550  1700.4500  -999.2500  -999.2500  -999.2500
 1644.0000     0.1330    12.6700   140.6470     2.5130  -999.2500     8.1310     8.1310  1703.1870  -999.2500  -999.2500  -999.2500
 1644.5000     0.1120    12.6720   142.0080     2.5030  -999.2500     8.1070     8.1070  1705.9230  -999.2500  -999.2500  -999.2500
 1645.0000     0.0990    12.6740   143.3060     2.4920  -999.2500     8.0840     8.0840  1708.6600  -999.2500  -999.2500  -999.2500
 1645.5000     0.1000    12.6760   144.0160     2.4940  -999.2500     8.0600     8.0600  1711.3970  -999.2500  -999.2500  -999.2500
 1646.0000     0.1010    12.6780   143.0980     2.4990  -999.2500     8.0360     8.0360  1714.1331  -999.2500  -999.2500  -999.2500
 1646.5000     0.1020    12.6800   141.8380     2.4960  -999.2500     8.0130     8.0120  1717.1720  -999.2500  -999.2500  -999.2500
 1647.0000     0.1000    12.6820   140.2930     2.4790  -999.2500     7.9890     7.9880  1717.1720  -999.2500  -999.2500  -999.2500
 1647.5000     0.0980    12.6840   137.6580     2.4870  -999.2500     7.9650     7.9650  1717.1720  -999.2500  -999.2500  -999.2500
 1648.0000     0.0950    12.6860   135.1880     2.5020  -999.2500     7.9410     7.9410  1717.1720  -999.2500  -999.2500  -999.2500
 1648.5000     0.1300    12.6870   136.0800     2.5410  -999.2500     7.9180     7.9160  1717.1720  -999.2500  -999.2500  -999.2500
 1649.0000     0.1550    12.6890   137.5260     2.5640  -999.2500     7.8950     7.8920  1717.1720  -999.2500  -999.2500  -999.2500
 1649.5000     0.1570    12.7050   138.9820     2.5350  -999.2500     7.7830     7.7830  1717.1720  -999.2500  -999.2500  -999.2500
 1650.0000     0.1350    12.7270   140.4750     2.5090  -999.2500     7.6470     7.6470  1717.1720  -999.2500  -999.2500  -999.2500
 1650.5000     0.1100    12.7490   139.8200     2.4980  -999.2500     7.5110     7.5110  1717.1720  -999.2500  -999.2500  -999.2500
 1651.0000     0.0970    12.7710   138.9870     2.5020  -999.2500     7.3750     7.3750  1717.1720  -999.2500  -999.2500  -999.2500
 1651.5000     0.1130    12.7860   137.4280     2.5060  -999.2500     7.2380     7.2380  1717.1720  -999.2500  -999.2500  -999.2500
 1652.0000     0.1250    12.6980   136.5700     2.5100  -999.2500     6.9250     6.7880  1717.1720  -999.2500  -999.2500  -999.2500
