~VERSION INFORMATION
 VERS.                2.0:   CWLS LOG ASCII STANDARD - VERSION 2.0
 WRAP.                 NO:   ONE LINE PER DEPTH STEP
~WELL INFORMATION
#MNEM.UNIT      DATA TYPE    INFORMATION
#----------   ------------   ------------------------------
 STRT.F          742.0000:   START DEPTH
 STOP.F         3406.0000:   STOP DEPTH
 STEP.F            0.5000:   STEP LENGTH
 NULL.          -999.2500:   NO VALUE
 COMP. FENIX & SCISSON - US NAVY:   COMPANY
 WELL.   FENIX "AX" #85-4:   WELL
 FLD .      NPR - WILDCAT:   FIELD
 LOC .       S4 T38N R78W:   LOCATION
 CNTY.            NATRONA:   COUNTY
 STAT.            WYOMING:   STATE
 CTRY. UNITED STATES OF AMERICA:   COUNTRY
 SRVC.              WELEX:   SERVICE COMPANY
 DATE.        03-MAY-1977:   LOGDATE
 API .     49025103520000:   API NUMBER
~CURVE INFORMATION
#MNEM.UNIT       API CODE    CURVE DESCRIPTION
#----------   ------------   ------------------------------
 DEPT.F                  :   
 SNP .DEC    41 890 00 00:   SIDEWALL NEUTRON POROSITY
 GR  .GAPI   30 310 01 00:   GAMMA RAY
 SPR .MV     07 010 01 00:   SPONTANEOUS POTENTIAL
 RXO .OHMM   11 220 01 00:   FLUSHED ZONE RESISTIVITY
 GURD.OHMM   07 220 05 00:   GUARD LOG RESISTIVITY
 CALD.IN     45 280 60 00:   CALIPER FROM DENSITY LOG
 RHOB.G/C3   45 350 01 00:   BULK DENSITY
 GRD .GAPI   45 310 01 00:   GAMMA RAY FROM DENSITY LOG
 CORR.G/C3   45 356 01 00:   DENSITY CORRECTION
~PARAMETER INFORMATION
#MNEM.UNIT          VALUE    DESCRIPTION
#----------   ------------   ------------------------------
 EKB .F         5254.0000:   Kelly bushing
 EGL .F         5240.0000:   Ground level
 EDF .F            0.0000:   Drilling floor
 TD  .F         3467.0000:   Total depth
 DATE.        03-MAY-1977:   Date logged
 CLNT.            A2DTECH:   Client Code
 SL  . 2200' FSL & 100' FEL:   Surface Location
 PD  .                 GL:   Permanent Datum
 EPD .F              5240:   Elevation Permanent Datum
 LMF .                 KB:   Log Measured From
 DMF .                 KB:   Drilling Measured From
 DAPD.F                14:   Feet Above Permanent Datum
 DD  .F              3647:   Depth driller
 DL  .F              3404:   Depth logger
 BLI .F              3402:   Bottom log interval
 TLI .F               720:   Top log interval
 CS1 .IN            8.625:   Casing size
 CBD1.      8.625" @ 720':   Casing driller 1
 CBL1.F               760:   Casing logger 1
 BS1 .IN            7.875:   Bit size
 BSD1.F              3467:   Depth drilled with bit1
 DFT .            KCL/MUD:   Type fluid in hole
 DFD .                9.1:   Density
 DFV .                 36:   Viscosity
 DFPH.                  8:   pH
 DFL .                  5:   Fluid loss
 MSS .           FLOWLINE:   Source of sample
 RMS .OHMM            .30:   Rm
 MST .F                66:   Rm Meas. temp.
 RMF .OHMM            .21:   Rmf
 MFST.F                66:   Rmf Meas. temp.
 RMC .OHMM            .49:   Rmc
 MCST.F                66:   Rmc Meas. temp.
 MFSS.               FANN:   Source Rmf.
 MCSS.                KIT:   Source Rmc.
 RMB .OHMM            .18:   Rm. at BHT
 BHT .F               107:   BHT.
 TCS .HRS             2.5:   Time Circ. stopped
 MRT .F               107:   Maximum recorded temp.
 LUN .               8611:   Logging unit number
 LUL .             CASPER:   Logging unit location
 ENGI.            C. DOAK:   Recorded By
 WITN.      B. HARRINGTON:   Witnessed by
 ORIG.     2.5", 5" PRINT:   Origin of data
 UWI .     49025103520000:   Unique Well ID
 DICO. A2D TECHNOLOGIES, INC.:   Digitizing Company
~OTHER INFORMATION
~A   DEPT        SNP       GR        SPR        RXO       GURD         CALD       RHOB       GRD       CORR  
# ...
 2129.0000     0.2080   139.4200   -40.4260     9.4060     8.2530     8.4610     2.5260   113.2830     0.0140
 2129.5000     0.2040   138.1350   -40.4220     9.3590     8.2860     8.4590     2.5320   112.2730     0.0150
 2130.0000     0.2100   138.6630   -40.1800     9.3250     8.3100     8.4580     2.5300   111.0550     0.0160
 2130.5000     0.2200   139.9480   -39.8770     9.5710     8.3350     8.4570     2.5130   110.8840     0.0160
 2131.0000     0.2130   142.1890   -39.5730     9.8510     8.3620     8.4550     2.5110   112.6890     0.0190
 2131.5000     0.2000   144.6470   -39.2730    10.1300     8.2120     8.4540     2.5220   114.3440     0.0240
 2132.0000     0.1870   145.8400   -38.9700     9.7590     8.2120     8.4530     2.5340   115.9720     0.0270
 2132.5000     0.1800   144.8860   -38.6700     9.1160     8.2120     8.4520     2.5400   117.8830     0.0310
 2133.0000     0.1800   144.9010   -38.3660     8.4740     6.7240     8.4510     2.5390   118.1050     0.0340
 2133.5000     0.1910   145.2330   -38.0660     7.9190     7.1230     8.4500     2.5400   117.4900     0.0370
 2134.0000     0.2000   146.9180   -37.7670     8.8380     7.8730     8.4490     2.5350   115.7400     0.0360
 2134.5000     0.2090   148.4940   -37.4480     9.6480     8.2120     8.4480     2.5250   113.6620     0.0280
 2135.0000     0.1980   150.5360   -37.2950    10.0280     8.2420     8.4470     2.5160   111.5690     0.0220
 2135.5000     0.1980   151.1290   -37.3010    10.2120     8.2830     8.4450     2.5090   110.5270     0.0150
 2136.0000     0.1950   149.7660   -37.3130     9.9490     8.3230     8.4440     2.4990   109.9570     0.0090
 2136.5000     0.1850   145.7880   -37.3080     9.7240     8.3630     8.4430     2.4950   110.7910     0.0010
 2137.0000     0.1820   145.7280   -37.2210     9.4960     8.4030     8.4420     2.4990   113.1450     0.0010
 2137.5000     0.1840   144.9490   -36.9650     9.4960     8.4440     8.4410     2.4980   112.7830     0.0020
 2138.0000     0.1830   140.5620   -37.1830     9.4960     8.4840     8.4400     2.4940   112.0440     0.0020
 2138.5000     0.1800   135.8040   -37.3060     9.4960     8.5160     8.4390     2.4890   111.3160     0.0030
 2139.0000     0.1830   135.6840   -37.4560     9.4960     8.4290     8.4380     2.4940   110.6090     0.0030
 2139.5000     0.1870   137.1880   -37.6080     9.4960     8.2220     8.4360     2.5010   109.9150     0.0030
 2140.0000     0.1900   136.3410   -37.7500     9.4960     8.0150     8.4350     2.5040   109.1030     0.0040
 2140.5000     0.1790   135.0220   -37.8990     9.4960     7.7760     8.4340     2.5060   109.4080     0.0040
 2141.0000     0.1800   133.0730   -38.0460     9.4940     7.7760     8.4330     2.5060   110.6510     0.0050
 2141.5000     0.1830   130.7360   -38.1930     9.5200     7.9190     8.4320     2.5090   111.7790     0.0050
 2142.0000     0.1820   129.6440   -38.3410     9.5630     7.9820     8.4310     2.5100   112.8860     0.0060
 2142.5000     0.1790   130.3710   -38.4860     9.6020     8.0640     8.4300     2.5060   114.0450     0.0060
 2143.0000     0.1770   128.3130   -38.6360     9.6610     8.0640     8.4290     2.5100   113.7920     0.0070
 2143.5000     0.1780   124.9950   -38.7800     9.6580     7.7760     8.4270     2.5150   112.9220     0.0070
 2144.0000     0.1810   127.1530   -38.9250     9.6120     7.7760     8.4260     2.5180   111.9640     0.0070
 2144.5000     0.1750   130.3320   -39.0910     9.5680     7.9760     8.4250     2.5140   112.0600     0.0080
 2145.0000     0.1720   130.7750   -39.1820     9.5240     8.0640     8.4240     2.5100   113.2040     0.0080
 2145.5000     0.1790   128.8400   -39.5780     9.4790     8.0640     8.4230     2.5060   114.2300     0.0090
 2146.0000     0.1850   126.1960   -39.7200     9.4350     8.0640     8.4220     2.5060   115.2930     0.0090
 2146.5000     0.1870   124.4150   -39.7990     9.3900     7.9950     8.4210     2.5060   116.3280     0.0070
 2147.0000     0.1840   124.9860   -39.8590     9.3450     7.9340     8.4170     2.5060   117.1040     0.0060
 2147.5000     0.1860   130.6460   -39.9410     9.3010     7.9190     8.4130     2.5060   115.3870     0.0040
 2148.0000     0.1830   134.0970   -40.0110     9.2560     7.9190     8.4090     2.5020   115.3960     0.0030
 2148.5000     0.1850   133.3940   -40.0840     9.2120     7.9190     8.4050     2.4970   116.8000     0.0020
 2149.0000     0.1900   135.4200   -40.1580     9.1580     7.9190     8.4010     2.4930   118.0060     0.0000
 2149.5000     0.1950   135.9690   -40.2310     9.2580     8.0280     8.3980     2.4890   118.9280    -0.0010
 2150.0000     0.1980   134.3840   -40.3040     9.5160     8.1200     8.3940     2.4840   116.8760    -0.0030
 2150.5000     0.1920   131.0180   -40.3770     9.6700     8.2120     8.3900     2.4870   114.7900    -0.0020
 2151.0000     0.1860   129.3350   -40.4500     9.5580     8.2120     8.3860     2.4940   112.4390     0.0000
 2151.5000     0.1870   126.2750   -40.5230     9.4450     8.2120     8.3800     2.5010   110.6830     0.0010
 2152.0000     0.1900   125.4910   -40.5960     9.3320     8.2120     8.3460     2.5090   109.5470     0.0030
 2152.5000     0.1950   127.9360   -40.6690     9.2190     8.2120     8.3100     2.5160   108.3170     0.0040
 2153.0000     0.2000   130.0330   -40.7430     9.1060     8.2870     8.2730     2.5220   107.3930     0.0060
 2153.5000     0.2020   128.7780   -40.8160     8.9930     8.3620     8.2630     2.5190   108.3540     0.0070
 2154.0000     0.1990   125.8330   -40.8890     9.2350     8.3620     8.2640     2.5120   109.1790     0.0090
 2154.5000     0.1960   127.2260   -40.9620     9.4770     8.3620     8.2640     2.5050   110.1080     0.0080
 2155.0000     0.2020   129.7010   -41.0350     9.6700     8.3620     8.2640     2.4980   110.9840     0.0060
 2155.5000     0.2010   130.4130   -41.1080     9.6700     8.3620     8.2640     2.4960   111.8800     0.0050
 2156.0000     0.1950   127.8050   -41.1810     9.6700     8.1050     8.2640     2.5080   112.7560     0.0050
 2156.5000     0.1970   125.9630   -41.2540     9.4340     7.8480     8.2640     2.5180   113.6820     0.0060
 2157.0000     0.2030   126.0160   -41.3270     9.1380     7.5910     8.2640     2.5190   114.5240     0.0060
 2157.5000     0.2090   128.1390   -41.4010     8.8420     7.3340     8.2640     2.5200   115.4300     0.0070
 2158.0000     0.2160   130.1630   -41.4740     8.5460     7.2310     8.2640     2.5200   114.7800     0.0070
 2158.5000     0.2130   132.2950   -41.5470     8.2500     7.3640     8.2640     2.5160   114.0440     0.0070
 2159.0000     0.2060   133.4220   -41.6200     7.9540     8.8310     8.2640     2.5090   113.2890     0.0080
 2159.5000     0.2000   132.6820   -41.6930     7.7760     8.9930     8.2640     2.5030   112.4500     0.0080
 2160.0000     0.1940   131.2130   -41.7650     7.9190     9.1580     8.2640     2.5000   112.6660     0.0090
 2160.5000     0.1890   130.7740   -41.8400     8.2230     8.3880     8.2640     2.5000   113.2930     0.0090
 2161.0000     0.1860   131.6840   -41.9130     8.6030     7.7460     8.2640     2.5000   113.9270     0.0100
 2161.5000     0.1840   133.1780   -41.9830     8.8310     6.8480     8.2640     2.5000   114.5420     0.0110
 2162.0000     0.1810   134.5110   -41.9950     9.0610     7.1080     8.2640     2.5000   115.1180     0.0120
 2162.5000     0.1830   132.8490   -42.0070     9.1760     7.5430     8.2640     2.5000   115.1330     0.0130
 2163.0000     0.1880   133.1370   -42.3410     9.2900     8.0640     8.2640     2.5040   115.2550     0.0140
 2163.5000     0.1920   132.8430   -42.7290     9.4050     8.0500     8.2640     2.5080   114.3530     0.0140
 2164.0000     0.1960   131.0610   -43.1220     9.4960     8.0130     8.2640     2.5130   113.5540     0.0150
 2164.5000     0.1990   130.6180   -43.5080     9.4960     7.9770     8.2640     2.5170   113.3050     0.0160
 2165.0000     0.2020   133.2780   -43.8990     9.4960     7.9410     8.2640     2.5220   114.2190     0.0170
