~VERSION INFORMATION
 VERS.                2.0:   CWLS LOG ASCII STANDARD - VERSION 2.0
 WRAP.                 NO:   ONE LINE PER DEPTH STEP
~WELL INFORMATION
#MNEM.UNIT      DATA TYPE    INFORMATION
#----------   ------------   ------------------------------
 STRT.F          180.0000:   START DEPTH
 STOP.F         3044.0000:   STOP DEPTH
 STEP.F            0.5000:   STEP LENGTH
 NULL.          -999.2500:   NO VALUE
 COMP.    FENIX & SCISSON:   COMPANY
 WELL.   FENIX "A" #55-29:   WELL
 FLD .           N P R #3:   FIELD
 LOC .      S29 T39N R78W:   LOCATION
 CNTY.            NATRONA:   COUNTY
 STAT.            WYOMING:   STATE
 CTRY. UNITED STATES OF AMERICA:   COUNTRY
 SRVC.              WELEX:   SERVICE COMPANY
 DATE.        21-JUL-1977:   LOGDATE
 API .     49025104020000:   API NUMBER
~CURVE INFORMATION
#MNEM.UNIT       API CODE    CURVE DESCRIPTION
#----------   ------------   ------------------------------
 DEPT.F                  :   
 CALD.IN     45 280 60 00:   CALIPER FROM DENSITY LOG
 RHOB.G/C3   45 350 01 00:   BULK DENSITY
 CORR.G/C3   45 356 01 00:   DENSITY CORRECTION
 GRD .GAPI   45 310 01 00:   GAMMA RAY FROM DENSITY LOG
 SPR .MV     07 010 01 00:   SPONTANEOUS POTENTIAL
 ILD .OHMM   07 120 46 00:   DEEP INDUCTION RESISTIVITY
 ILM .OHMM   07 120 44 00:   INDUCTION LOG MEDIUM RESISTIVITY
 SGRD.OHMM   07 220 05 00:   SHALLOW SHORT GUARD RESISTIVITY
~PARAMETER INFORMATION
#MNEM.UNIT          VALUE    DESCRIPTION
#----------   ------------   ------------------------------
 EKB .F         4995.0000:   Kelly bushing
 EGL .F         4985.0000:   Ground level
 EDF .F            0.0000:   Drilling floor
 EPD .F         4985.0000:   Permanent datum
 TD  .F         3045.0000:   Total depth
 DATE.        21-JUL-1977:   Date logged
 CLNT.            A2DTECH:   Client Code
 SL  . 2310' FSL & 2310' FEL:   Surface Location
 PD  .                 GL:   Permanent Datum
 DD  .F              3045:   Depth driller
 DL  .F              3045:   Depth logger
 BLI .F              3043:   Bottom log interval
 CS1 .IN            8.625:   Casing size
 CBD1.      8.625" @ 230':   Casing driller 1
 CBL1.F               216:   Casing logger 1
 BS1 .IN            7.875:   Bit size
 DFT .            KCL-MUD:   Type fluid in hole
 DFD .                8.8:   Density
 DFV .                 45:   Viscosity
 DFPH.                7.5:   pH
 DFL .                8.4:   Fluid loss
 MSS .           FLOWLINE:   Source of sample
 RMS .OHMM            .45:   Rm
 MST .F                86:   Rm Meas. temp.
 RMF .OHMM            .33:   Rmf
 MFST.F                86:   Rmf Meas. temp.
 RMC .OHMM            .72:   Rmc
 MCST.F                86:   Rmc Meas. temp.
 MFSS.               MEAS:   Source Rmf.
 RMB .OHMM            .30:   Rm. at BHT
 BHT .F               127:   BHT.
 TCS .HRS             2.5:   Time Circ. stopped
 MRT .F               127:   Maximum recorded temp.
 LUN .               8611:   Logging unit number
 LUL .             CASPER:   Logging unit location
 ENGI.            C. DOAK:   Recorded By
 WITN.      W. PETTINGILL:   Witnessed by
 ORIG.           5" PRINT:   Origin of data
 UWI .     49025104020000:   Unique Well ID
 DICO. A2D TECHNOLOGIES, INC.:   Digitizing Company
 DAPD.                 10:   Feet Above Permanent Datum
 BSD1.               3045:   Depth drilled with bit1
 MCSS.               MEAS:   Source Rmc.
 LMF .                 KB:   Log Measured From
 DMF .                 KB:   Drilling Measured From
 TLI .                200:   Top log interval
~OTHER INFORMATION
~A   DEPT       CALD     RHOB       CORR         GRD       SPR        ILD        ILM       SGRD   
# ...
  220.5000    10.0240     2.3920     0.0910    87.6580   -41.7470     2.0080     5.2160     6.1610
  221.0000    10.2250     2.3870     0.0900    89.1330   -43.5890     3.3040     5.1160     6.2800
  221.5000    10.6680     2.3950     0.0890    91.4860   -45.4150     4.8290     5.2650     6.5130
  222.0000    11.1110     2.4030     0.0910    89.8370   -46.4820     6.1320     5.3470     6.7720
  222.5000    11.4550     2.4110     0.0930    89.2540   -47.5240     5.8370     5.4430     7.0320
  223.0000    11.5170     2.4190     0.1010    89.0320   -48.5720     5.6980     5.3350     7.2320
  223.5000    11.5400     2.4200     0.1100    88.6470   -49.3320     5.9110     5.2050     7.2000
  224.0000    11.5750     2.4170     0.1010    87.8870   -50.0120     6.5380     5.1050     7.1750
  224.5000    11.6000     2.4080     0.0930    87.2660   -50.6860     4.2840     5.0580     7.1500
  225.0000    11.5790     2.3980     0.0930    88.4170   -51.1780     3.8420     5.3130     7.1240
  225.5000    11.5600     2.3840     0.0930    89.6660   -51.0730     5.7000     5.7070     7.1000
  226.0000    11.5330     2.3670     0.0930    87.0010   -50.9870     7.0580     6.1010     8.4740
  226.5000    11.4710     2.3500     0.0930    83.4690   -50.9000     7.9310     6.4940     9.4500
  227.0000    11.4060     2.3430     0.0930    78.6180   -50.7930     8.9140     6.9500     9.5120
  227.5000    11.2830     2.3680     0.0960    74.7770   -50.9730     9.8760     7.5730     9.5750
  228.0000    11.1440     2.4430     0.0990    75.0630   -51.7600    10.1290     8.1960     9.6080
  228.5000    11.1950     2.4760     0.1030    76.0680   -52.8170    10.3650     8.8190     9.9570
  229.0000    11.3150     2.4610     0.1020    77.6080   -53.8500    10.6010    10.1550    10.3220
  229.5000    11.4380     2.4480     0.1010    80.2380   -54.6670    11.3020    13.2490    11.2350
  230.0000    11.5620     2.4420     0.1000    78.4840   -55.4800    12.0590    16.6510    14.3320
  230.5000    11.5830     2.4330     0.0970    74.7420   -56.2920    12.8170    16.4230    17.6830
  231.0000    11.5810     2.4170     0.0950    73.0090   -57.1010    13.5750    16.1990    20.0000
  231.5000    11.5120     2.4010     0.0920    70.4070   -57.5100    14.3330    16.6510    19.3880
  232.0000    11.3840     2.3930     0.0890    62.9640   -57.3930    15.0900    16.8040    18.9300
  232.5000    11.1460     2.3990     0.0860    60.4420   -55.7520    15.9050    15.5530    19.6370
  233.0000    10.8500     2.4090     0.0870    61.3290   -53.4610    16.3380    14.9160    17.7620
  233.5000    10.1530     2.4150     0.0930    62.3900   -51.0230    16.6510    14.8640    16.6510
  234.0000     9.6760     2.4160     0.0930    63.1430   -48.0370    16.5040    14.6020    20.9380
  234.5000     9.5220     2.4110     0.0940    61.4230   -45.0790    16.0700    13.3220    19.9090
  235.0000     9.4580     2.4100     0.0950    57.8640   -42.1810    15.6360    12.0430    19.2800
  235.5000     9.3960     2.4160     0.0960    55.4200   -40.1570    15.2020    10.7630    24.2440
  236.0000     9.3350     2.4220     0.0950    54.8180   -38.3610    14.7680     9.1770    23.8620
  236.5000     9.3110     2.4280     0.0920    54.6410   -37.4720    14.3340     9.2620    22.7950
  237.0000     9.3100     2.4260     0.0880    55.0210   -37.0590    13.9000     9.4430    21.2250
  237.5000     9.3100     2.4100     0.0830    55.5120   -36.6600    13.4660     9.9360    20.1840
  238.0000     9.3100     2.3840     0.0780    54.9300   -36.2990    13.0320    10.4290    20.6580
  238.5000     9.3100     2.3560     0.0730    53.6670   -35.4590    12.5980    10.9220    20.7470
  239.0000     9.3100     2.3230     0.0730    52.4200   -34.5890    12.3970    11.1250    20.1840
  239.5000     9.3100     2.2950     0.0750    52.6230   -33.7220    12.3600    11.1250    18.9300
  240.0000     9.3160     2.2680     0.0770    53.0080   -32.8560    12.3240    11.1250    18.9300
  240.5000     9.3290     2.2790     0.0790    52.8400   -31.9920    12.2870    11.1250    20.0000
  241.0000     9.3420     2.2860     0.0810    51.0350   -31.1290    12.2510    11.2250    18.9800
  241.5000     9.3550     2.2870     0.0840    49.2560   -30.5720    12.1930    11.4710    18.5860
  242.0000     9.3680     2.2840     0.0850    48.5760   -30.4890    12.2220    11.7160    18.7570
  242.5000     9.3810     2.2750     0.0860    49.4050   -30.3990    12.2920    11.9620    21.7200
  243.0000     9.3920     2.2830     0.0880    51.7900   -30.3080    12.3630    12.2070    20.4140
  243.5000     9.3980     2.2930     0.0900    51.7200   -30.2160    12.4330    12.4530    19.0730
  244.0000     9.4040     2.3020     0.0910    50.7330   -30.0690    12.5030    12.6980    18.5860
  244.5000     9.4090     2.3070     0.0930    51.7020   -29.6990    12.5730    12.9440    19.7760
  245.0000     9.4030     2.2950     0.0900    52.8200   -29.3340    12.6440    13.1890    20.5570
  245.5000     9.3960     2.2820     0.0870    53.8290   -28.9680    12.7140    13.4350    19.7150
  246.0000     9.3900     2.2770     0.0840    53.3920   -28.6010    12.7840    13.6800    19.2800
  246.5000     9.4040     2.2740     0.0820    53.0240   -28.2360    12.8540    13.9260    19.8180
  247.0000     9.4210     2.2620     0.0790    53.5040   -27.8810    12.9250    14.1710    18.9940
  247.5000     9.4380     2.2520     0.0790    53.1530   -27.7740    12.9950    14.4170    18.5860
  248.0000     9.4520     2.2490     0.0790    52.4190   -28.0120    13.0650    14.6620    18.5860
  248.5000     9.4590     2.2480     0.0790    53.2200   -28.2620    13.1350    14.9080    19.1040
  249.0000     9.4670     2.2420     0.0790    54.1770   -28.5150    13.2060    15.1530    20.5570
  249.5000     9.4750     2.2380     0.0810    54.8710   -28.7690    13.3370    15.3990    20.2240
  250.0000     9.4820     2.2450     0.0830    55.3990   -29.0230    13.5310    15.6610    19.7280
  250.5000     9.4680     2.2540     0.0840    57.5150   -29.2770    13.7250    15.9310    19.2800
  251.0000     9.4650     2.2640     0.0860    59.6190   -29.4050    13.8670    16.2000    19.2800
  251.5000     9.4880     2.2830     0.0880    60.3590   -29.4030    13.8840    16.4990    20.2980
  252.0000     9.5110     2.3050     0.0890    60.5820   -29.1960    13.9000    16.4170    21.8350
  252.5000     9.5370     2.3280     0.0910    60.5520   -28.9610    13.9170    16.2530    21.3860
  253.0000     9.5700     2.3460     0.0930    60.2210   -28.7250    13.9340    16.0880    20.7870
  253.5000     9.5820     2.3530     0.0920    59.9390   -28.4890    13.9510    15.9240    20.1880
  254.0000     9.5720     2.3550     0.0920    61.1160   -28.0760    13.9680    15.9050    20.0000
  254.5000     9.5690     2.3520     0.0920    62.7210   -27.5840    13.9840    16.1900    20.0170
  255.0000     9.5980     2.3470     0.0910    62.9080   -27.0950    14.1570    16.6080    20.0790
  255.5000     9.6250     2.3430     0.0910    62.9100   -26.8300    14.5050    17.0260    20.1400
  256.0000     9.6310     2.3480     0.0900    63.8570   -26.0320    14.8520    17.4440    20.1840
  256.5000     9.6260     2.3440     0.0890    62.3090   -25.1240    15.2000    17.8610    20.6850
  257.0000     9.5980     2.3400     0.0880    60.7810   -24.3780    15.5480    18.2790    21.4260
  257.5000     9.5730     2.3400     0.0870    60.1290   -24.1410    15.8960    19.0110    23.2260
  258.0000     9.5470     2.3430     0.0860    58.8360   -23.8950    16.2440    20.3700    26.8160
  258.5000     9.5180     2.3380     0.0850    57.9400   -23.7660    16.4990    19.5440    35.3020
  259.0000     9.4820     2.3400     0.0840    58.0440   -23.6560    15.9960    17.7740    31.6010
  259.5000     9.4450     2.3490     0.0830    56.6470   -23.5460    15.6000    16.0040    24.7510
  260.0000     9.4090     2.3570     0.0830    57.2430   -23.4370    15.2030    15.6160    21.2440
  260.5000     9.3830     2.3650     0.0830    57.9570   -23.3280    14.8070    15.9050    19.6370
