~VERSION INFORMATION
 VERS.                2.0:   CWLS LOG ASCII STANDARD - VERSION 2.0
 WRAP.                 NO:   ONE LINE PER DEPTH STEP
~WELL INFORMATION
#MNEM.UNIT      DATA TYPE    INFORMATION
#----------   ------------   ------------------------------
 STRT.F            8.0000:   START DEPTH
 STOP.F         3021.0000:   STOP DEPTH
 STEP.F            0.5000:   STEP LENGTH
 NULL.          -999.2500:   NO VALUE
 COMP. LAWRENCE ALLISON & ASSOCIATES W:   COMPANY
 WELL. LAWRENCE ALLISON #68-28:   WELL
 FLD .              NPR 3:   FIELD
 LOC .      S28 T39N R78W:   LOCATION
 CNTY.            NATRONA:   COUNTY
 STAT.            WYOMING:   STATE
 CTRY. UNITED STATES OF AMERICA:   COUNTRY
 SRVC.      DRESSER ATLAS:   SERVICE COMPANY
 DATE.        19-DEC-1986:   LOGDATE
 API .     49025111580000:   API NUMBER
~CURVE INFORMATION
#MNEM.UNIT       API CODE    CURVE DESCRIPTION
#----------   ------------   ------------------------------
 DEPT.F                  :   
 SPR .MV     07 010 01 00:   SPONTANEOUS POTENTIAL
 TENR.LBS    07 635 01 00:   TENSION FROM RESISTIVITY
 RILD.OHMM   07 120 46 00:   DEEP INDUCTION RESISTIVITY
 RILM.OHMM   07 120 44 00:   INDUCTION LOG MEDIUM RESISTIVITY
 RFOC.OHMM   07 220 04 00:   RESISTIVITY FOCUSED LOG RES.
 CALD.IN     45 280 60 00:   CALIPER FROM DENSITY LOG
 CORR.G/C3   45 356 01 00:   DENSITY CORRECTION
 RHOB.G/C3   45 350 01 00:   BULK DENSITY
 CNC .DEC    42 890 03 00:   NEUTRON POROSITY SANDSTONE
 GRR .GAPI   07 310 01 00:   GAMMA RAY FROM RESISTIVITY
~PARAMETER INFORMATION
#MNEM.UNIT          VALUE    DESCRIPTION
#----------   ------------   ------------------------------
 EKB .F         5106.0000:   Kelly bushing
 EGL .F         5094.0000:   Ground level
 EDF .F            0.0000:   Drilling floor
 EPD .F         5094.0000:   Permanent datum
 TD  .F         3010.0000:   Total depth
 CLNT.            A2DTECH:   Client Code
 SL  . 1559'EL & 533' FSL:   Surface Location
 DATE.        19-DEC-1986:   Date Logged [DD-MMM-YYYY]
 DD  .F              3003:   Depth driller
 DL  .F              3010:   Depth logger
 BLI .F              3007:   Bottom log interval
 TLI .F                 0:   Top log interval
 CS1 .              8.625:   Casing size
 CBD1.      8.625" @ 389':   Casing driller 1
 CBL1.IN              405:   Casing logger 1
 BS1 .IN            7.875:   Bit size
 BSD1.F              3003:   Depth drilled with bit1
 DFT .        KCL POLYMER:   Type fluid in hole
 DFD .                9.0:   Density
 DFV .                 42:   Viscosity
 DFPH.                9.3:   pH
 DFL .                8.8:   Fluid loss
 MSS .           FLOWLINE:   Source of sample
 RMS .OHMM          0.484:   Rm
 MST .F                68:   Rm Meas. temp.
 RMF .OHMM          0.392:   Rmf
 MFST.F                68:   Rmf Meas. temp.
 MFSS.               MEAS:   Source Rmf.
 RMC .OHMM          0.605:   Rmc
 MCST.F                68:   Rmc Meas. temp.
 MCSS.               CALC:   Source Rmc.
 RMB .OHMM          0.269:   Rm. at BHT
 BHT .F               122:   BHT.
 TCS .HRS             3.5:   Time Circ. stopped
 MRT .F               122:   Maximum recorded temp.
 LUN .            HL-6274:   Logging unit number
 LUL .           GILLETTE:   Logging unit location
 ENGI.             RAUTIO:   Recorded By
 WITN.             STRONG:   Witnessed by
 ORIG.        2" 5" PRINT:   Origin of data
 UWI .     49025111580000:   Unique Well ID
 DICO. A2D TECHNOLOGIES, INC.:   Digitizing Company
~OTHER INFORMATION
~A    DEPT     SPR       TENR       RILD       RILM       RFOC       CALD       CORR       RHOB        CNC        GRR   
# ...
 2621.0000   -37.6463   -61.7187     5.7113     6.5251     7.6434    10.0068    -0.0006     2.5064     0.2093   105.2099
 2621.5000   -37.7963   -61.2571     5.6691     6.2484     7.6981     9.9916     0.0039     2.5173     0.2100   106.1478
 2622.0000   -37.7902   -53.0642     5.6272     5.8556     7.0053     9.9919     0.0191     2.5251     0.2112   107.0792
 2622.5000   -37.7841   -52.6836     5.5855     5.7299     6.7552     9.9923     0.0237     2.5313     0.2046   107.7089
 2623.0000   -37.9356   -52.3031     5.5044     5.7295     6.7056     9.9769     0.0207     2.5298     0.2009   108.6403
 2623.5000   -37.9280   -59.8303     5.3467     5.8123     6.6562     9.9929     0.0086     2.5243     0.2040   111.0800
 2624.0000   -38.0779   -59.3548     5.1563     5.8141     6.5123    10.0400     0.0026     2.5196     0.2084   113.8862
 2624.5000   -38.0717   -58.9742     5.0448     5.6440     6.2316    10.1026     0.0192     2.5258     0.2121   115.9659
 2625.0000   -38.0656   -58.5937     4.9715     5.4789     5.9543     9.9626     0.0223     2.5328     0.2146   117.5006
 2625.5000   -38.2157   -50.3907     4.9702     5.4457     6.0546     9.9473     0.0208     2.5390     0.2218   121.7503
 2626.0000   -38.2081   -49.9251     5.0054     5.6859     6.0101     9.9314     0.0178     2.5429     0.2234   126.3015
 2626.5000   -38.5141   -49.5447     5.0768     5.8519     5.8801     9.8833     0.0103     2.5475     0.2203   127.5346
 2627.0000   -38.5080   -49.1642     5.1495     5.8093     5.8369     9.8390    -0.0003     2.5514     0.2122   127.8560
 2627.5000   -38.6594   -56.6914     5.2235     5.6847     6.1841     9.8081     0.0028     2.5506     0.2055   123.3642
 2628.0000   -38.9639   -56.2157     5.3750     5.7668     7.0440     9.8241     0.0195     2.5412     0.2100   117.3538
 2628.5000   -39.1139   -63.7430     5.5311     5.9350     6.9417     9.8244     0.0316     2.5339     0.2141   116.7805
 2629.0000   -39.2637   -63.2673     5.7829     6.1545     6.7426     9.8403     0.0316     2.5248     0.2172   120.4334
 2629.5000   -39.2574   -62.8869     6.1159     6.4384     6.7417     9.8249     0.0211     2.5193     0.2159   122.2697
 2630.0000   -39.0941   -46.8749     6.4313     6.9032     7.0909     9.8253     0.0045     2.5162     0.1926   122.5978
 2630.5000   -39.0880   -37.3228     6.7629     7.4186     8.0769     9.8412    -0.0046     2.5200     0.1913   121.1159
 2631.0000   -39.0819   -22.5878     6.9594     8.2056     9.5392     9.8248    -0.0049     2.5286     0.1901   105.9863
 2631.5000   -39.0758   -30.1149     7.1616     8.3845     9.8898     9.8079    -0.0060     2.5333     0.1854    98.0293
 2632.0000   -38.9137   -37.4518     7.3167     7.9713     8.9998     9.7953    -0.0045     2.5356     0.1839    92.2402
 2632.5000   -38.9077   -37.0713     7.4752     7.7442     8.4308     9.7957     0.0001     2.5363     0.1873    94.9816
 2633.0000   -38.9016   -36.6909     7.5840     7.7437     7.9552     9.7960     0.0122     2.5379     0.2019   100.7395
 2633.5000   -38.8898   -44.2180     7.6354     7.7992     7.8397     9.7963     0.0198     2.5347     0.2110   101.0675
 2634.0000   -38.7333   -51.5624     7.6334     7.8634     7.9544     9.7966     0.0244     2.5285     0.2095   100.7857
 2634.5000   -38.5699   -51.1719     7.6875     7.9685     8.1340     9.7657     0.0214     2.5277     0.2057   102.0253
 2635.0000   -38.5638   -51.8302     7.6855     8.2601     8.4248     9.7504     0.0229     2.5292     0.2007   104.4650
 2635.5000   -38.4017   -58.2260     7.6838     8.6869     8.6709     9.7194     0.0260     2.5370     0.1955   107.5502
 2636.0000   -38.3956   -57.7503     7.6822     8.7493     8.8601     9.7026     0.0260     2.5424     0.1923   109.6460
 2636.5000   -38.3896   -57.3699     7.6254     8.5614     9.2522     9.6733     0.0214     2.5463     0.1902   106.0591
 2637.0000   -38.5395   -56.9895     7.4070     8.1397     9.6616     9.6581     0.0119     2.5494     0.1892   102.4656
 2637.5000   -38.6895   -56.6089     7.2425     7.6279    10.0164     9.6428     0.0019     2.5469     0.1917   101.2787
 2638.0000   -38.8434   -56.2284     7.0900     7.3031     9.6589     9.6274    -0.0056     2.5376     0.1911   103.4234
 2638.5000   -38.9893   -55.8480     6.9870     7.1479     8.2952     9.6278    -0.0071     2.5243     0.2073   110.9912
 2639.0000   -38.9817   -55.4676     6.9353     7.1472     7.3271     9.6124     0.0005     2.4986     0.2072   122.4807
 2639.5000   -38.9756   -55.0781     6.9338     7.3558     6.9035     9.6128     0.0141     2.4923     0.2040   124.6187
 2640.0000   -38.9696   -54.6114     6.9825     7.5704     7.1218     9.6131     0.0338     2.5032     0.1999   120.1419
 2640.5000   -38.9635   -54.2310     7.0825     7.6799     8.5339     9.5978     0.0383     2.5344     0.2011   107.4836
 2641.0000   -38.9574   -53.8504     7.1839     7.7907     9.3749     9.5981     0.0202     2.5430     0.2046   105.9950
 2641.5000   -38.9513   -53.4699     7.3926     7.7901     9.0403     9.5985    -0.0069     2.5365     0.2083   106.3297
 2642.0000   -38.7892   -53.0895     7.5599     7.8459     8.4076     9.5988    -0.0250     2.5281     0.2292   109.0710
 2642.5000   -38.6272   -52.7091     7.7722     7.8454     7.9333     9.5991    -0.0232     2.5226     0.2379   111.5107
 2643.0000   -38.6209   -52.3285     7.8268     7.9016     7.9257     9.5994    -0.0094     2.5218     0.2407   112.7438
 2643.5000   -38.4575   -51.9480     7.8818     7.9009     8.4041     9.5997    -0.0053     2.5226     0.2398   112.4676
 2644.0000   -38.2954   -51.5625     7.9372     7.9576     8.6498     9.5844    -0.0189     2.5233     0.2270   110.9866
 2644.5000   -38.2893   -52.4244     7.8214     7.9569     8.8382     9.5847    -0.0052     2.5241     0.2192   110.1080
 2645.0000   -38.2833   -58.6190     7.8105     8.0290     8.9660     9.5850     0.0054     2.5287     0.2167   110.4427
 2645.5000   -38.2772   -58.1435     8.0470     8.0290     9.0302     9.5853     0.0069     2.5342     0.2149   109.8658
 2646.0000   -38.2711   -57.7631     8.2848     8.0290     9.0942     9.5856     0.0266     2.5349     0.2236   108.6855
 2646.5000   -38.2651   -65.2902     8.4597     8.0851     9.2926     9.5860     0.0342     2.5318     0.2249   106.2987
 2647.0000   -38.2590   -64.8145     8.5196     8.1416     9.5675     9.5863     0.0297     2.5318     0.2199   103.0068
 2647.5000   -38.2527   -64.4341     8.5173     8.1416     9.8161     9.5866     0.0131     2.5333     0.2115    98.8100
 2648.0000   -38.5573   -64.0537     8.4052     8.0290     9.3482     9.5869    -0.0096     2.5333     0.2050    97.5563
 2648.5000   -38.7073   -63.6719     8.1724     7.8629     9.0909     9.5872    -0.0202     2.5286     0.2012   100.6727
 2649.0000   -38.8587   -63.2812     7.9028     7.5937     8.7792     9.5875    -0.0231     2.5200     0.2011   104.0502
 2649.5000   -38.8511   -62.8171     7.6874     7.4367     8.4192     9.5722    -0.0155     2.5184     0.2065   106.4637
 2650.0000   -38.8450   -62.4365     7.5302     7.3338     8.1306     9.5881    -0.0019     2.5238     0.2159   107.3951
 2650.5000   -38.9965   -62.0561     7.3763     7.2828     7.8518     9.5841     0.0027     2.5255     0.2252   107.4168
 2651.0000   -38.8329   -61.6756     7.3265     7.2323     7.5826     9.5802     0.0012     2.5308     0.2296   107.4348
 2651.5000   -38.8268   -61.2952     7.2775     7.2828     7.5734     9.5762     0.0020     2.5402     0.2311   106.2498
 2652.0000   -38.8206   -68.4375     7.3310     7.3850     8.0179     9.5722     0.0082     2.5456     0.2327   104.4606
 2652.5000   -38.8132   -67.9667     7.4361     7.5410     8.5973     9.5683     0.0269     2.5495     0.2330   102.9731
 2653.0000   -38.6511   -67.1428     7.5955     7.6468     8.5990     9.5643     0.0285     2.5495     0.2302   102.3853
 2653.5000   -38.6450   -67.0312     7.7583     7.7541     8.1875     9.5603     0.0222     2.5479     0.2255   101.8028
 2654.0000   -38.8456   -66.5625     7.9800     7.9216     8.3661     9.5563     0.0176     2.5455     0.2187   101.5264
