~VERSION INFORMATION
 VERS.                2.0:   CWLS LOG ASCII STANDARD - VERSION 2.0
 WRAP.                 NO:   ONE LINE PER DEPTH STEP
~WELL INFORMATION
#MNEM.UNIT      DATA TYPE    INFORMATION
#----------   ------------   ------------------------------
 STRT.F          200.0000:   START DEPTH
 STOP.F         3160.0000:   STOP DEPTH
 STEP.F            0.5000:   STEP LENGTH
 NULL.          -999.2500:   NO VALUE
 COMP.    FENIX & SCISSON:   COMPANY
 WELL. FENIX NPR 3 "AX" #72-3:   WELL
 FLD .             TEAPOT:   FIELD
 LOC .       S3 T38N R78W:   LOCATION
 CNTY.            NATRONA:   COUNTY
 STAT.            WYOMING:   STATE
 CTRY. UNITED STATES OF AMERICA:   COUNTRY
 SRVC.           BIRDWELL:   SERVICE COMPANY
 DATE.        10-JAN-1978:   LOGDATE
 API .     49025105530000:   API NUMBER
~CURVE INFORMATION
#MNEM.UNIT       API CODE    CURVE DESCRIPTION
#----------   ------------   ------------------------------
 DEPT.F                  :   
 CALD.IN     45 280 60 00:   CALIPER FROM DENSITY LOG
 GRD .GAPI   45 310 01 00:   GAMMA RAY FROM DENSITY LOG
 DEN .LBS    45 635 01 00:   BUCK DENSITY
 CORR.G/C3   45 356 01 00:   DENSITY CORRECTION
 SPR .MV     07 010 01 00:   SPONTANEOUS POTENTIAL
 ILD .OHMM   07 120 46 00:   DEEP INDUCTION RESISTIVITY
 ILM .OHMM   07 120 44 00:   INDUCTION LOG MEDIUM RESISTIVITY
~PARAMETER INFORMATION
#MNEM.UNIT          VALUE    DESCRIPTION
#----------   ------------   ------------------------------
 EKB .F         5164.0000:   Kelly bushing
 EGL .F         5153.0000:   Ground level
 TD  .F         3157.0000:   Total depth
 DATE.        10-JAN-1978:   Date logged
 CLNT.            A2DTECH:   Client Code
 SL  . 900' FNL & 900' FEL:   Surface Location
 PD  .                 GL:   Permanent Datum
 EPD .F              5153:   Elevation Permanent Datum
 LMF .                 KB:   Log Measured From
 DMF .                 KB:   Drilling Measured From
 DAPD.F                11:   Feet Above Permanent Datum
 DD  .F              3156:   Depth driller
 DL  .F              3157:   Depth logger
 BLI .F              3157:   Bottom log interval
 TLI .F               200:   Top log interval
 CS1 .IN            8.625:   Casing size
 CBD1.      8.625" @ 222':   Casing driller 1
 CBL1.F               220:   Casing logger 1
 BS1 .IN            7.875:   Bit size
 BSD1.F              3156:   Depth drilled with bit1
 DFT .                KCL:   Type fluid in hole
 DFD .                8.5:   Density
 DFV .                 36:   Viscosity
 DFPH.                 10:   pH
 DFL .                8.8:   Fluid loss
 MSS .           FLOWLINE:   Source of sample
 RMS .OHMM            1.4:   Rm
 MST .F                66:   Rm Meas. temp.
 RMF .OHMM            .85:   Rmf
 MFST.F                74:   Rmf Meas. temp.
 RMC .OHMM            1.4:   Rmc
 MCST.F                72:   Rmc Meas. temp.
 MFSS.               MEAS:   Source Rmf.
 MCSS.               MEAS:   Source Rmc.
 RMB .OHMM            .83:   Rm. at BHT
 BHT .F               112:   BHT.
 TCS .HRS               4:   Time Circ. stopped
 MRT .F               112:   Maximum recorded temp.
 LUN .               2958:   Logging unit number
 LUL .             CASPER:   Logging unit location
 ENGI.            POINTER:   Recorded By
 WITN.         HARRINGTON:   Witnessed by
 ORIG.           5" PRINT:   Origin of data
 UWI .     49025105530000:   Unique Well ID
 DICO. A2D TECHNOLOGIES, INC.:   Digitizing Company
~OTHER INFORMATION
~A   DEPT     CALD        GRD          DEN     CORR        SPR        ILD        ILM   
# ...
 1383.0000    10.0247    89.4665     2.5238     0.0526   -46.8261    11.7426    10.2261
 1383.5000    10.0249    89.0727     2.5208     0.0526   -46.6230    11.7436    10.2271
 1384.0000    10.0250    90.2614     2.5198     0.0506   -46.8190    11.8535    10.2280
 1384.5000    10.0252    90.8566     2.5188     0.0506   -46.6159    11.7458    10.2289
 1385.0000    10.0253    90.8584     2.5198     0.0506   -46.6124    11.7469    10.3246
 1385.5000    10.0255    90.8602     2.5208     0.0486   -46.4093    11.7480    10.3256
 1386.0000    10.0256    90.6642     2.5168     0.0426   -46.4058    11.7491    10.3265
 1386.5000    10.0258    90.6659     2.5108     0.0367   -46.6018    11.7501    10.3275
 1387.0000    10.0259    90.6677     2.5109     0.0367   -46.5983    11.8600    10.3284
 1387.5000    10.0261    90.6695     2.5089     0.0387   -46.5948    11.8611    10.4250
 1388.0000    10.0262    90.6713     2.4939     0.0367   -46.5912    11.8622    10.4260
 1388.5000    10.0264    90.6730     2.4889     0.0367   -46.5877    11.9732    10.8186
 1389.0000    10.0265    90.6748     2.4759     0.0347   -46.5842    11.9743    10.9198
 1389.5000    10.0267    90.8743     2.4769     0.0347   -46.5806    11.8657    11.0220
 1390.0000    10.0268    92.0626     2.4819     0.0387   -46.5771    12.1994    11.0230
 1390.5000    10.0270    92.8553     2.4889     0.0407   -46.9727    12.0885    11.0240
 1391.0000    10.0271    93.4502     2.4919     0.0427   -47.1688    12.0896    11.0250
 1391.5000    10.0272    93.0565     2.4780     0.0487   -47.3648    12.0908    11.0260
 1392.0000    10.0274    92.2673     2.4780     0.0547   -47.3613    11.9809    11.0270
 1392.5000    10.0275    92.2690     2.4830     0.0607   -47.3578    12.0930    11.0281
 1393.0000    10.0277    92.2707     2.4910     0.0627   -47.1547    12.0941    11.0291
 1393.5000    10.0278    92.2724     2.4979     0.0647   -47.3507    12.0952    11.0301
 1394.0000    10.0280    93.0650     2.5049     0.0667   -47.1483    12.0963    11.0311
 1394.5000    10.0281    93.4621     2.5079     0.0648   -47.1448    12.0975    11.0321
 1395.0000    10.0283    93.4638     2.5069     0.0648   -46.9417    12.0986    11.0332
 1395.5000    10.0284    93.4655     2.5079     0.0588   -46.7386    12.0997    11.0342
 1396.0000    10.0286    93.2695     2.5089     0.0588   -46.7350    12.1008    11.0352
 1396.5000    10.0287    93.0735     2.5129     0.0588   -46.7315    12.1019    11.0362
 1397.0000    10.0289    92.6799     2.5159     0.0468   -46.7280    12.1030    11.0372
 1397.5000    10.0290    91.2980     2.5189     0.0429   -46.7244    12.1042    11.0382
 1398.0000    10.0292    90.1138     2.5199     0.0409   -46.7209    12.2174    11.1415
 1398.5000    10.0293    90.3132     2.5150     0.0429   -46.7174    12.2190    11.1425
 1399.0000    10.0295    90.3150     2.5090     0.0449   -46.7139    12.2196    11.6694
 1399.5000    10.0296    89.5262     2.5040     0.0509   -46.7103    11.9975    11.7783
 1400.0000    10.0297    87.9470     2.5050     0.0549   -46.7068    12.2218    11.8883
 1400.5000    10.0299    86.4234     2.5041     0.0604   -46.7027    12.2233    11.8897
 1401.0000    10.0300    85.3792     2.5100     0.0609   -46.9029    12.0037    11.8931
 1401.5000    10.0301    85.5776     2.5200     0.0610   -46.9013    12.0064    11.8957
 1402.0000    10.0302    87.1593     2.5250     0.0610   -47.2989    11.8989    11.8989
 1402.5000    10.0303    88.3459     2.5210     0.0610   -47.0978    11.7924    11.9016
 1403.0000    10.0304    89.1373     2.5210     0.0610   -46.8966    11.7950    11.7945
 1403.5000    10.0305    90.3240     2.5220     0.0611   -47.0946    11.7976    11.6894
 1404.0000    10.0306    91.3131     2.5220     0.0611   -47.0921    11.8003    11.6915
 1404.5000    10.0307    91.3140     2.5211     0.0611   -46.8919    11.8029    11.6946
 1405.0000    10.0308    90.7218     2.5211     0.0611   -46.8903    11.8055    11.6972
 1405.5000    10.0308    91.1179     2.5281     0.0632   -46.6892    11.8082    11.6998
 1406.0000    10.0309    91.3164     2.5291     0.0612   -46.6877    11.8108    11.7024
 1406.5000    10.0310    90.7242     2.5241     0.0632   -46.6861    11.8135    11.7045
 1407.0000     9.9718    90.5273     2.5201     0.0652   -46.6845    11.8161    11.7077
 1407.5000     9.9719    89.5397     2.5191     0.0653   -46.6829    11.8188    11.7103
 1408.0000     9.9720    87.5635     2.5101     0.0633   -46.6814    11.8214    11.6044
 1408.5000     9.9721    85.3896     2.5072     0.0653   -46.6798    11.8235    11.6075
 1409.0000     9.9722    84.9949     2.5102     0.0613   -46.6783    11.8262    11.5030
 1409.5000     9.9723    85.9841     2.5152     0.0614   -46.6767    11.7202    11.4005
 1410.0000     9.9724    89.1482     2.5222     0.0674   -46.6751    11.6153    11.1961
 1410.5000     9.9725    90.5328     2.5302     0.0634   -46.6735    11.9438    11.0728
 1411.0000     9.9726    93.1039     2.5252     0.0574   -46.6720    11.9464    10.8940
 1411.5000     9.9727    95.0819     2.5162     0.0535   -46.6704    11.8394    10.7964
 1412.0000     9.9728    95.6760     2.5302     0.0395   -46.6689    11.9518    10.6997
 1412.5000     9.9729    95.4792     2.5302     0.0376   -46.6673    11.8447    10.7016
 1413.0000     9.9730    93.5028     2.5262     0.0316   -46.6657    11.9571    10.7040
 1413.5000     9.9731    91.1308     2.5212     0.0336   -46.6642    11.9598    10.7068
 1414.0000     9.9732    89.9452     2.5183     0.0396   -46.6626    11.9625    10.7092
 1414.5000     9.9733    89.5505     2.5163     0.0397   -46.6610    11.9652    10.8108
 1415.0000     9.9734    89.3536     2.5093     0.0397   -46.6595    11.9689    10.8132
 1415.5000     9.9735    89.3543     2.5053     0.0417   -46.6579    11.9705    10.9158
 1416.0000     9.9736    89.1574     2.5133     0.0437   -46.6563    11.8633    10.9183
 1416.5000     9.9539    89.1581     2.5153     0.0457   -46.6548    11.9759    10.5251
 1417.0000     9.9540    90.1477     2.5123     0.0458   -46.6532    11.8686    10.5275
 1417.5000     9.9541    92.3240     2.5103     0.0458   -46.6516    11.8712    10.4331
 1418.0000     9.9542    93.5114     2.5054     0.0458   -46.6504    11.8739    10.4354
 1418.5000     9.9543    94.1056     2.5104     0.0498   -46.6488    11.8766    10.4377
 1419.0000     9.9544    94.1065     2.5064     0.0499   -46.6473    12.0999    10.5368
 1419.5000     9.9545    94.3050     2.5004     0.0519   -46.6457    11.8814    10.4424
 1420.0000     9.9546    94.3059     2.5024     0.0619   -46.6441    11.8840    10.4442
 1420.5000     9.9547    93.9112     2.5024     0.0619   -46.6426    11.8867    10.3506
 1421.0000     9.9548    93.9120     2.4994     0.0620   -46.6410    11.8893    10.2578
 1421.5000     9.9549    94.7041     2.5124     0.0680   -46.6394    11.8920    10.2601
 1422.0000     9.9550    95.1006     2.5214     0.0680   -46.6379    11.8947    10.2624
 1422.5000     9.9551    94.5081     2.5244     0.0680   -46.6363    11.8973    10.2647
 1423.0000     9.9552    92.9265     2.5264     0.0680   -46.6348    11.9000    10.2669
 1423.5000     9.9553    91.1470     2.5254     0.0701   -46.6332    11.9027    10.2692
 1424.0000     9.9554    89.3675     2.5205     0.0701   -46.6316    11.7960    10.2715
 1424.5000     9.9555    89.5661     2.5175     0.0661   -46.6301    11.9080    10.2738
 1425.0000     9.9556    90.9516     2.5185     0.0622   -46.6285    11.9107    10.2760
 1425.5000     9.9557    92.3372     2.5245     0.0522   -46.6269    11.9133    10.2783
 1426.0000     9.9558    93.3273     2.5285     0.0502   -46.6254    11.9160    10.2806
 1426.5000     9.9559    93.1303     2.5295     0.0483   -46.6238    11.9187    10.2829
 1427.0000     9.9560    92.1419     2.5315     0.0503   -46.6222    11.9213    10.2851
 1427.5000     9.9561    91.9449     2.5175     0.0483   -46.6207    11.9240    10.2874
 1428.0000     9.9562    93.3307     2.5046     0.0403   -46.8184    11.9267    10.2897
