~VERSION INFORMATION
 VERS.                2.0:   CWLS LOG ASCII STANDARD - VERSION 2.0
 WRAP.                 NO:   ONE LINE PER DEPTH STEP
~WELL INFORMATION
#MNEM.UNIT      DATA TYPE    INFORMATION
#----------   ------------   ------------------------------
 STRT.F          290.0000:   START DEPTH
 STOP.F         2884.0000:   STOP DEPTH
 STEP.F            0.5000:   STEP LENGTH
 NULL.          -999.2500:   NO VALUE
 COMP.   FENNIX & SCISSON:   COMPANY
 WELL. FENIX & SCISSON AX #22-28:   WELL
 FLD .             NPR #3:   FIELD
 LOC .      S28 T39N R78W:   LOCATION
 CNTY.            NATRONA:   COUNTY
 STAT.            WYOMING:   STATE
 CTRY. UNITED STATES OF AMERICA:   COUNTRY
 SRVC.              WELEX:   SERVICE COMPANY
 DATE.        29-DEC-1979:   LOGDATE
 API .     49025107930000:   API NUMBER
~CURVE INFORMATION
#MNEM.UNIT       API CODE    CURVE DESCRIPTION
#----------   ------------   ------------------------------
 DEPT.F                  :   
 GRD .GAPI   45 310 01 00:   GAMMA RAY FROM DENSITY LOG
 CALD.IN     45 280 60 00:   CALIPER FROM DENSITY LOG
 CORR.G/C3   45 356 01 00:   DENSITY CORRECTION
 RHOB.G/C3   45 350 01 00:   BULK DENSITY
 NPHI.DEC    42 890 03 00:   NEUTRON POROSITY SANDSTONE
 SPR .MV     07 010 01 00:   SPONTANEOUS POTENTIAL
 TENR.LBS    07 635 01 00:   TENSION FROM RESISTIVITY
 ILD .OHMM   07 120 46 00:   DEEP INDUCTION RESISTIVITY
 ILM .OHMM   07 120 44 00:   INDUCTION LOG MEDIUM RESISTIVITY
 SGRD.OHMM   07 220 08 00:   LATEROLOG-8 RES.
~PARAMETER INFORMATION
#MNEM.UNIT          VALUE    DESCRIPTION
#----------   ------------   ------------------------------
 EKB .F         4988.0000:   Kelly bushing
 EGL .F         4978.0000:   Ground level
 EPD .F         4978.0000:   Permanent datum
 TD  .F         2872.0000:   Total depth
 CLNT.            A2DTECH:   Client Code
 SL  . 803' FNL & 938' FWL:   Surface Location
 DATE.        29-DEC-1979:   Date Logged [DD-MMM-YYYY]
 DD  .F              2868:   Depth driller
 DL  .F              2872:   Depth logger
 BLI .F              2870:   Bottom log interval
 TLI .F               300:   Top log interval
 CS1 .              8.625:   Casing size
 CBD1.      8.625" @ 318':   Casing driller 1
 CBL1.IN              318:   Casing logger 1
 BS1 .IN            7.875:   Bit size
 BSD1.F              2868:   Depth drilled with bit1
 DFT .          GEL-BENEX:   Type fluid in hole
 DFD .                8.8:   Density
 TCS .HRS              10:   Time Circ. stopped
 MRT .F               109:   Maximum recorded temp.
 ENGI.               REIN:   Recorded By
 WITN.          MR. AMEND:   Witnessed by
 ORIG.      2.5" 5" PRINT:   Origin of data
 UWI .     49025107930000:   Unique Well ID
 DICO. A2D TECHNOLOGIES, INC.:   Digitizing Company
 PD  .                 GL:   Permanent Datum
 LMF .                 KB:   Log Measured From
 DMF .                 KB:   Drilling Measured From
~OTHER INFORMATION
~A   DEPT       GRD        CALD     CORR         RHOB       NPHI      SPR       TENR        ILD        ILM       SGRD   
# ...
  625.0000    99.4104     8.7727    -0.0117     2.5197     0.2680   -70.8333  1160.7142    12.2108    11.3726    11.3630
  625.5000    96.7736     8.7741    -0.0147     2.5214     0.2630   -70.8274  1160.1190    12.3824    11.3765    11.3685
  626.0000    97.4057     8.8061    -0.0192     2.5137     0.2611   -70.8214  1159.5237    12.2172    11.3804    11.3450
  626.5000    98.9294     8.8075    -0.0190     2.5065     0.2651   -70.8155  1158.8680    12.3895    11.3843    11.2240
  627.0000   100.7502     8.7781    -0.0173     2.5137     0.2625   -70.8095  1158.3333    12.3929    11.3882    11.2299
  627.5000   102.8682     8.8412    -0.0125     2.5128     0.2647   -70.8036  1157.7380    12.3963    11.3920    11.2353
  628.0000    99.9108     8.9040    -0.0124     2.5204     0.2671   -70.7976  1157.1428    12.3997    11.3960    11.3958
  628.5000   100.6837     8.8747    -0.0107     2.5190     0.2702   -70.7917  1156.5476    12.4031    11.3998    11.5586
  629.0000   103.2882     8.8146    -0.0043     2.5214     0.2701   -70.7857  1155.9524    12.4065    11.3656    11.6035
  629.5000   100.6514     8.7698     0.0052     2.5275     0.2692   -70.7797  1155.3571    12.3666    11.2521    11.7293
  630.0000    97.4202     8.7097    -0.0009     2.5314     0.2682   -71.0702  1154.7618    12.2439    11.2564    11.7349
  630.5000    95.9721     8.6650    -0.0055     2.5285     0.2682   -71.0643  1154.1666    12.2477    11.2603    11.7406
  631.0000    96.0099     8.6664    -0.0115     2.5256     0.2712   -71.0584  1153.5714    12.2511    11.2641    11.5412
  631.5000    96.9392     8.6524    -0.0067     2.5212     0.2743   -71.0525  1152.9762    12.0871    11.2680    11.2777
  632.0000    98.4629     8.6540    -0.0004     2.5258     0.2767   -71.0466  1152.3809    12.0909    11.2249    11.1295
  632.5000    99.3922     8.6554     0.0013     2.5276     0.2739   -71.0406  1151.7856    12.0942    11.1219    10.9832
  633.0000   100.6187     8.6567    -0.0002     2.5215     0.2720   -71.0347  1151.1904    12.0975    11.1262    10.9893
  633.5000   101.8636     8.6424    -0.0067     2.5163     0.2732   -71.3264  1150.5952    11.9356    10.8302    10.9946
  634.0000   103.4766     8.6594    -0.0107     2.5101     0.2704   -71.3205  1149.9999    11.9394    10.8339    10.9998
  634.5000   103.7038     8.6608    -0.0043     2.5053     0.2657   -71.3146  1149.4047    11.9427    10.9869    11.0051
  635.0000   101.6708     8.6464     0.0098     2.5197     0.2607   -71.3086  1148.8094    11.9459    11.1421    11.1624
  635.5000    99.9255     8.6481     0.0209     2.5288     0.2566   -71.3027  1148.2142    12.1141    11.1459    11.1677
  636.0000    97.5859     8.6495     0.0272     2.5334     0.2547   -71.2968  1147.6189    12.1175    11.3033    11.3272
  636.5000    95.5434     8.6355     0.0165     2.5298     0.2571   -71.2909  1147.0237    12.2880    11.3071    11.3327
  637.0000    94.0953     8.6369     0.0088     2.5239     0.2577   -71.2849  1146.4285    12.3603    11.3110    11.1838
  637.5000    92.0529     8.6228     0.0012     2.5202     0.2555   -71.2790  1145.8333    12.8845    10.4948    10.8248
  638.0000    90.6048     8.5938    -0.0034     2.5188     0.2620   -71.2731  1145.2380    13.8041    10.7157    10.8710
  638.5000    93.6143     8.5641    -0.0032     2.5107     0.2754   -71.2672  1144.6428    13.3020    11.1687    11.7607
  639.0000    96.6415     8.5043    -0.0077     2.5002     0.2805   -71.2613  1144.0476    12.9192    11.8011    11.0036
  639.5000   100.2941     8.4900    -0.0107     2.4966     0.2752   -71.2553  1143.4524    12.4941    11.6447    10.4815
  640.0000   104.7327     8.5531    -0.0153     2.5095     0.2823   -71.2494  1142.8572    11.9908    10.5845    10.3971
  640.5000   101.2043     8.6159    -0.0183     2.5036     0.2820   -71.2435  1142.2620    11.6581    10.5335    10.9121
  641.0000    96.4873     8.6633    -0.0197     2.5007     0.2850   -70.9399  1141.6667    11.6612    11.0356    11.3817
  641.5000    97.4166     8.6958    -0.0133     2.5060     0.2825   -70.9340  1141.0715    11.6644    11.1915    11.3872
  642.0000   100.4261     8.7582    -0.0069     2.5116     0.2791   -70.9281  1140.4763    11.6676    11.3496    11.1601
  642.5000   103.1385     8.7906    -0.0037     2.5213     0.2747   -70.9222  1142.1244    11.5119    11.0469    10.8620
  643.0000   105.2471     8.8073    -0.0035     2.5124     0.2697   -70.9163  1144.3402    11.2769    10.6061    10.7178
  643.5000   102.9169     8.8240    -0.0034     2.5185     0.2721   -70.9103  1146.5562    11.0543    10.3231    10.6534
  644.0000   100.8745     8.8561    -0.0032     2.5224     0.2708   -70.9044  1148.7721    11.0573    10.1862    10.6585
  644.5000    99.1263     8.8882    -0.0047     2.5278     0.2689   -70.8985  1150.9880    11.0603    10.3303    10.6636
  645.0000   100.4166     8.9049    -0.0061     2.5316     0.2714   -70.8926  1153.2040    11.0633    10.6206    10.8160
  645.5000   103.6718     8.9369    -0.0075     2.5362     0.2732   -70.8866  1155.4199    11.0664    10.6242    10.8212
  646.0000   104.2945     8.9536    -0.0058     2.5386     0.2744   -70.8807  1157.6359    11.0694    10.7743    10.8263
  646.5000   105.2333     8.9550    -0.0010     2.5425     0.2725   -70.8748  1159.8518    11.0725    10.7779    10.9811
  647.0000   108.2428     8.9717     0.0054     2.5471     0.2722   -70.8689  1162.0676    11.0761    10.7816    11.1390
  647.5000   110.0637     8.9888     0.0073     2.5510     0.2737   -70.8629  1163.6903    11.0791    10.7853    11.2981
  648.0000   108.3184     9.0055     0.0088     2.5512     0.2721   -71.1547  1163.0952    11.0821    10.7890    11.3035
  648.5000   105.6816     9.0068     0.0089     2.5414     0.2711   -71.1487  1162.5000    11.0852    10.7926    11.3089
  649.0000   104.2335     9.0235     0.0091     2.5325     0.2726   -71.1428  1161.9047    11.0882    10.7963    11.3143
  649.5000   103.3789     9.0249     0.0076     2.5279     0.2741   -71.1369  1161.3094    11.0912    10.8000    11.1656
  650.0000   105.2006     9.0262     0.0094     2.5236     0.2753   -71.1310  1160.7142    11.0942    10.6568    11.0188
  650.5000   107.3729     9.0276     0.0111     2.5186     0.2719   -71.4227  1160.1190    11.0973    10.6604    10.8732
  651.0000   110.4367     9.0289     0.0127     2.5239     0.2687   -71.4167  1159.5237    11.1003    10.6641    10.7311
  651.5000   113.6443     9.0456     0.0160     2.5293     0.2665   -71.7084  1158.9285    11.1033    10.5227    10.4460
  652.0000   114.5472     9.0459     0.0177     2.5339     0.2640   -71.7024  1158.3333    11.1063    10.3832    10.3087
  652.5000   111.0132     9.0458     0.0179     2.5363     0.2618   -71.6964  1157.7379    10.8090    10.3797    10.3136
  653.0000   108.6680     9.0456     0.0196     2.5326     0.2590   -71.6905  1157.1427    10.5196    10.2408    10.3185
  653.5000   108.0978     9.0455     0.0181     2.5297     0.2549   -71.6845  1156.5475    10.3788     9.6973    10.3235
  654.0000   109.7178     9.0453     0.0058     2.5358     0.2502   -71.6786  1155.9523    10.3820     9.7206    10.4709
  654.5000   106.6843     9.0452    -0.0065     2.5329     0.2495   -71.6726  1155.3571    10.3849     9.9950    10.9156
  655.0000   103.4475     9.0451    -0.0235     2.5173     0.2501   -71.6667  1154.7618    10.5311    10.1237    11.0716
  655.5000    99.2925     9.0449    -0.0257     2.5068     0.2470   -71.6607  1154.1666    10.9761    10.2667    11.5418
  656.0000    95.1085     9.0308    -0.0030     2.5122     0.2525   -71.6547  1153.5713    11.2842    10.2702    12.0320
  656.5000    94.9259     9.0329     0.0050     2.5304     0.2537   -71.6488  1152.9761    11.5192    10.2737    12.5430
  657.0000    98.2351     9.0345     0.0069     2.5411     0.2524   -71.6429  1152.3809    11.7867    10.2577    12.8978
  657.5000    99.1588     9.0362     0.0115     2.5434     0.2512   -71.6369  1151.7856    12.1193     9.8471    12.9039
  658.0000    96.5164     9.0379     0.0210     2.5382     0.2508   -71.6309  1151.1904    12.2916     9.5626    12.7343
