~VERSION INFORMATION
 VERS.                2.0:   CWLS LOG ASCII STANDARD - VERSION 2.0
 WRAP.                 NO:   ONE LINE PER DEPTH STEP
~WELL INFORMATION
#MNEM.UNIT      DATA TYPE    INFORMATION
#----------   ------------   ------------------------------
 STRT.F          502.0000:   START DEPTH
 STOP.F         3068.0000:   STOP DEPTH
 STEP.F            0.5000:   STEP LENGTH
 NULL.          -999.2500:   NO VALUE
 COMP. LAWRENCE ALLISON AND ASSOCIATES:   COMPANY
 WELL. LAWRENCE NPR TX #85-33:   WELL
 FLD .              N P R:   FIELD
 LOC .      S33 T39N R78W:   LOCATION
 CNTY.            NATRONA:   COUNTY
 STAT.            WYOMING:   STATE
 CTRY. UNITED STATES OF AMERICA:   COUNTRY
 SRVC.       SCHLUMBERGER:   SERVICE COMPANY
 DATE.        20-JUN-1982:   LOGDATE
 API .     49025107990001:   API NUMBER
~CURVE INFORMATION
#MNEM.UNIT       API CODE    CURVE DESCRIPTION
#----------   ------------   ------------------------------
 DEPT.F                  :   
 RHOB.G/C3   45 350 01 00:   BULK DENSITY
 GRD .GAPI   45 310 01 00:   GAMMA RAY FROM DENSITY LOG
 CALD.IN     45 280 60 00:   CALIPER FROM DENSITY LOG
 CORR.G/C3   45 356 01 00:   DENSITY CORRECTION
 TEND.LBS    45 635 01 00:   TENSION FROM DENSITY LOG
 NPHI.DEC    42 890 03 00:   NEUTRON POROSITY SANDSTONE
 TENR.LBS    07 635 01 00:   TENSION FROM RESISTIVITY
 SPR .MV     07 010 01 00:   SPONTANEOUS POTENTIAL
 ILD .OHMM   07 120 46 00:   DEEP INDUCTION RESISTIVITY
 ILM .OHMM   07 120 44 00:   INDUCTION LOG MEDIUM RESISTIVITY
 SFL .OHMM   07 220 01 00:   SHALLOW FOCUSED LOG RESISTIVITY
~PARAMETER INFORMATION
#MNEM.UNIT          VALUE    DESCRIPTION
#----------   ------------   ------------------------------
 EKB .F         5123.0000:   Kelly bushing
 EGL .F         5113.0000:   Ground level
 EDF .F         5122.0000:   Drilling floor
 EPD .F         5113.0000:   Permanent datum
 TD  .F         3100.0000:   Total depth
 DATE.        20-JUN-1982:   Date logged
 CLNT.            A2DTECH:   Client Code
 SL  . 2263' FSL & 293' FEL:   Surface Location
 PD  .                 GL:   Permanent Datum
 DD  .F              3100:   Depth driller
 DL  .F              3056:   Depth logger
 BLI .F              3050:   Bottom log interval
 CS1 .IN            9.625:   Casing size
 CBD1.      9.625" @ 524':   Casing driller 1
 CBL1.F               520:   Casing logger 1
 BS1 .IN            7.875:   Bit size
 DFT .           POLY/KCL:   Type fluid in hole
 DFD .                8.4:   Density
 DFV .                 40:   Viscosity
 DFPH.                7.6:   pH
 DFL .                 10:   Fluid loss
 MSS .               TANK:   Source of sample
 RMS .OHMM            .92:   Rm
 MST .F                66:   Rm Meas. temp.
 RMF .OHMM           .603:   Rmf
 MFST.F                68:   Rmf Meas. temp.
 MFSS.               MEAS:   Source Rmf.
 RMB .OHMM           .515:   Rm. at BHT
 BHT .F               118:   BHT.
 TCS .HRS             815:   Time Circ. stopped
 MRT .F               118:   Maximum recorded temp.
 LUN .               8035:   Logging unit number
 LUL .               CSPR:   Logging unit location
 ENGI.              PENNY:   Recorded By
 WITN.           JENNINGS:   Witnessed by
 ORIG.           5" PRINT:   Origin of data
 UWI .     49025107990001:   Unique Well ID
 DICO. A2D TECHNOLOGIES, INC.:   Digitizing Company
 DAPD.                 10:   Feet Above Permanent Datum
 BSD1.               3100:   Depth drilled with bit1
 TLI .                520:   Top log interval
 TLAB.               1100:   Time logger at bottom
~OTHER INFORMATION
~A   DEPT     RHOB         GRD      CALD       CORR       TEND       NPHI       TENR        SPR        ILD        ILM        SFL   
# ...
 1874.5000     2.4930   114.6480    10.3260     0.0120  1220.2380     0.4520  1557.8000   -42.9190     8.7750     8.6060    10.1210
 1875.0000     2.5000   112.9280    10.2980     0.0170  1220.2380     0.4430  1559.8850   -43.1090     8.6010     8.4360    10.0870
 1875.5000     2.5040   111.9860    10.2710     0.0230  1220.2380     0.4280  1561.9700   -43.2980     8.5140     8.4460    10.0540
 1876.0000     2.5110   111.9980    10.2430     0.0290  1220.2380     0.4120  1564.0551   -43.4970     8.5140     8.4590     9.9050
 1876.5000     2.5140   112.9450    10.2480     0.0310  1220.2380     0.3990  1566.1400   -43.5580     8.5320     8.4720     9.7720
 1877.0000     2.5020   115.6850    10.2550     0.0250  1220.2380     0.4090  1568.2250   -43.2220     8.5520     8.4850     9.9760
 1877.5000     2.4900   118.1660    10.2220     0.0200  1220.2380     0.4320  1570.3101   -42.7790     8.5720     8.4980    10.1970
 1878.0000     2.4830   119.2650    10.1860     0.0170  1220.2380     0.4400  1572.3950   -42.3470     8.5930     8.5140    10.4170
 1878.5000     2.4770   119.0640    10.1510     0.0150  1220.2380     0.4230  1574.4800   -41.9180     8.4470     8.3800    10.5160
 1879.0000     2.4710   117.9670    10.1200     0.0130  1221.0060     0.4110  1576.5649   -41.4830     8.2940     8.2010    10.1950
 1879.5000     2.4720   115.1660    10.1090     0.0110  1222.6219     0.4060  1578.6500   -41.3900     8.1410     8.0220     9.7720
 1880.0000     2.4850   112.1590    10.0970     0.0210  1224.2380     0.4190  1580.7350   -41.2920     7.9840     7.8390     9.3490
 1880.5000     2.4970   109.0890    10.0860     0.0320  1225.8540     0.4300  1582.8199   -41.3290     8.0610     7.6960     8.9250
 1881.0000     2.5010   108.5360    10.0740     0.0350  1227.4709     0.4340  1584.9050   -41.4950     8.0780     7.7460     8.6720
 1881.5000     2.4920   110.8770    10.0610     0.0310  1229.0870     0.4130  1586.9900   -41.6660     8.0960     7.7970     8.5930
 1882.0000     2.4780   112.8860    10.1020     0.0130  1230.7030     0.3940  1589.0750   -41.8370     8.1130     7.8470     9.1850
 1882.5000     2.4670   114.1120    10.1510    -0.0020  1232.3190     0.3780  1591.1600   -42.0070     8.1310     7.8980     9.7740
 1883.0000     2.4640   115.3670    10.1970     0.0000  1233.9351     0.3900  1593.2450   -42.1710     8.1480     7.9490    10.2310
 1883.5000     2.4680   116.6280    10.1620     0.0010  1235.5510     0.4140  1595.3300   -42.2450     8.1660     7.9990    10.1300
 1884.0000     2.4740   118.2290    10.1070     0.0030  1237.1670     0.4240  1597.4150   -42.3150     8.1830     8.0500     9.8980
 1884.5000     2.4810   119.3400    10.0520     0.0040  1238.7830     0.4230  1599.5000   -42.3860     8.2010     8.0580     9.8620
 1885.0000     2.4820   118.6180     9.9980     0.0050  1240.0790     0.4240  1601.5850   -42.4560     8.2180     8.0640     9.8620
 1885.5000     2.4810   117.2470     9.9430     0.0070  1237.1750     0.4190  1603.6700   -42.5260     8.2360     8.0720     9.7720
 1886.0000     2.4800   115.7800     9.8880     0.0040  1234.2710     0.4110  1605.1840   -42.5770     8.2530     8.0800     9.3060
 1886.5000     2.4740   113.4140     9.8340     0.0010  1231.3660     0.4030  1601.9091   -42.6060     8.2700     8.0870     9.0790
 1887.0000     2.4680   111.5280     9.8220    -0.0030  1228.4620     0.4000  1598.8640   -42.6350     8.2840     8.0950     9.0790
 1887.5000     2.4660   110.9600     9.8070    -0.0060  1225.5580     0.4100  1595.8190   -42.6640     8.2890     8.1030     9.4750
 1888.0000     2.4670   113.7670     9.7990    -0.0050  1222.6541     0.4170  1592.7729   -42.6930     8.2930     8.1100     9.8380
 1888.5000     2.4710   117.0590     9.7880    -0.0010  1219.7490     0.4170  1589.7280   -42.7220     8.2980     8.1180    10.2310
 1889.0000     2.4750   119.7160     9.7480     0.0020  1216.8450     0.4120  1586.6820   -42.7540     8.3020     8.1250    10.1310
 1889.5000     2.4770   121.7000     9.7280     0.0060  1213.9410     0.4090  1583.6370   -42.6740     8.3070     8.1350    10.0850
 1890.0000     2.4760   122.2010     9.7240     0.0090  1211.0360     0.4050  1580.5920   -42.5590     8.3110     8.1570    10.0060
 1890.5000     2.4700   120.3610     9.7180     0.0060  1208.1320     0.4010  1577.5460   -42.4430     8.3150     8.1780     9.7300
 1891.0000     2.4640   118.4090     9.7130     0.0040  1205.2280     0.4000  1574.5010   -42.3660     8.3200     8.2000     9.4550
 1891.5000     2.4630   117.8740     9.7090     0.0010  1202.3230     0.4100  1571.4550   -42.3690     8.3240     8.2210     9.2480
 1892.0000     2.4750   118.9160     9.7010     0.0000  1204.4440     0.4180  1568.4100   -42.4110     8.3290     8.2430     9.2480
 1892.5000     2.4860   119.9430     9.6890     0.0010  1216.4680     0.4130  1565.3650   -42.4560     8.3330     8.2650     9.4550
 1893.0000     2.4870   118.7200     9.6780     0.0050  1228.4919     0.4050  1562.3190   -42.5000     8.3380     8.2860     9.7230
 1893.5000     2.4790   117.1490     9.6700     0.0050  1240.5160     0.3980  1559.2740   -42.5460     8.3420     8.3080    10.0440
 1894.0000     2.4700   115.5730     9.6330     0.0040  1252.5400     0.4020  1556.2280   -42.5150     8.3470     8.3290     9.9530
 1894.5000     2.4720   113.0070     9.5890     0.0060  1259.9210     0.4080  1553.1830   -42.4370     8.3510     8.3510     9.8260
 1895.0000     2.4780   110.5630     9.5430     0.0100  1259.9210     0.4040  1550.1370   -42.3590     8.3560     8.3720     9.5540
 1895.5000     2.4880   111.5670     9.4980     0.0170  1259.9210     0.3980  1547.0920   -42.2790     8.3590     8.3940     9.5060
 1896.0000     2.4960   114.7050     9.4960     0.0240  1259.0150     0.3960  1545.6630   -42.1990     8.4240     8.4160     9.7560
 1896.5000     2.4930   116.8320     9.5220     0.0260  1258.1180     0.4060  1546.9399   -42.0220     8.5020     8.4360    10.0440
 1897.0000     2.4820   117.0180     9.5490     0.0170  1257.2220     0.4150  1548.2170   -41.6760     8.6490     8.3270    10.0140
 1897.5000     2.4750   115.3660     9.5750     0.0080  1256.3250     0.4200  1549.4940   -41.3320     8.7350     8.2220     9.9850
 1898.0000     2.4810   114.3010     9.5880     0.0060  1255.4280     0.4150  1550.7700   -40.9880     8.8210     8.4860     9.9560
 1898.5000     2.4920   116.1470     9.5510     0.0110  1254.5310     0.4090  1552.0470   -40.6440     8.9480     8.6650    10.1160
 1899.0000     2.4900   119.1710     9.5160     0.0170  1253.6350     0.4030  1553.3240   -40.3000     9.0810     8.7720    10.3040
 1899.5000     2.4840   121.1790     9.4810     0.0170  1252.7380     0.3960  1554.6010   -39.9560     9.2130     8.8790    10.4920
 1900.0000     2.4760   119.0270     9.4470     0.0110  1251.8409     0.3910  1555.8781   -39.6060     9.3460     8.9960    10.6810
 1900.5000     2.4670   115.9550     9.4120     0.0060  1250.9440     0.3910  1557.1550   -39.2480     9.4780     9.1670    10.8100
 1901.0000     2.4590   115.3020     9.3780     0.0030  1250.0480     0.3960  1558.4320   -38.8010     9.6030     9.3570    10.8100
 1901.5000     2.4570   118.5610     9.3910     0.0040  1249.1510     0.4050  1559.7090   -37.9820     9.6750     9.5940    10.8100
 1902.0000     2.4710   121.2240     9.3990     0.0140  1248.2540     0.4020  1560.9860   -37.1600     9.7460     9.4470    10.9720
 1902.5000     2.4800   121.6270     9.4040     0.0230  1247.3580     0.3930  1562.2629   -36.3350     9.8180     9.2480    11.1120
 1903.0000     2.4750   121.4330     9.4090     0.0220  1246.4611     0.3840  1563.5400   -35.5070     9.9490     9.1630    11.1870
 1903.5000     2.4650   120.9260     9.4140     0.0190  1245.5640     0.3760  1564.8160   -34.6770    10.1740     9.1630    11.2820
 1904.0000     2.4550   120.4670     9.4150     0.0150  1244.6670     0.3800  1585.2440   -33.9500    10.3990     9.2700    11.5150
 1904.5000     2.4450   121.5330     9.4150     0.0140  1243.7710     0.3880  1585.2440   -33.2930    10.6130     9.5230    11.8330
