~VERSION INFORMATION
 VERS.                2.0:   CWLS LOG ASCII STANDARD - VERSION 2.0
 WRAP.                 NO:   ONE LINE PER DEPTH STEP
~WELL INFORMATION
#MNEM.UNIT      DATA TYPE    INFORMATION
#----------   ------------   ------------------------------
 STRT.F          450.0000:   START DEPTH
 STOP.F         3070.0000:   STOP DEPTH
 STEP.F            0.5000:   STEP LENGTH
 NULL.          -999.2500:   NO VALUE
 COMP. LAWRENCE ALLISON & ASSOCIATES:   COMPANY
 WELL. LAWRENCE "X" #86-28:   WELL
 FLD .             NPR #3:   FIELD
 LOC .      S28 T39N R78W:   LOCATION
 CNTY.            NATRONA:   COUNTY
 STAT.            WYOMING:   STATE
 CTRY. UNITED STATES OF AMERICA:   COUNTRY
 SRVC.      WESTERN ATLAS:   SERVICE COMPANY
 DATE.        03-JAN-1988:   LOGDATE
 API .     49025111920000:   API NUMBER
~CURVE INFORMATION
#MNEM.UNIT       API CODE    CURVE DESCRIPTION
#----------   ------------   ------------------------------
 DEPT.F                  :   
 TEND.LBS    45 635 01 00:   TENSION FROM DENSITY LOG
 CALD.IN     45 280 60 00:   CALIPER FROM DENSITY LOG
 NPHI.DEC    42 890 03 00:   NEUTRON POROSITY SANDSTONE
 DEN .G/C3   45 350 01 00:   BULK DENSITY
 CORR.G/C3   45 356 01 00:   DENSITY CORRECTION
 TENR.LBS    07 635 01 00:   TENSION FROM RESISTIVITY
 RFOC.OHMM   07 220 04 00:   RESISTIVITY FOCUSED LOG RES.
 RILD.OHMM   07 120 46 00:   DEEP INDUCTION RESISTIVITY
 RILM.OHMM   07 120 44 00:   INDUCTION LOG MEDIUM RESISTIVITY
 SPR .MV     07 010 01 00:   SPONTANEOUS POTENTIAL
 GRR .GAPI   07 310 01 00:   GAMMA RAY FROM RESISTIVITY
~PARAMETER INFORMATION
#MNEM.UNIT          VALUE    DESCRIPTION
#----------   ------------   ------------------------------
 EKB .F         5072.0000:   Kelly bushing
 EGL .F         5061.0000:   Ground level
 EDF .F         5071.0000:   Drilling floor
 TD  .F         3062.0000:   Total depth
 DATE.        03-JAN-1988:   Date logged
 CLNT.            A2DTECH:   Client Code
 SL  . 1721' FSL & 556' FEL:   Surface Location
 PD  .                 GL:   Permanent Datum
 DD  .F              3060:   Depth driller
 DL  .F              3062:   Depth logger
 BLI .F              3060:   Bottom log interval
 CS1 .IN            8.625:   Casing size
 CBD1.      8.625" @ 480':   Casing driller 1
 CBL1.F               480:   Casing logger 1
 BS1 .IN            7.875:   Bit size
 DFT .        KCL-POLYMER:   Type fluid in hole
 DFD .                8.9:   Density
 DFV .                 36:   Viscosity
 DFPH.                9.5:   pH
 DFL .                8.4:   Fluid loss
 MSS .               TANK:   Source of sample
 RMS .OHMM           0.45:   Rm
 MST .F                80:   Rm Meas. temp.
 RMF .OHMM           0.41:   Rmf
 MFST.F                60:   Rmf Meas. temp.
 RMC .OHMM           0.65:   Rmc
 MCST.F                60:   Rmc Meas. temp.
 MFSS.               MEAS:   Source Rmf.
 RMB .OHMM           0.31:   Rm. at BHT
 BHT .F               110:   BHT.
 TCS .HRS               4:   Time Circ. stopped
 MRT .F               110:   Maximum recorded temp.
 LUN .            HL 6343:   Logging unit number
 LUL .               CODY:   Logging unit location
 ENGI.               RALL:   Recorded By
 WITN.              FIVRS:   Witnessed by
 ORIG.     2.5", 5" PRINT:   Origin of data
 UWI .     49025111920000:   Unique Well ID
 DICO. A2D TECHNOLOGIES, INC.:   Digitizing Company
 DAPD.                 11:   Feet Above Permanent Datum
 BSD1.               3060:   Depth drilled with bit1
 MCSS.               CALC:   Source Rmc.
 EPD .               5061:   Elevation Permanent Datum
 LMF .                 KB:   Log Measured From
 DMF .                 KB:   Drilling Measured From
 TLI .                480:   Top log interval
~OTHER INFORMATION
~A   DEPT     TEND       CALD       NPHI        DEN       CORR       TENR       RFOC       RILD       RILM        SPR         GRR  
# ...
 1151.5000  -999.2500  -999.2500  -999.2500  -999.2500  -999.2500   -52.2310    10.6330     9.1540     9.2110   -17.1740   100.8270
 1152.0000  -999.2500  -999.2500  -999.2500  -999.2500  -999.2500   -52.2310    10.1800     9.1400     9.2010   -17.0590    99.1630
 1152.5000  -999.2500  -999.2500  -999.2500  -999.2500  -999.2500   -52.2310     9.8020     9.1260     9.1910   -17.1160   101.1740
 1153.0000  -999.2500  -999.2500  -999.2500  -999.2500  -999.2500   -52.2310     9.4140     9.1120     9.1810   -17.2200   102.2270
 1153.5000  -999.2500  -999.2500  -999.2500  -999.2500  -999.2500   -52.2310     9.5990     9.0970     9.1710   -17.3260   102.6750
 1154.0000  -999.2500  -999.2500  -999.2500  -999.2500  -999.2500   -52.2310     9.7890     9.0830     9.1620   -17.4320   103.8260
 1154.5000  -999.2500  -999.2500  -999.2500  -999.2500  -999.2500   -52.6330     9.9780     9.0680     9.1540   -17.5380   106.1010
 1155.0000  -999.2500  -999.2500  -999.2500  -999.2500  -999.2500   -53.1360    10.0610     9.2380     9.2510   -17.6410   105.5940
 1155.5000  -999.2500  -999.2500  -999.2500  -999.2500  -999.2500   -53.6390    10.1050     9.4060     9.3310   -17.7030   103.9350
 1156.0000  -999.2500  -999.2500  -999.2500  -999.2500  -999.2500   -54.1420    10.1490     9.5740     9.4110   -17.7620   101.2980
 1156.5000  -999.2500  -999.2500  -999.2500  -999.2500  -999.2500   -54.6450    10.1920     9.7420     9.4920   -17.8220    98.6660
 1157.0000  -999.2500  -999.2500  -999.2500  -999.2500  -999.2500   -55.1490    10.2360     9.8660     9.6160   -17.8830    96.0650
 1157.5000  -999.2500  -999.2500  -999.2500  -999.2500  -999.2500   -55.6520    10.2930     9.8310     9.6670   -17.9430    94.2360
 1158.0000  -999.2500  -999.2500  -999.2500  -999.2500  -999.2500   -56.1550    10.4020     9.7990     9.6830   -18.0010    95.4700
 1158.5000  -999.2500  -999.2500  -999.2500  -999.2500  -999.2500   -56.6580    10.5660     9.7670     9.6830   -18.0010    97.3410
 1159.0000  -999.2500  -999.2500  -999.2500  -999.2500  -999.2500   -57.1610    10.7330     9.7350     9.6830   -17.8320    99.1200
 1159.5000  -999.2500  -999.2500  -999.2500  -999.2500  -999.2500   -57.6640    10.7070     9.7030     9.6830   -17.6690   100.3160
 1160.0000  -999.2500  -999.2500  -999.2500  -999.2500  -999.2500   -58.1670    10.6700     9.6700     9.6830   -17.5060   100.9370
 1160.5000  -999.2500  -999.2500  -999.2500  -999.2500  -999.2500   -58.6700    10.6330     9.6380     9.6830   -17.3430   100.0260
 1161.0000  -999.2500  -999.2500  -999.2500  -999.2500  -999.2500   -59.1740    10.4520     9.5920     9.6900   -17.2360    98.7030
 1161.5000  -999.2500  -999.2500  -999.2500  -999.2500  -999.2500   -59.6770    10.1290     9.5960     9.6960   -17.2380    97.4460
 1162.0000  -999.2500  -999.2500  -999.2500  -999.2500  -999.2500   -60.1800     9.8660     9.6070     9.7030   -17.2380    99.0790
 1162.5000  -999.2500  -999.2500  -999.2500  -999.2500  -999.2500   -60.6830     9.9770     9.6170     9.7090   -17.2380   102.9720
 1163.0000  -999.2500  -999.2500  -999.2500  -999.2500  -999.2500   -61.1860    10.1650     9.6280     9.7150   -17.2380   104.5540
 1163.5000  -999.2500  -999.2500  -999.2500  -999.2500  -999.2500   -61.6890    10.3520     9.6390     9.7220   -17.2380   103.4400
 1164.0000  -999.2500  -999.2500  -999.2500  -999.2500  -999.2500   -62.1920    10.5340     9.6490     9.7280   -17.2380   103.4330
 1164.5000  -999.2500  -999.2500  -999.2500  -999.2500  -999.2500   -62.3730    10.5340     9.6600     9.7350   -17.2360   103.3880
 1165.0000  -999.2500  -999.2500  -999.2500  -999.2500  -999.2500   -62.3730    10.5340     9.6710     9.7410   -17.3240   102.1920
 1165.5000  -999.2500  -999.2500  -999.2500  -999.2500  -999.2500   -62.3730    10.5340     9.6810     9.7470   -17.4550   100.9600
 1166.0000  -999.2500  -999.2500  -999.2500  -999.2500  -999.2500   -62.3730    10.4340     9.7340     9.7540   -17.5870    99.9300
 1166.5000  -999.2500  -999.2500  -999.2500  -999.2500  -999.2500   -62.3730    10.2860     9.7920     9.7600   -17.7190    99.6200
 1167.0000  -999.2500  -999.2500  -999.2500  -999.2500  -999.2500   -62.3730    10.1460     9.8510     9.7670   -17.8510    99.2290
 1167.5000  -999.2500  -999.2500  -999.2500  -999.2500  -999.2500   -62.3730    10.4420     9.9100     9.7730   -17.9830    97.7830
 1168.0000  -999.2500  -999.2500  -999.2500  -999.2500  -999.2500   -62.3730    10.7100     9.9690     9.7610   -18.1630    96.3330
 1168.5000  -999.2500  -999.2500  -999.2500  -999.2500  -999.2500   -62.3730    10.9350    10.0270     9.7470   -18.3850    95.4740
 1169.0000  -999.2500  -999.2500  -999.2500  -999.2500  -999.2500   -62.3730    10.5610    10.0860     9.7330   -18.6080    96.3980
 1169.5000  -999.2500  -999.2500  -999.2500  -999.2500  -999.2500   -62.3730    10.2820    10.1460     9.7190   -18.8310    98.2450
 1170.0000  -999.2500  -999.2500  -999.2500  -999.2500  -999.2500   -62.3730    10.0520     9.9870     9.7050   -19.0560    99.6930
 1170.5000  -999.2500  -999.2500  -999.2500  -999.2500  -999.2500   -62.3730     9.8660     9.8220     9.6910   -19.2760   100.4670
 1171.0000  -999.2500  -999.2500  -999.2500  -999.2500  -999.2500   -62.3730     9.9220     9.6570     9.6630   -19.4280   100.2780
 1171.5000  -999.2500  -999.2500  -999.2500  -999.2500  -999.2500   -62.3730    10.0170     9.5190     9.5650   -19.2410    99.8770
 1172.0000  -999.2500  -999.2500  -999.2500  -999.2500  -999.2500   -62.3730    10.1120     9.3990     9.4660   -19.0610    99.4620
 1172.5000  -999.2500  -999.2500  -999.2500  -999.2500  -999.2500   -62.3730    10.1460     9.2780     9.3680   -18.8830    99.0280
 1173.0000  -999.2500  -999.2500  -999.2500  -999.2500  -999.2500   -62.3730     9.9410     9.1580     9.2700   -18.7040    99.6460
 1173.5000  -999.2500  -999.2500  -999.2500  -999.2500  -999.2500   -62.3730     9.7750     9.0430     9.1720   -18.5250   100.7130
 1174.0000  -999.2500  -999.2500  -999.2500  -999.2500  -999.2500   -62.3730     9.6090     8.9460     9.0730   -18.3460   102.7650
 1174.5000  -999.2500  -999.2500  -999.2500  -999.2500  -999.2500   -62.1280     9.4430     8.8480     8.9750   -18.1670   100.9210
 1175.0000  -999.2500  -999.2500  -999.2500  -999.2500  -999.2500   -61.6200     9.3140     8.7510     8.8770   -17.9880    98.4010
 1175.5000  -999.2500  -999.2500  -999.2500  -999.2500  -999.2500   -61.1120     9.2700     8.6540     8.7790   -17.8080    98.0430
 1176.0000  -999.2500  -999.2500  -999.2500  -999.2500  -999.2500   -60.6040     9.2260     8.5560     8.6540   -17.6270    99.1660
 1176.5000  -999.2500  -999.2500  -999.2500  -999.2500  -999.2500   -60.0960     9.1820     8.4140     8.6800   -17.4480   102.4420
 1177.0000  -999.2500  -999.2500  -999.2500  -999.2500  -999.2500   -59.5880     9.1540     8.4340     8.7300   -17.5810   102.0110
 1177.5000  -999.2500  -999.2500  -999.2500  -999.2500  -999.2500   -59.0800     9.5130     8.4710     8.7800   -17.7350   101.3170
 1178.0000  -999.2500  -999.2500  -999.2500  -999.2500  -999.2500   -58.5710     9.6660     8.5080     8.8300   -17.8900   100.6260
 1178.5000  -999.2500  -999.2500  -999.2500  -999.2500  -999.2500   -58.0630     9.4890     8.5440     8.8800   -18.0400   100.2610
 1179.0000  -999.2500  -999.2500  -999.2500  -999.2500  -999.2500   -57.5550     9.3480     8.5810     8.9000   -18.0440   100.4610
 1179.5000  -999.2500  -999.2500  -999.2500  -999.2500  -999.2500   -57.0470     9.2070     8.6180     8.8940   -18.0490   100.9220
 1180.0000  -999.2500  -999.2500  -999.2500  -999.2500  -999.2500   -56.5390     9.0680     8.6540     8.8890   -18.1960   102.5300
 1180.5000  -999.2500  -999.2500  -999.2500  -999.2500  -999.2500   -56.0310     9.3670     8.6670     8.8840   -18.3480   104.1140
 1181.0000  -999.2500  -999.2500  -999.2500  -999.2500  -999.2500   -55.5230     9.6600     8.6810     8.8790   -18.4990   104.0780
 1181.5000  -999.2500  -999.2500  -999.2500  -999.2500  -999.2500   -55.0150    10.0520     8.6940     8.8740   -18.6500   101.9100
