~VERSION INFORMATION
 VERS.                2.0:   CWLS LOG ASCII STANDARD - VERSION 2.0
 WRAP.                 NO:   ONE LINE PER DEPTH STEP
~WELL INFORMATION
#MNEM.UNIT      DATA TYPE    INFORMATION
#----------   ------------   ------------------------------
 STRT.F           40.0000:   START DEPTH
 STOP.F         1336.0000:   STOP DEPTH
 STEP.F            0.5000:   STEP LENGTH
 NULL.          -999.2500:   NO VALUE
 COMP. LAWRENCE - ALLISON WEST:   COMPANY
 WELL. LAWRENCE NPR 3 "AX" #54-23:   WELL
 FLD .              N P R:   FIELD
 LOC .      S23 T38N R78W:   LOCATION
 CNTY.            NATRONA:   COUNTY
 STAT.            WYOMING:   STATE
 CTRY. UNITED STATES OF AMERICA:   COUNTRY
 SRVC.       SCHLUMBERGER:   SERVICE COMPANY
 DATE.        13-MAY-1982:   LOGDATE
 API .     49025108880000:   API NUMBER
~CURVE INFORMATION
#MNEM.UNIT       API CODE    CURVE DESCRIPTION
#----------   ------------   ------------------------------
 DEPT.F                  :   
 NPOR.DEC    42 890 03 00:   ALPHA PROCESSED NEUTRON POROSITY
 TEND.LBS    45 635 01 00:   TENSION FROM DENSITY LOG
 CORR.G/C3   45 356 01 00:   DENSITY CORRECTION
 RHOB.G/C3   45 350 01 00:   BULK DENSITY
 GRD .GAPI   45 310 01 00:   GAMMA RAY FROM DENSITY LOG
 CALD.IN     45 280 60 00:   CALIPER FROM DENSITY LOG
 SPR .MV     07 010 01 00:   SPONTANEOUS POTENTIAL
 TENR.LBS    07 635 01 00:   TENSION
 ILD .OHMM   07 120 46 00:   DEEP INDUCTION RESISTIVITY
 ILM .OHMM   07 120 44 00:   INDUCTION LOG MEDIUM RESISTIVITY
 SFL .OHMM   07 220 01 00:   SHALLOW FOCUSED LOG RESISTIVITY
~PARAMETER INFORMATION
#MNEM.UNIT          VALUE    DESCRIPTION
#----------   ------------   ------------------------------
 EKB .F         5342.0000:   Kelly bushing
 EGL .F         5332.0000:   Ground level
 EDF .F            0.0000:   Drilling floor
 TD  .F         1325.0000:   Total depth
 DATE.        13-MAY-1982:   Date logged
 CLNT.            A2DTECH:   Client Code
 SL  . 2278' FSL & 2665' FWL:   Surface Location
 PD  .                 GL:   Permanent Datum
 DD  .F              1325:   Depth driller
 DL  .F              1314:   Depth logger
 BLI .F              1308:   Bottom log interval
 CS1 .IN             15.5:   Casing size
 CBD1.        15.5" @ 40':   Casing driller 1
 CBL1.F                54:   Casing logger 1
 BS1 .IN            12.25:   Bit size
 DFT .             LT/GEL:   Type fluid in hole
 DFD .                8.9:   Density
 DFV .                 33:   Viscosity
 DFPH.                8.8:   pH
 DFL .                 16:   Fluid loss
 MSS .                PIT:   Source of sample
 RMS .OHMM           2.47:   Rm
 MST .F                61:   Rm Meas. temp.
 RMF .OHMM           2.12:   Rmf
 MFST.F                62:   Rmf Meas. temp.
 MFSS.               MEAS:   Source Rmf.
 RMB .OHMM           1.73:   Rm. at BHT
 BHT .F                87:   BHT.
 TCS .HRS            2300:   Time Circ. stopped
 MRT .F                87:   Maximum recorded temp.
 LUN .               8043:   Logging unit number
 LUL .               CSPR:   Logging unit location
 ENGI.        WAGNER/CSPR:   Recorded By
 WITN.           JENNINGS:   Witnessed by
 ORIG.           5" PRINT:   Origin of data
 UWI .     49025108880000:   Unique Well ID
 DICO. A2D TECHNOLOGIES, INC.:   Digitizing Company
 BSD1.F              1325:   Depth drilled with bit1
 EPD .F              5332:   Elevation Permanent Datum
 LMF .                 KB:   Log Measured From
 DMF .                 KB:   Drilling Measured From
 TLI .F                54:   Top log interval
 DAPD.F                10:   Feet Above Permanent Datum
~OTHER INFORMATION
~A   DEPT     NPOR       TEND       CORR       RHOB        GRD       CALD        SPR       TENR        ILD        ILM        SFL   
# ...
  802.5000     0.1610   206.5820     0.0190     2.4620   145.1930    12.6690   -25.2910    69.7700     5.1530     4.9630     4.9690
  803.0000     0.1560   206.9960     0.0270     2.4810   146.7660    12.6710   -23.1410    70.1810     5.1530     4.9630     5.6620
  803.5000     0.1440   207.4100     0.0230     2.4810   145.5950    12.6730   -23.0560    70.5910     5.1530     4.9630     5.8790
  804.0000     0.1370   207.8240     0.0160     2.4750   144.3660    12.6760   -24.3830    71.0020     5.1530     4.9630     5.7700
  804.5000     0.1280   208.2370     0.0100     2.4700   146.0570    12.6780   -25.8930    71.4120     5.1530     5.0000     5.3560
  805.0000     0.1330   208.6510     0.0130     2.4730   144.8640    12.6800   -26.8950    71.8230     5.1530     5.0440     4.7790
  805.5000     0.1450   209.0650     0.0200     2.4800   142.6550    12.6820   -27.2400    72.2330     5.1760     5.0880     4.8070
  806.0000     0.1490   209.4780     0.0270     2.4860   139.6500    12.6840   -26.2300    72.6440     5.2030     5.1320     4.8390
  806.5000     0.1470   209.8920     0.0210     2.4780   139.1630    12.6860   -25.3350    73.0540     5.2310     5.1770     4.8700
  807.0000     0.1440   210.3060     0.0120     2.4670   139.3270    12.6880   -24.9720    73.4650     5.2880     5.2210     5.0210
  807.5000     0.1470   210.7200     0.0020     2.4570   138.9260    12.6910   -27.2550    73.8750     5.4330     5.2650     5.1650
  808.0000     0.1510   211.1330    -0.0050     2.4470   136.7280    12.6930   -28.9030    74.2850     5.5770     5.3100     5.3080
  808.5000     0.1550   211.5470    -0.0060     2.4420   134.7490    12.6950   -30.0020    74.6960     5.7220     5.3510     5.4520
  809.0000     0.1600   211.9610    -0.0020     2.4440   135.7990    12.6970   -25.6550    75.1060     5.8440     5.4120     5.5930
  809.5000     0.1650   212.3740     0.0080     2.4510   139.8090    12.6990   -25.4220    75.5170     5.9550     5.4690     5.7260
  810.0000     0.1690   212.7880     0.0170     2.4520   151.8780    12.6990   -25.3310    75.9270     5.9910     5.5560     5.7700
  810.5000     0.1730   213.2020     0.0110     2.4440   152.5830    12.6950   -26.5050    76.3380     5.9910     5.5500     5.7700
  811.0000     0.1710   213.6160     0.0080     2.4470   151.7720    12.6910   -27.4700    76.7480     5.9910     5.5360     5.7700
  811.5000     0.1530   214.0290     0.0150     2.4610   150.3200    12.6870   -28.3910    77.1590     5.9910     5.5220     5.7480
  812.0000     0.1450   214.4430     0.0240     2.4760   149.2610    12.6840   -28.3850    77.5690     5.9910     5.5080     5.7030
  812.5000     0.1530   214.8570     0.0240     2.4850   149.9930    12.6820   -27.4470    77.9800     5.9910     5.4940     5.6590
  813.0000     0.1600   215.2700     0.0220     2.4790   149.6300    12.6500   -25.7260    78.3900     5.9330     5.4800     5.6140
  813.5000     0.1600   215.6840     0.0160     2.4670   147.7890    12.6330   -24.8360    78.8000     5.8510     5.4660     5.5690
  814.0000     0.1530   216.0980     0.0110     2.4550   142.5570    12.6160   -25.0270    79.2110     5.7680     5.4520     5.4790
  814.5000     0.1480   216.5120     0.0050     2.4430   137.9450    12.5980   -26.4640    79.6210     5.6850     5.4380     5.3690
  815.0000     0.1520   216.9250    -0.0010     2.4380   136.5920    12.6000   -26.5420    80.0320     5.6380     5.4240     5.2510
  815.5000     0.1540   217.3390    -0.0030     2.4470   136.6380    12.6110   -25.8890    80.4420     5.6050     5.4100     5.2190
  816.0000     0.1520   217.7530    -0.0040     2.4620   137.8660    12.6210   -25.2540    80.8530     5.5560     5.3960     5.1840
  816.5000     0.1460   218.1660     0.0010     2.4690   139.1440    12.6310   -24.7860    81.2630     5.5700     5.3820     5.1530
  817.0000     0.1380   218.5800     0.0070     2.4710   140.7820    12.6410   -25.9720    81.6740     5.5970     5.3680     5.1530
  817.5000     0.1340   218.9940     0.0090     2.4720   142.6710    12.6510   -28.0130    82.0840     5.6230     5.3540     5.1530
  818.0000     0.1350   219.4080     0.0020     2.4700   144.6080    12.6590   -30.1830    82.4950     5.6500     5.4220     5.2460
  818.5000     0.1410   219.8210    -0.0030     2.4700   149.0160    12.6590   -30.4790    82.9050     5.7220     5.5180     5.3710
  819.0000     0.1580   220.2350     0.0020     2.4750   146.8740    12.6590   -27.9820    83.3150     5.8310     5.6130     5.5320
  819.5000     0.1740   220.6490     0.0080     2.4920   143.2230    12.6590   -26.7200    83.7260     5.9590     5.7080     5.7570
  820.0000     0.1690   221.0620     0.0140     2.5020   138.6750    12.6590   -27.3380    84.1360     6.1040     5.7950     5.9910
  820.5000     0.1590   221.4760     0.0170     2.5000   134.8180    12.6590   -28.1840    84.5470     6.2480     5.8650     6.0600
  821.0000     0.1500   221.8900     0.0170     2.4930   134.1990    12.6590   -28.7970    84.9570     6.3390     5.9350     6.1330
  821.5000     0.1430   222.3040     0.0100     2.4850   133.5240    12.6590   -28.7590    85.3680     6.3390     6.0050     6.2050
  822.0000     0.1450   222.7170     0.0020     2.4760   132.9730    12.6590   -27.8420    85.7780     6.3390     6.1050     6.2210
  822.5000     0.1490   223.1310    -0.0030     2.4670   134.5550    12.6590   -26.8570    86.1890     6.2680     6.0340     6.2210
  823.0000     0.1510   223.5230     0.0030     2.4680   137.5440    12.6540   -26.0740    86.5990     6.1440     5.9100     6.1080
  823.5000     0.1530   219.8300     0.0090     2.4750   140.4780    12.6480   -25.9270    87.0100     6.0210     5.7870     6.0110
  824.0000     0.1560   216.3160     0.0140     2.4760   143.4840    12.6420   -25.7470    87.4230     5.8970     5.6620     5.8250
  824.5000     0.1590   212.8030     0.0160     2.4700   146.5290    12.6360   -25.7590    87.4230     5.7730     5.5560     5.6150
  825.0000     0.1580   209.2900     0.0170     2.4620   148.8830    12.6300   -25.9930    87.4230     5.6500     5.4500     5.4050
  825.5000     0.1560   205.7770     0.0180     2.4610   150.3830    12.6230   -25.6530    87.4230     5.5260     5.3440     5.1530
  826.0000     0.1560   202.2630     0.0180     2.4650   149.3550    12.6170   -24.2450    87.4230     5.4320     5.2370     5.0760
  826.5000     0.1560   198.7500     0.0180     2.4710   147.8010    12.6110   -24.0710    87.4230     5.3820     5.1480     4.9630
  827.0000     0.1530   195.2370     0.0150     2.4690   147.0820    12.6050   -24.7160    87.4230     5.3310     5.1240     4.9950
  827.5000     0.1530   193.2840     0.0090     2.4590   147.0830    12.5990   -25.9970    87.4230     5.2510     5.1000     5.0340
  828.0000     0.1610   194.1580     0.0080     2.4500   146.1370    12.5980   -26.8240    87.4230     5.2920     5.0640     5.1030
  828.5000     0.1670   195.0310     0.0100     2.4530   142.0210    12.5980   -26.7890    87.4230     5.3870     5.0790     5.2110
  829.0000     0.1590   195.9040     0.0160     2.4670   137.8250    12.5980   -25.2810    87.4230     5.4830     5.1750     5.3200
  829.5000     0.1490   196.7780     0.0220     2.4820   133.6800    12.5980   -24.7250    87.4230     5.5820     5.2720     5.4280
  830.0000     0.1390   197.6510     0.0230     2.4970   133.6420    12.5980   -25.6200    87.4230     5.6910     5.3680     5.5370
  830.5000     0.1350   198.5240     0.0200     2.5000   136.3740    12.5980   -26.3140    87.4230     5.8000     5.4650     5.6620
  831.0000     0.1320   199.3980     0.0110     2.4880   140.1520    12.5980   -27.1740    87.4230     5.9090     5.5560     5.7080
  831.5000     0.1350   200.2710     0.0050     2.4740   142.7550    12.5980   -27.2600    87.4230     5.9860     5.6170     5.7630
  832.0000     0.1420   201.1440     0.0050     2.4600   144.6470    12.5980   -27.2580    87.4230     5.9670     5.6750     5.8170
  832.5000     0.1440   202.0180     0.0090     2.4680   144.1470    12.5980   -27.5290    87.4230     5.9480     5.7330     5.8790
