~VERSION INFORMATION
 VERS.                2.0:   CWLS LOG ASCII STANDARD - VERSION 2.0
 WRAP.                 NO:   ONE LINE PER DEPTH STEP
~WELL INFORMATION
#MNEM.UNIT      DATA TYPE    INFORMATION
#----------   ------------   ------------------------------
 STRT.F            0.0000:   START DEPTH
 STOP.F         3040.0000:   STOP DEPTH
 STEP.F            0.5000:   STEP LENGTH
 NULL.          -999.2500:   NO VALUE
 COMP. LAWRENCE ALLISON & ASSOCIATES:   COMPANY
 WELL. LAWRENCE NPR 3 "AX" #77-28:   WELL
 FLD .      NPR - WILDCAT:   FIELD
 LOC .      S28 T39N R78W:   LOCATION
 CNTY.            NATRONA:   COUNTY
 STAT.            WYOMING:   STATE
 CTRY. UNITED STATES OF AMERICA:   COUNTRY
 SRVC.      DRESSER ATLAS:   SERVICE COMPANY
 DATE.        19-OCT-1986:   LOGDATE
 API .     49025111150000:   API NUMBER
~CURVE INFORMATION
#MNEM.UNIT       API CODE    CURVE DESCRIPTION
#----------   ------------   ------------------------------
 DEPT.F                  :   
 TENR.LBS    07 635 01 00:   TENSION FROM RESISTIVITY
 RILD.OHMM   07 120 46 00:   DEEP INDUCTION RESISTIVITY
 RILM.OHMM   07 120 44 00:   INDUCTION LOG MEDIUM RESISTIVITY
 RFOC.OHMM   07 220 04 00:   RESISTIVITY FOCUSED LOG RES.
 SPR .MV     07 010 01 00:   SPONTANEOUS POTENTIAL
 GRR .GAPI   07 310 01 00:   GAMMA RAY FROM RESISTIVITY
 CNC .DEC    42 890 03 00:   NEUTRON POROSITY SANDSTONE
 RHOB.G/C3   45 350 01 00:   BULK DENSITY
 TEND.LBS    45 635 01 00:   TENSION FROM DENSITY LOG
 CORR.G/C3   45 356 01 00:   DENSITY CORRECTION
 CALD.IN     45 280 60 00:   CALIPER FROM DENSITY LOG
~PARAMETER INFORMATION
#MNEM.UNIT          VALUE    DESCRIPTION
#----------   ------------   ------------------------------
 EKB .F         5086.0000:   Kelly bushing
 EGL .F         5074.0000:   Ground level
 EDF .F            0.0000:   Drilling floor
 TD  .F         3025.0000:   Total depth
 DATE.        19-OCT-1986:   Date logged
 CLNT.            A2DTECH:   Client Code
 SL  . 967' FSL @ 763' FEL:   Surface Location
 PD  .                 GL:   Permanent Datum
 EPD .F              5074:   Elevation Permanent Datum
 LMF .                 KB:   Log Measured From
 DMF .                 KB:   Drilling Measured From
 DAPD.F                12:   Feet Above Permanent Datum
 DD  .F              3021:   Depth driller
 DL  .F              3025:   Depth logger
 BLI .F              3023:   Bottom log interval
 CS1 .IN            8.625:   Casing size
 CBD1.      8.625" @ 620':   Casing driller 1
 CBL1.F               615:   Casing logger 1
 BS1 .IN            7.875:   Bit size
 BSD1.F              3021:   Depth drilled with bit1
 DFT .        KCL/POLTMER:   Type fluid in hole
 DFD .                8.9:   Density
 DFV .                 38:   Viscosity
 DFPH.                9.5:   pH
 DFL .                 11:   Fluid loss
 MSS .           FLOWLINE:   Source of sample
 RMS .OHMM            .25:   Rm
 MST .F                65:   Rm Meas. temp.
 RMF .OHMM           .203:   Rmf
 MFST.F                65:   Rmf Meas. temp.
 RMC .OHMM            .31:   Rmc
 MCST.F                65:   Rmc Meas. temp.
 MFSS.               MEAS:   Source Rmf.
 MCSS.               CALC:   Source Rmc.
 RMB .OHMM           .136:   Rm. at BHT
 BHT .F               119:   BHT.
 TCS .HRS               5:   Time Circ. stopped
 MRT .F               119:   Maximum recorded temp.
 LUN .               6274:   Logging unit number
 LUL .               GLTE:   Logging unit location
 ENGI.             RAUTIO:   Recorded By
 WITN.             STRONG:   Witnessed by
 ORIG.         2.5" PRINT:   Origin of data
 UWI .     49025111150000:   Unique Well ID
 DICO. A2D TECHNOLOGIES, INC.:   Digitizing Company
~OTHER INFORMATION
~A    DEPT    TENR       RILD       RILM       RFOC        SPR         GRR       CNC       RHOB       TEND       CORR       CALD   
# ...
 1098.0000   -65.2160     8.5810     8.2310     9.1450   -81.5800    98.5360  -999.2500  -999.2500  -999.2500  -999.2500  -999.2500
 1098.5000   -75.1370     8.5240     8.1640     8.9540   -81.7160    99.3390  -999.2500  -999.2500  -999.2500  -999.2500  -999.2500
 1099.0000   -83.3330     8.4670     8.0980     8.9660   -81.8500   100.0090  -999.2500  -999.2500  -999.2500  -999.2500  -999.2500
 1099.5000   -82.8030     8.4100     8.0310     8.9880   -81.9860   100.7310  -999.2500  -999.2500  -999.2500  -999.2500  -999.2500
 1100.0000   -82.3510     8.3530     7.9650     9.0090   -82.1220   100.5080  -999.2500  -999.2500  -999.2500  -999.2500  -999.2500
 1100.5000   -81.9000     8.2960     7.8980     9.0310   -82.2550   100.2640  -999.2500  -999.2500  -999.2500  -999.2500  -999.2500
 1101.0000   -81.4480     8.2390     7.8310     9.0530   -82.3960    99.9990  -999.2500  -999.2500  -999.2500  -999.2500  -999.2500
 1101.5000   -80.9960     8.1810     7.7650     9.0740   -82.5220    99.7200  -999.2500  -999.2500  -999.2500  -999.2500  -999.2500
 1102.0000   -80.5450     8.1240     7.6980     9.0960   -82.6700    99.4820  -999.2500  -999.2500  -999.2500  -999.2500  -999.2500
 1102.5000   -80.0930     8.0670     7.6310     9.1170   -82.5590    99.3090  -999.2500  -999.2500  -999.2500  -999.2500  -999.2500
 1103.0000   -79.6410     8.0100     7.5650     9.0130   -82.4110   100.3700  -999.2500  -999.2500  -999.2500  -999.2500  -999.2500
 1103.5000   -79.1890     7.9530     7.4980     8.8450   -82.2550   101.4180  -999.2500  -999.2500  -999.2500  -999.2500  -999.2500
 1104.0000   -78.7380     7.8960     7.4310     8.6770   -82.1090   102.6030  -999.2500  -999.2500  -999.2500  -999.2500  -999.2500
 1104.5000   -78.2860     7.8380     7.3650     8.5090   -81.9550   103.1270  -999.2500  -999.2500  -999.2500  -999.2500  -999.2500
 1105.0000   -77.8340     7.7810     7.3360     8.3410   -81.9030   103.1570  -999.2500  -999.2500  -999.2500  -999.2500  -999.2500
 1105.5000   -77.3830     7.7450     7.3280     8.1810   -81.9070   103.0970  -999.2500  -999.2500  -999.2500  -999.2500  -999.2500
 1106.0000   -76.9310     7.7360     7.3200     8.4420   -81.9070   103.7210  -999.2500  -999.2500  -999.2500  -999.2500  -999.2500
 1106.5000   -76.4790     7.7280     7.3120     8.6160   -81.9060   100.3850  -999.2500  -999.2500  -999.2500  -999.2500  -999.2500
 1107.0000   -76.0280     7.7190     7.3040     8.7900   -81.9070    96.3700  -999.2500  -999.2500  -999.2500  -999.2500  -999.2500
 1107.5000   -75.5760     7.7100     7.2960     8.9540   -81.9070    94.3930  -999.2500  -999.2500  -999.2500  -999.2500  -999.2500
 1108.0000   -75.1240     7.7010     7.2890     8.8870   -81.9060    97.1930  -999.2500  -999.2500  -999.2500  -999.2500  -999.2500
 1108.5000   -74.6720     7.6920     7.2810     8.8250   -81.9070   100.8260  -999.2500  -999.2500  -999.2500  -999.2500  -999.2500
 1109.0000   -74.2210     7.6830     7.2730     8.7620   -81.9080   104.7510  -999.2500  -999.2500  -999.2500  -999.2500  -999.2500
 1109.5000   -73.7690     7.6740     7.2650     8.7000   -81.9010   105.6630  -999.2500  -999.2500  -999.2500  -999.2500  -999.2500
 1110.0000   -73.3170     7.6650     7.2570     8.6370   -81.9840   104.0450  -999.2500  -999.2500  -999.2500  -999.2500  -999.2500
 1110.5000   -72.8660     7.6560     7.2490     8.5740   -82.2170   102.7960  -999.2500  -999.2500  -999.2500  -999.2500  -999.2500
 1111.0000   -72.4140     7.6470     7.2410     8.5120   -82.4380   101.1660  -999.2500  -999.2500  -999.2500  -999.2500  -999.2500
 1111.5000   -71.9620     7.6380     7.2340     8.4490   -82.6680   102.2260  -999.2500  -999.2500  -999.2500  -999.2500  -999.2500
 1112.0000   -71.5110     7.6290     7.2250     8.3860   -82.8930   103.4690  -999.2500  -999.2500  -999.2500  -999.2500  -999.2500
 1112.5000   -71.0590     7.6210     7.2180     8.3300   -83.0660   103.7630  -999.2500  -999.2500  -999.2500  -999.2500  -999.2500
 1113.0000   -70.6070     7.6120     7.2110     8.3880   -82.8870   104.0820  -999.2500  -999.2500  -999.2500  -999.2500  -999.2500
 1113.5000   -70.1550     7.6320     7.2370     8.4410   -82.6560   104.4650  -999.2500  -999.2500  -999.2500  -999.2500  -999.2500
 1114.0000   -69.7040     7.6540     7.2680     8.4940   -82.4180   105.1210  -999.2500  -999.2500  -999.2500  -999.2500  -999.2500
 1114.5000   -69.2520     7.6780     7.2980     8.5470   -82.1880   106.2700  -999.2500  -999.2500  -999.2500  -999.2500  -999.2500
 1115.0000   -68.8000     7.7010     7.3280     8.6000   -81.9510   107.3800  -999.2500  -999.2500  -999.2500  -999.2500  -999.2500
 1115.5000   -68.3490     7.7240     7.3590     8.6530   -81.7200   107.7740  -999.2500  -999.2500  -999.2500  -999.2500  -999.2500
 1116.0000   -67.8970     7.7470     7.3900     8.7050   -81.4900   106.6340  -999.2500  -999.2500  -999.2500  -999.2500  -999.2500
 1116.5000   -67.4450     7.7700     7.4200     8.7940   -81.2350   105.2150  -999.2500  -999.2500  -999.2500  -999.2500  -999.2500
 1117.0000   -66.9940     7.7930     7.4510     8.7360   -81.1920   103.9160  -999.2500  -999.2500  -999.2500  -999.2500  -999.2500
 1117.5000   -66.5420     7.8160     7.4810     8.5620   -81.3830   102.4680  -999.2500  -999.2500  -999.2500  -999.2500  -999.2500
 1118.0000   -66.0900     7.8390     7.5120     8.3890   -81.5490   103.4010  -999.2500  -999.2500  -999.2500  -999.2500  -999.2500
 1118.5000   -65.6380     7.8620     7.5420     8.2160   -81.7190   104.6490  -999.2500  -999.2500  -999.2500  -999.2500  -999.2500
 1119.0000   -65.1870     7.8850     7.5730     8.0340   -81.8900   106.9710  -999.2500  -999.2500  -999.2500  -999.2500  -999.2500
 1119.5000   -64.7350     7.9090     7.6030     8.2160   -82.0620   106.1430  -999.2500  -999.2500  -999.2500  -999.2500  -999.2500
 1120.0000   -64.2830     7.9320     7.6740     8.4060   -82.2310   103.6010  -999.2500  -999.2500  -999.2500  -999.2500  -999.2500
 1120.5000   -63.8320     7.9550     7.7580     8.5970   -82.3990   100.9720  -999.2500  -999.2500  -999.2500  -999.2500  -999.2500
 1121.0000   -64.1180     7.9780     7.8420     8.7940   -82.5910   100.9680  -999.2500  -999.2500  -999.2500  -999.2500  -999.2500
 1121.5000   -64.6300     8.0010     7.9270     8.7940   -82.6080   103.0200  -999.2500  -999.2500  -999.2500  -999.2500  -999.2500
 1122.0000   -65.1430     8.0240     8.0110     8.7940   -82.3290   104.9310  -999.2500  -999.2500  -999.2500  -999.2500  -999.2500
 1122.5000   -65.6560     8.0470     8.0950     8.7940   -82.0730   106.9820  -999.2500  -999.2500  -999.2500  -999.2500  -999.2500
 1123.0000   -66.1680     8.0700     8.1790     8.9850   -81.8130   108.8280  -999.2500  -999.2500  -999.2500  -999.2500  -999.2500
 1123.5000   -66.6810     8.0930     8.2630     9.1170   -81.5510   110.7430  -999.2500  -999.2500  -999.2500  -999.2500  -999.2500
 1124.0000   -67.1940     8.1160     8.3470     9.1010   -81.2730   109.7260  -999.2500  -999.2500  -999.2500  -999.2500  -999.2500
 1124.5000   -67.7060     8.1390     8.4820     9.0880   -81.1160   108.3900  -999.2500  -999.2500  -999.2500  -999.2500  -999.2500
 1125.0000   -68.2190     8.1630     8.4740     9.0750   -81.1540   106.5460  -999.2500  -999.2500  -999.2500  -999.2500  -999.2500
 1125.5000   -68.7320     8.1810     8.4530     9.0620   -81.1710   106.1570  -999.2500  -999.2500  -999.2500  -999.2500  -999.2500
 1126.0000   -69.2440     8.1970     8.4340     9.0490   -81.1930   105.4220  -999.2500  -999.2500  -999.2500  -999.2500  -999.2500
 1126.5000   -69.7570     8.2100     8.4130     9.0350   -81.2160   103.0630  -999.2500  -999.2500  -999.2500  -999.2500  -999.2500
 1127.0000   -70.2700     8.2240     8.3920     9.0220   -81.2370   100.1400  -999.2500  -999.2500  -999.2500  -999.2500  -999.2500
 1127.5000   -70.7820     8.2370     8.3720     9.0090   -81.2590    97.0820  -999.2500  -999.2500  -999.2500  -999.2500  -999.2500
 1128.0000   -71.2950     8.2500     8.3510     8.9960   -81.2810    96.4390  -999.2500  -999.2500  -999.2500  -999.2500  -999.2500
