~VERSION INFORMATION
 VERS.                2.0:   CWLS LOG ASCII STANDARD - VERSION 2.0
 WRAP.                 NO:   ONE LINE PER DEPTH STEP
~WELL INFORMATION
#MNEM.UNIT      DATA TYPE    INFORMATION
#----------   ------------   ------------------------------
 STRT.F           60.0000:   START DEPTH
 STOP.F         5768.0000:   STOP DEPTH
 STEP.F            0.5000:   STEP LENGTH
 NULL.          -999.2500:   NO VALUE
 COMP.              RMOTC:   COMPANY
 WELL. RMOTC NPR-3 61 "X" #2-15:   WELL
 FLD .            N P R-3:   FIELD
 LOC .      S15 T38N R78W:   LOCATION
 CNTY.            NATRONA:   COUNTY
 STAT.            WYOMING:   STATE
 CTRY. UNITED STATES OF AMERICA:   COUNTRY
 SRVC.       SCHLUMBERGER:   SERVICE COMPANY
 DATE.        07-JAN-2002:   LOGDATE
 API .     49025230310000:   API NUMBER
~CURVE INFORMATION
#MNEM.UNIT       API CODE    CURVE DESCRIPTION
#----------   ------------   ------------------------------
 DEPT.F                  :   
 CALD.IN     45 280 60 00:   CALIPER FROM DENSITY LOG
 TEND.LBS    45 635 01 00:   TENSION FROM DENSITY LOG
 PEFZ.B/E    45 358 01 00:   HILT PHOTOELECTRIC FACTOR
 RHOZ.G/C3   45 350 01 00:   HILT BULK DENSITY
 NPOR.DEC    42 890 03 00:   ALPHA PROCESSED NEUTRON POROSITY
 HDRA.G/C3   45 356 01 00:   DELTA RHO HIP TOOL
 GRS .GAPI   60 310 01 00:   GAMMA RAY FROM SONIC LOG
 DTSM.US/F   61 523 00 00:   SHEAR-WAVE INTERVAL TRANSIT TIME DELTA-T
 GRR .GAPI   07 310 01 00:   GAMMA RAY FROM RESISTIVITY
 TENR.LBS    01 635 01 00:   TENSION FROM RES.
 SPR .MV     07 010 01 00:   SPONTANEOUS POTENTIAL
 HLLD.OHMM   11 220 10 00:   LATEROLOG DEEP RES.
 HLLS.OHMM   11 220 09 00:   LATEROLOG SHALLOW RES.
 HRLD.OHMM   11 220 10 00:   HIGH RESOLUTION DEEP RESISTIVITY
~PARAMETER INFORMATION
#MNEM.UNIT          VALUE    DESCRIPTION
#----------   ------------   ------------------------------
 EKB .F         5244.0000:   Kelly bushing
 EGL .F         5227.0000:   Ground level
 EDF .F         5243.0000:   Drilling floor
 EPD .F            0.0000:   Permanent datum
 TD  .F         5756.0000:   Total depth
 DATE.        07-JAN-2002:   Date logged
 CLNT.            A2DTECH:   Client Code
 SL  . 189' FNL & 1895' FEL:   Surface Location
 PD  .                 GL:   Permanent Datum
 DD  .F              5750:   Depth driller
 DL  .F              5756:   Depth logger
 BLI .F              5748:   Bottom log interval
 CS1 .IN             3054:   Casing size
 CBD1.     9.625" @ 3052':   Casing driller 1
 CBL1.F              3054:   Casing logger 1
 BS1 .IN            8.750:   Bit size
 DFT .             3% KCL:   Type fluid in hole
 DFD .                9.3:   Density
 DFV .                 42:   Viscosity
 DFPH.                  8:   pH
 DFL .                 28:   Fluid loss
 MSS .           FLOWLINE:   Source of sample
 RMS .OHMM          0.413:   Rm
 MST .F                74:   Rm Meas. temp.
 RMF .OHMM          0.305:   Rmf
 MFST.F                74:   Rmf Meas. temp.
 RMC .OHMM          0.637:   Rmc
 MCST.F                74:   Rmc Meas. temp.
 MFSS.               CALC:   Source Rmf.
 RMB .OHMM          0.187:   Rm. at BHT
 BHT .F               172:   BHT.
 TCS .HRS            0800:   Time Circ. stopped
 MRT .F               172:   Maximum recorded temp.
 LUN .               2211:   Logging unit number
 LUL .             CASPER:   Logging unit location
 ENGI.        J.L. FLORES:   Recorded By
 WITN.      MARK MILLIKEN:   Witnessed by
 ORIG.           5" PRINT:   Origin of data
 UWI .     49025230310000:   Unique Well ID
 DICO. A2D TECHNOLOGIES, INC.:   Digitizing Company
 DAPD.                 17:   Feet Above Permanent Datum
 BSD1.               5750:   Depth drilled with bit1
 MCSS.               CALC:   Source Rmc.
 LMF .                 KB:   Log Measured From
 DMF .                 KB:   Drilling Measured From
 TLI .               3054:   Top log interval
~OTHER INFORMATION
~A   DEPT     CALD       TEND       PEFZ       RHOZ       NPOR       HDRA        GRS       DTSM         GRR      TENR        SPR       HLLD       HLLS       HRLD   
# ...
 5352.0000     9.6280  2733.5979     3.2680     2.7230     0.1050     0.0230    96.4040    97.1070   108.6350  2793.5310   -31.5160    80.3160    81.7990    33.3790
 5352.5000     9.6200  2770.0459     3.2290     2.7300     0.1030     0.0210    95.4350    96.5140   107.4300  2821.9609   -32.7410    86.4130    86.3110    87.2070
 5353.0000     9.6290  2793.2410     3.2070     2.7360     0.1010     0.0190    97.1620    95.3300   103.8960  2820.0879   -32.8410    82.5510    91.2790    81.1530
 5353.5000     9.6520  2793.2410     3.1160     2.7340     0.0950     0.0190    96.0570    94.1460   100.8030  2805.8730   -33.4510    84.6980    98.5110    82.5100
 5354.0000     9.6750  2793.2410     3.1110     2.7220     0.0900     0.0120    90.0260    93.5530    97.0560  2790.4670   -35.2470    92.1270   110.7040    88.8170
 5354.5000     9.6970  2793.2410     3.1330     2.7160     0.0850     0.0030    81.8530    93.9690    92.4630  2788.0381   -37.0440   105.1130   122.8970   102.3940
 5355.0000     9.7170  2759.1589     3.2130     2.7230     0.0780     0.0000    83.8440    94.4300    89.3370  2780.3831   -38.8410   122.0550   135.0890   121.3410
 5355.5000     9.7180  2733.5979     3.3100     2.7300     0.0830    -0.0020    90.9800    94.8920    89.3330  2772.7290   -39.9400   140.3160   148.2320   140.2880
 5356.0000     9.7170  2750.1660     3.3390     2.7370     0.0910    -0.0010    99.7010    95.3530    92.5580  2770.6060   -38.1340   116.7790   132.1270   114.5580
 5356.5000     9.7170  2783.3000     3.3760     2.7370     0.0970     0.0010   101.7830    96.0910    97.3730  2790.4670   -36.1190    81.7990   116.8590    85.6270
 5357.0000     9.7170  2793.2410     3.4110     2.7320     0.1020     0.0020   100.8030    96.2100   101.7560  2810.3279   -35.4570   110.6190   116.8590   110.7910
 5357.5000     9.7170  2784.8291     3.4290     2.7290     0.1070     0.0000    99.1600    96.3790   108.3440  2806.2310   -36.1230   104.2360   109.8540   110.4560
 5358.0000     9.7170  2777.1831     3.3710     2.7280     0.1180    -0.0020   100.6800    96.5480   108.9880  2793.7930   -36.7840    95.4740   100.2380    96.3200
 5358.5000     9.7170  2767.1470     3.2560     2.7160     0.1180     0.0000   101.7010    97.0690   106.2820  2781.3560   -37.1330    89.6330    94.6900    83.3090
 5359.0000     9.7170  2753.4790     3.1360     2.6940     0.1120    -0.0010   101.9150    96.9420   103.3900  2770.6060   -35.7030    83.2760    95.7620    81.0540
 5359.5000     9.7170  2769.2671     3.1130     2.6700     0.1100    -0.0010   102.2890    96.8150   104.1600  2764.1011   -34.3370    77.0980    95.3970    75.2840
 5360.0000     9.7170  2786.8091     3.1720     2.6680     0.1110     0.0000   106.2520    96.6880   107.9530  2788.9771   -33.9710    72.9710    92.1270    68.7510
 5360.5000     9.7170  2804.3501     3.2280     2.6890     0.1140     0.0010   108.0430    96.2390   110.9820  2813.8530   -33.6680    78.1420    93.5810    76.7260
 5361.0000     9.7170  2833.0020     3.2280     2.7130     0.1170     0.0010   105.1100    95.0410   109.8120  2830.1890   -33.2840    79.5850    95.5440    78.3570
 5361.5000     9.7170  2813.1211     3.2170     2.7170     0.1170     0.0000    96.4070    93.8420   104.3910  2806.7029   -29.6200    84.9650    97.6150    80.3160
 5362.0000     9.7170  2783.3000     3.2060     2.7090     0.0930    -0.0030    90.2390    92.6440    98.3820  2781.8269   -26.1600    96.4380   101.0240    95.5600
 5362.5000     9.7170  2753.4790     3.1960     2.7030     0.0760    -0.0050    85.4610    91.4450    93.4990  2750.7451   -27.0430    96.4380   104.4340    94.5440
 5363.0000     9.7170  2753.4790     3.1960     2.7040     0.0780    -0.0030    80.8260    90.2470    90.1520  2769.4141   -31.9870    96.4380   107.6250    92.9730
 5363.5000     9.7170  2753.4790     3.2340     2.7210     0.0850     0.0000    73.0840    89.0480    81.7190  2794.2900   -34.3540    97.3240   108.8990    96.4380
 5364.0000     9.7170  2753.4790     3.3890     2.7430     0.0890     0.0020    57.2860    87.9700    60.5270  2819.1660   -35.5870   114.3370   109.6120   108.6140
 5364.5000     9.7170  2814.2261     3.5430     2.7780     0.0910     0.0020    42.1740    88.8260    43.1850  2830.1890   -36.5760   193.1150   126.8860   222.3400
 5365.0000     9.7170  2852.8831     3.7110     2.8050     0.0860     0.0010    28.9660    89.7780    33.4330  2840.6609   -36.5630   398.0500   362.6600   405.3980
 5365.5000     9.7170  2823.0620     3.8910     2.8100     0.0740     0.0010    20.4760    90.7300    24.5720  2850.0500   -36.6700   376.7520   538.2950   357.7760
 5366.0000     9.7180  2780.4600     4.0760     2.8040     0.0720     0.0000    18.0220    91.6810    20.2670  2830.1890   -36.6650   317.8010   391.7480   295.1540
 5366.5000     9.7170  2733.5979     4.0550     2.7740     0.0740     0.0050    18.0020    92.5380    18.6980  2750.7451   -36.8570   268.6170   343.0390   245.1380
 5367.0000     9.7150  2749.6560     3.9670     2.7440     0.0760     0.0220    18.1680    92.3300    20.9000  2730.8840   -37.1310   405.3980   460.7790   448.3080
 5367.5000     9.7290  2772.5950     4.1010     2.7140     0.0780     0.0210    18.4210    92.1000    21.9100  2769.6130   -37.5270   387.4010   430.0770   369.0800
 5368.0000     9.7130  2793.2410     4.4650     2.7070     0.0730     0.0170    18.6750    91.8690    20.8750  2810.3279   -37.6460   338.6640   376.1060   268.6170
 5368.5000     9.6990  2808.8611     4.7190     2.7320     0.0550     0.0130    18.8980    91.6380    21.5090  2830.1890   -37.5670   305.3120   331.5080   420.3480
 5369.0000     9.6840  2796.5540     4.8780     2.7530     0.0370     0.0100    21.1000    91.5970    23.7650  2791.6580   -37.3300   611.5220   743.3900   826.8560
 5369.5000     9.6740  2763.4189     4.8920     2.7550     0.0210     0.0080    25.3600    91.7470    27.4910  2730.8840   -37.9470  1006.9120  1166.2440  1233.3650
 5370.0000     9.6690  2760.2571     4.7730     2.7400     0.0210     0.0070    30.9680    91.8960    33.9600  2730.8840   -39.0080  1295.2410  1513.1360  1395.0670
 5370.5000     9.6640  2773.8120     4.5960     2.7330     0.0270     0.0050    36.7290    92.0300    39.3060  2758.5020   -40.3840  1091.4200  1325.6030  1156.0590
 5371.0000     9.6580  2787.3669     4.4230     2.7400     0.0310     0.0070    39.0270    91.7190    43.5480  2781.9150   -43.0910   883.4480  1166.6270   917.0520
 5371.5000     9.6530  2800.9221     4.2510     2.7480     0.0340     0.0100    40.2240    91.3730    45.6410  2810.3279   -43.2960   675.4760   969.8330   678.0440
 5372.0000     9.6450  2813.1211     4.0740     2.7540     0.0440     0.0100    38.4360    91.0270    40.7400  2807.5471   -43.2940   465.0130   658.2760   436.1740
 5372.5000     9.6380  2808.8611     3.9610     2.7610     0.0520     0.0100    36.3380    90.6810    35.4350  2802.8091   -40.7670   495.0240   640.4600   428.2680
 5373.0000     9.6310  2794.6609     3.8670     2.7680     0.0610     0.0080    33.5570    90.5410    31.0010  2798.0710   -38.2800   533.3940   664.3250   518.1990
 5373.5000     9.6230  2780.4600     3.7720     2.7650     0.0690     0.0050    30.4620    90.6510    27.4100  2793.3320   -37.4130   450.5240   648.6770   579.1590
 5374.0000     9.6170  2777.5020     3.7870     2.7620     0.0770     0.0020    27.3760    90.7610    23.8210  2790.4670   -37.7980   373.3640   628.8500   416.6320
 5374.5000     9.6170  2785.7849     3.8060     2.7600     0.0710     0.0030    24.4810    90.8720    21.1530  2790.4670   -38.3440   438.2460   641.8430   334.5540
 5375.0000     9.6170  2793.2410     3.8190     2.7590     0.0690     0.0050    22.1600    90.9820    20.7340  2790.4670   -38.4770   568.6610   646.3440   579.1590
 5375.5000     9.6170  2793.2410     3.6280     2.7500     0.0940     0.0060    22.5980    91.1130    22.2350  2790.4670   -38.4660   448.4560   611.8300   529.6630
 5376.0000     9.6170  2793.2410     3.4390     2.7440     0.1190     0.0080    23.2640    91.3080    23.5360  2790.4670   -38.3470   298.2750   421.0090   352.5000
