~VERSION INFORMATION
 VERS.                2.0:   CWLS LOG ASCII STANDARD - VERSION 2.0
 WRAP.                 NO:   ONE LINE PER DEPTH STEP
~WELL INFORMATION
#MNEM.UNIT      DATA TYPE    INFORMATION
#----------   ------------   ------------------------------
 STRT.F            9.0000:   START DEPTH
 STOP.F         2876.0000:   STOP DEPTH
 STEP.F            0.5000:   STEP LENGTH
 NULL.          -999.2500:   NO VALUE
 COMP.    FENIX & SCISSON:   COMPANY
 WELL. FENIX & SCISSON "AX" #82-29:   WELL
 FLD .        TEAPOT DOME:   FIELD
 LOC .      S29 T39N R78W:   LOCATION
 CNTY.            NATRONA:   COUNTY
 STAT.            WYOMING:   STATE
 CTRY. UNITED STATES OF AMERICA:   COUNTRY
 SRVC.           BIRDWELL:   SERVICE COMPANY
 DATE.        12-JAN-1980:   LOGDATE
 API .     49025107980000:   API NUMBER
~CURVE INFORMATION
#MNEM.UNIT       API CODE    CURVE DESCRIPTION
#----------   ------------   ------------------------------
 DEPT.F                  :   
 GRD .GAPI   45 310 01 00:   GAMMA RAY FROM DENSITY LOG
 CALD.IN     45 280 60 00:   CALIPER FROM DENSITY LOG
 CORR.G/C3   45 356 01 00:   DENSITY CORRECTION
 RHOB.G/C3   45 350 01 00:   BULK DENSITY
 SPR .MV     07 010 01 00:   SPONTANEOUS POTENTIAL
 ILD .OHMM   07 120 46 00:   DEEP INDUCTION RESISTIVITY
 SN  .OHMM   07 220 01 00:   SHALLOW FOCUSED LOG RESISTIVITY
~PARAMETER INFORMATION
#MNEM.UNIT          VALUE    DESCRIPTION
#----------   ------------   ------------------------------
 EKB .F         4985.0000:   Kelly bushing
 EGL .F         4973.0000:   Ground level
 EDF .F         4982.0000:   Drilling floor
 TD  .F         2876.0000:   Total depth
 CLNT.            A2DTECH:   Client Code
 SL  . 1821' FEL & 414' FEL:   Surface Location
 DATE.        12-JAN-1980:   Date Logged [DD-MMM-YYYY]
 DD  .F              2870:   Depth driller
 DL  .F              2876:   Depth logger
 BLI .F              2876:   Bottom log interval
 TLI .F               320:   Top log interval
 CS1 .IN            8.625:   Casing size
 CBD1.      8.625" @ 280':   Casing driller 1
 CBL1.IN              320:   Casing logger 1
 BS1 .IN            7.875:   Bit size
 BSD1.F              2870:   Depth drilled with bit1
 DFT .            GEL MUD:   Type fluid in hole
 DFD .                8.7:   Density
 DFV .                 53:   Viscosity
 DFPH.               10.5:   pH
 DFL .               15.4:   Fluid loss
 MSS .            MUD PIT:   Source of sample
 RMS .OHMM            1.8:   Rm
 MST .F                50:   Rm Meas. temp.
 RMF .OHMM            1.4:   Rmf
 MFST.F                60:   Rmf Meas. temp.
 MFSS.               MEAS:   Source Rmf.
 RMC .OHMM            1.9:   Rmc
 MCST.F                60:   Rmc Meas. temp.
 MCSS.               MEAS:   Source Rmc.
 RMB .OHMM           0.65:   Rm. at BHT
 BHT .F               138:   BHT.
 TCS .HRS              11:   Time Circ. stopped
 MRT .F               138:   Maximum recorded temp.
 LUN .               3029:   Logging unit number
 LUL .             CASPEL:   Logging unit location
 ENGI.           T. VOLFF:   Recorded By
 WITN.          MR. AMEND:   Witnessed by
 ORIG.         2.5" PRINT:   Origin of data
 UWI .     49025107980000:   Unique Well ID
 DICO. A2D TECHNOLOGIES,INC.:   Digitizing Company
 PD  .                 GL:   Permanent Datum
 EPD .F              4973:   Elevation Permanent Datum
 LMF .                 DF:   Log Measured From
 DMF .                 KB:   Drilling Measured From
 DAPD.F                 9:   Feet Above Permanent Datum
~OTHER INFORMATION
~A    DEPT      GRD      CALD       CORR       RHOB        SPR        ILD         SN   
# ...
 2511.5000   122.4556     9.2577     0.0104     2.5310   -17.9176     5.8372     7.1880
 2512.0000   117.2934     9.2565     0.0073     2.5339   -18.2195     5.9183     7.3960
 2512.5000   115.1583     9.2540     0.0132     2.5384   -17.8864     6.1713     7.6043
 2513.0000   113.3272     9.2237     0.0192     2.5414   -16.6891     6.4398     7.7123
 2513.5000   115.1435     9.2225     0.0196     2.5361   -16.3811     6.6366     7.7343
 2514.0000   119.9994     9.2150     0.0161     2.5264   -16.3781     6.8187     7.9332
 2514.5000   123.9433     9.1896     0.0130     2.5202   -15.9903     7.0377     8.1533
 2515.0000   126.3675     9.1884     0.0129     2.5152   -15.6658     7.3217     9.0653
 2515.5000   127.8799     9.1873     0.0128     2.5130   -15.4542     7.6403    10.3394
 2516.0000   132.1278     9.1860     0.0127     2.5166   -15.5813     8.1284    11.0303
 2516.5000   129.0159     9.1848     0.0122     2.5150   -16.9613     8.7832    11.9376
 2517.0000   122.4674     9.1836     0.0059     2.5103   -16.8059     9.7085    12.6140
 2517.5000   120.1901     9.1821     0.0034     2.5057   -16.6610    10.5820    13.1576
 2518.0000   119.9401     9.1809     0.0042     2.5123   -17.5726    11.6968    13.5332
 2518.5000   121.0299     9.1798     0.0103     2.5132   -18.1794    12.5825    14.5184
 2519.0000   121.7491     9.1482     0.0187     2.5042   -19.0911    13.1202    15.5753
 2519.5000   115.3894     9.1166     0.0312     2.5052   -20.0028    13.3031    16.2464
 2520.0000   112.9384     9.1154     0.0540     2.5246   -18.4754    12.9323    16.0210
 2520.5000   112.3149     9.0838     0.0922     2.5337   -16.6432    12.7497    14.3199
 2521.0000   113.5107     9.0827     0.0739     2.5191   -16.3353    12.5696    13.1467
 2521.5000   111.9819     9.0805     0.0755     2.5184   -17.5613    12.2196    12.3928
 2522.0000   109.2389     9.0472     0.0815     2.5199   -18.4897    12.0446    11.7150
 2522.5000   110.4473     8.9835     0.0723     2.5103   -18.7655    11.5376    11.2146
 2523.0000   111.3526     8.9139     0.0511     2.4815   -18.7023    11.3474    10.7766
 2523.5000    97.0587     8.8258     0.0419     2.4534   -17.9959    10.8877    10.5189
 2524.0000    77.9023     8.7621     0.0782     2.4551   -16.8335    10.5436    10.4630
 2524.5000    69.0804     8.7288     0.0933     2.4603   -16.6189    10.1313    10.2292
 2525.0000    65.7295     8.7083     0.0962     2.4664   -16.6159     9.7048    10.2299
 2525.5000    68.9098     8.7070     0.0780     2.4908   -16.0379     9.5606    10.2306
 2526.0000    94.6927     8.7058     0.0415     2.5015   -15.3902     9.1581    10.0888
 2526.5000   108.2483     8.7046     0.0354     2.5061   -15.6921     8.7759     9.9488
 2527.0000   111.9853     8.7335     0.0353     2.5106   -15.0787     8.4573     9.2750
 2527.5000   114.9326     8.7323     0.0352     2.5137   -13.8562     8.1168     8.6468
 2528.0000   113.1369     8.7616     0.0346     2.5075   -14.7679     8.1151     8.4080
 2528.5000   110.0546     8.7604     0.0253     2.4999   -15.6796     8.1135     8.2913
 2529.0000   111.2166     8.7897     0.0182     2.4968   -15.9815     8.1118     9.4087
 2529.5000   112.4577     8.8188     0.0137     2.4968   -16.5883     7.9972     9.5424
 2530.0000   113.6979     8.8176     0.0106     2.4968   -16.8902     7.9956     9.2618
 2530.5000   114.9387     8.8164     0.0136     2.5001   -17.1921     7.8827     8.9919
 2531.0000   115.7889     8.8152     0.0193     2.5029   -17.1658     7.7713     8.6294
 2531.5000   116.6934     8.8140     0.0300     2.4981   -16.5762     7.7698     8.5028
 2532.0000   118.5097     8.8128     0.0224     2.4806   -16.6300     7.9890     8.4126
 2532.5000   123.6695     8.8116     0.0345     2.4723   -17.7900     7.8471     8.4549
 2533.0000   130.3490     8.8103     0.0495     2.4870   -17.0865     7.6568     8.8774
 2533.5000   126.3902     8.8091     0.0707     2.5025   -16.8689     7.6551     9.2139
 2534.0000   118.7840     8.8079     0.0723     2.5158   -17.1713     7.7172     9.3523
 2534.5000   116.9529     8.8067     0.0190     2.4972   -15.5026     8.1328     9.4160
 2535.0000   117.2495     8.8055     0.0129     2.4848   -15.9552     8.4867     9.5499
 2535.5000   117.2782     8.8043     0.0189     2.5058   -15.7678     8.8460     9.8225
 2536.0000   117.5907     8.8332     0.0218     2.5210   -14.7190     9.1782    10.2458
 2536.5000   118.5801     8.8320     0.0248     2.5302   -15.3257     9.5094    10.6873
 2537.0000   121.3278     8.8612     0.0186     2.5317   -16.2374     9.9764    10.8392
 2537.5000   122.6836     8.8601     0.0095     2.5256   -16.8442    10.2580    10.9932
 2538.0000   117.7634     8.8893     0.0091     2.5271   -17.4510    10.6964    11.3070
 2538.5000   117.4274     8.8881     0.0059     2.5271   -15.6188    10.9983    11.4677
 2539.0000   118.1088     8.9173     0.0002     2.5255   -15.3109    11.3087    11.6306
 2539.5000   114.8304     8.9161    -0.0006     2.5225   -15.6165    11.3064    11.4237
 2540.0000   112.6125     8.9149    -0.0030     2.5272   -16.2196    11.1467    10.8134
 2540.5000   113.5170     8.9137     0.0039     2.5335   -16.2537    10.6854    10.6550
 2541.0000   119.8925     8.9125     0.0100     2.5392   -16.5186    10.1007    10.3525
 2541.5000   120.7970     8.9113     0.0161     2.5395   -15.5302    10.0854    10.2535
 2542.0000   119.5738     8.9100     0.0135     2.5426   -14.9882     9.9556    10.2543
 2542.5000   108.6241     8.9088     0.0087     2.5453   -15.8027    10.0942    10.3963
 2543.0000   102.5377     8.9076     0.0070     2.5488   -16.6269    10.0920    10.7787
 2543.5000   100.4026     8.9064     0.0008     2.5504   -17.4177    10.2324    11.1581
 2544.0000    99.1794     8.9052    -0.0037     2.5417   -17.4146    10.5212    11.4767
 2544.5000   105.3727     8.9040    -0.0037     2.5459   -17.4116    10.5190    11.6397
 2545.0000   107.7153     8.9025    -0.0068     2.5433   -17.4080    10.3704    11.3182
 2545.5000   111.1195     8.9013    -0.0039     2.5295   -17.7104    10.3413    11.1612
 2546.0000   117.6909     8.8697    -0.0039     2.5467   -16.4874    10.2217    10.5523
 2546.5000   116.2881     8.8686     0.0202     2.5665   -15.2649    10.0773    10.1178
 2547.0000   115.0324     8.8979     0.0232     2.5711   -14.9571    10.0265     9.8383
 2547.5000   113.3509     8.8966     0.0080     2.5558   -15.2592     9.8775     9.8390
 2548.0000   113.0719     8.8954     0.0078     2.5573   -15.5610     9.5952     9.9938
 2548.5000   114.4664     8.8942     0.0230     2.5741   -15.2525     9.3210    10.2875
 2549.0000   115.2127     8.9234     0.0231     2.5817   -14.0305     8.9987    10.7060
 2549.5000   114.5958     8.9256     0.0258     2.5786   -14.1644     8.8712    10.8581
 2550.0000   112.4608     8.9565     0.0258     2.5695   -16.2096     9.1216    10.8589
 2550.5000   111.2376     9.0111     0.0170     2.5572   -16.8326     9.6457    10.8690
 2551.0000   111.2302     9.0182    -0.0002     2.5541   -17.3724    10.2000    10.8875
 2551.5000   116.3899     9.0490    -0.0048     2.5174   -17.1669    10.7861    11.0504
 2552.0000   123.0695     9.0987     0.0055     2.5188   -16.3335    10.6338    11.3359
 2552.5000   118.5028     9.1107     0.0315     2.5325   -15.2286    10.4836    11.4959
 2553.0000   114.8480     9.1264     0.0100     2.5431   -16.2916    10.4814    11.4959
 2553.5000   117.6491     9.1253    -0.0022     2.5614   -17.3567    10.9415    11.5641
 2554.0000   119.6964     9.1542     0.0148     2.5721   -17.3531    11.4114    11.5803
 2554.5000   119.2509     9.1530     0.0142     2.5696   -17.0452    11.3707    11.4959
 2555.0000   118.0392     9.1822     0.0098     2.5530   -16.7374    11.2331    11.3359
 2555.5000   117.1646     9.1810     0.0067     2.5444   -16.4295    11.1910    11.1781
 2556.0000   116.6262     9.1798     0.0067     2.5457   -16.1217    10.9781    11.0224
 2556.5000   116.0957     9.1787     0.0066     2.5566   -15.5090    10.7097    11.0224
