~VERSION INFORMATION
 VERS.                2.0:   CWLS LOG ASCII STANDARD - VERSION 2.0
 WRAP.                 NO:   ONE LINE PER DEPTH STEP
~WELL INFORMATION
#MNEM.UNIT      DATA TYPE    INFORMATION
#----------   ------------   ------------------------------
 STRT.F          212.5000:   START DEPTH
 STOP.F         3098.0000:   STOP DEPTH
 STEP.F            0.5000:   STEP LENGTH
 NULL.          -999.2500:   NO VALUE
 COMP.    FENIX & SCISSON:   COMPANY
 WELL. FENIX NPR 77 "A" #3-33:   WELL
 FLD .                NPR:   FIELD
 LOC .      S33 T39N R78W:   LOCATION
 CNTY.            NATRONA:   COUNTY
 STAT.            WYOMING:   STATE
 CTRY. UNITED STATES OF AMERICA:   COUNTRY
 SRVC.       SCHLUMBERGER:   SERVICE COMPANY
 DATE.        07-MAY-1977:   LOGDATE
 API .     49025103700000:   API NUMBER
~CURVE INFORMATION
#MNEM.UNIT       API CODE    CURVE DESCRIPTION
#----------   ------------   ------------------------------
 DEPT.F                  :   
 SPR .MV     07 010 01 00:   SPONTANEOUS POTENTIAL
 LL8 .OHMM   11 220 08 00:   LATERALOG-8 RESISTIVITY
 ILD .OHMM   07 120 46 00:   DEEP INDUCTION RESISTIVITY
 CALD.IN     45 280 60 00:   CALIPER FROM DENSITY LOG
 GRD .GAPI   45 310 01 00:   GAMMA RAY FROM DENSITY LOG
 RHOB.G/C3   45 350 01 00:   BULK DENSITY
 CORR.G/C3   45 356 01 00:   DENSITY CORRECTION
 ILM .OHMM   07 120 44 00:   INDUCTION LOG MEDIUM RESISTIVITY
~PARAMETER INFORMATION
#MNEM.UNIT          VALUE    DESCRIPTION
#----------   ------------   ------------------------------
 EKB .F         5152.0000:   Kelly bushing
 EGL .F         5141.0000:   Ground level
 TD  .F         3097.0000:   Total depth
 DATE.        07-MAY-1977:   Date logged
 CLNT.            A2DTECH:   Client Code
 SL  . 990' FEL & 990' FSL:   Surface Location
 PD  .                 GL:   Permanent Datum
 EPD .F              5141:   Elevation Permanent Datum
 LMF .                 KB:   Log Measured From
 DMF .                 KB:   Drilling Measured From
 DAPD.F                11:   Feet Above Permanent Datum
 DD  .F              3096:   Depth driller
 DL  .F              3097:   Depth logger
 BLI .F              3091:   Bottom log interval
 TLI .F               222:   Top log interval
 CS1 .IN            8.625:   Casing size
 CBD1.      8.625" @ 200':   Casing driller 1
 CBL1.F               222:   Casing logger 1
 BS1 .IN            7.875:   Bit size
 BSD1.F              3096:   Depth drilled with bit1
 DFT .                KCL:   Type fluid in hole
 DFD .                9.2:   Density
 DFV .                 38:   Viscosity
 DFPH.                  8:   pH
 DFL .                7.6:   Fluid loss
 MSS .           FLOWLINE:   Source of sample
 RMS .OHMM           .191:   Rm
 MST .F                76:   Rm Meas. temp.
 RMF .OHMM           .185:   Rmf
 MFST.F                76:   Rmf Meas. temp.
 MFSS.               MEAS:   Source Rmf.
 RMB .OHMM           .126:   Rm. at BHT
 BHT .F               115:   BHT.
 TCS .HRS            1200:   Time Circ. stopped
 TLAB.HRS            1530:   Time logger at bottom
 MRT .F                15:   Maximum recorded temp.
 LUN .               6442:   Logging unit number
 LUL .               CSPR:   Logging unit location
 ENGI.             MARTIN:   Recorded By
 WITN.          PETTMGILL:   Witnessed by
 ORIG.      2.5" 5" PRINT:   Origin of data
 UWI .     49025103700000:   Unique Well ID
 DICO. A2D TECHNOLOGIES, INC.:   Digitizing Company
~OTHER INFORMATION
~A   DEPT      SPR        LL8        ILD       CALD         GRD      RHOB       CORR        ILM   
# ...
 1144.0000   -85.3360    10.1530     9.2510     9.6930   106.9260     2.5980     0.0930     7.9750
 1144.5000   -84.7050    10.1450     9.2510     9.7000   108.6660     2.5920     0.0820     8.0040
 1145.0000   -84.0640    10.1820     9.2500     9.7070   110.3300     2.5810     0.0710     8.0340
 1145.5000   -83.4310    10.2180     9.2420     9.7120   112.0130     2.5700     0.0560     8.0640
 1146.0000   -82.8870    10.2540     9.2000     9.7150   113.2560     2.5670     0.0640     8.0930
 1146.5000   -82.9040    10.2900     9.1590     9.7180   112.4690     2.5840     0.0810     8.1290
 1147.0000   -82.9060    10.3260     9.1180     9.7210   111.4550     2.6030     0.0990     8.0980
 1147.5000   -82.9050    10.3340     9.0760     9.7240   110.8160     2.6120     0.0990     8.0570
 1148.0000   -82.9530    10.2520     9.0350     9.7270   111.4600     2.6000     0.0870     8.0170
 1148.5000   -83.2870    10.1670     8.9930     9.7300   112.4840     2.5900     0.0800     7.9770
 1149.0000   -83.6230    10.0810     8.9520     9.7330   112.2180     2.5770     0.0830     7.9360
 1149.5000   -83.9580     9.9960     8.9150     9.7360   111.7050     2.5770     0.0930     7.8960
 1150.0000   -84.2940     9.9110     8.9150     9.7390   111.2120     2.5810     0.1040     7.8350
 1150.5000   -84.6290     9.8680     9.0330     9.7420   110.7080     2.5860     0.1100     7.9810
 1151.0000   -84.9630    10.1540     9.1530     9.7440   110.4520     2.5900     0.0990     8.1620
 1151.5000   -85.2960    10.3750     9.2720     9.7480   109.9780     2.5860     0.0890     8.2820
 1152.0000   -85.4420    10.6240     9.3910     9.7500   111.2650     2.5770     0.0780     8.4020
 1152.5000   -85.3160    10.4850     9.5110     9.7500   113.4710     2.5640     0.0710     8.5130
 1153.0000   -85.1910    10.3340     9.5980     9.7520   115.6350     2.5700     0.0790     8.4450
 1153.5000   -85.0790    10.3650     9.5980     9.7240   116.8690     2.5800     0.0900     8.3660
 1154.0000   -84.7590    10.4020     9.5980     9.6470   117.7570     2.5720     0.0840     8.2880
 1154.5000   -84.3320    10.4300     9.5980     9.5740   117.3410     2.5600     0.0740     8.2090
 1155.0000   -83.8980    10.4180     9.6040     9.5140   116.5520     2.5480     0.0670     8.1310
 1155.5000   -83.4610    10.3700     9.6110     9.5130   115.6350     2.5470     0.0670     8.0550
 1156.0000   -83.0240    10.3340     9.6180     9.5190   114.3970     2.5590     0.0750     8.0550
 1156.5000   -82.5860    10.3680     9.6250     9.5270   112.9230     2.5710     0.0820     8.2090
 1157.0000   -82.5640    10.4470     9.6320     9.5340   113.5740     2.5810     0.0910     8.3360
 1157.5000   -82.6910    10.5260     9.6390     9.5420   114.9270     2.5910     0.0990     8.4630
 1158.0000   -82.8200    10.5260     9.6460     9.5500   116.0340     2.5790     0.1000     8.5130
 1158.5000   -82.9480    10.5750     9.6530     9.5520   115.1670     2.5690     0.0850     8.4570
 1159.0000   -83.0760    10.6240     9.6600     9.5510   113.9420     2.5690     0.0890     8.4110
 1159.5000   -83.2040    10.6730     9.6670     9.5530   112.6580     2.5730     0.0930     8.3640
 1160.0000   -83.3320    10.7220     9.6750     9.5570   112.0880     2.5740     0.0910     8.3180
 1160.5000   -83.4610    10.7710     9.6810     9.5600   112.8790     2.5730     0.0780     8.2710
 1161.0000   -83.5880    10.8220     9.6870     9.5640   112.3810     2.5570     0.0650     8.2250
 1161.5000   -83.7040    10.7470     9.6800     9.5680   112.0190     2.5340     0.0530     8.1780
 1162.0000   -83.5340    10.6500     9.6740     9.5720   111.5770     2.5420     0.0400     8.1290
 1162.5000   -83.3240    10.5520     9.6680     9.5760   115.3760     2.5600     0.0540     8.1640
 1163.0000   -83.1110    10.4550     9.6620     9.5790   116.7470     2.5550     0.0570     8.2280
 1163.5000   -83.1020    10.4300     9.6560     9.5830   116.2660     2.5520     0.0510     8.2910
 1164.0000   -83.1010    10.4740     9.6490     9.5870   116.1480     2.5670     0.0650     8.3540
 1164.5000   -83.0480    10.5340     9.6430     9.5910   117.7370     2.6110     0.0910     8.4350
 1165.0000   -82.8520    10.5950     9.6370     9.5950   118.6230     2.6070     0.0990     8.4290
 1165.5000   -82.6630    10.6240     9.6310     9.5980   117.9160     2.5970     0.0940     8.4200
 1166.0000   -82.4750    10.5840     9.6250     9.6020   117.3650     2.5920     0.0850     8.4120
 1166.5000   -82.2890    10.5550     9.6190     9.6060   112.4310     2.5960     0.0890     8.4030
 1167.0000   -82.0950    10.5250     9.6130     9.6100   110.7240     2.5990     0.1000     8.3950
 1167.5000   -81.6160    10.4950     9.6060     9.6140   107.6030     2.6000     0.1040     8.3860
 1168.0000   -81.1530    10.4650     9.6010     9.6170   107.5790     2.5950     0.0840     8.3780
 1168.5000   -80.7300    10.4350     9.5710     9.6210   110.3410     2.5840     0.0890     8.3690
 1169.0000   -81.0480    10.4050     9.5320     9.6250   112.8390     2.5810     0.0950     8.3600
 1169.5000   -81.5160    10.3750     9.4920     9.6290   115.5170     2.5990     0.0960     8.3580
 1170.0000   -81.9850    10.3450     9.4530     9.6330   117.3150     2.5840     0.0590     8.3170
 1170.5000   -82.4530    10.3150     9.4130     9.6360   117.2230     2.5470     0.0470     8.2700
 1171.0000   -82.9220    10.2860     9.3740     9.6400   117.2710     2.5720     0.0620     8.2230
 1171.5000   -83.3900    10.2560     9.3340     9.6440   117.2630     2.5880     0.0750     8.1760
 1172.0000   -83.8590    10.2390     9.2950     9.6480   117.2670     2.5900     0.0840     8.1290
 1172.5000   -84.3270    10.2830     9.2550     9.6520   117.2370     2.5780     0.0760     8.0820
 1173.0000   -84.7950    10.3260     9.2160     9.6550   117.5250     2.5570     0.0690     8.0550
 1173.5000   -85.2640    10.3340     9.1760     9.6590   118.2100     2.5620     0.0700     7.9560
 1174.0000   -85.7320     9.9980     9.1370     9.6630   118.7720     2.5670     0.0820     7.8420
 1174.5000   -86.2030     9.7620     9.0970     9.6670   119.2450     2.5760     0.0850     7.7280
 1175.0000   -86.6710     9.5260     9.0810     9.6710   120.0610     2.5710     0.0650     7.6140
 1175.5000   -87.0820     9.3360     9.0090     9.6690   120.7660     2.5580     0.0530     7.5000
 1176.0000   -86.7680     9.3160     8.8250     9.6670   121.9260     2.5510     0.0650     7.3860
 1176.5000   -86.4070     9.2110     8.6410     9.6640   123.6900     2.5710     0.0790     7.2720
 1177.0000   -86.0450     9.1050     8.4580     9.6620   125.4120     2.5890     0.0950     7.1580
 1177.5000   -85.6830     9.0120     8.2740     9.6600   127.2510     2.5810     0.0950     7.0440
 1178.0000   -85.3210     8.8910     8.0900     9.6570   127.7990     2.5590     0.0850     6.8850
 1178.5000   -84.9580     8.7700     7.9070     9.6550   126.9440     2.5800     0.0760     6.8050
 1179.0000   -84.5990     8.6490     7.7230     9.6520   127.3790     2.5720     0.0670     6.6960
 1179.5000   -84.2900     8.5280     7.5400     9.6500   128.3640     2.5530     0.0580     6.5860
 1180.0000   -84.5410     8.4070     7.3450     9.6480   128.0150     2.5300     0.0490     6.5140
 1180.5000   -84.9980     8.2860     7.3450     9.6450   125.5060     2.5350     0.0490     6.5140
 1181.0000   -85.4540     8.2050     7.4010     9.6430   123.2600     2.5470     0.0580     6.5590
 1181.5000   -85.9130     8.2050     7.4510     9.6400   121.2960     2.5610     0.0680     6.6940
 1182.0000   -86.3700     8.3060     7.5010     9.6370   122.6940     2.5560     0.0620     6.8290
 1182.5000   -86.8280     8.5190     7.5500     9.6360   124.7740     2.5460     0.0510     6.9410
 1183.0000   -87.0430     8.7520     7.6000     9.6320   126.0670     2.5370     0.0560     6.8720
 1183.5000   -86.9560     8.7520     7.6500     9.6280   124.1070     2.5400     0.0680     6.8020
 1184.0000   -86.8670     8.4690     7.6990     9.5830   124.2880     2.5510     0.0780     6.7320
