~VERSION INFORMATION
 VERS.                2.0:   CWLS LOG ASCII STANDARD - VERSION 2.0
 WRAP.                 NO:   ONE LINE PER DEPTH STEP
~WELL INFORMATION
#MNEM.UNIT      DATA TYPE    INFORMATION
#----------   ------------   ------------------------------
 STRT.F         2933.0000:   START DEPTH
 STOP.F         5494.0000:   STOP DEPTH
 STEP.F            0.5000:   STEP LENGTH
 NULL.          -999.2500:   NO VALUE
 COMP.    FENIX & SCISSON:   COMPANY
 WELL. FENIX "TPX" #56-10:   WELL
 FLD .        TEAPOT DOME:   FIELD
 LOC .      S10 T38N R78W:   LOCATION
 CNTY.            NATRONA:   COUNTY
 STAT.            WYOMING:   STATE
 CTRY. UNITED STATES OF AMERICA:   COUNTRY
 SRVC.       SCHLUMBERGER:   SERVICE COMPANY
 DATE.        22-MAY-1978:   LOGDATE
 API .     49025106100000:   API NUMBER
~CURVE INFORMATION
#MNEM.UNIT       API CODE    CURVE DESCRIPTION
#----------   ------------   ------------------------------
 DEPT.F                  :   
 NPHI.DEC    42 890 03 00:   NEUTRON POROSITY SANDSTONE
 GRD .GAPI   45 310 01 00:   GAMMA RAY FROM DENSITY LOG
 CALD.IN     45 280 60 00:   CALIPER FROM DENSITY LOG
 CORR.G/C3   45 356 01 00:   DENSITY CORRECTION
 RHOB.G/C3   45 350 01 00:   BULK DENSITY
 SPR .MV     07 010 01 00:   SPONTANEOUS POTENTIAL
 ILD .OHMM   07 120 46 00:   INDUCTION LOG DEEP RESISTIVITY
 ILM .OHMM   07 120 44 00:   INDUCTION LOG MEDIUM RESISTIVITY
 SFL .OHMM   07 220 01 00:   SHALLOW FOCUSED LOG RESISITIVITY
 DT  .US/F   60 520 00 00:   DELTA TIME
~PARAMETER INFORMATION
#MNEM.UNIT          VALUE    DESCRIPTION
#----------   ------------   ------------------------------
 EKB .F         5212.0000:   Kelly bushing
 EGL .F         5202.0000:   Ground level
 TD  .F         5500.0000:   Total depth
 CLNT.            A2DTECH:   Client Code
 SL  . 1270' FSL & 2130' FEL:   Surface Location
 PD  .                 GL:   Permanent Datum
 EPD .F              5202:   Elevation Permanent Datum
 LMF .                 KB:   Log Measured From
 DMF .                 KB:   Drilling Measured From
 DAPD.F                10:   Feet Above Permanent Datum
 DATE.        22-MAY-1978:   Date Logged [DD-MMM-YYYY]
 DD  .F              5500:   Depth driller
 DL  .F              5499:   Depth logger
 BLI .F              5497:   Bottom log interval
 TLI .F              2971:   Top log interval
 CS1 .IN            8.625:   Casing size
 CBD1.     8.625" @ 2972':   Casing driller 1
 CBL1.F              2971:   Casing logger 1
 BS1 .IN            7.875:   Bit size
 BSD1.F              5500:   Depth drilled with bit1
 DFT .                FGM:   Type fluid in hole
 DFD .                9.3:   Density
 DFV .                 57:   Viscosity
 DFPH.               10.5:   pH
 DFL .                  6:   Fluid loss
 MSS .           MUD TANK:   Source of sample
 RMS .OHMM           0.93:   Rm
 MST .F                58:   Rm Meas. temp.
 RMF .OHMM           0.71:   Rmf
 MFST.F                61:   Rmf Meas. temp.
 MFSS.               MEAS:   Source Rmf.
 RMB .OHMM           0.27:   Rm. at BHT
 BHT .F               198:   BHT.
 TCS .HRS            1500:   Time Circ. stopped
 TLAB.HRS            0100:   Time logger at bottom
 MRT .F               198:   Maximum recorded temp.
 LUN .               8039:   Logging unit number
 LUL .               CSPR:   Logging unit location
 ENGI.          CHALUPSKY:   Recorded By
 WITN.            RHOADES:   Witnessed by
 ORIG.      2.5" 5" PRINT:   Origin of data
 UWI .     49025106100000:   Unique Well ID
 DICO. A2D TECHNOLOGIES, INC.:   Digitizing Company
~OTHER INFORMATION
~A  DEPTH     NPHI        GRD       CALD       CORR       RHOB        SPR        ILD        ILM        SFL         DT
# ...
 2966.5000     0.4444    64.0510  -999.2500  -999.2500  -999.2500  -999.2500  -999.2500  -999.2500  -999.2500    55.8654
 2967.0000     0.4453    65.2792  -999.2500  -999.2500  -999.2500  -999.2500  -999.2500  -999.2500  -999.2500    59.4205
 2967.5000     0.4343    72.5315  -999.2500  -999.2500  -999.2500  -999.2500  -999.2500  -999.2500  -999.2500    67.1764
 2968.0000     0.4284    79.7838  -999.2500  -999.2500  -999.2500  -999.2500  -999.2500  -999.2500  -999.2500    74.4000
 2968.5000     0.4559    90.0785  -999.2500  -999.2500  -999.2500  -999.2500  -999.2500  -999.2500  -999.2500    94.8679
 2969.0000     0.4952    95.6711  -999.2500  -999.2500  -999.2500   -54.1558  1944.8832    24.2548     0.2050   102.1683
 2969.5000     0.5275   100.4193  -999.2500  -999.2500  -999.2500   -54.0299  1944.8832    24.0771     0.2025   107.1236
 2970.0000     0.5113   102.2894  -999.2500  -999.2500  -999.2500   -54.4776  1944.8832    20.9740     0.2638   106.5273
 2970.5000     0.4177   102.7952  -999.2500  -999.2500  -999.2500   -55.3731  1958.3701    17.1473     0.7423    98.1114
 2971.0000     0.3652   102.8193     9.1143     0.1342     2.2946   -56.1194   497.5031   628.7924     1.6193    93.6805
 2971.5000     0.3597   102.8434    10.3673     0.1752     2.3126   -56.8657     2.3162  1014.8462     2.4637    92.6330
 2972.0000     0.3657   100.0247    11.3586     0.1163     2.3181   -57.3134     1.8163    79.9954     2.5497    92.2622
 2972.5000     0.3794    96.5559    11.3624     0.0928     2.3406   -57.4627     2.0863     2.8385     2.5315    91.8150
 2973.0000     0.3841    96.6383    11.2991     0.0883     2.3745   -57.3134     2.9718     2.6476     2.5309    92.1209
 2973.5000     0.3711    99.3295    11.2994     0.1045     2.3888   -57.4627     3.7882     2.5040     2.8461    91.6010
 2974.0000     0.3586   102.9673    11.5546     0.1221     2.3687   -57.7612     4.4122     2.4181     3.2677    91.3805
 2974.5000     0.3510   104.7979    12.0373     0.1309     2.3379   -58.0991     3.5082     2.5379     3.9109    93.6414
 2975.0000     0.3545   104.2188    12.3714     0.1338     2.3129   -58.6567     2.8680     2.7797     3.5735    93.3459
 2975.5000     0.3640   103.0361    12.6053     0.1323     2.3013   -58.9552     2.4958     2.9966     3.1324    92.7441
 2976.0000     0.3788   100.6511    12.7508     0.1220     2.3192   -58.9552     2.4608     2.6342     2.9620    92.7770
 2976.5000     0.3954    98.2648    12.7828     0.1161     2.3443   -58.9552     2.4264     2.5180     2.8588    93.0606
 2977.0000     0.4132    98.4978    12.8330     0.1428     2.3813   -58.3582     2.3924     2.5000     2.7633    92.4656
 2977.5000     0.4251   103.4945    12.8769     0.1760     2.3946   -57.9104     2.4085     2.5170     2.6872    92.9219
 2978.0000     0.4241   108.9627    12.8937     0.1866     2.3960   -57.3134     2.4416     2.5515     2.6496    93.6037
 2978.5000     0.3957   111.3457    12.9409     0.1848     2.3664   -57.1642     2.5099     2.5689     2.6306    94.5863
 2979.0000     0.3465   112.8434    12.9844     0.1836     2.3398   -57.1642     2.5445     2.5862     2.5582    94.7419
 2979.5000     0.3233   113.1105    13.0148     0.1882     2.3072   -57.1642     2.4570     2.6216     2.5050    95.0478
 2980.0000     0.3103   114.6587    13.0151     0.1982     2.2643   -57.1642     2.4059     2.6211     2.5217    94.3011
 2980.5000     0.3264   115.6086    12.7751     0.1971     2.2640   -56.8657     2.3722     2.5844     2.6462    92.3501
 2981.0000     0.3456   115.3494    11.9646     0.1890     2.3057   -56.2687     2.3717     2.5305     2.7577    91.6047
 2981.5000     0.3497   109.3534    11.3342     0.1778     2.3530   -55.9701     2.3712     2.4779     2.7761    90.7076
 2982.0000     0.3418    97.3286    11.2144     0.1636     2.3811   -55.9701     2.3707     2.4431     2.6406    91.4655
 2982.5000     0.3397    95.5447    11.1547     0.1440     2.3766   -56.5672     2.3957     2.4256     2.4327    94.4782
 2983.0000     0.3382    96.1705    11.1872     0.1130     2.3559   -57.1642     2.4364     2.4275     2.3171    95.0848
 2983.5000     0.3285    98.6035    11.2231     0.0863     2.3499   -57.9104     2.4870     2.4416     2.3224    95.6915
 2984.0000     0.3112   104.0485    11.3469     0.0686     2.3484   -58.0597     2.5388     2.4923     2.3809    96.1478
 2984.5000     0.2930   104.6747    11.4261     0.0656     2.3247   -57.9104     2.5917     2.5441     2.4812    95.1003
 2985.0000     0.2652   105.3613    11.2642     0.0729     2.3232   -57.7612     2.7013     2.6702     2.5858    94.5027
 2985.5000     0.2469   108.8287    10.8025     0.0876     2.3367   -57.9236     2.8549     2.8417     2.7512    92.1032
 2986.0000     0.2475   115.5904    10.4143     0.0891     2.3530   -58.3582     3.0383     3.0665     3.0939    87.8978
 2986.5000     0.2647   114.7409     9.9895     0.0802     2.3601   -58.9552     3.2560     3.3321     3.6519    81.5753
 2987.0000     0.3187   107.1320     9.8961     0.0566     2.3596   -59.5522     3.4893     3.5216     4.4611    79.2877
 2987.5000     0.3033   102.6113     9.9915     0.0213     2.3464   -59.8507     3.6369     3.6451     4.6826    80.4952
 2988.0000     0.2883   100.0478    10.3172     0.0051     2.3219   -59.5522     3.7645     3.6697     4.4682    88.0702
 2988.5000     0.2292    98.1887    10.3265     0.0081     2.3276   -59.2537     4.2132     3.6399     3.3573    93.9396
 2989.0000     0.2265    96.4624    10.1376     0.0156     2.3688   -58.6567     4.4193     3.6679     3.2650    92.4410
 2989.5000     0.2238    94.0761     9.9877     0.0232     2.4218   -58.2090     4.5375     3.8765     3.5960    88.7619
 2990.0000     0.2204    94.0995     9.8979     0.0337     2.4420   -57.7612     4.6318     4.1831     4.2741    80.1205
 2990.5000     0.2168    94.1229     9.8982     0.0435     2.4428   -57.7612     4.8613     4.5771     4.8064    77.1181
 2991.0000     0.2127    93.5422     9.8985     0.0527     2.4443   -57.7612     5.2096     4.9392     5.2575    77.5744
 2991.5000     0.2204    92.9639     9.8688     0.0701     2.4667   -57.7612     5.5059     5.2564     5.5554    77.2658
 2992.0000     0.2293    92.9881     9.8663     0.1083     2.5093   -57.7612     5.6991     5.4787     5.7098    76.7339
 2992.5000     0.2329    91.8066     9.8393     0.1093     2.5038   -57.4627     5.8583     5.6710     6.2891    76.2365
 2993.0000     0.2330    91.8313     9.8334     0.0905     2.4818   -56.8657     5.9803     5.7891     6.6926    76.5438
 2993.5000     0.2323    92.7766     9.8099     0.0490     2.4496   -56.8657     6.0207     5.8687     6.7363    77.0000
 2994.0000     0.2329    97.2782     9.8102     0.0136     2.4472   -56.8657     6.0194     5.8674     6.5503    77.7571
 2994.5000     0.2341   101.9077     9.8105    -0.0026     2.4569   -57.1642     6.0146     5.8625     6.2390    78.5141
 2995.0000     0.2460   101.1246     9.8408    -0.0028     2.4695   -57.7612     5.9270     5.7373     5.9837    78.5193
 2995.5000     0.2465    98.6621     9.8411     0.0032     2.4859   -58.3582     5.7699     5.5851     5.7788    78.5245
 2996.0000     0.2283    98.5939     9.8579     0.0149     2.4987   -58.5075     5.6107     5.6228     5.5808    80.6349
 2996.5000     0.2079   103.3160     9.9019     0.0149     2.5106   -58.3582     5.4559     5.7399     5.3897    81.2416
 2997.0000     0.1921   107.6912     9.9022     0.0118     2.5143   -58.3582     5.4170     5.9002     5.3511    79.7430
 2997.5000     0.1949   109.5218     9.9024     0.0121     2.5179   -58.6567     5.6855     6.0230     5.7729    77.9437
 2998.0000     0.2139   108.9398     9.9628     0.0148     2.5193   -58.9552     6.3962     6.2343     7.4041    75.7590
 2998.5000     0.2310   108.9661     9.9631     0.0142     2.5119   -59.2537     7.1459     6.8215     8.4423    75.2472
 2999.0000     0.2404   108.9894     9.9934     0.0089     2.4941   -59.8507     6.7585     6.4516     8.3115    76.4567
 2999.5000     0.2392   111.4224     9.9937     0.0093     2.4837   -60.1493     6.1314     5.8529     6.8984    79.6949
