~VERSION INFORMATION
 VERS.                2.0:   CWLS LOG ASCII STANDARD - VERSION 2.0
 WRAP.                 NO:   ONE LINE PER DEPTH STEP
~WELL INFORMATION
#MNEM.UNIT      DATA TYPE    INFORMATION
#----------   ------------   ------------------------------
 STRT.F            7.5000:   START DEPTH
 STOP.F         3140.0000:   STOP DEPTH
 STEP.F            0.5000:   STEP LENGTH
 NULL.          -999.2500:   NO VALUE
 COMP. LAWRENCE ALLISON WEST:   COMPANY
 WELL. LAWRENCE NPR 3 "AX" #51-3:   WELL
 FLD .                NPR:   FIELD
 LOC .       S3 T38N R78W:   LOCATION
 CNTY.            NATRONA:   COUNTY
 STAT.            WYOMING:   STATE
 CTRY. UNITED STATES OF AMERICA:   COUNTRY
 SRVC.      DRESSER ATLAS:   SERVICE COMPANY
 DATE.        09-NOV-1986:   LOGDATE
 API .     49025111180000:   API NUMBER
~CURVE INFORMATION
#MNEM.UNIT       API CODE    CURVE DESCRIPTION
#----------   ------------   ------------------------------
 DEPT.F                  :   
 CALD.IN     45 280 60 00:   CALIPER FROM DENSITY LOG
 DEN .LBS    45 350 01 00:   BULK DENSITY
 CORR.G/C3   45 356 01 00:   DENSITY CORRECTION
 NPOR.DEC    42 890 03 00:   ALPHA PROCESSED NEUTRON POROSITY
 SPR .MV     07 010 01 00:   SPONTANEOUS POTENTIAL
 GRR .GAPI   07 310 01 00:   GAMMA RAY FROM RESISTIVITY
 SFL .OHMM   07 220 01 00:   SHALLOW FOCUSED LOG RESISTIVITY
 ILD .OHMM   07 120 46 00:   DEEP INDUCTION RESISTIVITY
 ILM .OHMM   07 120 44 00:   INDUCTION LOG MEDIUM RESISTIVITY
 TENR.LBS    07 635 01 00:   TENSION FROM RESISTIVITY
~PARAMETER INFORMATION
#MNEM.UNIT          VALUE    DESCRIPTION
#----------   ------------   ------------------------------
 EKB .F         5132.0000:   Kelly bushing
 EGL .F         5120.0000:   Ground level
 TD  .F         3141.0000:   Total depth
 DATE.        09-NOV-1986:   Date logged
 CLNT.            A2DTECH:   Client Code
 SL  . 249' FNL & 2195' FEL:   Surface Location
 PD  .                 GL:   Permanent Datum
 EPD .F              5120:   Elevation Permanent Datum
 LMF .                 KB:   Log Measured From
 DMF .                 KB:   Drilling Measured From
 DAPD.F                12:   Feet Above Permanent Datum
 DD  .F              3141:   Depth driller
 DL  .F              3132:   Depth logger
 BLI .F              3126:   Bottom log interval
 CS1 .IN            8.625:   Casing size
 CBD1.      8.625" @ 690':   Casing driller 1
 CBL1.F               690:   Casing logger 1
 BS1 .IN            7.875:   Bit size
 BSD1.F              3141:   Depth drilled with bit1
 DFT .        KCL/POLYMER:   Type fluid in hole
 DFD .                8.9:   Density
 DFV .                 34:   Viscosity
 DFPH.                9.5:   pH
 DFL .                9.5:   Fluid loss
 MSS .           FLOWLINE:   Source of sample
 RMS .OHMM           .368:   Rm
 MST .F                66:   Rm Meas. temp.
 RMF .OHMM           .296:   Rmf
 MFST.F                66:   Rmf Meas. temp.
 RMC .OHMM           .468:   Rmc
 MCST.F                66:   Rmc Meas. temp.
 MFSS.               MEAS:   Source Rmf.
 MCSS.               CALC:   Source Rmc.
 RMB .OHMM           .282:   Rm. at BHT
 BHT .F               120:   BHT.
 TCS .HRS             3.5:   Time Circ. stopped
 MRT .F               120:   Maximum recorded temp.
 LUN .            HL-6274:   Logging unit number
 LUL .           GILLETTE:   Logging unit location
 ENGI.             RAUTIO:   Recorded By
 WITN.             STRONG:   Witnessed by
 ORIG.        2" 5" PRINT:   Origin of data
 UWI .     49025111180000:   Unique Well ID
 DICO. A2D TECHNOLOGIES, INC.:   Digitizing Company
~OTHER INFORMATION
~A    DEPT    CALD        DEN       CORR       NPOR        SPR         GRR       SFL        ILD        ILM       TENR   
# ...
 2955.5000     8.0366     2.5138    -0.0148     0.2351   -55.8920   118.8601     5.8336     3.5484     4.3075   -31.7059
 2956.0000     8.0374     2.5219    -0.0086     0.2335   -56.2992   118.8522     5.8327     4.2670     4.7256   -21.4792
 2956.5000     8.0382     2.5260     0.0076     0.2419   -56.5056   120.8603     5.8317     4.5526     4.9492   -11.2524
 2957.0000     8.0390     2.5270     0.0116     0.2456   -56.7112   123.6748     5.7769     4.7240     5.0881   -11.1319
 2957.5000     8.0393     2.5160    -0.0044     0.2556   -56.9168   126.0861     5.7226     4.8565     5.1825   -10.9511
 2958.0000     8.0405     2.5029    -0.0042     0.2580   -57.5256   128.0942     5.7217     4.9928     5.2300   -10.8004
 2958.5000     8.0413     2.4979    -0.0042     0.2543   -57.1264   130.1023     5.7207     5.0855     5.2778   -10.6497
 2959.0000     8.0219     2.4970    -0.0020     0.2535   -57.1306   131.7072     5.7198     5.1321     5.2770   -40.6378
 2959.5000     8.0227     2.5000    -0.0020     0.2543   -56.9327   131.6992     5.7721     5.1312     5.2761   -30.5012
 2960.0000     8.0234     2.5051     0.0082     0.2547   -56.9367   132.4977     5.8249     5.1304     5.2752   -30.3506
 2960.5000     8.0242     2.5132     0.0204     0.2595   -56.5375   130.0704     5.9329     5.1295     5.2743   -30.2903
 2961.0000     8.0452     2.5193     0.0244     0.2615   -56.5415   131.6753     5.9878     5.0813     5.2734   -30.1699
 2961.5000     8.0459     2.5133     0.0144     0.2623   -56.5454   134.0866     6.0419     5.0335     5.2726   -29.9891
 2962.0000     8.0469     2.5123    -0.0318     0.2622   -57.1543   134.4819     6.0409     5.0326     5.2717   -29.8385
 2962.5000     8.0476     2.5043    -0.0318     0.2546   -56.7550   134.8771     6.0399     4.9853     5.2708   -29.7180
 2963.0000     8.0484     2.5094    -0.0216     0.2574   -56.7558   135.6756     6.0389     4.9845     5.2699   -29.4470
 2963.5000     8.0492     2.5175    -0.0134     0.2646   -56.9646   136.8772     6.0941     5.0301     5.2690   -29.2662
 2964.0000     8.0298     2.5246    -0.0032     0.2742   -56.3638   139.2885     6.3822     5.0293     5.2681   -29.1156
 2964.5000     8.0306     2.5256    -0.0012     0.2686   -56.7718   139.2806     6.6223     5.0751     5.2671   -28.9650
 2965.0000     8.0313     2.5267     0.0090     0.2577   -56.5741   138.4646     6.8077     5.0743     5.3153   -28.8746
 2965.5000     8.0321     2.5277     0.0150     0.2577   -56.5781   136.4374     6.8065     5.0734     5.3144   -28.6638
 2966.0000     8.0329     2.5248    -0.0010     0.2588   -56.5821   137.6422     6.4971     5.0257     5.2644   -28.5132
 2966.5000     8.0337     2.5248    -0.0070     0.2628   -56.5861   139.2471     5.8293     4.9325     5.1668   -28.3626
 2967.0000     8.0344     2.5279    -0.0028     0.2729   -56.5877   140.8520     5.5127     4.8409     5.1182   -18.1347
 2967.5000     8.0352     2.5329    -0.0028     0.2749   -56.5941   139.6344     5.1984     4.7072     5.0232   -17.9841
 2968.0000     8.0360     2.5350     0.0316     0.2749   -56.7996   136.4007     5.3441     4.5349     4.9760   -17.8334
 2968.5000     8.0369     2.5320     0.0276     0.2680   -56.6020   132.7638     5.4432     4.4507     4.8383   -47.8245
 2969.0000     8.0175     2.5311     0.0236     0.2752   -56.6060   133.1591     5.4423     4.4089     4.7487   -27.6094
 2969.5000     8.0383     2.5311     0.0218     0.2784   -56.6100   135.9736     5.3912     4.4906     4.7041   -17.3814
 2970.0000     7.9787     2.5332     0.0380     0.2824   -56.6140   135.9656     5.2913     4.5318     4.7471   -17.2307
 2970.5000     8.0198     2.5312     0.0420     0.2800   -56.4164   135.1464     5.4396     4.6160     4.9259   -17.0800
 2971.0000     8.0206     2.5262     0.0462     0.2735   -56.2187   133.1272     5.9122     4.9250     5.2556   -16.9293
 2971.5000     8.0416     2.5202    -0.0082     0.2509   -56.0211   131.1032     6.4650     5.3038     5.6075   -16.7787
 2972.0000     8.0020     2.5182    -0.0202     0.2264   -55.8235   127.8679     7.0695     5.6066     6.0387   -26.7057
 2972.5000     8.0229     2.5122    -0.0382     0.2183   -55.8275   124.6342     7.7305     6.0377     6.5031   -26.5249
 2973.0000     8.0237     2.5193    -0.0360     0.2195   -55.6299   121.4005     8.4815     6.4420     6.8109   -26.3743
 2973.5000     8.0444     2.5234    -0.0280     0.2291   -55.6346   121.7958     8.6391     6.6845     6.9374   -26.2236
 2974.0000     8.0253     2.5224    -0.0066     0.2416   -55.2354   125.4167     7.7994     6.8087     7.0009   -26.0730
 2974.5000     8.0260     2.5275     0.0064     0.2436   -55.2386   125.4088     7.5847     6.8073     7.1307   -35.9702
 2975.0000     8.0471     2.5336     0.0266     0.2436   -55.0500   127.8201     7.5134     6.8062     7.1960   -35.8497
 2975.5000     8.0277     2.5467     0.0530     0.2415   -54.8615   129.0217     7.5822     6.8051     7.1948   -35.6991
 2976.0000     7.9880     2.5468     0.0550     0.2435   -54.6473   128.6106     7.6515     6.7411     7.1271   -35.5485
 2976.5000     8.0495     2.5448     0.0208     0.2411   -55.0537   127.3930     7.8661     6.6777     6.9949   -45.5664
 2977.0000     8.0301     2.5368     0.0170     0.2322   -55.2593   126.5786     8.0120     6.6149     6.8017   -45.4159
 2977.5000     8.0308     2.5328     0.0210     0.2297   -55.4649   124.9577     8.0106     6.4921     6.7377   -45.2653
 2978.0000     8.0115     2.5288     0.0212     0.2313   -55.4689   124.9498     7.9354     6.3716     6.6127   -45.1148
 2978.5000     8.0523     2.5289     0.0152     0.2378   -55.4729   125.7482     7.7164     6.3117     6.4900   -44.8739
 2979.0000     8.0347     2.5269     0.0152     0.2418   -55.4769   127.7563     7.4342     6.1946     6.3695   -44.7233
 2979.5000     8.0339     2.5239     0.0194     0.2413   -55.4808   131.3773     7.1624     6.0796     6.1936   -44.5728
 2980.0000     8.0347     2.5239     0.0194     0.2405   -55.2832   132.5789     7.0294     6.0225     6.0786   -24.2652
 2980.5000     8.0355     2.5139     0.0034     0.2349   -55.2872   133.3758     6.8356     5.9107     6.0215   -24.1146
 2981.0000     8.0161     2.5099    -0.0106     0.2336   -55.2912   133.7711     6.8345     5.8551     5.9648   -23.9639
 2981.5000     8.0169     2.5110    -0.0126     0.2312   -55.4976   134.1663     6.8970     5.8000     5.9638   -23.7831
 2982.0000     8.0178     2.5161    -0.0124     0.2316   -55.5016   133.3519     7.0904     5.7991     5.9628    -3.4750
 2982.5000     8.0388     2.5262    -0.0084     0.2408   -55.5055   130.1182     7.1553     5.7981     6.0174   -33.5605
 2983.0000     8.0395     2.5302     0.0094     0.2424   -55.5095   127.2878     7.1541     5.7969     6.0724   -33.4099
 2983.5000     8.0201     2.5333     0.0280     0.2367   -55.5135   126.4734     7.0212     5.7960     6.0713   -33.2593
 2984.0000     8.0209     2.5474     0.0200     0.2327   -55.5175   128.8847     7.2181     5.7950     6.0703   -33.1087
 2984.5000     8.0418     2.5525     0.0216     0.2278   -55.1183   129.6831     7.0184     5.8481     6.0693   -32.9581
 2985.0000     8.0426     2.5616     0.0222     0.2282   -55.1223   128.8687     7.0177     5.9567     6.2397   -42.8564
 2985.5000     8.0232     2.5667     0.0324     0.2298   -54.7230   127.6511     7.0819     6.2386     6.6575   -42.7359
 2986.0000     8.0240     2.5617     0.0264     0.2318   -54.7270   126.0303     7.3483     6.2384     6.9082   -42.5853
 2986.5000     7.9849     2.5517    -0.0016     0.2306   -54.3278   121.1838     7.6958     7.0483     7.4398   -42.4347
 2987.0000     7.9854     2.5366     0.0024     0.2253   -53.9286   112.3035     7.9858     7.9632     7.7207   -42.2842
 2987.5000     7.9860     2.5266     0.0496     0.2237   -53.7309    97.7799     9.6899     8.9969     8.8441   -42.1336
 2988.0000     7.9868     2.5206     0.0792     0.2132   -53.7349    88.4980    11.7575    10.1648    10.1310   -41.9830
 2988.5000     7.9876     2.5035     0.0832     0.2092   -53.7365    76.7953    13.5410    11.4844    11.6050   -41.8324
