~VERSION INFORMATION
 VERS.                2.0:   CWLS LOG ASCII STANDARD - VERSION 2.0
 WRAP.                 NO:   ONE LINE PER DEPTH STEP
~WELL INFORMATION
#MNEM.UNIT      DATA TYPE    INFORMATION
#----------   ------------   ------------------------------
 STRT.F           11.0000:   START DEPTH
 STOP.F         4154.0000:   STOP DEPTH
 STEP.F            0.5000:   STEP LENGTH
 NULL.          -999.2500:   NO VALUE
 COMP.   LAWRENCE ALLISON:   COMPANY
 WELL. ALLISON NPR 3 "LX" #14-22:   WELL
 FLD .                NPR:   FIELD
 LOC .      S22 T38N R78W:   LOCATION
 CNTY.            NATRONA:   COUNTY
 STAT.            WYOMING:   STATE
 CTRY. UNITED STATES OF AMERICA:   COUNTRY
 SRVC.       DRESER ATLAS:   SERVICE COMPANY
 DATE.        14-APR-1985:   LOGDATE
 API .     49025110230000:   API NUMBER
~CURVE INFORMATION
#MNEM.UNIT       API CODE    CURVE DESCRIPTION
#----------   ------------   ------------------------------
 DEPT.F                  :   
 TEND.LBS    45 635 01 00:   TENSION FROM DENSITY LOG
 RHOB.G/C3   45 350 01 00:   BULK DENSITY
 DRHO.G/C3   45 356 01 00:   DENSITY CORRECTION
 CALD.IN     45 280 60 00:   CALIPER FROM DENSITY LOG
 NPHI.DEC    42 890 03 00:   NEUTRON POROSITY SANDSTONE
 TENR.LBS    07 635 01 00:   TENSION FROM RESISTIVITY
 SPR .MV     07 010 01 00:   SPONTANEOUS POTENTIAL
 GRR .GAPI   07 310 01 00:   GAMMA RAY FROM RESISTIVITY
 RFOC.OHMM   07 220 01 00:   RESISTIVITY FOCUSED LOG RES.
 RILD.OHMM   07 120 46 00:   DEEP INDUCTION RESISTIVITY
 RILM.OHMM   07 120 44 00:   INDUCTION LOG MEDIUM RESISTIVITY
~PARAMETER INFORMATION
#MNEM.UNIT          VALUE    DESCRIPTION
#----------   ------------   ------------------------------
 EKB .F         5230.4000:   Kelly bushing
 EGL .F         5220.4000:   Ground level
 EDF .F            0.0000:   Drilling floor
 TD  .F         4150.0000:   Total depth
 DATE.        14-APR-1985:   Date logged
 CLNT.            A2DTECH:   Client Code
 SL  . 905' FNL & 824' FWL:   Surface Location
 PD  .                 GL:   Permanent Datum
 EPD .F            5220.4:   Elevation Permanent Datum
 LMF .                 KB:   Log Measured From
 DMF .                 KB:   Drilling Measured From
 DAPD.F                10:   Feet Above Permanent Datum
 DD  .F              4150:   Depth driller
 DL  .F              4140:   Depth logger
 BLI .F              4138:   Bottom log interval
 CS1 .IN            8.625:   Casing size
 CBD1.      8.625" @ 738':   Casing driller 1
 CBL1.F               738:   Casing logger 1
 BS1 .IN            7.875:   Bit size
 BSD1.F              4150:   Depth drilled with bit1
 DFT .            KCL/GEL:   Type fluid in hole
 DFD .                9.1:   Density
 DFV .                 48:   Viscosity
 DFPH.                8.5:   pH
 DFL .                 10:   Fluid loss
 MSS .           FLOWLINE:   Source of sample
 RMS .OHMM            .35:   Rm
 MST .F                62:   Rm Meas. temp.
 RMF .OHMM            .26:   Rmf
 MFST.F                62:   Rmf Meas. temp.
 RMC .OHMM            .43:   Rmc
 MCST.F                62:   Rmc Meas. temp.
 MFSS.               CALC:   Source Rmf.
 MCSS.               CALC:   Source Rmc.
 RMB .OHMM            .16:   Rm. at BHT
 BHT .F               140:   BHT.
 TCS .HRS               6:   Time Circ. stopped
 MRT .F               140:   Maximum recorded temp.
 LUN .               6274:   Logging unit number
 LUL .               GLTE:   Logging unit location
 ENGI.               MACK:   Recorded By
 WITN.             STRONG:   Witnessed by
 ORIG.           5" PRINT:   Origin of data
 UWI .     49025110230000:   Unique Well ID
 DICO. A2D TECHNOLOGIES, INC.:   Digitizing Company
~OTHER INFORMATION
~A   DEPT     TEND       RHOB       DRHO       CALD       NPHI       TENR        SPR        GRR       RFOC       RILD       RILM   
# ...
 2085.0000  -999.2500  -999.2500  -999.2500  -999.2500  -999.2500   -69.7820   -67.7820   129.2340     8.4730     7.9100     8.2830
 2085.5000  -999.2500  -999.2500  -999.2500  -999.2500  -999.2500   -68.8260   -67.8250   127.9930     8.1760     7.8650     8.1780
 2086.0000  -999.2500  -999.2500  -999.2500  -999.2500  -999.2500   -67.8710   -67.3150   124.7240     8.1030     7.8200     8.0730
 2086.5000  -999.2500  -999.2500  -999.2500  -999.2500  -999.2500   -66.9150   -67.0770   121.5960     8.2030     7.7750     7.9680
 2087.0000  -999.2500  -999.2500  -999.2500  -999.2500  -999.2500   -65.9590   -67.4090   118.9720     8.2900     7.7300     7.8820
 2087.5000  -999.2500  -999.2500  -999.2500  -999.2500  -999.2500   -65.0040   -67.7520   120.9590     8.3760     7.6730     7.9400
 2088.0000  -999.2500  -999.2500  -999.2500  -999.2500  -999.2500   -64.8150   -67.8270   126.3760     8.4620     7.7130     7.9990
 2088.5000  -999.2500  -999.2500  -999.2500  -999.2500  -999.2500   -64.8150   -67.7940   129.7640     8.5490     7.7890     8.0570
 2089.0000  -999.2500  -999.2500  -999.2500  -999.2500  -999.2500   -64.8150   -67.7330   128.0750     8.5710     7.8650     8.1160
 2089.5000  -999.2500  -999.2500  -999.2500  -999.2500  -999.2500   -64.8150   -67.6710   126.0790     8.5830     7.9420     8.1750
 2090.0000  -999.2500  -999.2500  -999.2500  -999.2500  -999.2500   -64.8150   -67.6100   123.9750     8.5950     8.0220     8.2340
 2090.5000  -999.2500  -999.2500  -999.2500  -999.2500  -999.2500   -64.8150   -67.5480   125.8910     8.6070     7.9750     8.2540
 2091.0000  -999.2500  -999.2500  -999.2500  -999.2500  -999.2500   -64.8150   -67.4860   128.5380     8.6180     7.9080     8.1730
 2091.5000  -999.2500  -999.2500  -999.2500  -999.2500  -999.2500   -64.8150   -67.4390   127.9600     8.6300     7.8390     8.0980
 2092.0000  -999.2500  -999.2500  -999.2500  -999.2500  -999.2500   -64.8150   -67.6580   124.4730     8.6430     7.7690     8.0230
 2092.5000  -999.2500  -999.2500  -999.2500  -999.2500  -999.2500   -64.8150   -67.8760   121.3530     8.4260     7.7000     7.9470
 2093.0000  -999.2500  -999.2500  -999.2500  -999.2500  -999.2500   -64.8150   -68.0470   121.9360     8.1860     7.6350     7.8090
 2093.5000  -999.2500  -999.2500  -999.2500  -999.2500  -999.2500   -67.1770   -68.1010   123.2640     8.0280     7.5740     7.7730
 2094.0000  -999.2500  -999.2500  -999.2500  -999.2500  -999.2500   -69.7100   -68.1570   125.1700     8.0280     7.5140     7.7240
 2094.5000  -999.2500  -999.2500  -999.2500  -999.2500  -999.2500   -72.2420   -68.2090   127.8370     8.0280     7.4530     7.6750
 2095.0000  -999.2500  -999.2500  -999.2500  -999.2500  -999.2500   -74.8250   -68.4170   127.8670     8.0280     7.3920     7.6250
 2095.5000  -999.2500  -999.2500  -999.2500  -999.2500  -999.2500   -74.8250   -68.6660   126.3380     8.0280     7.3320     7.5760
 2096.0000  -999.2500  -999.2500  -999.2500  -999.2500  -999.2500   -74.8250   -68.7230   125.4690     8.0280     7.2710     7.5270
 2096.5000  -999.2500  -999.2500  -999.2500  -999.2500  -999.2500   -74.8250   -68.4430   126.3960     8.0400     7.1950     7.5520
 2097.0000  -999.2500  -999.2500  -999.2500  -999.2500  -999.2500   -74.8250   -68.1690   128.2240     8.0920     7.2400     7.5770
 2097.5000  -999.2500  -999.2500  -999.2500  -999.2500  -999.2500   -74.8250   -67.8930   127.1010     8.1450     7.3430     7.5960
 2098.0000  -999.2500  -999.2500  -999.2500  -999.2500  -999.2500   -74.8250   -67.6170   125.4570     8.1970     7.4490     7.6770
 2098.5000  -999.2500  -999.2500  -999.2500  -999.2500  -999.2500   -74.8250   -67.3410   125.2050     8.2490     7.5550     7.7540
 2099.0000  -999.2500  -999.2500  -999.2500  -999.2500  -999.2500   -75.3880   -67.0680   128.4980     8.3020     7.6620     7.8310
 2099.5000  -999.2500  -999.2500  -999.2500  -999.2500  -999.2500   -76.5860   -67.1010   132.6920     8.3540     7.7450     7.9080
 2100.0000  -999.2500  -999.2500  -999.2500  -999.2500  -999.2500   -77.7840   -67.2430   134.2120     8.4070     7.7710     7.9860
 2100.5000  -999.2500  -999.2500  -999.2500  -999.2500  -999.2500   -78.9820   -67.3860   132.8960     8.4590     7.7970     8.0630
 2101.0000  -999.2500  -999.2500  -999.2500  -999.2500  -999.2500   -80.1800   -67.5370   131.0600     8.4850     7.8230     8.1400
 2101.5000  -999.2500  -999.2500  -999.2500  -999.2500  -999.2500   -81.3770   -67.7950   129.0620     8.4850     7.8490     8.1780
 2102.0000  -999.2500  -999.2500  -999.2500  -999.2500  -999.2500   -82.5750   -68.0610   127.0080     8.4850     7.8740     8.1780
 2102.5000  -999.2500  -999.2500  -999.2500  -999.2500  -999.2500   -83.7730   -68.3080   126.6480     8.4850     7.8820     8.1780
 2103.0000  -999.2500  -999.2500  -999.2500  -999.2500  -999.2500   -84.9710   -68.5570   127.1560     8.4850     7.8820     8.1780
 2103.5000  -999.2500  -999.2500  -999.2500  -999.2500  -999.2500   -86.1690   -68.8080   127.6600     8.4850     7.8820     8.1780
 2104.0000  -999.2500  -999.2500  -999.2500  -999.2500  -999.2500   -87.3670   -69.0220   127.1250     8.4850     7.8820     8.1780
 2104.5000  -999.2500  -999.2500  -999.2500  -999.2500  -999.2500   -88.5650   -68.9720   126.5100     8.4850     7.8820     8.1780
 2105.0000  -999.2500  -999.2500  -999.2500  -999.2500  -999.2500   -89.7620   -68.7880   126.0780     8.4610     7.8820     8.1780
 2105.5000  -999.2500  -999.2500  -999.2500  -999.2500  -999.2500   -90.9600   -68.6100   126.0790     8.4290     7.8820     8.1780
 2106.0000  -999.2500  -999.2500  -999.2500  -999.2500  -999.2500   -92.1580   -68.4330   124.1250     8.4070     7.8820     8.1780
 2106.5000  -999.2500  -999.2500  -999.2500  -999.2500  -999.2500   -93.3560   -68.4250   120.6020     8.7230     7.8820     8.1780
 2107.0000  -999.2500  -999.2500  -999.2500  -999.2500  -999.2500   -94.5540   -68.4260   117.1220     8.7070     7.8820     8.1780
 2107.5000  -999.2500  -999.2500  -999.2500  -999.2500  -999.2500   -94.4870   -68.4270   119.5130     8.6780     7.7900     8.1780
 2108.0000  -999.2500  -999.2500  -999.2500  -999.2500  -999.2500   -93.8460   -68.4230   124.1340     8.6500     7.5340     8.0460
 2108.5000  -999.2500  -999.2500  -999.2500  -999.2500  -999.2500   -93.2040   -68.2660   126.7960     8.5090     7.3210     7.5270
 2109.0000  -999.2500  -999.2500  -999.2500  -999.2500  -999.2500   -92.5630   -68.0990   129.6030     8.1840     7.2540     7.5740
 2109.5000  -999.2500  -999.2500  -999.2500  -999.2500  -999.2500   -91.9210   -67.9310   133.4490     7.8590     7.2540     7.7000
 2110.0000  -999.2500  -999.2500  -999.2500  -999.2500  -999.2500   -91.2800   -67.7660   135.6150     7.4580     7.3010     7.8260
 2110.5000  -999.2500  -999.2500  -999.2500  -999.2500  -999.2500   -90.6380   -67.6450   134.2810     7.5270     7.3500     7.9520
 2111.0000  -999.2500  -999.2500  -999.2500  -999.2500  -999.2500   -89.9970   -67.7660   130.7110     7.7380     7.4390     8.0790
 2111.5000  -999.2500  -999.2500  -999.2500  -999.2500  -999.2500   -89.3550   -67.8820   128.0880     7.9550     7.7030     8.2050
 2112.0000  -999.2500  -999.2500  -999.2500  -999.2500  -999.2500   -88.7140   -67.9970   128.7820     7.2540     7.9670     8.3310
 2112.5000  -999.2500  -999.2500  -999.2500  -999.2500  -999.2500   -88.0720   -68.1140   130.5870     7.3250     8.1780     8.4040
 2113.0000  -999.2500  -999.2500  -999.2500  -999.2500  -999.2500   -87.4310   -68.2210   130.1690     7.5040     8.1500     8.3770
 2113.5000  -999.2500  -999.2500  -999.2500  -999.2500  -999.2500   -86.7890   -68.1130   125.6150     7.6830     8.1260     8.3560
 2114.0000  -999.2500  -999.2500  -999.2500  -999.2500  -999.2500   -86.1480   -67.9960   122.8760     7.8620     8.1030     8.3340
 2114.5000  -999.2500  -999.2500  -999.2500  -999.2500  -999.2500   -85.5060   -67.8800   121.4350     8.0400     8.0330     8.2940
 2115.0000  -999.2500  -999.2500  -999.2500  -999.2500  -999.2500   -84.8650   -67.7650   120.0180     8.2190     7.9640     8.2510
