~VERSION INFORMATION
 VERS.                2.0:   CWLS LOG ASCII STANDARD - VERSION 2.0
 WRAP.                 NO:   ONE LINE PER DEPTH STEP
~WELL INFORMATION
#MNEM.UNIT      DATA TYPE    INFORMATION
#----------   ------------   ------------------------------
 STRT.F          210.0000:   START DEPTH
 STOP.F         3128.0000:   STOP DEPTH
 STEP.F            0.5000:   STEP LENGTH
 NULL.          -999.2500:   NO VALUE
 COMP.    PENIX & SCISSON:   COMPANY
 WELL. FENIX NPR 3 "A" #14-27:   WELL
 FLD .                NPR:   FIELD
 LOC .      S27 T39N R78W:   LOCATION
 CNTY.            NATRONA:   COUNTY
 STAT.            WYOMING:   STATE
 CTRY. UNITED STATES OF AMERICA:   COUNTRY
 SRVC.      DRESSER ATLAS:   SERVICE COMPANY
 DATE.        31-AUG-1977:   LOGDATE
 API .     49025104280000:   API NUMBER
~CURVE INFORMATION
#MNEM.UNIT       API CODE    CURVE DESCRIPTION
#----------   ------------   ------------------------------
 DEPT.F                  :   
 GRD .GAPI   45 310 01 00:   GAMMA RAY FROM DENSITY LOG
 CALD.IN     45 280 60 00:   CALIPER FROM DENSITY LOG
 RHOB.G/C3   45 350 01 00:   BULK DENSITY
 CORR.G/C3   45 356 01 00:   DENSITY CORRECTION
 NPHI.DEC    42 890 03 00:   NEUTRON POROSITY SANDSTONE
 SPR .MV     11 010 01 00:   SPONTANEOUS POTENTIAL
 RXO .OHMM   11 220 01 00:   FLUSHED ZONE RESISTIVITY
 LLD .OHMM   11 220 10 00:   LATEROLOG LOG DEEP
 LLS .OHMM   11 220 09 00:   LATEROLOG LOG SHALLOW
 TENR.LBS    11 635 01 00:   TENSION FROM RESISTIVITY
 TEND.LBS    45 635 01 00:   TENSION FROM DENSITY LOG
~PARAMETER INFORMATION
#MNEM.UNIT          VALUE    DESCRIPTION
#----------   ------------   ------------------------------
 EKB .F         5046.0000:   Kelly bushing
 EGL .F         5036.0000:   Ground level
 TD  .F         3111.0000:   Total depth
 DATE.        31-AUG-1977:   Date logged
 CLNT.            A2DTECH:   Client Code
 SL  . 2310' FNL & 330' FWL:   Surface Location
 PD  .                 GL:   Permanent Datum
 EPD .F              5036:   Elevation Permanent Datum
 LMF .                 KB:   Log Measured From
 DMF .                 KB:   Drilling Measured From
 DAPD.F                10:   Feet Above Permanent Datum
 DD  .F              3109:   Depth driller
 DL  .F              3111:   Depth logger
 BLI .F              3109:   Bottom log interval
 TLI .F               217:   Top log interval
 CS1 .IN             8.75:   Casing size
 CBD1.       8.75" @ 215':   Casing driller 1
 CBL1.F               217:   Casing logger 1
 BS1 .IN            7.875:   Bit size
 BSD1.F              3109:   Depth drilled with bit1
 DFT .                GEL:   Type fluid in hole
 DFD .                8.8:   Density
 DFV .                 35:   Viscosity
 DFPH.                 10:   pH
 DFL .                8.8:   Fluid loss
 MSS .                PIT:   Source of sample
 RMS .OHMM            .36:   Rm
 MST .F                67:   Rm Meas. temp.
 RMF .OHMM            .24:   Rmf
 MFST.F                67:   Rmf Meas. temp.
 RMC .OHMM            .51:   Rmc
 MCST.F                67:   Rmc Meas. temp.
 MFSS.               MEAS:   Source Rmf.
 MCSS.               CALC:   Source Rmc.
 RMB .OHMM            .20:   Rm. at BHT
 BHT .F               121:   BHT.
 TCS .HRS               5:   Time Circ. stopped
 MRT .F               121:   Maximum recorded temp.
 LUN .               6080:   Logging unit number
 LUL .              WLSTN:   Logging unit location
 ENGI.               BALL:   Recorded By
 WITN.         PETTINGILL:   Witnessed by
 ORIG.      2.5" 5" PRINT:   Origin of data
 UWI .     49025104280000:   Unique Well ID
 DICO. A2D TECHNOLOGIES, INC.:   Digitizing Company
~OTHER INFORMATION
~A   DEPT      GRD         CALD     RHOB       CORR       NPHI        SPR        RXO        LLD        LLS        TENR      TEND   
  210.0000  -999.2500     6.0135  -999.2500  -999.2500  -999.2500  -999.2500  -999.2500  -999.2500  -999.2500   103.1741  -999.2500
  210.5000  -999.2500     6.8661  -999.2500  -999.2500  -999.2500  -999.2500  -999.2500  -999.2500  -999.2500    87.3008  -999.2500
  211.0000    51.4441     6.9253  -999.2500  -999.2500  -999.2500  -999.2500  -999.2500  -999.2500  -999.2500    87.0873  -999.2500
  211.5000    53.4196     7.0043  -999.2500  -999.2500  -999.2500  -999.2500  -999.2500  -999.2500  -999.2500    86.8739  -999.2500
  212.0000    56.5886     7.0636  -999.2500  -999.2500     0.3190  -999.2500  -999.2500  -999.2500  -999.2500    86.6604  -999.2500
  212.5000    57.3755     7.3211  -999.2500  -999.2500     0.3167  -999.2500  -999.2500  -999.2500  -999.2500    86.4470  -999.2500
  213.0000    58.5592     7.5986  -999.2500  -999.2500     0.3142  -999.2500  -999.2500  -999.2500  -999.2500    86.2335  -999.2500
  213.5000    60.1398     7.8761  -999.2500  -999.2500     0.3150  -999.2500  -999.2500  -999.2500  -999.2500    86.0201  -999.2500
  214.0000    61.3235     8.0543  -999.2500    -0.0521     0.3166  -999.2500  -999.2500  -999.2500  -999.2500    87.2943  -999.2500
  214.5000    64.8880     8.3515  -999.2500     0.0472     0.3190  -999.2500  -999.2500  -999.2500  -999.2500    87.2437  -999.2500
  215.0000    67.2621     8.6290  -999.2500     0.1346     0.3225  -999.2500  -999.2500  -999.2500  -999.2500    87.1931   122.1102
  215.5000    70.0343     8.9461  -999.2500     0.1505     0.3245  -999.2500  -999.2500  -999.2500  -999.2500    87.1425   126.0824
  216.0000    73.5988     9.1839  -999.2500     0.1544     0.3189  -999.2500     0.3902     0.3955     0.6157    87.0919   126.0824
  216.5000    75.1793     9.3621  -999.2500     0.1743     0.3130  -999.2500     0.5131     0.4414     0.5830    87.0414   122.1102
  217.0000    74.7759     9.5801     2.2771     0.1822     0.3066  -999.2500     0.9481     1.0637     0.6047    86.9908   126.0824
  217.5000    75.1660     9.9567     2.2373     0.1902     0.3042  -999.2500     1.7521     2.5634     1.5426    86.9402   126.0824
  218.0000    75.1593    10.7103     2.2820     0.2021     0.3018  -999.2500     2.7017     6.5872     3.9349    86.8896   126.0824
  218.5000    75.1527    11.1862     2.2880     0.2080     0.2923  -999.2500     3.1048     6.8325     8.3770    86.8390   114.1658
  219.0000    75.9396    11.3049     2.2771     0.2041     0.2947  -999.2500     3.3404     5.5896     7.6470    86.7884   106.2214
  219.5000    77.5201    11.3244     2.2185     0.1595     0.2967  -999.2500     3.7276     5.1021     6.2564    86.7378   106.2214
  220.0000    78.3070    11.1455     2.1460     0.1249     0.2990  -999.2500     4.2366     5.0101     6.2568    86.6872   102.2493
  220.5000    79.0939    10.9270     2.1619     0.0903     0.2975  -999.2500     4.5581     5.0104     6.2571    86.6367    94.3049
  221.0000    79.0886    10.6885     2.2463     0.0557     0.2971    -0.5996     4.4758     5.0108     6.2573    86.5861   102.2493
  221.5000    79.4787    10.0930     2.3257     0.0134     0.2975   -12.7823     4.3951     5.2935     6.3732    86.5355   102.2493
  222.0000    80.6624     9.9736     2.4340     0.0114     0.2887   -23.7872     4.0117     5.3912     6.4911    86.4849   102.2493
  222.5000    80.6558     9.8939     2.4359     0.0114     0.2859   -26.9848     3.7292     5.3915     6.6109    86.4343   102.2493
  223.0000    80.2523     9.8539     2.4359     0.0094     0.2804   -28.9834     3.4039     5.4912     6.7332    86.3837   106.2214
  223.5000    80.2456     9.8536     2.4320     0.0114     0.2784   -28.5829     3.3425     5.4915     7.2436    86.3331   106.2214
  224.0000    79.8422     9.8532     2.4359     0.0134     0.2764   -26.9831     3.2823     5.6962     6.9844    86.2826   106.2214
  224.5000    79.4387     9.8529     2.4389     0.0134     0.2752   -26.1831     3.8249     5.9057     7.5138    86.2320   106.2214
  225.0000    79.4321     9.8526     2.4359     0.0075     0.2752   -26.1824     4.1907     5.9088     7.5142    86.1814   106.2214
  225.5000    79.4254     9.8522     2.4300    -0.0025     0.2784   -26.1820     4.4266     5.9093     7.5147    86.1308   106.2214
  226.0000    79.4187     9.8717     2.4399    -0.0025     0.2792   -26.5810     4.6762     5.9096     7.5151    86.0802   106.2214
  226.5000    79.4121     9.9111     2.4389     0.0015     0.2800   -26.9802     4.8503     6.0677     7.6541    86.0296   114.1658
  227.0000    79.8022     9.9504     2.4270     0.0035     0.2827   -26.9795     5.0310     6.1302     7.6544    85.9790   106.2214
  227.5000    80.9859    10.0096     2.4171    -0.0005     0.2863   -26.5793     5.1239     6.1306     7.7960    85.9284   106.2214
  228.0000    80.9792    10.0093     2.4161    -0.0005     0.2867   -26.5786     5.3146     6.0200     7.7963    85.8779   106.2214
  228.5000    79.7822    10.0089     2.4171    -0.0025     0.2883   -26.1785     5.3152     5.9116     7.7969    85.8273   106.2214
  229.0000    78.9819     9.9888     2.4220    -0.0005     0.2863   -26.1778     5.1250     5.6999     7.5179    85.7767   106.2214
  229.5000    78.9753     9.9884     2.4350     0.0015     0.2831   -26.1773     5.0327     5.5972     7.3825    85.7261   106.2214
  230.0000    79.3652    10.0079     2.4369     0.0035     0.2795   -26.1766     4.9419     5.5975     7.3828    85.6755   102.2493
  230.5000    79.3631    10.0674     2.4369     0.0072     0.2763   -26.1761     4.8530     5.8061     7.3834    85.6249   102.2493
  231.0000    79.3610    10.0871     2.4369     0.0115     0.2720   -26.5751     4.6793     5.8064     7.3837    85.5743   110.0391
  231.5000    78.9622    10.1863     2.4479     0.0115     0.2664   -26.7746     4.3502     5.8068     7.2508    85.5237   105.9546
  232.0000    78.9601    10.2656     2.4459     0.0195     0.2636   -26.7739     4.1188     5.8070     6.9913    85.4732   105.8803
  232.5000    79.3550    10.2854     2.4479     0.0195     0.2589   -26.7734     4.1191     5.5994     6.7413    85.4226   109.7424
  233.0000    80.1470    10.2853     2.4478     0.0195     0.2561   -26.7727     4.1194     5.5995     6.7416    85.3720   105.7131
  233.5000    80.9394    10.3051     2.4429     0.0156     0.2541   -26.7722     4.1956     5.8083     6.9927    85.3214   105.5829
  234.0000    82.9231    10.3050     2.4469     0.0156     0.2549   -27.1711     4.3517     5.8086     7.1218    85.2708   105.5086
  234.5000    83.7157    10.3248     2.4508     0.0176     0.2624   -27.1704     4.6508     5.8089     6.9936    85.2202   101.4041
  235.0000    84.5085    10.3247     2.4528     0.0196     0.2700   -27.3616     4.5669     5.4998     6.9939    85.1696    97.3737
  235.5000    85.6988    10.3644     2.4528     0.0197     0.2847   -27.5528     4.5673     5.5002     7.2544    85.1190    97.2430
  236.0000    86.4920    10.3643     2.4508     0.0157     0.2985   -26.7691     4.4848     5.6018     7.2547    85.0685    93.2121
  236.5000    86.8879    10.3245     2.4409     0.0078     0.3032   -25.9696     4.4040     5.8106     7.3888    85.0179    97.0563
  237.0000    86.0918    10.2847     2.4170     0.0018     0.3029   -25.9689     4.4043     5.9178     7.6638    84.9673    97.0002
  237.5000    84.8984    10.2449     2.4120     0.0019     0.3025   -25.9685     4.4046     6.2515     7.6642    84.9167    96.8694
  238.0000    83.3071    10.2250     2.4081     0.0019     0.3029   -25.9678     4.4049     6.3670     7.6647    84.8661    92.8377
  238.5000    82.9079    10.2050     2.4051    -0.0001     0.3009   -25.9673     4.4864     6.3674     7.6653    84.8155    96.6826
  239.0000    81.7136    10.2049     2.4011     0.0019     0.3007   -25.9666     4.4866     6.3678     7.6658    84.7649    96.6266
  239.5000    80.9165    10.1850     2.3971     0.0000     0.2945   -25.9662     4.4870     6.3683     7.5276    84.7143    92.5194
  240.0000    80.1193    10.1849     2.3971    -0.0020     0.2961   -26.3649     4.5699     6.4859     7.3919    84.6638    84.4915
