~VERSION INFORMATION
 VERS.                2.0:   CWLS LOG ASCII STANDARD - VERSION 2.0
 WRAP.                 NO:   ONE LINE PER DEPTH STEP
~WELL INFORMATION
#MNEM.UNIT      DATA TYPE    INFORMATION
#----------   ------------   ------------------------------
 STRT.F          164.0000:   START DEPTH
 STOP.F         3223.5000:   STOP DEPTH
 STEP.F            0.5000:   STEP LENGTH
 NULL.          -999.2500:   NO VALUE
 COMP.    FENIX & SCISSON:   COMPANY
 WELL. FENIX & SCISSON "AX" #64-34:   WELL
 FLD . NAVAL PETROLEUM RESERVE #3:   FIELD
 LOC .      S34 T39N R78W:   LOCATION
 CNTY.            NATRONA:   COUNTY
 STAT.            WYOMING:   STATE
 CTRY. UNITED STATES OF AMERICA:   COUNTRY
 SRVC.       SCHLUMBERGER:   SERVICE COMPANY
 DATE.        30-DEC-1980:   LOGDATE
 API .     49025108660000:   API NUMBER
~CURVE INFORMATION
#MNEM.UNIT       API CODE    CURVE DESCRIPTION
#----------   ------------   ------------------------------
 DEPT.F                  :   
 GRD .GAPI   45 310 01 00:   GAMMA RAY FROM DENSITY LOG
 RHOB.G/C3   45 350 01 00:   BULK DENSITY
 CALD.IN     45 280 60 00:   CALIPER FROM DENSITY LOG
 CORR.G/C3   45 356 01 00:   DENSITY CORRECTION
 SPR .MV     07 010 01 00:   SPONTANEOUS POTENTIAL
 TENR.LBS    06 635 01 00:   TENSION FROM RESISTIVITY
 ILD .OHMM   07 120 46 00:   DEEP INDUCTION RESISTIVITY
 ILM .OHMM   07 120 44 00:   INDUCTION LOG MEDIUM RESISTIVITY
 SFL .OHMM   07 220 01 00:   SHALLOW FOCUSED LOG RESISTIVITY
~PARAMETER INFORMATION
#MNEM.UNIT          VALUE    DESCRIPTION
#----------   ------------   ------------------------------
 EKB .F         5088.0000:   Kelly bushing
 EGL .F         5078.0000:   Ground level
 TD  .F         3225.0000:   Total depth
 CLNT.            A2DTECH:   Client Code
 SL  . 3107' FSL & 3680' FWL:   Surface Location
 PD  .                 GL:   Permanent Datum
 EPD .F              5078:   Elevation Permanent Datum
 LMF .                 KB:   Log Measured From
 DMF .                 KB:   Drilling Measured From
 DAPD.F                10:   Feet Above Permanent Datum
 DATE.        30-DEC-1980:   Date Logged [DD-MMM-YYYY]
 DD  .F              3225:   Depth driller
 DL  .F              3225:   Depth logger
 BLI .F              3219:   Bottom log interval
 TLI .F               190:   Top log interval
 CS1 .IN            8.625:   Casing size
 CBD1.      8.625" @ 205':   Casing driller 1
 CBL1.F               190:   Casing logger 1
 BS1 .IN            7.875:   Bit size
 BSD1.F              3225:   Depth drilled with bit1
 DFT .              FRESH:   Type fluid in hole
 DFD .                  9:   Density
 DFV .                 46:   Viscosity
 MSS .           MUD TANK:   Source of sample
 RMS .OHMM           2.47:   Rm
 MST .F                57:   Rm Meas. temp.
 RMF .OHMM           1.45:   Rmf
 MFST.F                57:   Rmf Meas. temp.
 MFSS.               MEAS:   Source Rmf.
 RMB .OHMM            1.2:   Rm. at BHT
 BHT .F               124:   BHT.
 TCS .HRS            0400:   Time Circ. stopped
 MRT .F               124:   Maximum recorded temp.
 LUN .               8034:   Logging unit number
 LUL .               CSPR:   Logging unit location
 ENGI.             LARSON:   Recorded By
 WITN.              FIVAS:   Witnessed by
 ORIG.        2" 5" PRINT:   Origin of data
 UWI .     49025108660000:   Unique Well ID
 DICO. A2D TECHNOLOGIES, INC:   Digitizing Company
 TLAB.HRS            2030:   Time logger at bottom
~OTHER INFORMATION
~A   DEPT       GRD      RHOB       CALD       CORR        SPR       TENR        ILD        ILM        SFL   
# ...
 3157.0000   102.9539     2.5079     8.1690     0.0299   -40.2835  1691.5962     4.9958     5.0259     6.3072
 3157.5000   104.0045     2.5118     8.1682     0.0354   -40.1437  1692.0632     4.8864     4.9516     5.7815
 3158.0000   105.6621     2.5141     8.1824     0.0399   -40.0042  1692.5305     4.6430     4.8783     5.2997
 3158.5000   107.6232     2.5149     8.1815     0.0447   -39.7149  1692.9978     4.3493     4.6273     5.0356
 3159.0000   109.2928     2.5133     8.2110     0.0471   -39.5758  1693.4650     4.1932     4.1581     4.8547
 3159.5000   111.6942     2.5086     8.1796     0.0470   -39.5919  1693.9320     4.0425     4.0089     4.6467
 3160.0000   113.9588     2.5032     8.1636     0.0447   -39.6047  1694.3993     3.8414     3.8931     4.4799
 3160.5000   117.8926     2.4977     8.1627     0.0304   -39.3127  1694.8665     3.7303     3.7737     3.8204
 3161.0000   120.1601     2.4915     8.1618     0.0190   -38.4142  1695.3335     3.7015     3.6975     3.6832
 3161.5000   118.9316     2.4829     8.1607     0.0103   -37.9324  1695.8008     3.7263     3.6957     3.6548
 3162.0000   114.0768     2.4891     8.1447     0.0047   -37.5220  1696.2681     3.7512     3.7208     3.7363
 3162.5000   109.1938     2.4946     8.1438     0.0017   -37.2332  1696.7352     3.7763     3.7730     3.9801
 3163.0000   108.2746     2.4992     8.1583     0.0024   -37.2493  1697.2023     3.8290     3.8255     4.4642
 3163.5000   109.4741     2.4984     8.1421     0.0061   -37.2607  1697.6696     3.8819     3.9074     4.5593
 3164.0000   113.1044     2.4953     8.1412     0.0118   -37.2744  1698.1367     3.9640     3.9623     4.7285
 3164.5000   116.3155     2.4937     8.1555     0.0211   -37.4406  1698.6038     3.9618     4.0465     4.8246
 3165.0000   117.7824     2.4922     8.1545     0.0260   -37.6321  1699.0710     3.9597     4.0744     4.5513
 3165.5000   117.3156     2.4952     8.1536     0.0325   -37.7729  1699.5383     3.9286     4.0427     4.4837
 3166.0000   114.8760     2.5014     8.1375     0.0430   -37.7870  1700.0055     3.8150     4.0117     4.5463
 3166.5000   115.1679     2.5079     8.1314     0.0462   -37.8003  1700.4725     3.7315     3.7846     4.6761
 3167.0000   116.9881     2.5092     8.1207     0.0484   -37.8140  1700.9398     3.7027     3.7286     4.4118
 3167.5000   121.0599     2.4998     8.1348     0.0469   -37.9813  1701.4070     3.7002     3.7000     3.8729
 3168.0000   118.7721     2.4858     8.1339     0.0440   -38.1466  1701.8740     3.7254     3.7257     3.7065
 3168.5000   114.3599     2.4866     8.1330     0.0399   -38.7724  1702.3413     3.7503     3.7774     3.7583
 3169.0000   108.1268     2.4905     8.1370     0.0359   -39.2426  1702.8086     3.8298     3.8300     3.9506
 3169.5000   105.0803     2.5025     8.1615     0.0339   -39.4079  1703.2758     4.0249     3.9119     4.3135
 3170.0000   106.0191     2.5215     8.1605     0.0348   -39.5732  1703.7428     4.1106     4.2411     4.8630
 3170.5000   106.7263     2.5339     8.1597     0.0398   -39.4368  1704.2101     4.1685     4.5141     5.3764
 3171.0000   106.1048     2.5425     8.1436     0.0473   -39.4497  1704.6772     4.1958     4.4796     5.9012
 3171.5000   104.7275     2.5494     8.1426     0.0499   -39.4625  1705.1443     4.1930     4.4774     6.1203
 3172.0000   108.3578     2.5525     8.1418     0.0491   -39.3230  1705.6116     4.1606     4.4397     6.1999
 3172.5000   110.6324     2.5455     8.1407     0.0482   -38.7293  1706.0789     4.1286     4.2832     5.2873
 3173.0000   109.8491     2.5230     8.1367     0.0446   -38.1292  1706.5459     4.0348     4.1296     4.7430
 3173.5000   107.8677     2.5121     8.1239     0.0405   -37.5355  1707.0131     3.8927     4.0393     4.5066
 3174.0000   111.3434     2.5035     8.1230     0.0384   -37.2236  1707.4803     3.7801     3.9509     4.5695
 3174.5000   114.6702     2.4934     8.1221     0.0373   -36.9547  1707.9475     3.6973     3.8920     4.5343
 3175.0000   114.6586     2.4856     8.1210     0.0389   -37.1200  1708.4146     3.6683     3.8622     4.2472
 3175.5000   112.0644     2.4887     8.0983     0.0410   -37.1326  1708.5955     3.6663     3.8327     3.9492
 3176.0000   110.6871     2.4949     8.0890     0.0457   -37.1768  1708.5955     3.6644     3.8029     3.7800
 3176.5000   110.6755     2.5011     8.0881     0.0498   -37.6191  1708.5955     3.6624     3.8011     3.6977
 3177.0000   110.1062     2.4949     8.0873     0.0509   -37.9368  1708.5955     3.6599     3.7720     3.8660
 3177.5000   109.4992     2.4809     8.0946     0.0495   -37.9497  1708.5955     3.6579     3.7702     4.7522
 3178.0000   107.3748     2.4894     8.1007     0.0482   -37.6577  1708.5955     3.6560     3.7140     5.0679
 3178.5000    98.7253     2.5040     8.0996     0.0469   -38.1311  1708.5955     3.6540     3.6855     4.6791
 3179.0000    91.7451     2.5181     8.1050     0.0466   -38.4488  1708.5955     3.6783     3.7109     4.3268
 3179.5000    89.6206     2.5274     8.1132     0.0466   -38.9294  1708.5955     3.7028     3.7087     3.8476
 3180.0000   104.4917     2.5368     8.1121     0.0487   -39.3924  1708.5955     3.7811     3.7338     3.6962
 3180.5000   112.2307     2.5391     8.1273     0.0522   -39.5577  1708.5955     3.8069     3.8136     3.5448
 3181.0000   113.4446     2.5204     8.1406     0.0544   -39.7226  1708.5955     3.8318     3.8672     3.4469
 3181.5000   113.5964     2.5072     8.1396     0.0567   -39.7363  1708.5955     3.8018     3.9508     3.4451
 3182.0000   113.5964     2.5134     8.1387     0.0528   -39.5671  1708.5955     3.8548     4.0339     3.4432
 3182.5000   113.7481     2.5134     8.1530     0.0356   -39.3075  1708.5955     3.9369     4.0906     3.4658
 3183.0000   113.7481     2.5126     8.1605     0.0227   -39.0152  1708.5955     4.0511     4.1481     3.4639
 3183.5000   113.8998     2.5071     8.1664     0.0139   -38.8791  1708.5955     4.1063     4.1756     3.4871
 3184.0000   113.8998     2.4869     8.1655     0.0058   -38.7378  1708.5955     4.1337     4.1731     3.5137
 3184.5000   113.8998     2.4923     8.1645     0.0002   -38.5967  1708.5955     4.1013     4.1712     3.5590
 3185.0000   113.8998     2.4861     8.1636    -0.0012   -38.6128  1708.5955     4.1287     4.1692     3.6611
 3185.5000   113.8998     2.4791     8.1627     0.0011   -38.4732  1708.5955     4.1259     4.1974     4.0185
 3186.0000   113.7481     2.4868     8.1616     0.0059   -38.3337  1708.5955     4.1835     4.1949     5.0211
 3186.5000   113.7481     2.4923     8.1608     0.0133   -38.1941  1708.5955     4.1812     4.1929     5.2032
 3187.0000   113.7481     2.4930     8.1599     0.0237   -38.0577  1708.5955     4.1784     4.1909     5.1253
 3187.5000   113.7481     2.4883     8.1590     0.0309   -37.9181  1708.5955     4.2069     4.1884     5.0129
 3188.0000   113.8998     2.4883     8.1582     0.0376   -38.0867  1708.5955     4.2041     4.1564     4.9736
 3188.5000   114.0516     2.4930     8.1573     0.0440   -38.5568  1708.5955     4.1716     4.1245     5.0075
 3189.0000   114.0516     2.5101     8.1562     0.0483   -38.5905  1708.5955     4.1389     4.0635     5.0410
 3189.5000   114.0516     2.5264     8.1707     0.0530   -38.5826  1708.5955     4.0775     4.0320     5.0375
 3190.0000   114.0516     2.5364     8.1696     0.0604   -38.4462  1708.5955     4.0461     4.0300     4.9980
 3190.5000   114.0516     2.5287     8.1839     0.0632   -38.4591  1708.5955     3.9861     3.9992     4.8885
 3191.0000   114.0516     2.5147     8.1982     0.0622   -38.3195  1708.5955     3.9264     3.9973     4.6121
 3191.5000   113.9315     2.4960     8.1820     0.0580   -38.4863  1708.5955     3.9243     3.9662     4.1933
 3192.0000   113.8998     2.4929     8.1811     0.0529   -38.6533  1708.5955     3.8661     3.9358     4.2862
 3192.5000   113.8998     2.5131     8.1651     0.0497   -39.2759  1717.3137     3.8363     3.9057     4.8423
 3193.0000  -999.2500     2.5247     8.1491     0.0486   -39.9017  1728.7476     3.8337     3.8758     4.7704
