~VERSION INFORMATION
 VERS.                2.0:   CWLS LOG ASCII STANDARD - VERSION 2.0
 WRAP.                 NO:   ONE LINE PER DEPTH STEP
~WELL INFORMATION
#MNEM.UNIT      DATA TYPE    INFORMATION
#----------   ------------   ------------------------------
 STRT.F          387.0000:   START DEPTH
 STOP.F         2921.0000:   STOP DEPTH
 STEP.F            0.5000:   STEP LENGTH
 NULL.          -999.2500:   NO VALUE
 COMP.    FENIX & SCISSON:   COMPANY
 WELL.  FENIX  "A" #21-28:   WELL
 FLD .          N.P.R. #3:   FIELD
 LOC .      S28 T39N R78W:   LOCATION
 CNTY.            NATRONA:   COUNTY
 STAT.            WYOMING:   STATE
 CTRY. UNITED STATES OF AMERICA:   COUNTRY
 SRVC.       SCHLUMBERGER:   SERVICE COMPANY
 DATE.        30-APR-1977:   LOGDATE
 API .     49025103550000:   API NUMBER
~CURVE INFORMATION
#MNEM.UNIT       API CODE    CURVE DESCRIPTION
#----------   ------------   ------------------------------
 DEPT.F                  :   
 SPR .MV     07 010 01 00:   SPONTANEOUS POTENTIAL
 ILD .OHMM   07 120 46 00:   DEEP INDUCTION RESISTIVITY
 ILM .OHMM   07 120 44 00:   INDUCTION LOG MEDIUM RESISTIVITY
 LL8 .OHMM   07 220 08 00:   LATEROLOG-8 RES.
 GRD .GAPI   45 310 01 00:   GAMMA RAY FROM DENSITY LOG
 CALD.IN     45 280 60 00:   CALIPER FROM DENSITY LOG
 CORR.G/C3   45 356 01 00:   DENSITY CORRECTION
 RHOB.G/C3   45 350 01 00:   BULK DENSITY
~PARAMETER INFORMATION
#MNEM.UNIT          VALUE    DESCRIPTION
#----------   ------------   ------------------------------
 EKB .F         4977.0000:   Kelly bushing
 EGL .F         4967.0000:   Ground level
 EDF .F            0.0000:   Drilling floor
 TD  .F         2922.0000:   Total depth
 CLNT.            A2DTECH:   Client Code
 SL  . 330' FNL & 990' FWL:   Surface Location
 DATE.        30-APR-1977:   Date Logged [DD-MMM-YYYY]
 DD  .F              2915:   Depth driller
 DL  .F              2922:   Depth logger
 BLI .F              2916:   Bottom log interval
 TLI .F               394:   Top log interval
 CS1 .              8.625:   Casing size
 CBD1.      8.625" @ 390':   Casing driller 1
 CBL1.IN              394:   Casing logger 1
 BS1 .IN            7.875:   Bit size
 BSD1.F              2915:   Depth drilled with bit1
 DFT .            KCL MUD:   Type fluid in hole
 DFD .                8.9:   Density
 DFV .                 87:   Viscosity
 DFPH.                8.5:   pH
 DFL .                9.6:   Fluid loss
 MSS .                PIT:   Source of sample
 RMS .OHMM           0.25:   Rm
 MST .F                70:   Rm Meas. temp.
 RMF .OHMM           0.22:   Rmf
 MFST.F                70:   Rmf Meas. temp.
 MFSS.               MEAS:   Source Rmf.
 RMC .OHMM           0.38:   Rmc
 MCST.F                70:   Rmc Meas. temp.
 MCSS.               CALC:   Source Rmc.
 RMB .OHMM           0.09:   Rm. at BHT
 BHT .F               109:   BHT.
 TCS .HRS            1800:   Time Circ. stopped
 TLAB.HRS            2200:   Time logger at bottom
 MRT .F               109:   Maximum recorded temp.
 LUN .                711:   Logging unit number
 LUL .             CASPER:   Logging unit location
 ENGI.              SYLER:   Recorded By
 WITN.         PETTINGILL:   Witnessed by
 ORIG.           5" PRINT:   Origin of data
 UWI .     49025103550000:   Unique Well ID
 DICO. A2D TECHNOLOGIES, INC.:   Digitizing Company
 PD  .                 GL:   Permanent Datum
 EPD .F              4967:   Elevation Permanent Datum
 LMF .                 KB:   Log Measured From
 DMF .                 KB:   Drilling Measured From
 DAPD.F                10:   Feet Above Permanent Datum
~OTHER INFORMATION
~A   DEPT      SPR        ILD        ILM        LL8         GRD      CALD       CORR       RHOB   
# ...
 1399.5000   -11.4915     9.0666     8.8694     9.5561   111.6305     8.8306     0.0182     2.5664
 1400.0000   -11.3283     9.0710     8.6901     9.6941   108.0745     8.8460     0.0198     2.5710
 1400.5000   -11.6167     9.1166     8.6946     9.7689   107.4586     8.8459     0.0205     2.5733
 1401.0000   -11.4521     9.1460     8.8199     9.8436   106.8426     8.8457     0.0202     2.5740
 1401.5000   -11.2875     9.1517     9.1354     9.8504   106.9221     8.8456     0.0177     2.5763
 1402.0000   -10.9718     9.1574     9.3316     9.8573   111.3163     8.8454     0.0151     2.5794
 1402.5000   -10.9583     9.1632     9.3355     9.8641   112.7795     8.8453     0.0113     2.5678
 1403.0000   -10.9447     9.1689     9.2747     9.9396   113.5338     8.8451     0.0074     2.5639
 1403.5000   -10.9311     9.1746     9.2134     9.8761   118.6084     8.8609     0.0105     2.5599
 1404.0000   -11.0720     9.1155     9.0910     9.9534   122.2813     8.9230     0.0074     2.5676
 1404.5000   -11.2095     9.1226     9.0309     9.8915   115.3030     8.9691     0.0051     2.5590
 1405.0000   -11.3470     9.0637     9.0986     9.8283   113.2936     8.9689     0.0105     2.5667
 1405.5000   -11.4845     9.0708     9.2297     9.6344   111.2842     8.9843     0.0183     2.5737
 1406.0000   -11.4676     9.0765     9.2979     9.4411   107.5668     8.9841     0.0276     2.5767
 1406.5000   -11.4540     9.1453     9.3017     9.8504   105.7104     8.9684     0.0400     2.5875
 1407.0000   -11.5915     9.2147     9.3056    10.2048   105.7220     8.9683     0.0571     2.6061
 1407.5000   -11.5779     9.2205     9.2441    10.4264   108.2157     9.0156     0.0703     2.6162
 1408.0000   -11.5644     9.2262     9.1848    10.3616   110.7094     9.3412     0.0214     2.5789
 1408.5000   -11.5508     9.2320     9.1887    10.2954   111.4951     9.0283     0.0152     2.5517
 1409.0000   -11.5372     9.2378     9.1279    10.1607   111.9701     8.9988     0.0114     2.5633
 1409.5000   -11.5237     9.2435     9.1326    10.0975   113.2216     9.0142     0.0026     2.5602
 1410.0000   -11.5101     9.2493     9.1364     9.8983   114.9390     9.0140     0.0153     2.5539
 1410.5000   -11.6476     9.2551     9.0760     9.7689   115.7246     8.9983     0.0192     2.5694
 1411.0000   -11.7855     9.2608     9.0807     9.5745   115.7339     8.9826     0.0223     2.5608
 1411.5000   -11.9229     9.2666     9.0207     9.3840   114.1903     8.9669     0.0261     2.5685
 1412.0000   -12.0601     9.1447     8.9620     9.3240   110.6282     8.9667     0.0254     2.5732
 1412.5000   -12.0465     9.0857     8.8429     9.6611   110.7927     8.9666     0.0138     2.5560
 1413.0000   -11.8819     9.0285     8.7844     9.8011   111.1125     8.9664     0.0169     2.5545
 1413.5000   -11.7173     9.0356     8.7890     9.5414   111.1218     8.9663     0.0254     2.5552
 1414.0000   -11.7037     9.0412     8.7309     9.1591   111.4416     8.9661     0.0316     2.5629
 1414.5000   -11.6902     9.0469     8.7354     9.1006   112.0720     8.9659     0.0417     2.5768
 1415.0000   -11.6766     9.0525     8.7391     9.5612   112.0812     8.9658     0.0409     2.5877
 1415.5000   -11.6631     9.0582     8.7427     9.8368   109.7613     8.9656     0.0301     2.5806
 1416.0000   -11.4984     9.0638     8.8073     9.8436   106.8202     8.9655     0.0262     2.5721
 1416.5000   -11.3338     9.0695     8.8109     9.8504   106.5000     8.9653     0.0293     2.5612
 1417.0000   -11.3203     9.0751     8.8760     9.8573   108.2362     8.9652     0.0363     2.5580
 1417.5000   -11.3066     9.0808     9.0667     9.7943   110.2641     8.9650     0.0456     2.5719
 1418.0000   -11.2930     9.0864     9.1337     9.9396   112.2920     8.9649     0.0511     2.5929
 1418.5000   -11.2795     9.0921     9.1375    10.2261   113.6988     8.9491     0.0526     2.6215
 1419.0000   -11.1148     9.0978     9.1413    10.3043   114.6437     8.9334     0.0526     2.6098
 1419.5000   -11.1012     9.1035     9.1451    10.2402   120.9229     8.9022     0.0526     2.5943
 1420.0000   -11.2389     9.1091     9.0855     9.9672   124.2858     8.8865     0.0494     2.5927
 1420.5000   -11.2250     9.1148     8.9639     9.7672   122.4521     8.8552     0.0416     2.5877
 1421.0000   -11.2115     9.1840     8.8439     9.7756   115.5714     8.8395     0.0274     2.5800
 1421.5000   -11.3636     9.1897     8.8476     9.8504   115.3071     8.8216     0.0154     2.5706
 1422.0000   -11.6378     9.1954     8.7899     9.9948   115.9379     8.7925     0.0155     2.5631
 1422.5000   -11.6239     9.1373     8.7937    10.0018   115.9491     8.7768     0.0162     2.5685
 1423.0000   -11.7618     9.1433     8.7364     9.6684   114.5608     8.7743     0.0153     2.5676
 1423.5000   -11.7477     9.1490     8.8010     9.5403   112.5514     8.7429     0.0108     2.5620
 1424.0000   -11.7341     9.1547     8.8660     9.4809   108.9892     8.7142     0.0166     2.5536
 1424.5000   -11.8721     9.1604     8.9315     9.4892   106.3564     8.6803     0.0251     2.5621
 1425.0000   -11.8580     9.2942     9.0602     9.5618   107.9208     8.6490     0.0319     2.5621
 1425.5000   -11.8444     9.3647     9.1908    10.0440   109.9487     8.6178     0.0326     2.5620
 1426.0000   -11.9825     9.3705     9.3232    10.3335   111.2002     8.5891     0.0295     2.5659
 1426.5000   -11.9683     9.4416     9.3921    10.5579   111.6753     8.5863     0.0284     2.5689
 1427.0000   -11.9520     9.4475     9.3961    10.6387   112.4609     8.5733     0.0179     2.5549
 1427.5000   -12.0929     9.3876     9.4000    10.5726   114.4888     8.5575     0.0148     2.5487
 1428.0000   -11.9249     9.3285     9.4039    10.3604   115.4297     8.5574     0.0132     2.5485
 1428.5000   -11.7603     9.3346     9.4078    10.0859   114.5073     8.5572     0.0125     2.5502
 1429.0000   -11.7467     9.2756     9.4117     9.8852   113.5826     8.5415     0.0117     2.5486
 1429.5000   -11.7331     9.2817     9.4078     9.7559   114.2153     8.5383     0.0195     2.5484
 1430.0000   -11.7196     9.2886     9.3457     9.6266   116.0879     8.5256     0.0257     2.5555
 1430.5000   -11.7060     9.2944     9.2290     9.6349   116.2524     8.4944     0.0295     2.5647
 1431.0000   -11.6924     9.3002     9.1690     9.8442   115.6406     8.4787     0.0265     2.5631
 1431.5000   -11.5312     9.2403     9.1619    10.0580   113.9417     8.4941     0.0288     2.5654
 1432.0000   -11.6687     9.2475     9.1768     9.9954   108.8268     8.4939     0.0311     2.5747
 1432.5000   -11.5007     9.3176     9.1813     9.9315   108.0573     8.4937     0.0335     2.5832
 1433.0000   -11.4871     9.3235     9.2492    10.4343   111.1745     8.4780     0.0358     2.5870
 1433.5000   -11.3225     9.3293     9.3175    10.7350   111.1837     8.4623     0.0296     2.5707
 1434.0000   -11.3090     9.3351     9.3864    10.7424   111.8141     8.4622     0.0187     2.5621
 1434.5000   -11.2954     9.2764     9.3903    10.0301   112.4445     8.4309     0.0250     2.5861
 1435.0000   -11.2818     9.2165     9.3942    10.2479   113.3854     8.4308     0.0381     2.6071
 1435.5000   -11.2683     9.0953     9.2043    11.3785   115.4133     8.4617     0.0459     2.6156
 1436.0000   -11.2547     9.0380     9.0182    12.6337   121.1679     8.4927     0.0234     2.5767
 1436.5000   -11.2412     9.0451     8.9586    12.0438   120.5560     8.5236     0.0265     2.5573
 1437.0000   -11.2276     9.1137     8.9632    10.6387   115.2858     8.5701     0.0258     2.5704
 1437.5000   -11.3685     9.1194     9.0294    10.5707   112.1894     8.5855     0.0242     2.5719
 1438.0000   -11.3515     9.1251     9.0332    10.8022   109.7019     8.5854     0.0297     2.5750
 1438.5000   -11.3380     9.1308     9.0999    10.8096   108.1461     8.5852     0.0351     2.5820
 1439.0000   -11.3244     9.1365     9.1037    10.8171   105.9567     8.6006     0.0359     2.5897
 1439.5000   -11.1598     9.2058     9.1710    10.8246   103.9640     8.6160     0.0328     2.5920
