~VERSION INFORMATION
 VERS.                2.0:   CWLS LOG ASCII STANDARD - VERSION 2.0
 WRAP.                 NO:   ONE LINE PER DEPTH STEP
~WELL INFORMATION
#MNEM.UNIT      DATA TYPE    INFORMATION
#----------   ------------   ------------------------------
 STRT.F          200.0000:   START DEPTH
 STOP.F         3098.0000:   STOP DEPTH
 STEP.F            0.5000:   STEP LENGTH
 NULL.          -999.2500:   NO VALUE
 COMP.    FENIX & SCISSON:   COMPANY
 WELL.   FENIX "AX" #74-3:   WELL
 FLD .              N P R:   FIELD
 LOC .       S3 T38N R78W:   LOCATION
 CNTY.            NATRONA:   COUNTY
 STAT.            WYOMING:   STATE
 CTRY. UNITED STATES OF AMERICA:   COUNTRY
 SRVC.              WELEX:   SERVICE COMPANY
 DATE.        17-AUG-1977:   LOGDATE
 API .     49025104120000:   API NUMBER
~CURVE INFORMATION
#MNEM.UNIT       API CODE    CURVE DESCRIPTION
#----------   ------------   ------------------------------
 DEPT.F                  :   
 CALD.IN     45 280 60 00:   CALIPER FROM DENSITY LOG
 SPR .MV     07 010 01 00:   SPONTANEOUS POTENTIAL
 NPHI.DEC    42 890 00 00:   NEUTRON POROSITY
 GRD .GAPI   45 310 01 00:   GAMMA RAY FROM DENSITY LOG
 CORR.G/C3   45 356 01 00:   DENSITY CORRECTION
 RHOB.G/C3   45 350 01 00:   BULK DENSITY
 SGRD.OHMM   07 220 05 00:   SHALLOW SHORT GUARD RESISTIVITY
 ILD .OHMM   07 120 46 00:   DEEP INDUCTION RESISTIVITY
 ILM .OHMM   07 120 44 00:   INDUCTION LOG MEDIUM RESISTIVITY
~PARAMETER INFORMATION
#MNEM.UNIT          VALUE    DESCRIPTION
#----------   ------------   ------------------------------
 EKB .F         5141.0000:   Kelly bushing
 EGL .F         5131.0000:   Ground level
 EDF .F            0.0000:   Drilling floor
 TD  .F         3100.0000:   Total depth
 DATE.        17-AUG-1977:   Date logged
 CLNT.            A2DTECH:   Client Code
 SL  . 2272' FNL & 1060' FEL:   Surface Location
 PD  .                 GL:   Permanent Datum
 EPD .F              5131:   Elevation Permanent Datum
 LMF .                 KB:   Log Measured From
 DMF .                 KB:   Drilling Measured From
 DD  .F              3100:   Depth driller
 DL  .F              3100:   Depth logger
 BLI .F              3098:   Bottom log interval
 TLI .F               200:   Top log interval
 CS1 .IN            8.625:   Casing size
 CBD1.      8.625" @ 215':   Casing driller 1
 CBL1.F               218:   Casing logger 1
 BS1 .IN            7.875:   Bit size
 DFT .            KCL MUD:   Type fluid in hole
 DFD .                8.8:   Density
 DFV .                 33:   Viscosity
 DFPH.                9.5:   pH
 DFL .               10.6:   Fluid loss
 MSS .           FLOWLINE:   Source of sample
 RMS .OHMM            .67:   Rm
 MST .F                98:   Rm Meas. temp.
 RMF .OHMM            .64:   Rmf
 MFST.F                98:   Rmf Meas. temp.
 RMC .OHMM            .31:   Rmc
 MCST.F                98:   Rmc Meas. temp.
 MFSS.           MEASURED:   Source Rmf.
 RMB .OHMM            .57:   Rm. at BHT
 BHT .F               115:   BHT.
 TCS .HRS               3:   Time Circ. stopped
 MRT .F               115:   Maximum recorded temp.
 LUN .               8611:   Logging unit number
 LUL .             CASPER:   Logging unit location
 ENGI.            C. DOAK:   Recorded By
 WITN.     MR. PETTINGILL:   Witnessed by
 ORIG.           5" PRINT:   Origin of data
 UWI .     49025104120000:   Unique Well ID
 DICO. A2D TECHNOLOGIES, INC.:   Digitizing Company
 BSD1.               3100:   Depth drilled with bit1
~OTHER INFORMATION
~A   DEPT       CALD      SPR       NPHI          GRD      CORR        RHOB     SGRD        ILD        ILM   
# ...
 2280.5000     8.8600   -69.4340     0.3450   127.3480     0.0480     2.5000    11.8360     7.2650     8.9800
 2281.0000     8.8690   -69.4750     0.3450   128.0120     0.0470     2.4900    12.3680     7.2170     8.9220
 2281.5000     8.8750   -69.5160     0.3400   128.6380     0.0460     2.4810    10.1110     7.1700     8.8640
 2282.0000     8.8710   -69.5570     0.3360   129.2610     0.0420     2.4720    11.5820     7.1230     8.8140
 2282.5000     8.8640   -69.5980     0.3340   129.9210     0.0330     2.4620    13.4300     7.0760     8.8950
 2283.0000     8.8560   -69.6390     0.3310   128.9460     0.0240     2.4560    12.5320     7.0290     8.9770
 2283.5000     8.8480   -69.6800     0.3270   127.5550     0.0180     2.4630    11.5350     7.0110     8.8950
 2284.0000     8.8400   -69.7210     0.3230   126.1550     0.0180     2.4740    10.5380     6.9670     8.6950
 2284.5000     8.8320   -69.7620     0.3210   124.7580     0.0180     2.4840     9.4840     6.8060     8.4190
 2285.0000     8.8240   -69.8030     0.3210   123.3620     0.0180     2.4860    10.4430     6.6460     8.2670
 2285.5000     8.8170   -69.8440     0.3200   121.9740     0.0180     2.4870    10.6820     6.4850     8.0320
 2286.0000     8.8090   -69.8860     0.3200   120.6000     0.0190     2.4890    10.2980     6.3250     7.8120
 2286.5000     8.8010   -69.9270     0.3210   119.3780     0.0210     2.4910    10.6950     6.1640     7.5920
 2287.0000     8.7930   -69.9680     0.3220   118.6980     0.0240     2.4990    11.2860     6.0030     7.3710
 2287.5000     8.7850   -70.0090     0.3210   118.8800     0.0260     2.5050    10.3610     5.8430     7.1400
 2288.0000     8.7770   -70.0500     0.3200   119.8540     0.0280     2.5120     9.3500     5.6820     6.7990
 2288.5000     8.7700   -70.0280     0.3190   120.8320     0.0310     2.5120     8.3400     5.5220     6.3390
 2289.0000     8.7620   -69.9520     0.3200   121.7630     0.0330     2.5050     7.3300     5.3610     6.4150
 2289.5000     8.7540   -69.8770     0.3220   119.7110     0.0360     2.4990     6.2240     5.2780     6.5350
 2290.0000     8.7460   -69.8020     0.3240   117.4070     0.0380     2.4920     6.1670     5.4060     6.6540
 2290.5000     8.7380   -69.7270     0.3230   115.1100     0.0400     2.4990    11.2860     5.5840     6.7740
 2291.0000     8.7300   -69.6520     0.3190   112.8420     0.0430     2.5070    10.9460     5.7620     6.8930
 2291.5000     8.7230   -69.5770     0.3150   110.9900     0.0450     2.5150    10.3740     5.9410     7.0120
 2292.0000     8.7270   -69.5020     0.3120   110.1120     0.0440     2.5220     9.8020     6.1190     7.0750
 2292.5000     8.7390   -69.4270     0.3080   109.2150     0.0410     2.5160     9.2300     6.2980     7.1400
 2293.0000     8.7520   -69.3520     0.3040   108.3170     0.0380     2.5090     8.6580     6.4760     7.3390
 2293.5000     8.7650   -69.2770  -999.2500   107.4270     0.0340     2.5020     8.4190     6.6540     7.5310
 2294.0000     8.7770   -69.2020  -999.2500   104.4760     0.0290     2.4940    10.4770     6.8330     7.8150
 2294.5000     8.7900   -69.1260  -999.2500   100.4910     0.0200     2.4870    12.3680     7.0110     8.0990
 2295.0000     8.7970   -69.0890  -999.2500    99.9590     0.0180     2.4800    12.9470     7.1900     8.3830
 2295.5000     8.7810   -69.0910  -999.2500   101.8020     0.0200     2.4820    12.6000     7.3390     8.6670
 2296.0000     8.7660   -69.1690  -999.2500   103.9080     0.0200     2.4830    11.8880     7.3500     8.7340
 2296.5000     8.7510   -69.2540  -999.2500   106.0140     0.0180     2.4840    10.6310     7.3800     8.4970
 2297.0000     8.7350   -69.3380  -999.2500   108.1150     0.0150     2.4750     9.3740     7.4100     8.4970
 2297.5000     8.7200   -69.4230  -999.2500   110.2170     0.0110     2.4780     8.9770     7.4390     8.6540
 2298.0000     8.7050   -69.5070  -999.2500   112.6070     0.0090     2.4830    10.9240     7.4690     8.8920
 2298.5000     8.6900   -69.5910  -999.2500   111.1030     0.0150     2.4890    12.2300     7.4990     9.1910
 2299.0000     8.6740   -69.6750  -999.2500   108.7160     0.0220     2.4940    13.5350     7.5280     9.4840
 2299.5000     8.6590   -69.7590     0.2980   106.2620     0.0280     2.4870    14.8410     7.5580     9.4840
 2300.0000     8.6440   -69.8440     0.2980   104.3830     0.0350     2.4830    15.2660     7.5880     9.1950
 2300.5000     8.6280   -69.9280     0.2980   106.2680     0.0360     2.4880    11.7730     7.6130     8.9230
 2301.0000     8.6010   -70.0120     0.2970   108.5040     0.0360     2.4930    10.1110     7.6130     8.6510
 2301.5000     8.6080   -70.0970     0.2970   110.7140     0.0360     2.4970    12.8200     7.4050     8.3780
 2302.0000     8.6180   -70.1810     0.2970   112.8950     0.0360     2.4880    15.6910     7.2540     8.0780
 2302.5000     8.6280   -70.2540     0.2950   116.0390     0.0320     2.4780    13.9830     7.1040     7.6980
 2303.0000     8.6380   -70.2520     0.2930   119.5700     0.0250     2.4680    10.8230     6.9540     7.5340
 2303.5000     8.6480   -70.2550     0.2910   123.1350     0.0170     2.4680     8.4970     6.8040     7.4870
 2304.0000     8.6580   -70.2580     0.2880   126.7070     0.0090     2.4670     9.4080     6.6540     7.4400
 2304.5000     8.6680   -70.2620     0.2910   130.2840     0.0010     2.4600    11.0810     6.5030     7.3930
 2305.0000     8.6780   -70.2670     0.2940   131.0340    -0.0060     2.4520    10.5850     6.3530     7.3460
 2305.5000     8.6880   -70.2710     0.2980   131.2890    -0.0140     2.4450    12.0930     6.2030     7.3390
 2306.0000     8.6980   -70.2750     0.2970   131.6250    -0.0170     2.4390    13.0660     6.0530     6.9470
 2306.5000     8.6960   -70.2790     0.2940   134.5910    -0.0120     2.4350    10.3990     5.9030     6.5590
 2307.0000     8.6890   -70.2830     0.2920   137.7640    -0.0140     2.4320     8.1640     5.7520     6.3390
 2307.5000     8.6820   -70.2870     0.2920   140.9290    -0.0200     2.4280     6.6140     5.6020     6.3390
 2308.0000     8.6760   -70.2910     0.2940   144.0950    -0.0230     2.4240     5.2300     5.4750     6.3390
 2308.5000     8.6690   -70.2950     0.2980   147.2580    -0.0150     2.4260     5.9190     5.6370     6.3390
 2309.0000     8.6620   -70.2990     0.2970   150.4420    -0.0070     2.4330     7.0940     5.7760     6.3970
 2309.5000     8.6550   -70.3030     0.2940   151.4230     0.0000     2.4400     9.4700     5.9160     7.2020
 2310.0000     8.6490   -70.3070     0.2900   147.4490     0.0040     2.4470    13.0510     6.0560     7.9690
 2310.5000     8.6420   -70.3110     0.2870   144.8200     0.0040     2.4410    16.6320     6.1960     8.3790
 2311.0000     8.6520   -70.3150     0.2840   146.8350     0.0040     2.4350    17.1960     6.3350     8.4970
 2311.5000     8.6640   -70.3190     0.2840   150.7660     0.0020     2.4280    14.6060     6.4560     8.3430
 2312.0000     8.6760   -70.3230     0.2850   154.6860     0.0020     2.4230    12.2160     6.5160     7.8180
 2312.5000     8.6880   -70.3270     0.2870   158.6090     0.0020     2.4250    10.3930     6.5160     7.2250
 2313.0000     8.7000   -70.3310     0.2890   162.5170     0.0020     2.4270    10.1110     6.4240     6.7690
 2313.5000     8.7110   -70.3350     0.2910   166.4610     0.0020     2.4270     8.4970     6.0970     6.5300
 2314.0000     8.7210   -70.3390     0.2930   168.1280     0.0020     2.4270     9.2980     5.7700     6.2900
 2314.5000     8.7240   -70.3430     0.2930   167.7390     0.0020     2.4300    10.4880     5.4430     6.1110
 2315.0000     8.7280   -70.3470     0.2930   163.8840     0.0020     2.4420     9.8250     5.1160     6.1110
 2315.5000     8.7310   -70.3510     0.2950   159.8890     0.0030     2.4540     7.9530     4.7890     5.8380
 2316.0000     8.7350   -70.3550     0.3020   155.9110     0.0110     2.4760     6.0810     4.4620     5.2170
 2316.5000     8.7390   -70.3590     0.3110   151.9340     0.0180     2.5000     4.3550     4.1600     4.8610
