~VERSION INFORMATION
 VERS.                2.0:   CWLS LOG ASCII STANDARD - VERSION 2.0
 WRAP.                 NO:   ONE LINE PER DEPTH STEP
~WELL INFORMATION
#MNEM.UNIT      DATA TYPE    INFORMATION
#----------   ------------   ------------------------------
 STRT.F            4.5000:   START DEPTH
 STOP.F         3216.0000:   STOP DEPTH
 STEP.F            0.5000:   STEP LENGTH
 NULL.          -999.2500:   NO VALUE
 COMP. LAWRENCE ALLISON & ASSCOCIATES:   COMPANY
 WELL. LAWRENCE ALLISON #38-34:   WELL
 FLD . NAVAL PET. RES. NO. 3:   FIELD
 LOC .      S34 T39N R78W:   LOCATION
 CNTY.            NATRONA:   COUNTY
 STAT.            WYOMING:   STATE
 CTRY. UNITED STATES OF AMERICA:   COUNTRY
 SRVC.      DRESSER ATLAS:   SERVICE COMPANY
 DATE.        12-OCT-1986:   LOGDATE
 API .     49025111120000:   API NUMBER
~CURVE INFORMATION
#MNEM.UNIT       API CODE    CURVE DESCRIPTION
#----------   ------------   ------------------------------
 DEPT.F                  :   
 CALD.IN     45 280 60 00:   CALIPER FROM DENSITY LOG
 RHOB.G/C3   45 350 01 00:   BULK DENSITY
 CORR.G/C3   45 356 01 00:   DENSITY CORRECTION
 CNC .DEC    42 890 01 00:   NEUTRON POROSITY
 SPR .MV     07 010 01 00:   SPONTANEOUS POTENTIAL
 TENR.LBS    06 635 01 00:   TENSION FROM RESISTIVITY
 GRR .GAPI   07 310 01 00:   GAMMA RAY FROM RESISTIVITY
 ILD .OHMM   07 120 46 00:   DEEP INDUCTION RESISTIVITY
 ILM .OHMM   07 120 44 00:   INDUCTION LOG MEDIUM RESISTIVITY
 SFL .OHMM   07 220 01 00:   SHALLOW FOCUSED LOG RESISITIVITY
~PARAMETER INFORMATION
#MNEM.UNIT          VALUE    DESCRIPTION
#----------   ------------   ------------------------------
 EKB .F         5229.5000:   Kelly bushing
 EGL .F         5217.7000:   Ground level
 TD  .F         3200.0000:   Total depth
 CLNT.            A2DTECH:   Client Code
 SL  . 1338' FWL & 132' FSL:   Surface Location
 PD  .                 GL:   Permanent Datum
 EPD .F            5217.7:   Elevation Permanent Datum
 LMF .                 KB:   Log Measured From
 DMF .                 KB:   Drilling Measured From
 DAPD.F              11.8:   Feet Above Permanent Datum
 DATE.        12-OCT-1986:   Date Logged [DD-MMM-YYYY]
 DD  .F              3200:   Depth driller
 DL  .F              3200:   Depth logger
 BLI .F              3194:   Bottom log interval
 TLI .F                 0:   Top log interval
 CS1 .IN            8.625:   Casing size
 CBD1.      8.625" @ 668':   Casing driller 1
 CBL1.F               668:   Casing logger 1
 BS1 .IN            7.875:   Bit size
 BSD1.F              3200:   Depth drilled with bit1
 DFT .        KCL POLYMER:   Type fluid in hole
 DFD .                  9:   Density
 DFV .                 36:   Viscosity
 DFPH.                9.5:   pH
 MSS .           FLOWLINE:   Source of sample
 RMS .OHMM           0.25:   Rm
 MST .F                70:   Rm Meas. temp.
 RMF .OHMM          0.191:   Rmf
 MFST.F                70:   Rmf Meas. temp.
 MFSS.               MEAS:   Source Rmf.
 RMB .OHMM          0.132:   Rm. at BHT
 BHT .F               132:   BHT.
 TCS .HRS               3:   Time Circ. stopped
 MRT .F               132:   Maximum recorded temp.
 LUN .               6274:   Logging unit number
 ENGI.             RAUTIO:   Recorded By
 ORIG.   1" 2.5" 5" PRINT:   Origin of data
 UWI .     49025111120000:   Unique Well ID
 DICO. A2D TECHNOLOGIES, INC.:   Digitizing Company
 LUL .               CLIT:   Logging unit location
 RMC .OHMM           0.31:   Rmc
 MCST.F                70:   Rmc Meas. temp.
 MCSS.               CALC:   Source Rmc.
~OTHER INFORMATION
~A    DEPT    CALD       RHOB       CORR        CNC        SPR       TENR        GRR        ILD        ILM        SFL   
# ...
 2986.0000     8.9996     2.5293    -0.0022     0.2428   -78.1056   -45.2500   130.8907     4.0000     4.4373     5.6933
 2986.5000     8.9988     2.5276    -0.0037     0.2504   -77.9743   -45.2500   135.1017     3.7773     3.9327     5.3753
 2987.0000     8.9979     2.5239    -0.0088     0.2614   -77.8430   -64.7500   136.9031     3.5669     3.5348     5.1123
 2987.5000     8.9968     2.5156    -0.0249     0.2826   -77.7114   -64.7500   139.3069     3.3414     3.3291     4.6904
 2988.0000     8.9960     2.4988    -0.0174     0.3318   -77.5810   -64.7500   154.9637     2.9782     3.0199     3.9467
 2988.5000     8.9951     2.4774    -0.0023     0.3349   -77.4491   -64.7500   162.7891     2.7779     2.8963     3.5798
 2989.0000     9.0094     2.4547     0.0158     0.3337   -77.3166   -64.7500   171.9737     2.7393     2.9367     3.3385
 2989.5000     9.0085     2.4303     0.0375     0.3178   -77.2185   -64.7500   189.1384     2.8164     3.0616     3.1572
 2990.0000     9.0074     2.4181     0.0671     0.3005   -77.2186   -60.4600   193.4945     2.8957     3.2820     3.1493
 2990.5000     9.0219     2.4549     0.0323     0.2794   -77.2167   -50.6320   192.0718     3.0189     3.7195     4.2268
 2991.0000     8.8084     2.4865     0.0066     0.2663   -77.2178   -45.2500   174.8266     3.1915     4.1015     4.9248
 2991.5000     8.8986     2.5307    -0.0025     0.2615   -77.2175   -25.7500   160.2828     3.4744     4.4687     5.8207
 2992.0000     8.9890     2.5459     0.0005     0.2584   -77.2181   -45.2500   137.8072     3.7910     4.8688     6.0652
 2992.5000     9.0031     2.5489     0.0004     0.2533   -77.2178   -45.2500   125.9940     4.2414     5.2912     5.9698
 2993.0000     9.0174     2.5489    -0.0056     0.2467   -77.2169   -45.2500   126.5904     4.6215     5.5841     5.8964
 2993.5000     9.0163     2.5421     0.0004     0.2427   -77.2226   -45.2500   127.1867     4.9473     5.7230     6.1671
 2994.0000     9.0154     2.5302     0.0155     0.2409   -77.1666   -45.2500   125.3724     5.0717     5.8027     6.3450
 2994.5000     9.0146     2.5131     0.0049     0.2397   -77.0466    -6.2500   120.5473     5.2185     5.7221     6.4956
 2995.0000     9.0137     2.5108     0.0003     0.2385   -76.9369    13.2500   121.1438     5.2954     5.6861     6.4940
 2995.5000     9.0126     2.5131     0.0003     0.2352   -76.8201    13.2500   122.3428     5.4107     5.6423     6.4029
 2996.0000     9.0117     2.5153     0.0063     0.2328   -76.7565    -6.2500   121.7345     5.6065     5.6861     6.4016
 2996.5000     9.0109     2.5168     0.0214     0.2319   -76.6910   -25.7500   119.9215     5.8818     5.7205     6.4896
 2997.0000     9.0100     2.5200     0.0153     0.2301   -76.6295   -25.7500   116.3012     5.9095     5.8003     6.7649
 2997.5000     9.0091     2.5244     0.0077     0.2253   -76.5649   -25.7500   114.4880     5.7197     5.8811     6.8585
 2998.0000     9.0080     2.5259     0.0016     0.2216   -76.5006   -45.2500   117.0114     5.5623     5.7994     6.8569
 2998.5000     9.0072     2.5244    -0.0047     0.2204   -76.4427   -25.7500   118.0908     5.4093     5.7990     6.7608
 2999.0000     9.0063     2.5236    -0.0120     0.2256   -76.3431    -6.2500   118.0843     5.4089     5.7986     6.4831
 2999.5000     9.0054     2.5244    -0.0121     0.2369   -76.2109    13.2500   118.0783     5.4086     5.9618     6.3922
 3000.0000     9.0045     2.5236    -0.0166     0.2445   -76.0845    15.3468   119.3623     5.4840     6.0449     6.3026
 3000.5000     9.0041     2.5198    -0.0121     0.2451   -75.9594   -13.8906   123.6481     5.7271     6.1045     5.9284
 3001.0000     9.0036     2.5137    -0.0001     0.2442   -75.8312   -25.7500   127.0967     5.8782     6.1641     5.9973
 3001.5000     9.0032     2.5014    -0.0001     0.2422   -75.7046   -25.7500   123.0896     5.9602     6.2194     6.0424
 3002.0000     9.0027     2.5061    -0.0092     0.2357   -75.6056   -45.2500   120.3291     5.8774     6.1346     6.1262
 3002.5000     9.0023     2.5137    -0.0153     0.2272   -75.6055   -45.2500   119.0863     5.7157     6.2220     7.1384
 3003.0000     9.0018     2.5183    -0.0017     0.2182   -75.6048   -45.2500   116.8555     5.7153     6.1371     7.2372
 3003.5000     9.0014     2.5176    -0.0002     0.2157   -75.5986   -25.7500   114.1905     5.7950     6.1386     7.6503
 3004.0000     9.0009     2.5092    -0.0247     0.2164   -75.6652   -25.7500   113.8072     5.7145     6.1059     7.9753
 3004.5000     9.0005     2.5016    -0.0380     0.2204   -75.7853   -25.7500   113.8012     5.7141     6.0187     7.7554
 3005.0000     9.0000     2.5001    -0.0290     0.2246   -75.8960   -25.7500   114.7586     5.6348     5.8506     6.8417
 3005.5000     8.9995     2.4970    -0.0064     0.2334   -76.0103   -25.7500   118.7122     5.4389     5.6873     5.7090
 3006.0000     8.9991     2.4925    -0.0185     0.2425   -76.1203   -45.2500   120.4096     5.1853     5.4220     5.5515
 3006.5000     8.9986     2.4925    -0.0306     0.2413   -76.2305   -45.2500   120.4027     4.9706     5.1295     5.5580
 3007.0000     8.9982     2.4971    -0.0566     0.2401   -76.3650   -45.2500   120.3968     4.8720     4.7858     5.7186
 3007.5000     8.9977     2.4971    -0.0473     0.2408   -76.2631   -45.2500   120.9934     4.5157     4.4034     5.7858
 3008.0000     8.9973     2.4930    -0.0307     0.2468   -75.8302   -45.2500   122.7947     3.5699     3.6248     5.7636
 3008.5000     8.9968     2.4741    -0.0277     0.2578   -75.4229   -25.7500   126.4033     2.8882     2.7449     5.4267
 3009.0000     8.9964     2.4400    -0.0262     0.2778   -75.0101   -25.7500   139.6505     2.2797     2.2596     4.5418
 3009.5000     8.9959     2.3810    -0.0172     0.3298   -74.5971   -25.7500   160.9096     2.0113     2.1082     3.1422
 3010.0000     8.9954     2.2307    -0.0049     0.3794   -74.1816   -45.2500   220.0781     1.9023     2.1086     2.3595
 3010.5000     8.9872     2.1866     0.0495     0.3186   -73.7699   -59.1545   225.1750     2.0392     2.2020     2.1066
 3011.0000     8.9742     2.1699     0.1024     0.3003   -73.3662   -64.9437   204.6863     2.1557     2.4081     2.2756
 3011.5000     8.9637     2.2521     0.0782     0.2751   -72.9191   -64.8369   184.1463     2.4094     2.9500     2.8824
 3012.0000     8.9633     2.3878    -0.0040     0.2354   -72.9468   -45.3011   148.5564     2.6929     4.1090     5.4656
 3012.5000     8.9628     2.4755    -0.0427     0.1980   -73.3286   -45.3562   115.9086     3.1593     5.4581     7.9565
 3013.0000     8.9623     2.5200    -0.0170     0.1907   -73.6026   -25.7790   104.0602     4.3766     6.0445     7.9722
 3013.5000     8.9619     2.5223     0.0026     0.1886   -73.8290   -25.4817   105.1871     5.5214     6.2813     7.6292
 3014.0000     8.9462     2.5154     0.0011     0.1892   -74.0317   -24.9192   107.6548     6.0684     6.3751     6.9203
 3014.5000     8.9306     2.5109    -0.0216     0.1962   -74.2339   -24.1871   108.8615     6.4251     6.4297     6.3608
 3015.0000     8.9302     2.5056    -0.0308     0.2063   -74.4348   -43.0663   109.0963     6.5576     6.3866     6.0128
 3015.5000     8.9297     2.4986    -0.0458     0.2140   -74.6405   -62.2651   106.4387     6.4901     6.2478     5.8423
 3016.0000     8.9292     2.4934    -0.0488     0.2113   -74.8030   -62.4232   106.4329     6.0936     6.0855     5.7721
 3016.5000     8.9591     2.4942    -0.0398     0.2116   -74.8923   -63.0463   107.0294     5.6292     5.7574     5.7713
 3017.0000     8.9587     2.4957    -0.0202     0.2158   -74.9691   -63.9748   109.4332     5.2425     5.4469     5.7705
 3017.5000     8.9582     2.4965    -0.0111     0.2170   -75.0472   -64.9154   113.6442     4.9629     5.1531     5.7697
 3018.0000     8.9578     2.4942    -0.0005     0.2184   -75.1244   -64.7500   116.6506     4.7597     4.8751     5.6892
 3018.5000     8.9574     2.4896     0.0085     0.2267   -75.2026   -64.7500   116.0421     4.5648     4.6768     5.5717
 3019.0000     8.9569     2.4843    -0.0036     0.2388   -75.2798   -64.7500   116.0519     4.2578     4.4245     5.3727
