~VERSION INFORMATION
 VERS.                2.0:   CWLS LOG ASCII STANDARD - VERSION 2.0
 WRAP.                 NO:   ONE LINE PER DEPTH STEP
~WELL INFORMATION
#MNEM.UNIT      DATA TYPE    INFORMATION
#----------   ------------   ------------------------------
 STRT.F           40.0000:   START DEPTH
 STOP.F         1336.0000:   STOP DEPTH
 STEP.F            0.5000:   STEP LENGTH
 NULL.          -999.2500:   NO VALUE
 COMP. LAWRENCE - ALLISON WEST:   COMPANY
 WELL. LAWRENCE NPR 3 "AX" #54-23:   WELL
 FLD .              N P R:   FIELD
 LOC .      S23 T38N R78W:   LOCATION
 CNTY.            NATRONA:   COUNTY
 STAT.            WYOMING:   STATE
 CTRY. UNITED STATES OF AMERICA:   COUNTRY
 SRVC.       SCHLUMBERGER:   SERVICE COMPANY
 DATE.        13-MAY-1982:   LOGDATE
 API .     49025108880000:   API NUMBER
~CURVE INFORMATION
#MNEM.UNIT       API CODE    CURVE DESCRIPTION
#----------   ------------   ------------------------------
 DEPT.F                  :   
 NPOR.DEC    42 890 03 00:   ALPHA PROCESSED NEUTRON POROSITY
 TEND.LBS    45 635 01 00:   TENSION FROM DENSITY LOG
 CORR.G/C3   45 356 01 00:   DENSITY CORRECTION
 RHOB.G/C3   45 350 01 00:   BULK DENSITY
 GRD .GAPI   45 310 01 00:   GAMMA RAY FROM DENSITY LOG
 CALD.IN     45 280 60 00:   CALIPER FROM DENSITY LOG
 SPR .MV     07 010 01 00:   SPONTANEOUS POTENTIAL
 TENR.LBS    07 635 01 00:   TENSION
 ILD .OHMM   07 120 46 00:   DEEP INDUCTION RESISTIVITY
 ILM .OHMM   07 120 44 00:   INDUCTION LOG MEDIUM RESISTIVITY
 SFL .OHMM   07 220 01 00:   SHALLOW FOCUSED LOG RESISTIVITY
~PARAMETER INFORMATION
#MNEM.UNIT          VALUE    DESCRIPTION
#----------   ------------   ------------------------------
 EKB .F         5342.0000:   Kelly bushing
 EGL .F         5332.0000:   Ground level
 EDF .F            0.0000:   Drilling floor
 TD  .F         1325.0000:   Total depth
 DATE.        13-MAY-1982:   Date logged
 CLNT.            A2DTECH:   Client Code
 SL  . 2278' FSL & 2665' FWL:   Surface Location
 PD  .                 GL:   Permanent Datum
 DD  .F              1325:   Depth driller
 DL  .F              1314:   Depth logger
 BLI .F              1308:   Bottom log interval
 CS1 .IN             15.5:   Casing size
 CBD1.        15.5" @ 40':   Casing driller 1
 CBL1.F                54:   Casing logger 1
 BS1 .IN            12.25:   Bit size
 DFT .             LT/GEL:   Type fluid in hole
 DFD .                8.9:   Density
 DFV .                 33:   Viscosity
 DFPH.                8.8:   pH
 DFL .                 16:   Fluid loss
 MSS .                PIT:   Source of sample
 RMS .OHMM           2.47:   Rm
 MST .F                61:   Rm Meas. temp.
 RMF .OHMM           2.12:   Rmf
 MFST.F                62:   Rmf Meas. temp.
 MFSS.               MEAS:   Source Rmf.
 RMB .OHMM           1.73:   Rm. at BHT
 BHT .F                87:   BHT.
 TCS .HRS            2300:   Time Circ. stopped
 MRT .F                87:   Maximum recorded temp.
 LUN .               8043:   Logging unit number
 LUL .               CSPR:   Logging unit location
 ENGI.        WAGNER/CSPR:   Recorded By
 WITN.           JENNINGS:   Witnessed by
 ORIG.           5" PRINT:   Origin of data
 UWI .     49025108880000:   Unique Well ID
 DICO. A2D TECHNOLOGIES, INC.:   Digitizing Company
 BSD1.F              1325:   Depth drilled with bit1
 EPD .F              5332:   Elevation Permanent Datum
 LMF .                 KB:   Log Measured From
 DMF .                 KB:   Drilling Measured From
 TLI .F                54:   Top log interval
 DAPD.F                10:   Feet Above Permanent Datum
~OTHER INFORMATION
~A   DEPT     NPOR       TEND       CORR       RHOB        GRD       CALD        SPR       TENR        ILD        ILM        SFL   
# ...
  192.5000     0.1660    69.6140     0.0000     2.3600   140.9900    13.2140   -31.6080   -55.7260     5.4720     4.9460     4.7120
  193.0000     0.1650    67.2120    -0.0010     2.3660   137.0660    13.2170   -31.8640   -55.7260     5.7270     5.3040     5.1100
  193.5000     0.1650    64.8110     0.0010     2.3760   132.3570    13.2210   -32.1260   -55.3610     5.8980     5.6620     5.3550
  194.0000     0.1640    62.4090     0.0020     2.3930   129.0040    13.2240   -32.3930   -54.4480     5.9450     5.7710     5.5480
  194.5000     0.1620    60.0080     0.0030     2.4050   131.0010    13.2280   -32.6540   -53.5350     5.9910     5.8790     5.7700
  195.0000     0.1560    57.6070     0.0040     2.4070   134.6300    13.2320   -32.9190   -52.6220     6.0480     5.8790     5.7420
  195.5000     0.1540    55.2050     0.0020     2.4020   135.6620    13.2360   -33.1840   -51.7090     6.1050     5.8790     5.6950
  196.0000     0.1580    52.8040    -0.0010     2.3940   134.5600    13.2390   -33.4430   -50.7960     6.0920     5.8790     5.6480
  196.5000     0.1630    50.4070     0.0000     2.3940   133.4210    13.2430   -33.7120   -49.8830     6.0700     5.8790     5.6020
  197.0000     0.1640    52.5140     0.0030     2.4010   132.2880    13.2470   -33.9340   -48.9700     6.0480     5.8790     5.5550
  197.5000     0.1640    54.6170     0.0050     2.4070   131.1030    13.2510   -34.2010   -48.0570     6.0260     5.8790     5.5090
  198.0000     0.1640    56.7200     0.0050     2.4080   130.0830    13.2540   -34.3960   -47.1440     6.0040     5.8790     5.4530
  198.5000     0.1660    58.8220     0.0040     2.4070   130.2570    13.2590   -34.6710   -46.2310     5.9910     5.8790     5.4700
  199.0000     0.1670    60.9250     0.0020     2.4040   131.7880    13.2630   -34.8480   -45.3180     5.9910     5.8790     5.4920
  199.5000     0.1650    63.0280    -0.0010     2.4010   133.6810    13.2680   -34.9540   -44.4050     5.9910     5.8790     5.5130
  200.0000     0.1720    65.1300    -0.0010     2.3990   137.0610    13.2720   -32.9820   -43.4930     6.1760     5.9850     5.5350
  200.5000     0.1790    67.2330     0.0020     2.3990   138.9310    13.2770   -30.8440   -42.5800     6.3610     6.1610     5.5560
  201.0000     0.1780    69.3360     0.0070     2.3990   140.6800    13.2820   -29.9170   -41.6670     6.5830     6.3370     5.8990
  201.5000     0.1720    70.9330     0.0200     2.4030   141.4580    13.2860   -30.0120   -40.7540     6.5660     6.5120     6.4070
  202.0000     0.1550    71.4380     0.0390     2.4080   142.2170    13.2910   -30.0990   -39.8410     6.5460     6.6590     6.8250
  202.5000     0.1630    71.9430     0.0580     2.4140   142.6080    13.2950   -30.5070   -38.9280     6.5260     6.7850     7.0200
  203.0000     0.1740    72.4470     0.0620     2.4200   142.1180    13.2990   -32.7220   -38.0150     6.5050     6.8360     7.0980
  203.5000     0.1800    72.9520     0.0500     2.4170   140.8490    13.3040   -33.6690   -37.1020     6.4850     6.8160     6.9400
  204.0000     0.1800    73.4570     0.0330     2.4060   139.4330    13.3100   -32.6760   -36.1890     6.4600     6.7910     6.8360
  204.5000     0.1750    73.9610     0.0230     2.4010   138.0110    13.3150   -31.8740   -35.2760     6.4190     6.7670     6.5920
  205.0000     0.1720    74.4660     0.0140     2.4010   136.5850    13.3260   -31.2060   -34.3630     6.3680     6.7420     6.3890
  205.5000     0.1700    74.9710     0.0050     2.4000   135.1280    13.3440   -31.1760   -33.4500     6.3170     6.7180     6.1860
  206.0000     0.1640    75.4750    -0.0020     2.3950   135.0110    13.3350   -31.1770   -32.5370     6.2660     6.5890     5.8790
  206.5000     0.1490    75.9800    -0.0060     2.3900   136.8900    13.2540   -31.1760   -31.6240     6.2150     6.3890     5.8790
  207.0000     0.1460    76.4850    -0.0030     2.3870   139.0770    13.1760   -31.1820   -30.7110     6.1640     6.1900     5.8790
  207.5000     0.1470    76.9890    -0.0060     2.3900   138.1840    13.1720   -31.1980   -29.7980     6.1130     5.9910     5.7900
  208.0000     0.1600    77.4940    -0.0090     2.3920   136.9050    13.1720   -31.5660   -28.8850     6.0630     5.8420     5.5650
  208.5000     0.1700    77.9990    -0.0110     2.3880   136.8960    13.1730   -31.9720   -27.9730     6.0120     5.6920     5.3410
  209.0000     0.1680    78.5030    -0.0110     2.3860   139.0920    13.1720   -32.3860   -27.0600     5.9790     5.5420     5.2510
  209.5000     0.1650    79.0080    -0.0090     2.3910   141.4250    13.1720   -32.7970   -26.1470     5.9590     5.4530     5.3160
  210.0000     0.1670    79.5130    -0.0060     2.4000   140.9620    13.1720   -33.2070   -25.2340     5.9390     5.3970     5.4780
  210.5000     0.1710    80.0170    -0.0030     2.4050   136.8820    13.1720   -33.6100   -24.3210     5.9190     5.3410     5.6400
  211.0000     0.1720    80.5220    -0.0020     2.4020   132.7240    13.1720   -34.0580   -23.4080     5.8990     5.2850     5.7700
  211.5000     0.1700    81.0260    -0.0020     2.3970   130.5850    13.1720   -34.3390   -22.4950     5.8790     5.2350     5.7700
  212.0000     0.1660    81.5310    -0.0010     2.3920   129.1840    13.1720   -34.2940   -21.5820     5.8190     5.1940     5.4730
  212.5000     0.1630    82.0360    -0.0010     2.3860   130.1470    13.1720   -34.3210   -20.6690     5.7590     5.1530     5.1760
  213.0000     0.1590    82.5400     0.0000     2.3840   132.0540    13.1720   -34.3090   -19.7560     5.6980     5.1530     5.0570
  213.5000     0.1570    83.0450     0.0000     2.3900   132.2290    13.1720   -34.2290   -18.8430     5.6270     5.1530     5.0570
  214.0000     0.1590    83.5500     0.0010     2.3970   132.6790    13.1720   -32.9490   -17.9300     5.5400     5.1530     5.0570
  214.5000     0.1650    84.0540     0.0010     2.4040   134.8700    13.1720   -31.3190   -17.0170     5.4530     5.1530     5.1350
  215.0000     0.1700    84.5590     0.0010     2.4020   136.9700    13.1720   -31.1760   -16.1040     5.3850     5.1530     5.2510
  215.5000     0.1700    85.0640     0.0010     2.4000   136.6410    13.1720   -31.1100   -15.1910     5.3170     5.1540     5.1700
  216.0000     0.1670    85.5680     0.0010     2.3990   135.8580    13.1720   -30.4430   -14.8260     5.2480     5.1540     4.9670
  216.5000     0.1640    86.0730     0.0020     2.4050   135.4490    13.1720   -29.7100   -14.8260     5.1530     5.1550     4.7650
  217.0000     0.1580    86.5780     0.0030     2.4130   136.0390    13.1720   -28.9640   -14.8260     5.2290     5.1970     4.6020
  217.5000     0.1490    87.0820     0.0070     2.4210   135.7800    13.1720   -28.2750   -14.8260     5.3550     5.2400     4.5510
  218.0000     0.1530    87.5870     0.0090     2.4240   135.0670    13.1720   -27.4480   -14.8260     5.4810     5.2570     4.5170
  218.5000     0.1610    88.0920     0.0060     2.4130   136.5470    13.1720   -27.8540   -14.8260     5.5720     5.3990     4.7710
  219.0000     0.1690    88.5960    -0.0010     2.4010   138.0980    13.1720   -29.0940   -14.8260     5.6100     5.5220     5.1530
  219.5000     0.1680    89.1010    -0.0030     2.3930   137.8170    13.1720   -30.1240   -14.8260     5.6480     5.6460     5.5090
  220.0000     0.1670    89.6060     0.0010     2.4040   134.1440    13.1720   -31.0410   -14.8260     5.6860     5.7690     5.9540
  220.5000     0.1700    90.1100     0.0080     2.4230   131.1110    13.1720   -30.1680   -14.8260     5.7240     5.8930     6.3430
  221.0000     0.1740    90.6150     0.0140     2.4430   129.5130    13.1720   -29.1540   -14.8260     5.7700     5.9910     6.7080
  221.5000     0.1740    91.1410     0.0140     2.4540   130.4680    13.1720   -29.1060   -14.8260     5.8330     6.2520     6.7080
  222.0000     0.1620    91.8130     0.0110     2.4480   132.9800    13.1720   -29.8100   -14.8260     5.9120     6.3390     6.5840
  222.5000     0.1580    92.5150     0.0080     2.4420   135.4720    13.1720   -29.9920   -14.8260     5.9910     6.2410     6.3770
