~VERSION INFORMATION
 VERS.                2.0:   CWLS LOG ASCII STANDARD - VERSION 2.0
 WRAP.                 NO:   ONE LINE PER DEPTH STEP
~WELL INFORMATION
#MNEM.UNIT      DATA TYPE    INFORMATION
#----------   ------------   ------------------------------
 STRT.F           80.0000:   START DEPTH
 STOP.F         2730.0000:   STOP DEPTH
 STEP.F            0.5000:   STEP LENGTH
 NULL.          -999.2500:   NO VALUE
 COMP.          U.S. NAVY:   COMPANY
 WELL. US NPR 3 "AX" #57-20:   WELL
 FLD .             TEAPOT:   FIELD
 LOC .      S20 T39N R78W:   LOCATION
 CNTY.            NATRONA:   COUNTY
 STAT.            WYOMING:   STATE
 CTRY. UNITED STATES OF AMERICA:   COUNTRY
 SRVC.       SCHLUMBERGER:   SERVICE COMPANY
 DATE.        31-JUL-1964:   LOGDATE
 API .     49025066320000:   API NUMBER
~CURVE INFORMATION
#MNEM.UNIT       API CODE    CURVE DESCRIPTION
#----------   ------------   ------------------------------
 DEPT.F                  :   
 SPR .MV     01 010 01 00:   SPONTANEOUS POTENTIAL FROM RES.
 LN  .OHMM   01 060 39 00:   LONG NORMAL 39"
 ASN .OHMM   01 041 16 00:   AMPLIFIED SHORT NORMAL 16"
 LAT .OHMM   01 070 00 00:   LATERAL
 GRN .GAPI   35 310 30 00:   GAMMA RAY
 NEUT.NAPI   35 330 01 00:   NEUTRON
~PARAMETER INFORMATION
#MNEM.UNIT          VALUE    DESCRIPTION
#----------   ------------   ------------------------------
 EKB .F         5019.0000:   Kelly bushing
 EGL .F         5011.0000:   Ground level
 TD  .F         2696.0000:   Total depth
 DATE.        31-JUL-1964:   Date logged
 CLNT.            A2DTECH:   Client Code
 PD  .                 GL:   Permanent Datum
 EPD .F              5011:   Elevation Permanent Datum
 LMF .                 KB:   Log Measured From
 DMF .                 KB:   Drilling Measured From
 DAPD.F                 8:   Feet Above Permanent Datum
 DD  .F              2690:   Depth driller
 DL  .F              2696:   Depth logger
 BLI .F              2695:   Bottom log interval
 TLI .F                82:   Top log interval
 CS1 .IN            12.25:   Casing size
 CBD1.       12.25" @ 15':   Casing driller 1
 BS1 .IN               11:   Bit size
 BSD1.F              2690:   Depth drilled with bit1
 DFT .                GEL:   Type fluid in hole
 MSS .           FLOWLINE:   Source of sample
 RMS .OHMM           2.48:   Rm
 MST .F                83:   Rm Meas. temp.
 RMF .OHMM           1.87:   Rmf
 MFST.F                83:   Rmf Meas. temp.
 MFSS.                 FP:   Source Rmf.
 MCSS.                 FP:   Source Rmc.
 TCS .HRS               4:   Time Circ. stopped
 LUN .               3527:   Logging unit number
 LUL .               CSPR:   Logging unit location
 ENGI.            WINKLER:   Recorded By
 WITN.          GORGENSEN:   Witnessed by
 ORIG.         2.5" PRINT:   Origin of data
 UWI .     49025066320000:   Unique Well ID
 DICO.   A2D TECHNOLOGIES:   Digitizing Company
~OTHER INFORMATION
~A   DEPT      SPR         LN        ASN        LAT        GRN       NEUT   
# ...
 2316.0000   -35.3570     9.2470     6.6980     5.2690    82.6970   512.8330
 2316.5000   -35.5240     9.6970     6.9150     5.1950    79.6050   524.6180
 2317.0000   -35.6770    10.1580     7.3670     5.1500    74.2980   538.9150
 2317.5000   -35.9670    10.6190     8.3290     5.0420    69.0800   552.9100
 2318.0000   -36.5660    11.0710     9.3090     5.3400    63.7230   567.0140
 2318.5000   -38.7280    11.6720    15.1180     5.8540    58.5450   580.8990
 2319.0000   -41.7250    12.6580    16.0890     6.2990    53.1110   583.3640
 2319.5000   -44.5990    13.2260    19.4460     6.7620    50.2140   574.4810
 2320.0000   -46.7340    15.4200    22.6030     7.2220    49.2510   565.8310
 2320.5000   -47.8410    18.6640    25.2500     7.6850    49.0520   563.7210
 2321.0000   -49.1440    22.8990    27.6240     8.0870    49.0110   568.5260
 2321.5000   -49.8650    26.1940    28.9280     8.3270    48.9670   579.8030
 2322.0000   -50.2540    29.4970    30.4390     8.5810    48.8970   595.0260
 2322.5000   -50.6780    32.6470    31.9500     8.8360    48.8520   608.3700
 2323.0000   -51.0740    36.0850    33.4610     9.3310    48.7970   624.7260
 2323.5000   -51.5290    38.7250    34.9720     9.8130    48.9160   643.7200
 2324.0000   -51.8620    40.4290    37.2980    10.3810    49.0790   662.6400
 2324.5000   -52.2250    42.2860    40.0990    11.2410    49.1120   681.9260
 2325.0000   -52.6010    43.0240    42.2770    12.3170    48.9670   700.2960
 2325.5000   -52.7700    42.3600    52.4750    13.3950    48.6820   721.3360
 2326.0000   -52.9050    41.9320    54.4550    14.8910    48.4320   730.3740
 2326.5000   -53.0550    40.9250    60.3960    16.4330    48.2440   722.4910
 2327.0000   -53.1190    40.0620    59.2710    17.9540    48.8840   712.4990
 2327.5000   -52.7760    39.1410    57.3070    19.5190    49.6720   686.9700
 2328.0000   -52.4370    38.3060    52.5640    21.0170    50.5690   658.7130
 2328.5000   -52.0540    36.8230    46.1470    22.5610    53.2960   634.4140
 2329.0000   -51.7560    35.4820    40.7450    22.4790    55.8670   617.6440
 2329.5000   -51.0520    34.1230    35.9200    22.0510    58.5560   609.2030
 2330.0000   -50.0220    32.6470    32.2640    21.1330    61.1380   608.5790
 2330.5000   -49.0710    30.9910    28.6080    20.1410    63.7800   605.5110
 2331.0000   -48.0240    29.4040    24.9520    19.1250    66.4940   611.7930
 2331.5000   -46.6630    27.7690    23.1230    18.1310    68.2900   626.2750
 2332.0000   -45.1670    26.1810    22.0710    17.1260    67.8440   642.1530
 2332.5000   -43.7310    24.4620    20.8910    16.1150    66.2840   657.6990
 2333.0000   -42.2950    23.2600    20.5790    15.1390    64.3350   667.3680
 2333.5000   -42.4170    21.9750    20.2250    14.0550    63.8170   675.9670
 2334.0000   -42.6970    20.8240    19.8700    13.5810    63.4860   675.1540
 2334.5000   -42.9390    20.1290    19.5150    13.7860    63.6130   667.1070
 2335.0000   -42.8940    19.4910    19.1660    13.8910    64.3960   662.4680
 2335.5000   -42.2170    18.9690    18.8020    14.0390    65.1380   658.1770
 2336.0000   -41.4040    18.7330    18.4670    14.1290    65.9330   647.1140
 2336.5000   -40.6130    18.5010    18.0830    13.8600    66.7280   633.1940
 2337.0000   -39.7950    18.2700    17.6440    13.6120    68.1800   630.5710
 2337.5000   -39.1900    18.0460    17.3150    13.9430    69.6380   611.0580
 2338.0000   -38.8100    17.8080    17.0740    14.5580    71.1120   598.7290
 2338.5000   -38.3920    17.5970    16.8650    15.3400    72.5110   590.5490
 2339.0000   -37.9920    17.2460    16.6530    16.1030    72.5130   590.6090
 2339.5000   -37.5890    17.2010    16.4450    16.7260    71.3510   591.6220
 2340.0000   -37.3690    17.1590    16.2340    16.9010    70.2760   594.3980
 2340.5000   -37.2500    17.1330    16.0520    17.0550    69.1820   599.3430
 2341.0000   -37.1220    17.0960    15.8830    17.2000    68.0610   593.0280
 2341.5000   -37.0260    17.0640    15.7240    17.3260    67.3520   582.6870
 2342.0000   -36.9660    17.0240    15.5660    17.3220    67.4880   577.9180
 2342.5000   -36.8990    16.8760    15.6640    17.3480    67.9270   573.7450
 2343.0000   -36.8330    16.7200    15.7910    17.2910    69.2380   576.3590
 2343.5000   -36.7720    16.5010    15.9220    17.7850    70.4600   582.3760
 2344.0000   -36.6960    16.2300    16.0470    18.9020    71.8310   593.1100
 2344.5000   -36.7070    15.9630    16.1770    20.1080    72.2010   614.1620
 2345.0000   -36.8190    15.6940    16.3040    21.4720    71.8180   637.4200
 2345.5000   -36.9170    15.4670    16.4320    22.8170    71.5530   636.1480
 2346.0000   -37.0220    15.5140    16.5590    24.1670    71.2500   622.2080
 2346.5000   -37.1220    15.5740    16.6860    25.4950    70.9270   616.7540
 2347.0000   -37.2280    15.6520    16.7670    26.9330    70.7450   613.5570
 2347.5000   -37.3260    15.9070    16.8230    27.5900    71.1180   614.9020
 2348.0000   -37.4380    16.2290    16.8770    26.3770    71.5300   616.0450
 2348.5000   -37.4120    16.5420    16.9280    25.2800    71.9450   624.3730
 2349.0000   -37.3630    16.8560    16.9300    24.0940    72.3560   631.3890
 2349.5000   -37.3130    17.1780    16.9340    22.9570    72.7890   630.5410
 2350.0000   -37.2650    17.4170    16.9250    21.8010    72.8450   629.7650
 2350.5000   -37.2170    17.4190    17.0010    20.6350    71.8230   628.6230
 2351.0000   -37.1670    17.3840    17.1980    19.6930    70.7190   627.9310
 2351.5000   -37.1210    17.3330    17.3800    19.5190    69.5900   626.5870
 2352.0000   -37.0740    17.2980    17.5730    19.7980    68.3370   628.0950
 2352.5000   -37.1500    17.2350    17.7620    20.0610    67.6140   631.2470
 2353.0000   -37.2750    17.3420    17.9000    19.8620    66.6630   633.0810
 2353.5000   -37.3960    17.5930    17.7660    19.3310    65.2070   627.8380
 2354.0000   -37.5170    17.8170    17.6410    18.8460    64.4790   626.7330
 2354.5000   -37.6380    18.0470    17.5060    18.3510    65.6430   613.9540
 2355.0000   -37.7600    18.2830    17.3770    17.8640    66.7760   603.4440
 2355.5000   -37.8800    18.5020    17.2460    17.3700    67.9930   600.2200
 2356.0000   -38.0040    18.7520    17.1330    16.8840    69.1340   595.0960
 2356.5000   -38.1250    18.7030    17.1560    16.3920    70.3490   597.8310
 2357.0000   -38.2220    18.4860    17.2000    15.9290    70.6720   608.0760
 2357.5000   -38.1400    18.3260    17.2400    15.7540    70.4450   616.8490
 2358.0000   -38.0480    17.9910    17.2850    16.2310    71.1170   631.7640
 2358.5000   -37.9730    17.5530    17.3110    16.7720    71.1790   645.3310
 2359.0000   -37.8500    17.3230    17.4610    17.3290    70.2960   659.5600
 2359.5000   -38.0770    17.0550    17.7850    17.8640    68.9070   671.4510
 2360.0000   -38.5160    17.0320    18.0960    18.4260    68.3220   678.7500
 2360.5000   -38.9230    17.0310    18.4000    18.9580    68.2060   685.1930
 2361.0000   -39.3110    17.0460    18.6960    19.4760    69.5390   680.5450
 2361.5000   -39.7490    17.2230    18.5440    19.3640    70.9470   671.2520
 2362.0000   -39.4910    17.5620    18.2200    19.0540    72.6920   659.5780
 2362.5000   -39.0980    17.9860    17.9260    18.3990    74.2670   648.1970
 2363.0000   -38.7050    18.3960    17.6270    17.7890    75.2820   650.3740
 2363.5000   -38.3190    18.8140    17.3250    17.1490    75.9510   653.2050
 2364.0000   -37.9340    19.2240    17.0320    16.5220    76.6580   667.5710
 2364.5000   -37.5500    19.5420    16.7110    15.8950    76.6000   688.0390
 2365.0000   -37.4470    19.6090    16.5090    15.2590    76.3800   694.9830
 2365.5000   -37.4590    19.5980    16.6780    14.6330    75.1160   702.4160
 2366.0000   -37.4500    19.6690    16.9580    14.0120    73.0590   705.3800
 2366.5000   -37.4690    19.8790    17.2190    14.0030    71.1050   705.3140
 2367.0000   -37.4220    20.0630    17.4930    14.4080    69.1650   694.2350
 2367.5000   -37.8100    20.1300    17.7400    14.8050    67.1930   683.8100
