~VERSION INFORMATION
 VERS.                2.0:   CWLS LOG ASCII STANDARD - VERSION 2.0
 WRAP.                 NO:   ONE LINE PER DEPTH STEP
~WELL INFORMATION
#MNEM.UNIT      DATA TYPE    INFORMATION
#----------   ------------   ------------------------------
 STRT.F            3.5000:   START DEPTH
 STOP.F         5648.0000:   STOP DEPTH
 STEP.F            0.5000:   STEP LENGTH
 NULL.          -999.2500:   NO VALUE
 COMP.       FLUOR DANIEL:   COMPANY
 WELL.   FLUOR "X" #46-10:   WELL
 FLD .          N.P.R. #3:   FIELD
 LOC .      S10 T38N R78W:   LOCATION
 CNTY.            NATRONA:   COUNTY
 STAT.            WYOMING:   STATE
 CTRY. UNITED STATES OF AMERICA:   COUNTRY
 SRVC.      WESTERN ATLAS:   SERVICE COMPANY
 DATE.        25-MAR-1996:   LOGDATE
 API .     49025227700000:   API NUMBER
~CURVE INFORMATION
#MNEM.UNIT       API CODE    CURVE DESCRIPTION
#----------   ------------   ------------------------------
 DEPT.F                  :   
 CALD.IN     45 280 60 00:   CALIPER FROM DENSITY LOG
 ZDEN.G/C3   45 350 01 00:   BULK DENSITY
 ZCOR.G/C3   45 356 01 00:   DENSITY CORRECTION
 TEND.LBS    45 635 01 00:   TENSION FORM DENSITY LOG
 GRD .GAPI   45 310 01 00:   GAMMA RAY FROM DENSITY LOG
 CNC .DEC    42 890 01 00:   NEUTRON POROSITY LIMESTONE
 SPR .MV     07 010 01 00:   SPONTANEOUS POTENTIAL
 RD  .OHMM   07 220 10 00:   RESISTIVITY DEEP
 RS  .OHMM   07 220 09 00:   RESISTIVITY SHALLOW
~PARAMETER INFORMATION
#MNEM.UNIT          VALUE    DESCRIPTION
#----------   ------------   ------------------------------
 EKB .F         5216.0000:   Kelly bushing
 EGL .F         5206.0000:   Ground level
 EDF .F         5215.0000:   Drilling floor
 TD  .F         5650.0000:   Total depth
 CLNT.            A2DTECH:   Client Code
 SL  . 1493' FSL & 2330' FWL:   Surface Location
 PD  .                 GL:   Permanent Datum
 EPD .F              5206:   Elevation Permanent Datum
 LMF .                 KB:   Log Measured From
 DMF .                 KB:   Drilling Measured From
 DAPD.F                10:   Feet Above Permanent Datum
 DATE.        25-MAR-1996:   Date Logged [DD-MMM-YYYY]
 DD  .F              5650:   Depth driller
 DL  .F              5648:   Depth logger
 BLI .F              5636:   Bottom log interval
 TLI .F                 0:   Top log interval
 CS1 .IN            9.625:   Casing size
 CBD1.      9.625" @ 498':   Casing driller 1
 CBL1.F               496:   Casing logger 1
 BS1 .IN             8.75:   Bit size
 BSD1.F              5650:   Depth drilled with bit1
 DFT .           CHEM GEL:   Type fluid in hole
 DFD .                9.6:   Density
 DFV .                 54:   Viscosity
 DFPH.                9.5:   pH
 DFL .                8.4:   Fluid loss
 MSS .           FLOWLINE:   Source of sample
 RMS .OHMM          0.635:   Rm
 MST .F                68:   Rm Meas. temp.
 RMF .OHMM          0.483:   Rmf
 MFST.F                68:   Rmf Meas. temp.
 MFSS.               MEAS:   Source Rmf.
 RMC .OHMM          0.789:   Rmc
 MCST.F                68:   Rmc Meas. temp.
 MCSS.               MEAS:   Source Rmc.
 RMB .OHMM           0.26:   Rm. at BHT
 BHT .F               166:   BHT.
 TCS .HRS               6:   Time Circ. stopped
 MRT .F               166:   Maximum recorded temp.
 LUN .            HL-6530:   Logging unit number
 LUL .             CASPER:   Logging unit location
 ENGI.        VERN RAUTIO:   Recorded By
 WITN. LORRAINE LAFRENIERE:   Witnessed by
 ORIG.           5" PRINT:   Origin of data
 UWI .     49025227700000:   Unique Well ID
 DICO. A2D TECHNOLOGIES, INC.:   Digitizing Company
~OTHER INFORMATION
~A  DEPTH     CALD       ZDEN       ZCOR       TEND        GRD        CNC        SPR         RD         RS
# ...
 1828.5000     9.6252     2.4613     0.0292   -25.8461   140.2824     0.3230   -82.7841    14.0877    11.5270
 1829.0000     9.6257     2.4546     0.0324   -26.2858   148.9981     0.3197   -82.6305    14.1837    11.2114
 1829.5000     9.6110     2.4508     0.0533   -15.4358   152.6074     0.3141   -82.4761    14.2799    11.3670
 1830.0000     9.6114     2.4599     0.0669   -11.0714   154.4148     0.3074   -82.6242    14.2781    11.8483
 1830.5000     9.6119     2.4764     0.0714    -5.9015   152.9152     0.3098   -82.6213    14.2762    12.0963
 1831.0000     9.5973     2.4928     0.0654    -6.1605   147.5205     0.3206   -82.6178    14.1755    11.9291
 1831.5000     9.5978     2.5065     0.0519   -16.0353   131.3099     0.3258   -82.6150    13.9789    11.3637
 1832.0000     9.5831     2.5072     0.0444   -25.8964   115.6999     0.3270   -82.6122    13.5955    10.9005
 1832.5000     9.5685     2.5058     0.0445   -25.8964   114.5044     0.3215   -82.2977    13.1311    10.6020
 1833.0000     9.5389     2.5088     0.0535   -25.8964   116.6135     0.3146   -81.7009    12.8596    10.3027
 1833.5000     9.5242     2.5210     0.0671   -35.8566   116.9180     0.3059   -81.0948    12.7693    10.1691
 1834.0000     9.5076     2.5629     0.0673   -29.0837   114.2223     0.2954   -80.7903    13.1256    10.0984
 1834.5000     9.4950     2.5689     0.0458    -5.9761   107.9231     0.2731   -80.7868    14.2602    11.0664
 1835.0000     9.4955     2.5569     0.0401    -5.9761    99.8206     0.2656   -81.0863    15.3861    12.0053
 1835.5000     9.4959     2.5208     0.0386   -15.9363    96.5229     0.2673   -81.0828    15.5985    12.3419
 1836.0000     9.4964     2.5118     0.0326    -5.9761    98.0504     0.2972   -81.2488    14.7561    12.1711
 1836.5000     9.4968     2.5095     0.0282   -15.9363   113.0520     0.3089   -81.6798    13.9596    11.0456
 1837.0000     9.4974     2.5051     0.0237   -15.9363   119.0637     0.3282   -81.6770    13.0152    10.3059
 1837.5000     9.4977     2.5028     0.0222   -15.9363   121.1714     0.3387   -81.5234    11.8201     9.7499
 1838.0000     9.4982     2.5066     0.0298   -15.9363   123.3432     0.3470   -80.7657    11.6565     9.6150
 1838.5000     9.4836     2.5088     0.0358    -5.9761   127.4904     0.3514   -80.3104    11.8171     9.6144
 1839.0000     9.4840     2.5081     0.0328     3.9841   128.6972     0.3538   -80.1568    11.6528     9.5474
 1839.5000     9.4737     2.5081     0.0329    -5.9761   129.0031     0.3568   -80.1533    11.1774     9.3504
 1840.0000     9.4698     2.5096     0.0390    -6.6875   128.7084     0.3598   -80.4521    10.8709     9.0943
 1840.5000     9.4704     2.5156     0.0419   -14.0154   127.8131     0.3607   -80.4493    10.3552     8.6634
 1841.0000     9.4708     2.5239     0.0405   -21.3432   126.6190     0.3556   -80.6053    10.2825     8.5980
 1841.5000     9.4562     2.5292     0.0405   -35.8566   125.7237     0.3520   -80.7453    10.2811     8.6025
 1842.0000     9.4416     2.5291     0.0405   -25.8964   126.0296     0.3493   -80.8934    10.4366     8.9668
 1842.5000     9.4120     2.5255     0.0406   -27.3904   122.4330     0.3478   -81.0407    10.7139     9.2181
 1843.0000     9.3972     2.5217     0.0391   -25.8964   115.8321     0.3472   -81.6405    10.9372     9.1537
 1843.5000     9.3826     2.5210     0.0376   -35.8566   113.4013     0.3481   -82.2410    11.1652     9.0899
 1844.0000     9.3680     2.5210     0.0346   -45.8167   113.7426     0.3514   -82.5398    11.1634     8.9643
 1844.5000     9.3535     2.5195     0.0316   -45.8167   120.3548     0.3547   -82.5047    11.0850     8.8403
 1845.0000     9.3540     2.5180     0.0302   -35.8566   123.6638     0.3568   -81.3269    11.0072     8.7182
 1845.5000     9.3393     2.5150     0.0332   -15.9363   124.5717     0.3574   -80.4191    10.8541     8.5384
 1846.0000     9.3398     2.5120     0.0363   -15.9363   124.5773     0.3574   -80.1146    10.7036     8.3621
 1846.5000     9.3402     2.5127     0.0348   -13.1972   124.5829     0.3571   -79.9603    10.5551     8.3616
 1847.0000     9.3256     2.5157     0.0363   -25.8964   124.5886     0.3556   -79.8066    10.2653     8.3611
 1847.5000     9.3110     2.5158     0.0409   -35.6453   124.2953     0.3535   -79.8038    10.1932     8.3605
 1848.0000     9.2813     2.5128     0.0454   -51.4198   123.7003     0.3541   -79.4987    10.1216     8.3599
 1848.5000     9.2668     2.5082     0.0437   -25.2040   121.9041     0.3493   -79.1942    10.2727     8.3593
 1849.0000     9.2672     2.5083     0.0394   -26.3944   120.7085     0.3447   -79.0405    10.5480     8.4781
 1849.5000     9.2525     2.5075     0.0350   -35.5140   122.5174     0.3445   -78.8869    10.6936     8.7127
 1850.0000     9.2530     2.5053     0.0290   -40.4592   124.0245     0.3484   -78.8834    10.5449     8.8338
 1850.5000     9.2536     2.5000     0.0305   -45.8167   123.4295     0.3460   -78.8806    10.3266     8.5903
 1851.0000     9.2540     2.4948     0.0351   -45.8167   118.5441     0.3460   -78.8778     9.8371     8.1257
 1851.5000     9.2544     2.4895     0.0381   -35.8566   112.9034     0.3496   -78.8743     9.4644     7.6863
 1852.0000     9.2549     2.4872     0.0396   -35.8566   111.6994     0.3544   -78.5698     9.2352     7.3208
 1852.5000     9.2557     2.4933     0.0381   -45.8167   111.6966     0.3581   -78.5670     9.3621     7.4731
 1853.0000     9.2566     2.4955     0.0276   -45.8167   112.9749     0.3542   -78.5641    10.0399     7.8427
 1853.5000     9.2574     2.4918     0.0141   -45.8167   116.1948     0.3475   -79.0131    10.6707     8.3462
 1854.0000     9.2582     2.4918     0.0096   -31.1952   117.6935     0.3433   -79.1619    10.9674     8.8192
 1854.5000     9.2591     2.4925     0.0157   -25.8964   117.6809     0.3448   -79.7617    10.8890     8.8787
 1855.0000     9.2599     2.4896     0.0278   -25.8964   118.2878     0.3436   -80.0605    10.5883     8.3982
 1855.5000     9.2607     2.4874     0.0323   -35.8566   119.4869     0.3412   -80.2085    10.3681     8.1104
 1856.0000     9.2616     2.4859     0.0354   -35.8566   120.0841     0.3442   -80.0542    10.1524     7.9973
 1856.5000     9.2624     2.4844     0.0248   -35.8566   118.8793     0.3458   -79.5982    10.0798     8.1636
 1857.0000     9.2632     2.4829     0.0098   -35.8566   117.3751     0.3452   -79.1429    10.4313     8.4504
 1857.5000     9.2641     2.4844     0.0129   -45.8167   116.7717     0.3449   -78.9893    10.7213     8.8059
 1858.0000     9.2649     2.4935     0.0174   -53.0544   116.7688     0.3485   -79.1373    10.9434     9.0515
 1858.5000     9.2657     2.4965     0.0189   -55.7769   118.2669     0.3503   -79.4354    11.0165     8.8025
 1859.0000     9.2666     2.5003     0.0175   -55.7769   120.6665     0.3497   -79.7350    10.8616     8.2686
 1859.5000     9.2673     2.5033     0.0160   -53.4487   122.7758     0.3485   -79.7315    10.5623     8.0970
 1860.0000     9.2682     2.5056     0.0160   -46.9373   120.6602     0.3476   -79.7279    10.2713     7.9841
 1860.5000     9.2689     2.5063     0.0161   -40.4258   116.1529     0.3467   -79.7251    10.0571     7.9826
 1861.0000     9.2696     2.5048     0.0161   -45.8167   114.6486     0.3482   -79.7223    10.4084     8.2048
 1861.5000     9.2703     2.5026     0.0161   -35.8566   114.9454     0.3521   -79.7195    10.5508     8.3180
 1862.0000     9.2712     2.5011     0.0161   -45.8167   116.7451     0.3508   -79.5652    10.2594     8.2016
 1862.5000     9.2719     2.5011     0.0162   -45.8167   119.1440     0.3488   -79.7132    10.1158     8.0310
 1863.0000     9.2726     2.5011     0.0177   -55.7769   119.1411     0.3491   -79.7104     9.9742     7.9741
 1863.5000     9.2733     2.5004     0.0193   -55.7769   117.6362     0.3509   -80.1594     9.9710     7.9179
 1864.0000     9.2742     2.4997     0.0193   -38.9774   116.4322     0.3545   -80.0057     9.9684     7.9710
 1864.5000     9.2599     2.4965     0.0178   -45.8167   115.8187     0.3566   -79.2488    10.0350     7.9690
