~VERSION INFORMATION
 VERS.                2.0:   CWLS LOG ASCII STANDARD - VERSION 2.0
 WRAP.                 NO:   ONE LINE PER DEPTH STEP
~WELL INFORMATION
#MNEM.UNIT      DATA TYPE    INFORMATION
#----------   ------------   ------------------------------
 STRT.F          742.0000:   START DEPTH
 STOP.F         3406.0000:   STOP DEPTH
 STEP.F            0.5000:   STEP LENGTH
 NULL.          -999.2500:   NO VALUE
 COMP. FENIX & SCISSON - US NAVY:   COMPANY
 WELL.   FENIX "AX" #85-4:   WELL
 FLD .      NPR - WILDCAT:   FIELD
 LOC .       S4 T38N R78W:   LOCATION
 CNTY.            NATRONA:   COUNTY
 STAT.            WYOMING:   STATE
 CTRY. UNITED STATES OF AMERICA:   COUNTRY
 SRVC.              WELEX:   SERVICE COMPANY
 DATE.        03-MAY-1977:   LOGDATE
 API .     49025103520000:   API NUMBER
~CURVE INFORMATION
#MNEM.UNIT       API CODE    CURVE DESCRIPTION
#----------   ------------   ------------------------------
 DEPT.F                  :   
 SNP .DEC    41 890 00 00:   SIDEWALL NEUTRON POROSITY
 GR  .GAPI   30 310 01 00:   GAMMA RAY
 SPR .MV     07 010 01 00:   SPONTANEOUS POTENTIAL
 RXO .OHMM   11 220 01 00:   FLUSHED ZONE RESISTIVITY
 GURD.OHMM   07 220 05 00:   GUARD LOG RESISTIVITY
 CALD.IN     45 280 60 00:   CALIPER FROM DENSITY LOG
 RHOB.G/C3   45 350 01 00:   BULK DENSITY
 GRD .GAPI   45 310 01 00:   GAMMA RAY FROM DENSITY LOG
 CORR.G/C3   45 356 01 00:   DENSITY CORRECTION
~PARAMETER INFORMATION
#MNEM.UNIT          VALUE    DESCRIPTION
#----------   ------------   ------------------------------
 EKB .F         5254.0000:   Kelly bushing
 EGL .F         5240.0000:   Ground level
 EDF .F            0.0000:   Drilling floor
 TD  .F         3467.0000:   Total depth
 DATE.        03-MAY-1977:   Date logged
 CLNT.            A2DTECH:   Client Code
 SL  . 2200' FSL & 100' FEL:   Surface Location
 PD  .                 GL:   Permanent Datum
 EPD .F              5240:   Elevation Permanent Datum
 LMF .                 KB:   Log Measured From
 DMF .                 KB:   Drilling Measured From
 DAPD.F                14:   Feet Above Permanent Datum
 DD  .F              3647:   Depth driller
 DL  .F              3404:   Depth logger
 BLI .F              3402:   Bottom log interval
 TLI .F               720:   Top log interval
 CS1 .IN            8.625:   Casing size
 CBD1.      8.625" @ 720':   Casing driller 1
 CBL1.F               760:   Casing logger 1
 BS1 .IN            7.875:   Bit size
 BSD1.F              3467:   Depth drilled with bit1
 DFT .            KCL/MUD:   Type fluid in hole
 DFD .                9.1:   Density
 DFV .                 36:   Viscosity
 DFPH.                  8:   pH
 DFL .                  5:   Fluid loss
 MSS .           FLOWLINE:   Source of sample
 RMS .OHMM            .30:   Rm
 MST .F                66:   Rm Meas. temp.
 RMF .OHMM            .21:   Rmf
 MFST.F                66:   Rmf Meas. temp.
 RMC .OHMM            .49:   Rmc
 MCST.F                66:   Rmc Meas. temp.
 MFSS.               FANN:   Source Rmf.
 MCSS.                KIT:   Source Rmc.
 RMB .OHMM            .18:   Rm. at BHT
 BHT .F               107:   BHT.
 TCS .HRS             2.5:   Time Circ. stopped
 MRT .F               107:   Maximum recorded temp.
 LUN .               8611:   Logging unit number
 LUL .             CASPER:   Logging unit location
 ENGI.            C. DOAK:   Recorded By
 WITN.      B. HARRINGTON:   Witnessed by
 ORIG.     2.5", 5" PRINT:   Origin of data
 UWI .     49025103520000:   Unique Well ID
 DICO. A2D TECHNOLOGIES, INC.:   Digitizing Company
~OTHER INFORMATION
~A   DEPT        SNP       GR        SPR        RXO       GURD         CALD       RHOB       GRD       CORR  
# ...
 3370.0000     0.1010  -999.2500   -29.1380   164.5190    14.9800     8.0610     2.4720    99.0050     0.0670
 3370.5000     0.1270  -999.2500   -24.9100    94.0140    18.5980     8.0590     2.4910    86.6240     0.0690
 3371.0000     0.1460  -999.2500   -18.7720     8.7070     8.5280     8.0570     2.4930    86.7640     0.0700
 3371.5000     0.1650  -999.2500   -12.6050     7.8490     7.1330     8.0560     2.4800    88.8900     0.0710
 3372.0000     0.1850  -999.2500    -6.8510     6.9920     5.9540     8.0540     2.4870    95.0830     0.0730
 3372.5000     0.1960  -999.2500    -0.2980     6.1340     4.8650     8.0520     2.4800   100.4720     0.0670
 3373.0000     0.1980  -999.2500     0.0000     5.4070     3.6260     8.0500     2.4730   106.0810     0.0580
 3373.5000     0.1890  -999.2500     0.0000     5.4070     3.6460     8.0480     2.4680   111.7260     0.0490
 3374.0000     0.1980  -999.2500     0.0000     5.4070     3.6690     8.0460     2.4700   116.2200     0.0400
 3374.5000     0.1950  -999.2500     0.0000     5.4070     3.7350     8.0450     2.4740   115.8840     0.0380
 3375.0000     0.1900  -999.2500     0.0000     5.3490     3.7260     8.0430     2.4790   114.7970     0.0400
 3375.5000     0.1840  -999.2500     0.0000     5.2140     3.8590     8.0410     2.4830   111.7360     0.0440
 3376.0000     0.1840  -999.2500     0.0000     5.2820     4.0680     8.0390     2.4870   107.7670     0.0480
 3376.5000     0.1840  -999.2500     0.0000    10.3730     5.3100     8.0370     2.4910   103.8950     0.0530
 3377.0000     0.1800  -999.2500     0.0000    16.0830     4.8760     8.0350     2.4980   101.3260     0.0570
 3377.5000     0.1800  -999.2500     0.0000     4.9380     3.6920     8.0340     2.5070   102.3970     0.0620
 3378.0000     0.1690  -999.2500     0.0000     5.4510     3.7600     8.0320     2.5170   103.3980     0.0650
 3378.5000     0.1580  -999.2500     0.0000     6.4520     4.7490     8.0300     2.5220    99.1500     0.0610
 3379.0000     0.1610  -999.2500     0.0000     6.9730     5.2140     8.0280     2.5140    98.1630     0.0560
 3379.5000     0.1650  -999.2500     0.0000     7.2860     5.3580     8.0260     2.5080   100.2270     0.0530
 3380.0000     0.1740  -999.2500     0.0000     7.5620     5.5400     8.0250     2.5010   102.0500     0.0510
 3380.5000     0.1790  -999.2500     0.0000     7.7760     5.6070     8.0230     2.4970   103.8730     0.0490
 3381.0000     0.1770  -999.2500     0.0000     6.4850     5.2700     8.0210     2.5010   105.8000     0.0500
 3381.5000     0.1820  -999.2500     0.0000     6.6030     4.8580     8.0190     2.5060   106.4860     0.0560
 3382.0000     0.1850  -999.2500     0.0000     6.6750     4.4470     8.0170     2.5110   105.6920     0.0610
 3382.5000     0.1800  -999.2500     0.0000     6.7240     4.0360     8.0150     2.5140   105.0870     0.0670
 3383.0000     0.1720  -999.2500     0.0000     4.9380     3.4340     8.0140     2.5140   104.4290     0.0650
 3383.5000     0.1600  -999.2500     0.0000     5.0280     3.9650     8.0120     2.5240   103.7840     0.0620
 3384.0000     0.1650  -999.2500    -0.0070     5.2140     4.9560     8.0100     2.5360   103.1400     0.0580
 3384.5000     0.1630  -999.2500    -0.0160     9.4960     6.2530     8.0080     2.5480   102.4990     0.0570
 3385.0000     0.1590  -999.2500    -0.0250     8.6820     6.0140     8.0060     2.5600   101.7880     0.0570
 3385.5000     0.1620  -999.2500    -0.0340     7.5040     5.6690     8.0040     2.5690   100.8210     0.0630
 3386.0000     0.1650  -999.2500    -0.0420     7.0050     5.3240     8.0030     2.5550    99.7360     0.0610
 3386.5000     0.1610  -999.2500    -0.0510     7.1960     4.9780     8.0010     2.5300    98.6200     0.0530
 3387.0000     0.1550  -999.2500    -0.0600     6.1410     4.8490     7.9990     2.5230  -999.2500     0.0510
 3387.5000     0.1570  -999.2500    -0.0690     6.5040     4.9380     7.9970     2.5060  -999.2500     0.0460
 3388.0000     0.1590  -999.2500    -0.0780     7.2310     5.1030     7.9950     2.5110  -999.2500     0.0450
 3388.5000     0.1610  -999.2500    -0.0870     6.1410     5.2680     7.9940     2.5300  -999.2500     0.0480
 3389.0000     0.1540  -999.2500    -0.0960    10.0280     5.4070     7.9920     2.5380  -999.2500     0.0510
 3389.5000     0.1460  -999.2500    -0.1040     7.6820     5.4070     7.9900     2.5400  -999.2500     0.0550
 3390.0000     0.1430  -999.2500    -0.1130     6.9730     5.4070     7.9890     2.5420  -999.2500     0.0570
 3390.5000     0.1450  -999.2500    -0.1220    11.8100     6.6030     7.9940     2.5500  -999.2500     0.0560
 3391.0000     0.1470  -999.2500    -0.1310    10.9680     6.5180     7.9990     2.5460  -999.2500     0.0540
 3391.5000     0.1480  -999.2500    -0.1400     8.3620     6.3460     8.0040     2.5360  -999.2500     0.0530
 3392.0000     0.1430  -999.2500    -0.1490    10.5900     6.2530     8.0090     2.5260  -999.2500     0.0530
 3392.5000     0.1580  -999.2500    -0.1580     9.6520     6.2530     8.0140     2.5320  -999.2500     0.0540
 3393.0000     0.1590  -999.2500    -0.1660     8.7640     6.1410     8.0190     2.5370  -999.2500     0.0570
 3393.5000     0.1630  -999.2500    -0.1750     8.0640     5.7840     8.0240     2.5330  -999.2500     0.0600
 3394.0000     0.1690  -999.2500    -0.1840     8.9930     5.1360     8.0300     2.5300  -999.2500     0.0630
 3394.5000     0.1740  -999.2500    -0.1930     6.4850     4.4880     8.0350     2.5350  -999.2500     0.0660
 3395.0000     0.1800  -999.2500    -0.1950     5.4070     3.8400     8.0400     2.5400  -999.2500     0.0690
 3395.5000     0.1860  -999.2500    -0.1960     5.7910     3.1920     8.0450     2.5450  -999.2500     0.0720
 3396.0000     0.1920  -999.2500    -0.1920     6.5950     2.8630     8.0500     2.5600  -999.2500     0.0690
 3396.5000     0.1980  -999.2500    -0.2010     7.6190     0.2210     8.0550     2.5300  -999.2500     0.0630
 3397.0000     0.2020  -999.2500    -0.1940     5.7100  -999.2500     8.0590     2.4930  -999.2500     0.0580
 3397.5000     0.1980  -999.2500    -0.3670     6.0200  -999.2500     8.0680     2.4820  -999.2500     0.0530
 3398.0000     0.1940  -999.2500    -0.5860     6.3680  -999.2500     8.0300     2.4760  -999.2500     0.0480
 3398.5000     0.1890  -999.2500    -0.7860     4.1930  -999.2500     7.9560     2.4880  -999.2500     0.0450
 3399.0000     0.1850  -999.2500    -1.7850     4.5060  -999.2500     7.9010     2.5000  -999.2500     0.0490
 3399.5000     0.1810  -999.2500    -3.0530     4.9920  -999.2500     7.7630     2.5110  -999.2500     0.0520
 3400.0000     0.1780  -999.2500    -5.5380     5.4790  -999.2500     7.6846     2.5100  -999.2500     0.0480
 3400.5000     0.1870  -999.2500    -8.9500     5.9210  -999.2500     7.6846     2.5040  -999.2500     0.0410
 3401.0000     0.1950  -999.2500   -12.2510     5.7100  -999.2500     7.6846     2.4980  -999.2500     0.0500
 3401.5000     0.2050  -999.2500   -15.4160     5.0280  -999.2500     7.6846     2.4880  -999.2500     0.0570
 3402.0000     0.1970  -999.2500   -18.5480     4.5920  -999.2500     7.6846     2.4820  -999.2500     0.0600
 3402.5000     0.1850  -999.2500  -999.2500  -999.2500  -999.2500     7.6658     2.4880  -999.2500     0.0610
 3403.0000     0.1900  -999.2500  -999.2500  -999.2500  -999.2500     7.6468     2.4880  -999.2500     0.0610
 3403.5000     0.1910  -999.2500  -999.2500  -999.2500  -999.2500     7.6279     2.4880  -999.2500     0.0610
 3404.0000     0.1910  -999.2500  -999.2500  -999.2500  -999.2500     7.6077     2.4880  -999.2500     0.0610
 3404.5000  -999.2500  -999.2500  -999.2500  -999.2500  -999.2500     7.5604     2.4880  -999.2500     0.0610
 3405.0000  -999.2500  -999.2500  -999.2500  -999.2500  -999.2500     7.4876     2.4880  -999.2500     0.0610
 3405.5000  -999.2500  -999.2500  -999.2500  -999.2500  -999.2500     7.4148     2.4880  -999.2500     0.0610
 3406.0000  -999.2500  -999.2500  -999.2500  -999.2500  -999.2500  -999.2500     2.4880  -999.2500     0.0610
