~VERSION INFORMATION
 VERS.                2.0:   CWLS LOG ASCII STANDARD - VERSION 2.0
 WRAP.                 NO:   ONE LINE PER DEPTH STEP
~WELL INFORMATION
#MNEM.UNIT      DATA TYPE    INFORMATION
#----------   ------------   ------------------------------
 STRT.F          148.0000:   START DEPTH
 STOP.F         3394.0000:   STOP DEPTH
 STEP.F            0.5000:   STEP LENGTH
 NULL.          -999.2500:   NO VALUE
 COMP.    FENIX & SCISSON:   COMPANY
 WELL.  FENIX "AX" #28-10:   WELL
 FLD .        TEAPOT DOME:   FIELD
 LOC .      S10 T38N R78W:   LOCATION
 CNTY.            NATRONA:   COUNTY
 STAT.            WYOMING:   STATE
 CTRY. UNITED STATES OF AMERICA:   COUNTRY
 SRVC.       SCHLUMBERGER:   SERVICE COMPANY
 DATE.        03-MAR-1981:   LOGDATE
 API .     49025108680000:   API NUMBER
~CURVE INFORMATION
#MNEM.UNIT       API CODE    CURVE DESCRIPTION
#----------   ------------   ------------------------------
 DEPT.F                  :   
 SFL .OHMM   07 220 01 00:   SHALLOW FOCUSED LOG RESISTIVITY
 ILD .OHMM   07 120 46 00:   INDUCTION LOG DEEP RESISTIVITY
 ILM .OHMM   07 120 44 00:   INDUCTION LOG MEDIUM RESISTIVITY
 TENR.LBS    07 635 01 00:   TENSION
 SPR .MV     07 010 01 00:   SPONTANEOUS POTENTIAL
 CALD.IN     45 280 60 00:   CALIPER FROM DENSITY LOG
 GRD .GAPI   45 310 01 00:   GAMMA RAY FROM DENSITY LOG
 TEND.LBS    45 635 01 00:   TENSION FROM DENSITY LOG
 CORR.G/C3   45 356 01 00:   DENSITY CORRECTION
 RHOB.G/C3   45 350 01 00:   BULK DENSITY
~PARAMETER INFORMATION
#MNEM.UNIT          VALUE    DESCRIPTION
#----------   ------------   ------------------------------
 EKB .F         5241.0000:   Kelly bushing
 EGL .F         5231.0000:   Ground level
 EDF .F            0.0000:   Drilling floor
 TD  .F         3381.0000:   Total depth
 DATE.        03-MAR-1981:   Date logged
 CLNT.            A2DTECH:   Client Code
 SL  . 640' FSL & 720' FWL:   Surface Location
 PD  .                 GL:   Permanent Datum
 EPD .F              5231:   Elevation Permanent Datum
 LMF .                 KB:   Log Measured From
 DMF .                 KB:   Drilling Measured From
 DAPD.F                10:   Feet Above Permanent Datum
 DD  .F              3361:   Depth driller
 DL  .F              3381:   Depth logger
 BLI .F              3375:   Bottom log interval
 TLI .F               233:   Top log interval
 CS1 .IN            8.625:   Casing size
 CBD1.      8.625" @ 224':   Casing driller 1
 CBL1.F               233:   Casing logger 1
 BS1 .IN            7.875:   Bit size
 BSD1.F              3361:   Depth drilled with bit1
 DFT .           CHEM/GEL:   Type fluid in hole
 DFD .                  9:   Density
 DFV .                 40:   Viscosity
 DFPH.                8.5:   pH
 DFL .                 11:   Fluid loss
 MSS .           MUD/TANK:   Source of sample
 RMS .OHMM           2.52:   Rm
 MST .F                66:   Rm Meas. temp.
 RMF .OHMM            1.8:   Rmf
 MFST.F                67:   Rmf Meas. temp.
 MFSS.               MEAS:   Source Rmf.
 RMB .OHMM           1.47:   Rm. at BHT
 BHT .F               118:   BHT.
 TCS .HRS            0500:   Time Circ. stopped
 TLAB.HRS            0830:   Time logger at bottom
 MRT .F               118:   Maximum recorded temp.
 LUN .               8035:   Logging unit number
 LUL .               CSPR:   Logging unit location
 ENGI.            BEATTLE:   Recorded By
 WITN.              FIVAS:   Witnessed by
 ORIG.           5" PRINT:   Origin of data
 UWI .     49025108680000:   Unique Well ID
 DICO. A2D TECHNOLOGIES, INC.:   Digitizing Company
~OTHER INFORMATION
~A   DEPT      SFL        ILD        ILM       TENR        SPR         CALD       GRD      TEND       CORR       RHOB   
# ...
 2493.0000     7.9180     7.1930     7.3600   582.5810   -23.7570     8.3500   110.0460   640.8400     0.0130     2.5260
 2493.5000     7.5790     6.7710     7.0340   582.7110   -23.6800     8.3510   114.6020   640.9430     0.0090     2.5100
 2494.0000     7.2100     6.3250     6.6900   582.8420   -23.6040     8.3530   116.6250   641.0460     0.0030     2.4920
 2494.5000     6.9450     6.5050     6.6900   582.9720   -23.5270     8.3540   114.9920   641.1490     0.0060     2.4840
 2495.0000     8.0970     6.6970     6.7790   583.1020   -23.4510     8.3560   109.9000   641.2520     0.0100     2.4890
 2495.5000     9.4980     6.9210     6.8580   583.2320   -23.3750     8.3570   105.0480   641.3550     0.0140     2.5010
 2496.0000    10.2900     6.8630     6.9450   583.3620   -23.2980     8.3590   103.0050   641.4580     0.0170     2.5120
 2496.5000     9.8800     6.7460     6.9450   583.4920   -23.2220     8.3600   108.9010   641.5610     0.0210     2.5100
 2497.0000     9.0430     6.5660     6.5660   583.6220   -23.1450     8.3620   114.3190   641.6640     0.0170     2.5030
 2497.5000     7.9180     6.6900     6.5660   583.7520   -23.0690     8.3630   116.9850   641.7670     0.0130     2.4960
 2498.0000     7.9660     6.8300     6.7390   583.8820   -22.9920     8.3650   115.1910   641.8700     0.0080     2.4910
 2498.5000     8.0400     7.0440     6.9360   584.0120   -22.9160     8.3660   112.9570   641.9740     0.0110     2.4950
 2499.0000     8.0670     7.2100     7.1320   584.1420   -22.8400     8.3680   110.7670   642.0770     0.0130     2.4970
 2499.5000     8.0670     7.2100     7.3280   584.2720   -22.7630     8.3690   108.4950   642.1800     0.0110     2.5030
 2500.0000     9.2850     7.2100     7.4850   584.4020   -22.6870     8.3710   109.3750   642.2830     0.0100     2.5140
 2500.5000    10.4840     7.2100     7.4850   584.5320   -22.6100     8.3720   110.5170   642.3860     0.0080     2.5250
 2501.0000    12.4080     7.2100     7.3460   584.6620   -22.5340     8.3740   114.9460   642.4890     0.0070     2.5310
 2501.5000    12.4080     7.2100     7.7710   584.7920   -22.4570     8.3750   123.8880   642.5920     0.0050     2.5310
 2502.0000    10.9360     7.0210     7.7710   584.9220   -22.3810     8.3770   135.5930   642.6950     0.0040     2.5220
 2502.5000     8.5350     6.7120     7.6270   585.0530   -22.3050     8.3780   143.6870   642.7980     0.0030     2.5080
 2503.0000     7.3460     6.4030     7.1080   585.1830   -22.2270     8.3800   152.9050   642.9010     0.0040     2.4940
 2503.5000     7.3460     6.0940     6.5990   585.3130   -22.1550     8.3810   149.8320   643.0040     0.0040     2.4800
 2504.0000     7.0760     5.9790     6.1740   585.4430   -22.0660     8.3830   148.9470   643.1070     0.0050     2.4790
 2504.5000     7.2100     5.8390     6.0780   585.5730   -22.1210     8.3840   145.5120   643.2100     0.0060     2.4780
 2505.0000     7.5020     5.7710     6.0470   585.7030   -22.2520     8.3860   142.5630   643.3130     0.0040     2.4780
 2505.5000     7.7710     5.7040     6.0150   585.8330   -22.3800     8.3870   141.6220   643.4170    -0.0010     2.4770
 2506.0000     7.3050     5.6530     5.9790   585.9630   -22.5060     8.3890   142.7190   643.5200     0.0000     2.4770
 2506.5000     6.8850     5.8060     6.0350   586.0930   -22.6350     8.3900   143.4100   643.6230     0.0030     2.4770
 2507.0000     7.0070     5.9860     6.1590   586.2230   -22.7620     8.3920   144.2770   643.7260     0.0060     2.4840
 2507.5000     7.7540     6.1660     6.2830   586.3530   -22.8900     8.3930   145.2090   643.8290     0.0090     2.4920
 2508.0000     8.5000     6.3460     6.3990   586.4830   -23.0190     8.3950   149.3090   643.9320     0.0150     2.5090
 2508.5000     9.1970     6.5260     6.6840   586.6130   -23.1400     8.3960   152.4080   644.0350     0.0230     2.5070
 2509.0000     8.9670     6.7070     6.9690   586.7430   -23.2810     8.3980   152.2050   644.1380     0.0190     2.5040
 2509.5000     8.4510     6.8870     7.2540   586.8730   -23.1690     8.3990   149.5470   644.2410     0.0130     2.4950
 2510.0000     8.6430     7.2600     7.4850   587.0030   -22.9400     8.4010   144.0200   644.3440     0.0110     2.4830
 2510.5000     9.6040     7.4370     7.6270   587.1340   -22.7230     8.4020   139.3150   644.4470     0.0120     2.4770
 2511.0000    10.4970     7.6150     7.7060   587.2640   -22.5020     8.4040   138.7640   644.5500     0.0140     2.4810
 2511.5000    11.2210     7.7920     7.9820   587.3940   -22.2870     8.4050   137.6740   644.6530     0.0140     2.4840
 2512.0000    11.7310     7.9180     8.1740   587.5240   -22.0780     8.4070   135.5960   644.7560     0.0110     2.4870
 2512.5000    10.7080     7.9180     8.3750   587.6540   -22.0670     8.4080   133.7280   644.8600     0.0090     2.4850
 2513.0000     9.9120     7.9180     8.3290   587.7840   -22.0620     8.4100   134.0200   644.9630     0.0100     2.4850
 2513.5000    10.1690     7.9500     8.2640   587.9140   -22.0670     8.4110   134.3780   645.0660     0.0110     2.4890
 2514.0000    10.4540     8.0130     8.2200   588.0440   -22.0630     8.4130   134.6180   645.1690     0.0110     2.4930
 2514.5000    10.7380     8.0760     8.2200   588.1740   -22.0660     8.4140   133.6340   645.2720     0.0120     2.4930
 2515.0000    11.0230     8.1390     8.2680   588.3040   -22.0720     8.4160   130.5170   645.3750     0.0130     2.4930
 2515.5000    11.3070     8.2020     8.3110   588.4340   -22.1780     8.4170   125.2320   645.4780     0.0150     2.4920
 2516.0000    11.5920     8.2200     8.3750   588.5640   -22.2820     8.4190   120.2490   645.5810     0.0180     2.5010
 2516.5000    11.8760     8.1010     8.2330   588.6940   -22.3940     8.4200   118.6430   645.6840     0.0220     2.5200
 2517.0000    11.2530     7.9450     7.9640   588.8240   -22.4940     8.4220   121.9940   645.7870     0.0210     2.5200
 2517.5000    10.3000     7.5800     7.6960   588.9540   -22.6100     8.4230   125.8400   645.8900     0.0140     2.5090
 2518.0000     9.3460     7.4160     7.5660   589.0840   -22.7180     8.4250   129.6210   645.9930     0.0070     2.4980
 2518.5000     8.3750     7.3230     7.4850   589.2140   -22.7890     8.4260   132.7600   646.0960     0.0070     2.4890
 2519.0000     8.6900     7.2290     7.4040   589.3450   -23.2420     8.4280   134.8290   646.1990     0.0120     2.4900
 2519.5000     9.5900     7.1360     7.3230   589.4750   -23.7770     8.4270   136.2030   646.3020     0.0160     2.4910
 2520.0000    10.4900     7.0310     7.2410   589.6050   -23.8590     8.4340   137.7180   646.4060     0.0180     2.4920
 2520.5000    10.8840     6.9050     7.1600   589.7350   -24.0350     8.3980   138.2010   646.5090     0.0200     2.4940
 2521.0000     9.9120     6.7800     7.0760   589.8650   -23.9850     8.3910   136.6970   646.6120     0.0230     2.4950
 2521.5000     9.0760     6.6540     7.0760   589.9950   -23.7200     8.3910   135.8850   646.7150     0.0280     2.4990
 2522.0000     8.2200     6.5280     6.8860   590.1250   -23.4950     8.3930   135.7380   646.8180     0.0330     2.5040
 2522.5000     8.0120     6.3250     6.7270   590.2550   -23.2620     8.3930   135.1060   646.9210     0.0270     2.5010
 2523.0000     7.7990     6.3700     6.5660   590.3850   -23.0030     8.3950   133.0090   647.0240     0.0180     2.4930
 2523.5000     7.6270     6.4900     6.6540   590.5150   -22.8940     8.3960   131.2330   647.1270     0.0080     2.4860
 2524.0000     7.6270     6.6100     6.7430   590.6450   -23.0010     8.3970   130.4170   647.2300     0.0130     2.4950
 2524.5000     8.3630     6.7300     6.8320   590.7750   -23.0840     8.3980   129.6470   647.3330     0.0240     2.5030
 2525.0000     9.6050     6.8500     6.9220   590.9050   -23.1730     8.3990   129.0200   647.4360     0.0280     2.5140
 2525.5000    10.0990     6.9450     7.0110   591.0350   -23.2630     8.4000   127.9960   647.5390     0.0250     2.5110
 2526.0000     9.7390     7.0070     7.1000   591.1650   -23.3500     8.4010   131.0520   647.6420     0.0190     2.5010
