~VERSION INFORMATION
 VERS.                2.0:   CWLS LOG ASCII STANDARD - VERSION 2.0
 WRAP.                 NO:   ONE LINE PER DEPTH STEP
~WELL INFORMATION
#MNEM.UNIT      DATA TYPE    INFORMATION
#----------   ------------   ------------------------------
 STRT.F          387.0000:   START DEPTH
 STOP.F         2921.0000:   STOP DEPTH
 STEP.F            0.5000:   STEP LENGTH
 NULL.          -999.2500:   NO VALUE
 COMP.    FENIX & SCISSON:   COMPANY
 WELL.  FENIX  "A" #21-28:   WELL
 FLD .          N.P.R. #3:   FIELD
 LOC .      S28 T39N R78W:   LOCATION
 CNTY.            NATRONA:   COUNTY
 STAT.            WYOMING:   STATE
 CTRY. UNITED STATES OF AMERICA:   COUNTRY
 SRVC.       SCHLUMBERGER:   SERVICE COMPANY
 DATE.        30-APR-1977:   LOGDATE
 API .     49025103550000:   API NUMBER
~CURVE INFORMATION
#MNEM.UNIT       API CODE    CURVE DESCRIPTION
#----------   ------------   ------------------------------
 DEPT.F                  :   
 SPR .MV     07 010 01 00:   SPONTANEOUS POTENTIAL
 ILD .OHMM   07 120 46 00:   DEEP INDUCTION RESISTIVITY
 ILM .OHMM   07 120 44 00:   INDUCTION LOG MEDIUM RESISTIVITY
 LL8 .OHMM   07 220 08 00:   LATEROLOG-8 RES.
 GRD .GAPI   45 310 01 00:   GAMMA RAY FROM DENSITY LOG
 CALD.IN     45 280 60 00:   CALIPER FROM DENSITY LOG
 CORR.G/C3   45 356 01 00:   DENSITY CORRECTION
 RHOB.G/C3   45 350 01 00:   BULK DENSITY
~PARAMETER INFORMATION
#MNEM.UNIT          VALUE    DESCRIPTION
#----------   ------------   ------------------------------
 EKB .F         4977.0000:   Kelly bushing
 EGL .F         4967.0000:   Ground level
 EDF .F            0.0000:   Drilling floor
 TD  .F         2922.0000:   Total depth
 CLNT.            A2DTECH:   Client Code
 SL  . 330' FNL & 990' FWL:   Surface Location
 DATE.        30-APR-1977:   Date Logged [DD-MMM-YYYY]
 DD  .F              2915:   Depth driller
 DL  .F              2922:   Depth logger
 BLI .F              2916:   Bottom log interval
 TLI .F               394:   Top log interval
 CS1 .              8.625:   Casing size
 CBD1.      8.625" @ 390':   Casing driller 1
 CBL1.IN              394:   Casing logger 1
 BS1 .IN            7.875:   Bit size
 BSD1.F              2915:   Depth drilled with bit1
 DFT .            KCL MUD:   Type fluid in hole
 DFD .                8.9:   Density
 DFV .                 87:   Viscosity
 DFPH.                8.5:   pH
 DFL .                9.6:   Fluid loss
 MSS .                PIT:   Source of sample
 RMS .OHMM           0.25:   Rm
 MST .F                70:   Rm Meas. temp.
 RMF .OHMM           0.22:   Rmf
 MFST.F                70:   Rmf Meas. temp.
 MFSS.               MEAS:   Source Rmf.
 RMC .OHMM           0.38:   Rmc
 MCST.F                70:   Rmc Meas. temp.
 MCSS.               CALC:   Source Rmc.
 RMB .OHMM           0.09:   Rm. at BHT
 BHT .F               109:   BHT.
 TCS .HRS            1800:   Time Circ. stopped
 TLAB.HRS            2200:   Time logger at bottom
 MRT .F               109:   Maximum recorded temp.
 LUN .                711:   Logging unit number
 LUL .             CASPER:   Logging unit location
 ENGI.              SYLER:   Recorded By
 WITN.         PETTINGILL:   Witnessed by
 ORIG.           5" PRINT:   Origin of data
 UWI .     49025103550000:   Unique Well ID
 DICO. A2D TECHNOLOGIES, INC.:   Digitizing Company
 PD  .                 GL:   Permanent Datum
 EPD .F              4967:   Elevation Permanent Datum
 LMF .                 KB:   Log Measured From
 DMF .                 KB:   Drilling Measured From
 DAPD.F                10:   Feet Above Permanent Datum
~OTHER INFORMATION
~A   DEPT      SPR        ILD        ILM        LL8         GRD      CALD       CORR       RHOB   
# ...
 2209.5000   -18.7966     5.4493     5.5239     5.6822   127.6624     8.9418     0.0150     2.5567
 2210.0000   -18.9432     5.4523     5.5254     5.6538   126.8953     8.9434     0.0142     2.5597
 2210.5000   -18.9376     5.3430     5.4130     6.5860   125.3519     8.9450     0.0142     2.5680
 2211.0000   -18.9331     5.2723     5.2661     7.2209   122.1003     8.9466     0.0134     2.5725
 2211.5000   -18.9286     5.2025     5.0877     7.1162   120.2440     8.9482     0.0134     2.5740
 2212.0000   -18.9241     5.0630     4.9842     6.3279   123.3612     8.9499     0.0134     2.5721
 2212.5000   -19.0717     5.0307     5.0203     5.5881   127.7184     8.9515     0.0134     2.5577
 2213.0000   -19.2172     5.0335     5.1274     5.2161   130.6780     8.9531     0.0165     2.5562
 2213.5000   -19.2127     5.1066     5.5361     5.0751   131.6190     8.9547     0.0180     2.5659
 2214.0000   -19.3604     5.2198     6.1502     5.3301   131.0072     8.9564     0.0180     2.5733
 2214.5000   -19.3547     5.3706     6.7842     6.1250   129.1532     8.9580     0.0149     2.5724
 2215.0000   -19.0481     5.6473     7.1694     7.3374   124.5041     8.9596     0.0118     2.5687
 2215.5000   -18.8926     6.1076     7.2666     8.1446   120.3209     8.9612     0.0110     2.5648
 2216.0000   -18.5859     6.5362     7.2182     8.4352   116.9141     8.9629     0.0102     2.5594
 2216.5000   -18.2793     6.8570     7.2207     8.5565   112.4203     8.9645     0.0102     2.5579
 2217.0000   -17.9727     6.9086     7.1722     8.7399   109.9451     8.9661     0.0087     2.5563
 2217.5000   -17.8171     6.9124     7.1747     8.6828   108.4017     8.9677     0.0079     2.5525
 2218.0000   -17.6616     6.9159     7.1767     8.2751   108.7216     8.9694     0.0086     2.5517
 2218.5000   -17.6571     6.9197     7.1786     7.8865   112.6129     8.9710     0.0141     2.5610
 2219.0000   -17.6526     6.9235     7.1309     7.4642   113.8644     8.9726     0.0257     2.5905
 2219.5000   -17.6481     6.8785     6.9858     7.3135   114.6501     8.9742     0.0272     2.5758
 2220.0000   -17.6435     6.8832     6.7962     7.4188   115.4359     8.9758     0.0179     2.5817
 2220.5000   -17.6390     6.8870     6.7506     7.5254   116.6874     8.9775     0.0242     2.5952
 2221.0000   -17.6526     6.8908     6.8000     7.6336   117.9390     8.9786     0.0349     2.5999
 2221.5000   -18.0832     6.8946     6.9451     7.6899   120.5881     9.0106     0.0223     2.5890
 2222.0000   -18.2298     6.8984     6.9470     7.7466   122.3055     9.0115     0.0085     2.5743
 2222.5000   -18.3764     6.8071     6.9489     7.7498   122.7783     9.0280     0.0070     2.5573
 2223.0000   -18.5229     6.7171     6.9027     7.7531   121.2372     9.0289     0.0078     2.5480
 2223.5000   -18.5173     6.6742     6.8093     7.7026   120.7783     9.0299     0.0087     2.5511
 2224.0000   -18.5128     6.6318     6.7641     7.6464   122.0322     9.0308     0.0109     2.5566
 2224.5000   -18.3572     6.6355     6.6721     7.5430   123.2838     9.0317     0.0117     2.5566
 2225.0000   -18.2017     6.6392     6.6281     7.4410   124.0695     9.0327     0.0147     2.5574
 2225.5000   -18.0461     6.6428     6.5841     7.2898   127.4950     9.0180     0.0164     2.5628
 2226.0000   -18.1938     6.6928     6.6319     7.1520   127.9678     9.0190     0.0225     2.5752
 2226.5000   -18.4903     6.7432     6.7734     7.0570   125.0291     9.0199     0.0256     2.5900
 2227.0000   -18.6380     6.7519     6.9179     7.3088   120.8459     9.0208     0.0155     2.5815
 2227.5000   -18.7845     6.8449     6.9680     7.5697   118.5260     9.0218     0.0178     2.5807
 2228.0000   -18.7789     6.8564     7.0185     7.8398   118.6907     9.0227     0.0162     2.5784
 2228.5000   -18.7744     6.9482     7.0205     8.2329   118.8553     9.0236     0.0092     2.5668
 2229.0000   -18.7699     6.9528     7.0225     8.4678   118.7070     9.0246     0.0054     2.5544
 2229.5000   -18.4633     6.9567     7.0244     8.6493   117.4764     9.0255     0.0077     2.5552
 2230.0000   -18.3077     6.9605     7.0268     8.5337   118.2621     9.0264     0.0085     2.5668
 2230.5000   -18.3032     6.9643     7.0287     8.1330   119.8242     9.0274     0.0061     2.5583
 2231.0000   -18.2987     6.9682     7.0306     7.7511   120.7629     9.0283     0.0084     2.5607
 2231.5000   -18.2942     6.9720     7.0326     7.4902   119.8429     9.0292     0.0100     2.5676
 2232.0000   -18.2897     6.9267     7.0835     7.3900   117.8336     9.0457     0.0115     2.5653
 2232.5000   -18.2852     6.9315     7.1349     7.6539   114.2715     9.0466     0.0138     2.5638
 2233.0000   -18.4329     6.9353     7.2367     8.6144   110.2435     9.0476     0.0185     2.5692
 2233.5000   -18.4273     6.9874     7.3399     9.1093   109.4741     9.0485     0.0239     2.5747
 2234.0000   -18.5738     6.9913     7.4447     9.1764   111.9702     9.0650     0.0270     2.5794
 2234.5000   -18.5693     6.9951     7.4467     8.6851   113.5324     9.0679     0.0239     2.5801
 2235.0000   -18.5648     6.9496     7.3460     8.1633   115.8709     9.0824     0.0208     2.5817
 2235.5000   -18.7115     6.8577     7.2461     7.6199   118.3647     9.0833     0.0184     2.5848
 2236.0000   -18.7069     6.7669     7.0987     7.1608   122.5666     9.0843     0.0146     2.5864
 2236.5000   -18.8534     6.6313     6.9547     6.9210   128.3212     9.0852     0.0091     2.5841
 2237.0000   -19.0000     6.4097     6.8131     6.9809   128.0200     9.0836     0.0068     2.5709
 2237.5000   -19.2976     6.2811     6.6740     7.4841   127.2529     9.0715     0.0083     2.5500
 2238.0000   -19.4441     6.2403     6.4934     7.7423   126.6411     9.0907     0.0107     2.5485
 2238.5000   -19.7418     6.2446     6.4054     7.4103   125.8740     9.1201     0.0145     2.5547
 2239.0000   -19.8883     6.2480     6.4010     7.0248   125.4175     9.1365     0.0230     2.5648
 2239.5000   -19.8837     6.2515     6.4537     6.9382   125.5821     9.1686     0.0362     2.5764
 2240.0000   -19.7281     6.2108     6.5005     6.9901   126.0550     9.1853     0.0447     2.5919
 2240.5000   -19.5725     6.1720     6.4573     7.1895   124.9797     9.2017     0.0277     2.5858
 2241.0000   -19.4169     6.1756     6.3700     7.4461   120.9517     9.2182     0.0199     2.5803
 2241.5000   -19.2604     6.0099     6.3276     7.5532   121.7374     9.2192     0.0207     2.5711
 2242.0000   -19.2559     5.9304     6.2820     7.4520   123.4548     9.2201     0.0276     2.5711
 2242.5000   -19.4036     5.8518     6.1576     7.2012   125.7934     9.2366     0.0331     2.5742
 2243.0000   -19.5491     5.7346     6.0260     6.8156   123.9393     9.2531     0.0354     2.5758
 2243.5000   -19.8478     5.5422     5.8280     6.5407   123.1723     9.2540     0.0354     2.5765
 2244.0000   -19.9943     5.3930     5.6702     6.3206   120.6971     9.2705     0.0276     2.5696
 2244.5000   -20.4419     5.2474     5.5548     6.1931   119.9277     9.2714     0.0111     2.5502
 2245.0000   -20.4374     5.1413     5.4797     6.1097   120.5605     9.2723     0.0090     2.5471
 2245.5000   -20.4329     5.0024     5.3310     6.0287   121.3462     9.2733     0.0113     2.5502
 2246.0000   -20.5806     4.9013     5.2225     5.9895   122.4425     9.2897     0.0129     2.5541
 2246.5000   -20.5749     4.8069     5.0808     5.9921   122.7624     9.2907     0.0128     2.5402
 2247.0000   -20.5704     4.7105     4.9430     5.9530   123.2375     9.2916     0.0128     2.5371
 2247.5000   -20.5659     4.6161     4.7097     5.8736   124.6444     9.2925     0.0121     2.5387
 2248.0000   -20.4104     4.4929     4.5187     5.6759   126.5171     9.2935     0.0097     2.5340
 2248.5000   -20.4059     4.4028     4.3961     5.3349   128.0792     9.2944     0.0113     2.5240
 2249.0000   -20.5524     4.3439     4.3665     4.8102   130.8835     9.2796     0.0190     2.5077
 2249.5000   -20.5479     4.3163     4.5224     4.5526   132.4456     9.2652     0.0477     2.5132
