~VERSION INFORMATION
 VERS.                2.0:   CWLS LOG ASCII STANDARD - VERSION 2.0
 WRAP.                 NO:   ONE LINE PER DEPTH STEP
~WELL INFORMATION
#MNEM.UNIT      DATA TYPE    INFORMATION
#----------   ------------   ------------------------------
 STRT.F          216.0000:   START DEPTH
 STOP.F         3184.0000:   STOP DEPTH
 STEP.F            0.5000:   STEP LENGTH
 NULL.          -999.2500:   NO VALUE
 COMP.    FENIX & SCISSON:   COMPANY
 WELL. FENIX & SCISSON INCNRP "A" #311-14:   WELL
 FLD .                NPR:   FIELD
 LOC .      S14 T38N R78W:   LOCATION
 CNTY.            NATRONA:   COUNTY
 STAT.            WYOMING:   STATE
 CTRY. UNITED STATES OF AMERICA:   COUNTRY
 SRVC.              WELEX:   SERVICE COMPANY
 DATE.        22-JUN-1977:   LOGDATE
 API .     49025103810000:   API NUMBER
~CURVE INFORMATION
#MNEM.UNIT       API CODE    CURVE DESCRIPTION
#----------   ------------   ------------------------------
 DEPT.F                  :   
 CALD.IN     45 280 60 00:   CALIPER FROM DENSITY LOG
 GRD .GAPI   45 310 01 00:   GAMMA RAY FROM DENSITY LOG
 DPHI.DEC    45 890 12 00:   DENSITY POROSITY SANDSTONE
 RHOB.G/C3   45 350 01 00:   BULK DENSITY
 CORR.G/C3   45 356 01 00:   DENSITY CORRECTION
 SPR .MV     07 010 01 00:   SPONTANEOUS POTENTIAL
 SFLU.OHMM   07 220 01 00:   SPHERICALLY FOCUSED LOG UNAVERAGED RESISTIVITY
 ILD .OHMM   07 120 46 00:   DEEP INDUCTION RESISTIVITY
 ILM .OHMM   07 120 44 00:   INDUCTION LOG MEDIUM RESISTIVITY
~PARAMETER INFORMATION
#MNEM.UNIT          VALUE    DESCRIPTION
#----------   ------------   ------------------------------
 EKB .F         5225.0000:   Kelly bushing
 EGL .F         5215.0000:   Ground level
 TD  .F         3183.0000:   Total depth
 DATE.        22-JUN-1977:   Date logged
 CLNT.            A2DTECH:   Client Code
 CTRY.                USA:   Country
 SL  . 330' FNL & 330' FWL:   Surface Location
 PD  .                 GL:   Permanent Datum
 EPD .F              5215:   Elevation Permanent Datum
 LMF .                 KB:   Log Measured From
 DMF .                 KB:   Drilling Measured From
 DAPD.F                10:   Feet Above Permanent Datum
 DD  .F              3178:   Depth driller
 DL  .F              3183:   Depth logger
 BLI .F              3181:   Bottom log interval
 TLI .F                20:   Top log interval
 CS1 .IN            8.625:   Casing size
 CBD1.      8.625" @ 217':   Casing driller 1
 BS1 .IN            7.875:   Bit size
 BSD1.F              3178:   Depth drilled with bit1
 DFT .            KCL MUD:   Type fluid in hole
 DFD .                9.5:   Density
 DFV .                 40:   Viscosity
 DFPH.                7.5:   pH
 DFL .               13.6:   Fluid loss
 MSS .           FLOWLINE:   Source of sample
 RMS .OHMM            .36:   Rm
 MST .F                80:   Rm Meas. temp.
 RMF .OHMM            .30:   Rmf
 MFST.F                80:   Rmf Meas. temp.
 RMC .OHMM            .86:   Rmc
 MCST.F                80:   Rmc Meas. temp.
 MFSS.               FANN:   Source Rmf.
 MCSS.                KIT:   Source Rmc.
 RMB .OHMM            .25:   Rm. at BHT
 BHT .F               114:   BHT.
 TCS .HRS             2.5:   Time Circ. stopped
 MRT .F               114:   Maximum recorded temp.
 LUN .               8766:   Logging unit number
 LUL .             CASPER:   Logging unit location
 ENGI.          T. TOYNER:   Recorded By
 WITN.      B. HARRINGTON:   Witnessed by
 PWI .                  -:   Primary Well Identifier
 ORIG.           5" PRINT:   Origin of data
 UWI .     49025103810000:   Unique Well ID
 DICO. A2D TECHNOLOGIES, INC.:   Digitizing Company
~OTHER INFORMATION
~A   DEPT       CALD       GRD        DPHI       RHOB       CORR      SPR         SFLU      ILD        ILM   
# ...
 1201.5000    10.0359    92.9442     0.1072     2.4779     0.0073   -64.9160     8.0341     7.8691     7.4533
 1202.0000    10.0359    93.7394     0.1052     2.4819     0.0093   -65.3095     8.0257     7.8396     7.3182
 1202.5000    10.0359    93.7394     0.1000     2.4869     0.0133   -64.9111     8.0173     7.8103     7.3191
 1203.0000    10.0160    95.3298     0.0992     2.4929     0.0133   -64.9081     8.0089     7.7810     7.2529
 1203.5000    10.0359    97.7156     0.0976     2.4959     0.0153   -64.9061     8.0005     7.7519     7.2538
 1204.0000    10.0160    98.5108     0.0964     2.4979     0.0193   -64.9032     7.9922     7.7229     7.3218
 1204.5000    10.0160    98.9084     0.0948     2.4979     0.0212   -64.9012     7.9838     7.6940     7.3227
 1205.0000    10.0359    98.9084     0.0936     2.4989     0.0212   -64.8983     7.9755     7.6652     7.3914
 1205.5000    10.0359    98.5108     0.0924     2.4989     0.0212   -64.8963     7.9671     7.6365     7.3919
 1206.0000    10.0359    98.1132     0.0936     2.4989     0.0193   -65.2898     7.9588     7.6120     7.3254
 1206.5000    10.0359    97.7156     0.0948     2.4989     0.0173   -65.2879     7.9505     7.6124     7.3360
 1207.0000    10.0359    97.7156     0.0960     2.4989     0.0153   -64.8884     7.9421     7.6842     7.4052
 1207.5000    10.0359    98.1132     0.0996     2.4969     0.0113   -65.2829     7.9338     7.6600     7.4062
 1208.0000    10.0359    98.5108     0.1032     2.4889     0.0093   -64.8835     7.9255     7.6359     7.3387
 1208.5000    10.0160    99.3060     0.1068     2.4859     0.0093   -64.8815     7.9173     7.6119     7.3397
 1209.0000    10.0359    99.3060     0.1088     2.4759     0.0093   -64.8786     7.9090     7.5879     7.3406
 1209.5000    10.0160   100.1012     0.1092     2.4769     0.0013   -64.8766     7.9040     7.5640     7.2738
 1210.0000    10.0160   100.4988     0.1092     2.4769     0.0013   -64.8736     7.8326     7.5497     7.2747
 1210.5000    10.0160   100.4988     0.1092     2.4769     0.0033   -64.8717     7.7619     7.4817     7.2086
 1211.0000    10.0160    99.7036     0.1080     2.4799     0.0053   -64.8687     7.6216     7.3037     7.0771
 1211.5000     9.9961    99.3060     0.1056     2.4849     0.0053   -64.8667     7.5527     7.1300     6.8839
 1212.0000     9.9763    99.7036     0.1016     2.4869     0.0053   -65.6568     7.4160     6.9604     6.6960
 1212.5000     9.9763    99.7036     0.1016     2.4869     0.0093   -65.2583     7.2151     6.7948     6.5738
 1213.0000     9.9763   100.1012     0.1016     2.4869     0.0113   -64.8589     6.9553     6.6427     6.3943
 1213.5000     9.9763   100.8964     0.1028     2.4859     0.0133   -64.8569     6.8925     6.7048     6.4546
 1214.0000     9.9763   100.4988     0.1032     2.4829     0.0133   -65.2504     6.9570     6.7630     6.5155
 1214.5000     9.9763   100.1012     0.1024     2.4829     0.0133   -65.0492     7.0222     6.8218     6.5770
 1215.0000     9.9763    99.7036     0.1016     2.4829     0.0133   -65.0478     7.1534     6.8811     6.6391
 1215.5000     9.9564    98.9084     0.1016     2.4829     0.0133   -65.0511     7.2871     6.9599     6.7018
 1216.0000     9.9761    98.5108     0.1028     2.4839     0.0133   -65.0545     7.5611     6.9605     6.6363
 1216.5000     9.9761    98.5108     0.1024     2.4849     0.0153   -65.0578     7.4928     6.9613     6.6370
 1217.0000     9.9563    98.5108     0.1012     2.4859     0.0173   -65.0612     7.2898     7.0265     6.5770
 1217.5000     9.9364    98.1132     0.0992     2.4869     0.0193   -65.0646     7.0923     6.9629     6.4577
 1218.0000     9.9364    97.7156     0.0964     2.4889     0.0232   -65.0679     7.2248     6.9053     6.5183
 1218.5000     9.9364    97.7156     0.0952     2.4939     0.0210   -65.0713     7.2257     6.8482     6.4593
 1219.0000     9.9166    97.7156     0.0936     2.4989     0.0212   -65.0746     7.1605     6.7764     6.4601
 1219.5000     9.9166    98.1132     0.0928     2.5009     0.0272   -65.0780     7.0958     6.7765     6.4607
 1220.0000     9.9365    98.1132     0.0944     2.4989     0.0272   -65.0813     7.0317     6.7779     6.4617
 1220.5000     9.9365    98.1132     0.0956     2.4979     0.0272   -65.0847     7.0329     6.7905     6.4625
 1221.0000     9.9365    98.1132     0.0952     2.4969     0.0252   -65.0881     7.0331     6.8031     6.4633
 1221.5000     9.9564    98.1132     0.0944     2.4989     0.0252   -65.0914     6.9699     6.8158     6.5885
 1222.0000     9.9564    98.9084     0.0940     2.4989     0.0252   -65.0948     7.0351     6.8284     6.5893
 1222.5000     9.9564    98.9084     0.0952     2.4979     0.0232   -65.0981     7.0360     6.8412     6.5901
 1223.0000     9.9564    98.9084     0.0964     2.4959     0.0212   -65.1015     7.0369     6.8539     6.5909
 1223.5000     9.9564    99.3060     0.0976     2.4959     0.0232   -65.1049     7.1684     6.8666     6.5917
 1224.0000     9.9564    99.3060     0.1000     2.4919     0.0212   -65.1082     7.1693     6.8794     6.6539
 1224.5000     9.9763    99.3060     0.1032     2.4879     0.0212   -65.1116     7.2364     6.8922     6.6548
 1225.0000     9.9564    99.3060     0.1048     2.4819     0.0153   -65.1149     7.3042     6.9050     6.6556
 1225.5000     9.9763    99.7036     0.1064     2.4799     0.0113   -65.1183     7.3051     6.9127     6.6566
 1226.0000     9.9961   100.1012     0.1064     2.4779     0.0093   -65.1217     7.3060     6.9825     6.7194
 1226.5000     9.9763    99.7036     0.1080     2.4759     0.0093   -65.1250     7.1739     7.0530     6.7828
 1227.0000     9.9564    98.9084     0.1100     2.4739     0.0093   -65.1284     7.0440     7.1748     6.6543
 1227.5000     9.9763    98.5108     0.1104     2.4709     0.0093   -65.1317     6.9165     7.1756     6.6548
 1228.0000     9.9365    98.5108     0.1108     2.4689     0.0033   -65.1351     6.9807     7.1765     6.5345
 1228.5000     9.9365    98.5108     0.1108     2.4709     0.0033   -65.1385     6.8548     7.1315     6.4754
 1229.0000     9.9365    98.1132     0.1100     2.4719     0.0033   -65.1418     6.8557     7.0868     6.4762
 1229.5000     9.9365    97.7156     0.1088     2.4739     0.0033   -65.1452     6.9199     7.0423     6.4770
 1230.0000     9.9365    97.7156     0.1080     2.4799     0.0033   -65.1485     6.9207     6.9981     6.5377
 1230.5000     9.9365    97.7156     0.1064     2.4799     0.0033   -65.1519     7.0501     6.9542     6.5385
 1231.0000     9.9166    97.7156     0.1036     2.4829     0.0053   -65.1553     7.0508     6.9224     6.5393
 1231.5000     9.9961    97.7156     0.1012     2.4839     0.0053   -65.1586     7.0515     6.8912     6.6006
 1232.0000     9.9365    98.1132     0.1008     2.4839     0.0133   -65.1608     7.0527     6.8600     6.6015
 1232.5000     9.9365    98.1132     0.1008     2.4859     0.0133   -65.1583     7.0534     6.8291     6.6066
 1233.0000     9.9365    98.5108     0.1004     2.4879     0.0133   -65.1559     6.9898     6.7982     6.5465
 1233.5000     9.9365    98.5108     0.1024     2.4879     0.0133   -65.1534     6.9907     6.7676     6.5473
 1234.0000     9.9365    98.5108     0.1040     2.4849     0.0133   -64.9532     6.9915     6.7370     6.4877
 1234.5000     9.9365    98.5108     0.1048     2.4809     0.0133   -65.5455     6.9924     6.7066     6.4885
 1235.0000     9.9961    98.9084     0.1056     2.4789     0.0133   -65.5425     6.9292     6.6763     6.4294
 1235.5000     9.9365    98.9084     0.1072     2.4779     0.0133   -65.1441     6.8666     6.6462     6.4302
 1236.0000     9.9564    98.9084     0.1076     2.4779     0.0133   -65.1411     6.8675     6.6162     6.1958
 1236.5000     9.9385    98.9084     0.1076     2.4759     0.0133   -65.1391     6.8683     6.5863     6.1392
 1237.0000     9.9166    98.9084     0.1076     2.4799     0.0133   -65.1362     6.8692     6.5565     6.1400
 1237.5000     9.9365    98.9084     0.1060     2.4829     0.0133   -65.1342     6.7448     6.5269     6.0844
