~VERSION INFORMATION
 VERS.                2.0:   CWLS LOG ASCII STANDARD - VERSION 2.0
 WRAP.                 NO:   ONE LINE PER DEPTH STEP
~WELL INFORMATION
#MNEM.UNIT      DATA TYPE    INFORMATION
#----------   ------------   ------------------------------
 STRT.F          197.0000:   START DEPTH
 STOP.F         3074.5000:   STOP DEPTH
 STEP.F            0.5000:   STEP LENGTH
 NULL.          -999.2500:   NO VALUE
 COMP.    FENIX & SCISSON:   COMPANY
 WELL.   FENIX "A" #36-21:   WELL
 FLD .             NPR #3:   FIELD
 LOC .      S21 T39N R78W:   LOCATION
 CNTY.            NATRONA:   COUNTY
 STAT.            WYOMING:   STATE
 CTRY. UNITED STATES OF AMERICA:   COUNTRY
 SRVC.              WELEX:   SERVICE COMPANY
 DATE.        06-JUL-1977:   LOGDATE
 API .     49025103920000:   API NUMBER
~CURVE INFORMATION
#MNEM.UNIT       API CODE    CURVE DESCRIPTION
#----------   ------------   ------------------------------
 DEPT.F                  :   
 CALD.IN     45 280 60 00:   CALIPER FROM DENSITY LOG
 GRD .GAPI   45 310 01 00:   GAMMA RAY FROM DENSITY LOG
 CORR.G/C3   45 356 01 00:   DENSITY CORRECTION
 RHOB.G/C3   45 350 01 00:   BULK DENSITY
 SPR .MV     11 010 01 00:   SPONTANEOUS POTENTIAL FROM RES.
 FORX.OHMM   11 000 00 00:   FORMATION FACTOR
 GURD.OHMM   11 220 05 00:   GUARD LOG RESISTIVITY
 NPHI.DEC    42 890 03 00:   NEUTRON POROSITY SANDSTONE
~PARAMETER INFORMATION
#MNEM.UNIT          VALUE    DESCRIPTION
#----------   ------------   ------------------------------
 EKB .F         4960.0000:   Kelly bushing
 EGL .F         4950.0000:   Ground level
 EDF .F            0.0000:   Drilling floor
 EPD .F         4950.0000:   Permanent datum
 TD  .F         3078.0000:   Total depth
 CLNT.            A2DTECH:   Client Code
 SL  . 1650' FSL & 1650' FWL:   Surface Location
 PD  .                 GL:   Permanent Datum
 DAPD.F                10:   Feet Above Permanent Datum
 DATE.        06-JUL-1977:   Date Logged [DD-MMM-YYYY]
 DD  .F              3066:   Depth driller
 DL  .F              3078:   Depth logger
 BLI .F              3076:   Bottom log interval
 TLI .F               200:   Top log interval
 CS1 .IN            8.625:   Casing size
 BS1 .IN            7.875:   Bit size
 BSD1.F              3066:   Depth drilled with bit1
 DFT .            KCL MUD:   Type fluid in hole
 DFD .                9.2:   Density
 DFV .                 35:   Viscosity
 DFPH.                7.5:   pH
 DFL .                 18:   Fluid loss
 MSS .           FLOWLINE:   Source of sample
 RMS .OHMM            0.9:   Rm
 MST .F                80:   Rm Meas. temp.
 RMF .OHMM           0.81:   Rmf
 MFST.F                80:   Rmf Meas. temp.
 MFSS.               FANN:   Source Rmf.
 RMC .OHMM           1.06:   Rmc
 MCST.F                80:   Rmc Meas. temp.
 MCSS.                KIT:   Source Rmc.
 RMB .OHMM           0.60:   Rm. at BHT
 BHT .F               119:   BHT.
 TCS .HRS               3:   Time Circ. stopped
 MRT .F               119:   Maximum recorded temp.
 LUN .               8611:   Logging unit number
 LUL .             CASPER:   Logging unit location
 ENGI.             C DOAK:   Recorded By
 WITN.         HARRINGTON:   Witnessed by
 ORIG.           5" PRINT:   Origin of data
 UWI .     49025103920000:   Unique Well ID
 DICO. A2D TECHNOLOGIES,INC.:   Digitizing Company
~OTHER INFORMATION
~A   DEPT     CALD         GRD      CORR       RHOB        SPR       FORX       GURD       NPHI   
# ...
 1533.5000     7.8351   104.5773     0.0782     2.5793   -70.0557     8.4876     6.6568     0.3084
 1534.0000     7.8228   104.6158     0.0768     2.5720   -70.1976     8.2006     6.2538     0.3160
 1534.5000     7.8091   104.6506     0.0771     2.5654   -70.1886     7.9233     5.9917     0.3217
 1535.0000     7.7979   104.3821     0.0772     2.5580   -70.1796     7.7616     5.9190     0.3232
 1535.5000     7.7855   103.8351     0.0759     2.5507   -70.1690     7.7622     6.0845     0.3211
 1536.0000     7.7885   102.9877     0.0746     2.5418   -70.3121     7.8705     6.1689     0.3184
 1536.5000     7.8057   102.1388     0.0733     2.5337   -70.1515     8.0912     6.2545     0.3123
 1537.0000     7.8081   100.9897     0.0720     2.5323   -70.1427     8.3180     6.2112     0.3060
 1537.5000     7.8253   100.4411     0.0678     2.5346   -69.9843     8.8510     6.2540     0.3018
 1538.0000     7.8425   100.4772     0.0635     2.5325   -69.9756     8.5517     6.4289     0.3006
 1538.5000     7.8449   100.8139     0.0606     2.5192   -69.8171     8.1493     6.5181     0.2982
 1539.0000     7.8325   101.7324     0.0608     2.5088   -69.6587     8.1499     6.4285     0.2951
 1539.5000     7.8200   102.3563     0.0625     2.5030   -69.6497     8.4363     6.4282     0.2930
 1540.0000     7.8225   102.3911     0.0642     2.5065   -69.7909     8.5540     6.5173     0.3005
 1540.5000     7.8249   102.4259     0.0674     2.5371   -69.9296     8.6154     6.8398     0.3033
 1541.0000     7.8274   102.1661     0.0690     2.5427   -69.9209     8.7339     7.0311     0.3053
 1541.5000     7.8303   102.4955     0.0707     2.5368   -70.0618     8.9172     7.3790     0.3079
 1542.0000     7.8327   105.4758     0.0709     2.5317   -70.0531     9.9577     7.0794     0.3109
 1542.5000     7.8351   108.4561     0.0711     2.5310   -70.0443     8.9184     6.8389     0.3166
 1543.0000     7.8375   109.9636     0.0713     2.5349   -70.0356     8.6762     6.7917     0.3259
 1543.5000     7.8399   108.8202     0.0715     2.5424   -70.0268     8.4410     6.6983     0.3325
 1544.0000     7.8423   107.3814     0.0717     2.5477   -69.8683     8.0995     6.5607     0.3337
 1544.5000     7.8446   107.4171     0.0719     2.5508   -69.8593     7.7717     6.3342     0.3288
 1545.0000     7.8470   107.7467     0.0705     2.5486   -69.8487     7.7723     6.1650     0.3204
 1545.5000     7.8494   107.4866     0.0692     2.5428   -69.8400     7.8266     5.9969     0.3120
 1546.0000     7.8518   106.2504     0.0694     2.5294   -69.8312     7.8813     5.9554     0.3093
 1546.5000     7.8542   104.3162     0.0696     2.5199   -69.9743     7.7739     5.9142     0.3120
 1547.0000     7.8567   103.4760     0.0698     2.5177   -69.9634     7.7210     5.9140     0.3167
 1547.5000     7.8591   103.5108     0.0684     2.5201   -69.9547     7.7751     6.0376     0.3203
 1548.0000     7.8620   103.2423     0.0655     2.5239   -69.7962     7.7756     5.9546     0.3233
 1548.5000     7.8644   102.4022     0.0644     2.5254   -69.7454     7.7761     5.8727     0.3260
 1549.0000     7.8668   101.8392     0.0646     2.5188   -69.6593     7.7232     5.7522     0.3275
 1549.5000     7.8390   101.2849     0.0648     2.5137   -69.5732     7.6706     5.6704     0.3283
 1550.0000     7.8118   101.1766     0.0649     2.5101   -69.4871     7.6712     5.6729     0.3277
 1550.5000     7.8000   101.2270     0.0636     2.5057   -69.4010     7.6717     5.8315     0.3214
 1551.0000     7.8024   100.6773     0.0623     2.4968   -69.3149     7.6722     5.8313     0.3157
 1551.5000     7.8048   100.1176     0.0625     2.4858   -69.4311     7.6728     5.8311     0.3129
 1552.0000     7.8072    98.9881     0.0597     2.4761   -69.4183     7.7265     5.7908     0.3108
 1552.5000     7.8096    97.5535     0.0562     2.4724   -69.5577     7.7805     5.6719     0.3087
 1553.0000     7.8268    96.1189     0.0541     2.4755   -69.5474     7.8348     5.5940     0.3075
 1553.5000     7.8440    94.6814     0.0526     2.4753   -69.5372     7.7814     5.6715     0.3069
 1554.0000     7.8612    92.8618     0.0485     2.4593   -69.5269     7.8359     5.6323     0.3056
 1554.5000     7.8637    96.5449     0.0472     2.4445   -69.5165     8.2238     6.8929     0.3032
 1555.0000     7.8518   101.3050     0.0459     2.4282   -69.6560     9.1835     7.2211     0.3020
 1555.5000     7.8388   104.0002     0.0461     2.4223   -69.7955     9.9762     6.3330     0.3017
 1556.0000     7.8270   104.9255     0.0493     2.4290   -69.7826     9.4415     5.6705     0.3023
 1556.5000     7.8140   104.6607     0.0539     2.4492   -69.9246     8.0391     4.5463     0.3055
 1557.0000     7.8170   104.4061     0.0586     2.4858   -69.9118     6.7524     3.7212     0.3070
 1557.5000     7.8194   104.4565     0.0603     2.5089   -69.9015     5.0083     3.3319     0.3125
 1558.0000     7.8218   104.2006     0.0619     2.5112   -69.8912     7.8945     6.3320     0.3145
 1558.5000     7.8242   103.0622     0.0651     2.5076   -70.0332     8.3426     6.3828     0.3125
 1559.0000     7.8266   101.9226     0.0653     2.5040   -70.0204     8.4590     6.3315     0.3060
 1559.5000     7.8290   101.6679     0.0655     2.5011   -70.1602     8.4596     6.3313     0.3006
 1560.0000     7.8166   102.0133     0.0657     2.4981   -70.2992     8.4602     6.3311     0.2991
 1560.5000     7.8190   102.9386     0.0659     2.4960   -70.2889     8.2306     6.4633     0.2934
 1561.0000     7.8066   103.5689     0.0661     2.4946   -70.4284     8.2312     6.5080     0.2916
 1561.5000     7.7942   104.7891     0.0662     2.4931   -70.4177     8.2317     6.5982     0.2969
 1562.0000     7.7818   105.4194     0.0649     2.5245   -70.5575     8.2323     6.5075     0.3016
 1562.5000     7.7700   105.7547     0.0636     2.5283   -70.5447     8.2330     6.4180     0.3053
 1563.0000     7.7724   105.7935     0.0638     2.5254   -70.5344     8.0650     6.2430     0.3146
 1563.5000     7.7748   105.5398     0.0640     2.5262   -70.5241     7.7923     5.9482     0.3203
 1564.0000     7.7772   105.2743     0.0634     2.5203   -70.6636     6.8361     5.4374     0.3209
 1564.5000     7.7796   105.0311     0.0614     2.5011   -70.6533     6.0805     4.9350     0.3122
 1565.0000     7.7820   106.5564     0.0616     2.4981   -70.6430     6.1653     4.6708     0.3038
 1565.5000     7.7991   107.4817     0.0618     2.4975   -70.4830     7.0772     5.0741     0.3005
 1566.0000     7.8015   105.1621     0.0635     2.5020   -70.4728     7.6881     5.5504     0.2996
 1566.5000     7.8039   103.1376     0.0651     2.5200   -70.4625     7.6903     5.9882     0.2993
 1567.0000     7.8064   101.9979     0.0653     2.5336   -70.4521     7.8567     6.3719     0.2995
 1567.5000     7.8087   101.4382     0.0655     2.5350   -70.4416     8.4969     6.5051     0.3021
 1568.0000     7.7963   101.7836     0.0657     2.5209   -70.4291     8.5870     6.5048     0.3064
 1568.5000     7.7839   102.7089     0.0659     2.5151   -70.4188     8.2396     6.4154     0.3082
 1569.0000     7.7869   103.6363     0.0660     2.5151   -70.4086     8.2403     6.4151     0.3070
 1569.5000     7.7893   104.2959     0.0662     2.5226   -70.3983     8.2409     6.4594     0.3088
 1570.0000     7.7917   105.1998     0.0664     2.5272   -70.3880     8.2414     6.5039     0.3094
 1570.5000     7.7941   105.5351     0.0651     2.5235   -70.2306     8.2420     6.4589     0.3043
 1571.0000     7.7965   105.5754     0.0638     2.5258   -70.3700     8.2526     6.3701     0.3013
 1571.5000     7.7989   106.2057     0.0640     2.5335   -70.4144     8.2431     6.2393     0.2994
 1572.0000     7.8013   106.5410     0.0642     2.5401   -70.4958     8.1308     6.1535     0.2991
 1572.5000     7.8037   106.8764     0.0644     2.5276   -70.4855     7.9589     6.0272     0.2922
 1573.0000     7.8061   106.9167     0.0661     2.5291   -70.4752     7.8024     5.9443     0.2886
 1573.5000     7.7937   106.6608     0.0677     2.5314   -70.4650     7.5908     5.9032     0.2928
