~VERSION INFORMATION
 VERS.                2.0:   CWLS LOG ASCII STANDARD - VERSION 2.0
 WRAP.                 NO:   ONE LINE PER DEPTH STEP
~WELL INFORMATION
#MNEM.UNIT      DATA TYPE    INFORMATION
#----------   ------------   ------------------------------
 STRT.F            4.5000:   START DEPTH
 STOP.F         3216.0000:   STOP DEPTH
 STEP.F            0.5000:   STEP LENGTH
 NULL.          -999.2500:   NO VALUE
 COMP. LAWRENCE ALLISON & ASSCOCIATES:   COMPANY
 WELL. LAWRENCE ALLISON #38-34:   WELL
 FLD . NAVAL PET. RES. NO. 3:   FIELD
 LOC .      S34 T39N R78W:   LOCATION
 CNTY.            NATRONA:   COUNTY
 STAT.            WYOMING:   STATE
 CTRY. UNITED STATES OF AMERICA:   COUNTRY
 SRVC.      DRESSER ATLAS:   SERVICE COMPANY
 DATE.        12-OCT-1986:   LOGDATE
 API .     49025111120000:   API NUMBER
~CURVE INFORMATION
#MNEM.UNIT       API CODE    CURVE DESCRIPTION
#----------   ------------   ------------------------------
 DEPT.F                  :   
 CALD.IN     45 280 60 00:   CALIPER FROM DENSITY LOG
 RHOB.G/C3   45 350 01 00:   BULK DENSITY
 CORR.G/C3   45 356 01 00:   DENSITY CORRECTION
 CNC .DEC    42 890 01 00:   NEUTRON POROSITY
 SPR .MV     07 010 01 00:   SPONTANEOUS POTENTIAL
 TENR.LBS    06 635 01 00:   TENSION FROM RESISTIVITY
 GRR .GAPI   07 310 01 00:   GAMMA RAY FROM RESISTIVITY
 ILD .OHMM   07 120 46 00:   DEEP INDUCTION RESISTIVITY
 ILM .OHMM   07 120 44 00:   INDUCTION LOG MEDIUM RESISTIVITY
 SFL .OHMM   07 220 01 00:   SHALLOW FOCUSED LOG RESISITIVITY
~PARAMETER INFORMATION
#MNEM.UNIT          VALUE    DESCRIPTION
#----------   ------------   ------------------------------
 EKB .F         5229.5000:   Kelly bushing
 EGL .F         5217.7000:   Ground level
 TD  .F         3200.0000:   Total depth
 CLNT.            A2DTECH:   Client Code
 SL  . 1338' FWL & 132' FSL:   Surface Location
 PD  .                 GL:   Permanent Datum
 EPD .F            5217.7:   Elevation Permanent Datum
 LMF .                 KB:   Log Measured From
 DMF .                 KB:   Drilling Measured From
 DAPD.F              11.8:   Feet Above Permanent Datum
 DATE.        12-OCT-1986:   Date Logged [DD-MMM-YYYY]
 DD  .F              3200:   Depth driller
 DL  .F              3200:   Depth logger
 BLI .F              3194:   Bottom log interval
 TLI .F                 0:   Top log interval
 CS1 .IN            8.625:   Casing size
 CBD1.      8.625" @ 668':   Casing driller 1
 CBL1.F               668:   Casing logger 1
 BS1 .IN            7.875:   Bit size
 BSD1.F              3200:   Depth drilled with bit1
 DFT .        KCL POLYMER:   Type fluid in hole
 DFD .                  9:   Density
 DFV .                 36:   Viscosity
 DFPH.                9.5:   pH
 MSS .           FLOWLINE:   Source of sample
 RMS .OHMM           0.25:   Rm
 MST .F                70:   Rm Meas. temp.
 RMF .OHMM          0.191:   Rmf
 MFST.F                70:   Rmf Meas. temp.
 MFSS.               MEAS:   Source Rmf.
 RMB .OHMM          0.132:   Rm. at BHT
 BHT .F               132:   BHT.
 TCS .HRS               3:   Time Circ. stopped
 MRT .F               132:   Maximum recorded temp.
 LUN .               6274:   Logging unit number
 ENGI.             RAUTIO:   Recorded By
 ORIG.   1" 2.5" 5" PRINT:   Origin of data
 UWI .     49025111120000:   Unique Well ID
 DICO. A2D TECHNOLOGIES, INC.:   Digitizing Company
 LUL .               CLIT:   Logging unit location
 RMC .OHMM           0.31:   Rmc
 MCST.F                70:   Rmc Meas. temp.
 MCSS.               CALC:   Source Rmc.
~OTHER INFORMATION
~A    DEPT    CALD       RHOB       CORR        CNC        SPR       TENR        GRR        ILD        ILM        SFL   
# ...
 1177.0000  -999.2500  -999.2500  -999.2500  -999.2500   -94.5615   -25.7500   108.3000     8.6415     7.8149     8.8574
 1177.5000  -999.2500  -999.2500  -999.2500  -999.2500   -94.6553   -25.7500   112.4146     8.4676     7.8139     8.7338
 1178.0000  -999.2500  -999.2500  -999.2500  -999.2500   -94.7494   -25.7500   113.9883     8.3501     7.7049     8.6120
 1178.5000  -999.2500  -999.2500  -999.2500  -999.2500   -94.8477   -25.7500   111.6327     8.2341     7.5974     8.4919
 1179.0000  -999.2500  -999.2500  -999.2500  -999.2500   -94.9433   -45.2500   109.5502     8.1198     7.4914     8.4907
 1179.5000  -999.2500  -999.2500  -999.2500  -999.2500   -95.0402   -45.2500   110.2578     8.1193     7.4893     8.3723
 1180.0000  -999.2500  -999.2500  -999.2500  -999.2500   -95.1369   -45.2500   114.7790     7.8959     7.3791     8.3711
 1180.5000  -999.2500  -999.2500  -999.2500  -999.2500   -95.2317   -45.2500   119.1328     7.7863     7.1822     8.3699
 1181.0000  -999.2500  -999.2500  -999.2500  -999.2500   -95.3323   -45.2500   120.5964     7.6782     7.0820     8.3688
 1181.5000  -999.2500  -999.2500  -999.2500  -999.2500   -95.3499   -46.4713   118.7856     7.5688     7.0578     8.2520
 1182.0000  -999.2500  -999.2500  -999.2500  -999.2500   -95.3177   -27.1229   118.7827     7.4582     6.9539     8.2508
 1182.5000  -999.2500  -999.2500  -999.2500  -999.2500   -95.2904   -27.1229   119.9846     7.3628     6.8515     8.2098
 1183.0000  -999.2500  -999.2500  -999.2500  -999.2500   -95.2638   -46.4713   121.7889     7.2606     6.7887     8.1346
 1183.5000  -999.2500  -999.2500  -999.2500  -999.2500   -95.2357   -46.2254   123.5932     7.1597     6.6940     8.0814
 1184.0000  -999.2500  -999.2500  -999.2500  -999.2500   -95.2086   -46.0097   124.7952     7.0603     6.6930     8.0200
 1184.5000  -999.2500  -999.2500  -999.2500  -999.2500   -95.1811   -45.9021   125.3946     7.0598     6.5996     8.0188
 1185.0000  -999.2500  -999.2500  -999.2500  -999.2500   -95.1536   -45.2500   122.9321     7.0593     6.6910     7.9068
 1185.5000  -999.2500  -999.2500  -999.2500  -999.2500   -95.1263   -45.2500   117.2979     7.0588     6.6901     7.9057
 1186.0000  -999.2500  -999.2500  -999.2500  -999.2500   -95.0989   -25.7500   112.6585     7.0584     6.7829     7.9046
 1186.5000  -999.2500  -999.2500  -999.2500  -999.2500   -95.0715   -25.7500   112.1295     7.1567     6.7820     7.9035
 1187.0000  -999.2500  -999.2500  -999.2500  -999.2500   -95.0443   -25.7500   112.8716     7.1562     6.7811     8.0133
 1187.5000  -999.2500  -999.2500  -999.2500  -999.2500   -95.0164   -45.2500   114.1063     7.2559     6.7801     7.9014
 1188.0000  -999.2500  -999.2500  -999.2500  -999.2500   -94.9900   -45.2500   115.1330     7.2554     6.7792     7.9003
 1188.5000  -999.2500  -999.2500  -999.2500  -999.2500   -94.9615   -25.7500   111.0314     7.2549     6.7783     7.8993
 1189.0000  -999.2500  -999.2500  -999.2500  -999.2500   -94.9599   -45.2500   109.2070     7.2544     6.8723     7.8982
 1189.5000  -999.2500  -999.2500  -999.2500  -999.2500   -94.9592   -45.2500   105.4849     7.2540     6.9677     7.8971
 1190.0000  -999.2500  -999.2500  -999.2500  -999.2500   -94.9598   -45.2500   108.1319     7.2535     6.9862     7.8960
 1190.5000  -999.2500  -999.2500  -999.2500  -999.2500   -94.9596   -45.2500   109.9237     7.3546     7.0634     7.9232
 1191.0000  -999.2500  -999.2500  -999.2500  -999.2500   -94.9596   -45.2500   109.4981     7.3541     7.0933     8.0045
 1191.5000  -999.2500  -999.2500  -999.2500  -999.2500   -94.9597   -45.2500   112.0990     7.4566     7.1604     8.0447
 1192.0000  -999.2500  -999.2500  -999.2500  -999.2500   -94.9597   -45.2500   112.6985     7.5761     7.2595     8.1627
 1192.5000  -999.2500  -999.2500  -999.2500  -999.2500   -94.9597   -25.7500   110.2859     7.6874     7.3602     8.3420
 1193.0000  -999.2500  -999.2500  -999.2500  -999.2500   -94.9597   -45.2500   105.4637     7.8004     7.3592     8.4040
 1193.5000  -999.2500  -999.2500  -999.2500  -999.2500   -94.9595   -45.2500   104.2560     7.9150     7.3580     8.4565
 1194.0000  -999.2500  -999.2500  -999.2500  -999.2500   -94.9597   -45.2500   109.0919     8.0313     7.3570     8.5738
 1194.5000  -999.2500  -999.2500  -999.2500  -999.2500   -94.9593   -45.2500   115.8445     8.1024     7.2544     8.5725
 1195.0000  -999.2500  -999.2500  -999.2500  -999.2500   -94.9591   -45.2500   120.0504     8.1018     7.1532     8.4529
 1195.5000  -999.2500  -999.2500  -999.2500  -999.2500   -94.9605   -45.2500   121.7141     8.1013     7.1522     8.4517
 1196.0000  -999.2500  -999.2500  -999.2500  -999.2500   -94.9569   -45.2500   120.1521     8.1007     7.1512     8.4506
 1196.5000  -999.2500  -999.2500  -999.2500  -999.2500   -94.9610   -45.2500   111.5597     8.1000     7.1502     8.4495
 1197.0000  -999.2500  -999.2500  -999.2500  -999.2500   -94.9719   -45.2500   109.6571     8.0995     7.1493     8.4483
 1197.5000  -999.2500  -999.2500  -999.2500  -999.2500   -95.1334   -45.2500   112.5348     8.0989     7.1483     8.3304
 1198.0000  -999.2500  -999.2500  -999.2500  -999.2500   -95.2718   -45.2500   115.5459     7.9865     7.1473     8.2142
 1198.5000  -999.2500  -999.2500  -999.2500  -999.2500   -95.4200   -25.7500   118.6816     7.8756     7.1463     8.0996
 1199.0000  -999.2500  -999.2500  -999.2500  -999.2500   -95.5620   -45.2500   113.1230     7.7663     7.1453     7.9866
 1199.5000  -999.2500  -999.2500  -999.2500  -999.2500   -95.7122   -45.2500   109.6410     7.7657     7.1443     7.9854
 1200.0000  -999.2500  -999.2500  -999.2500  -999.2500   -95.7613   -45.2500   111.0151     7.6579     7.0296     7.9843
 1200.5000  -999.2500  -999.2500  -999.2500  -999.2500   -95.7363   -44.9966   114.4505     7.6574     6.9358     7.9832
 1201.0000  -999.2500  -999.2500  -999.2500  -999.2500   -95.7184   -44.9329   113.5682     7.3449     6.8420     7.9821
 1201.5000  -999.2500  -999.2500  -999.2500  -999.2500   -95.7009   -44.8278   111.4144     7.2434     6.7553     8.0367
 1202.0000  -999.2500  -999.2500  -999.2500  -999.2500   -95.6815   -44.7227   109.9399     7.1433     6.9655     8.0917
 1202.5000  -999.2500  -999.2500  -999.2500  -999.2500   -95.6634   -44.6740   111.3989     7.0446     7.0422     8.0903
 1203.0000  -999.2500  -999.2500  -999.2500  -999.2500   -95.6449   -64.2366   111.9925     7.0479     6.8484     8.0893
 1203.5000  -999.2500  -999.2500  -999.2500  -999.2500   -95.6263   -64.4474   112.5874     7.0446     6.7534     8.0882
 1204.0000  -999.2500  -999.2500  -999.2500  -999.2500   -95.6079   -64.8273   111.9750     7.0446     6.7529     8.0871
 1204.5000  -999.2500  -999.2500  -999.2500  -999.2500   -95.5895   -45.7944   111.3638     7.0561     6.7524     7.9742
 1205.0000  -999.2500  -999.2500  -999.2500  -999.2500   -95.5711   -65.7796   110.7526     7.1600     6.7519     7.8630
 1205.5000  -999.2500  -999.2500  -999.2500  -999.2500   -95.5527   -66.1130   110.7438     7.2434     6.7515     7.7533
 1206.0000  -999.2500  -999.2500  -999.2500  -999.2500   -95.5343   -46.7375   110.7350     7.1433     6.8455     7.6452
 1206.5000  -999.2500  -999.2500  -999.2500  -999.2500   -95.5159   -46.7040   112.0154     7.0446     6.8450     7.6441
 1207.0000  -999.2500  -999.2500  -999.2500  -999.2500   -95.4975   -66.0117   115.2398     7.0446     6.8446     7.7502
 1207.5000  -999.2500  -999.2500  -999.2500  -999.2500   -95.4791   -65.6860   119.3628     7.0446     6.8441     7.8750
 1208.0000  -999.2500  -999.2500  -999.2500  -999.2500   -95.4608   -65.2358   120.9408     6.9473     6.7491     8.0783
 1208.5000  -999.2500  -999.2500  -999.2500  -999.2500   -95.4422   -45.2500   120.1496     6.9473     6.8432     8.0771
 1209.0000  -999.2500  -999.2500  -999.2500  -999.2500   -95.4244   -45.2500   120.3208     6.9473     6.8427     8.0759
 1209.5000  -999.2500  -999.2500  -999.2500  -999.2500   -95.4056   -45.2500   120.9145     6.9473     6.7477     8.0326
 1210.0000  -999.2500  -999.2500  -999.2500  -999.2500   -95.3863   -64.7500   122.1084     6.9473     6.7472     7.9145
