~VERSION INFORMATION
 VERS.                2.0:   CWLS LOG ASCII STANDARD - VERSION 2.0
 WRAP.                 NO:   ONE LINE PER DEPTH STEP
~WELL INFORMATION
#MNEM.UNIT      DATA TYPE    INFORMATION
#----------   ------------   ------------------------------
 STRT.F          212.0000:   START DEPTH
 STOP.F         3042.0000:   STOP DEPTH
 STEP.F            0.5000:   STEP LENGTH
 NULL.          -999.2500:   NO VALUE
 COMP.    FENIX & SCISSON:   COMPANY
 WELL.   FENIX "A" #74-28:   WELL
 FLD .             NPR #3:   FIELD
 LOC .      S28 T39N R78W:   LOCATION
 CNTY.            NATRONA:   COUNTY
 STAT.            WYOMING:   STATE
 CTRY. UNITED STATES OF AMERICA:   COUNTRY
 SRVC.              WELEX:   SERVICE COMPANY
 DATE.        03-AUG-1977:   LOGDATE
 API .     49025104080000:   API NUMBER
~CURVE INFORMATION
#MNEM.UNIT       API CODE    CURVE DESCRIPTION
#----------   ------------   ------------------------------
 DEPT.F                  :   
 SPR .MV     07 010 01 00:   SPONTANEOUS POTENTIAL
 ILD .OHMM   07 120 46 00:   INDUCTION LOG DEEP RESISTIVITY
 ILM .OHMM   07 120 44 00:   INDUCTION LOG MEDIUM RESISTIVITY
 SFLU.OHMM   07 220 01 00:   SPHERICALLY FOCUSED LOG UNAVERAGED RESISTIVITY
 CALD.IN     45 280 60 00:   CALIPER FROM DENSITY LOG
 GRD .GAPI   45 310 01 00:   GAMMA RAY FROM DENSITY LOG
 CORR.G/C3   45 356 01 00:   DENSITY CORRECTION
 RHOB.G/C3   45 350 01 00:   BULK DENSITY
~PARAMETER INFORMATION
#MNEM.UNIT          VALUE    DESCRIPTION
#----------   ------------   ------------------------------
 EKB .F         5050.0000:   Kelly bushing
 EGL .F         5040.0000:   Ground level
 EDF .F            0.0000:   Drilling floor
 TD  .F         3044.0000:   Total depth
 DATE.        03-AUG-1977:   Date logged
 CLNT.            A2DTECH:   Client Code
 SL  . 2310' FNL & 930' FEL:   Surface Location
 PD  .                 GL:   Permanent Datum
 EPD .F              5040:   Elevation Permanent Datum
 LMF .                 KB:   Log Measured From
 DMF .                 KB:   Drilling Measured From
 DAPD.F                10:   Feet Above Permanent Datum
 DD  .F              3044:   Depth driller
 DL  .F              3044:   Depth logger
 BLI .F              3042:   Bottom log interval
 TLI .F               238:   Top log interval
 CS1 .IN            8.625:   Casing size
 CBD1.      8.625" @ 220':   Casing driller 1
 CBL1.F               238:   Casing logger 1
 BS1 .IN            7.875:   Bit size
 BSD1.F              3044:   Depth drilled with bit1
 DFT .            KCL MUD:   Type fluid in hole
 DFV .                 35:   Viscosity
 DFPH.               10.5:   pH
 DFL .                7.2:   Fluid loss
 MSS .           FLOWLINE:   Source of sample
 RMS .OHMM           1.13:   Rm
 MST .F                84:   Rm Meas. temp.
 RMF .OHMM           0.77:   Rmf
 MFST.F                70:   Rmf Meas. temp.
 MFSS.           FANN KIT:   Source Rmf.
 MCSS.           FANN KIT:   Source Rmc.
 RMB .OHMM            .82:   Rm. at BHT
 BHT .F               118:   BHT.
 TCS .HRS               7:   Time Circ. stopped
 MRT .F               116:   Maximum recorded temp.
 LUN .               8611:   Logging unit number
 LUL .             CASPER:   Logging unit location
 ENGI.            C. DOAK:   Recorded By
 WITN.      W. PETTINGILL:   Witnessed by
 ORIG.         2.5" PRINT:   Origin of data
 UWI .     49025104080000:   Unique Well ID
 DICO. A2D TECHNOLOGIES, INC.:   Digitizing Company
~OTHER INFORMATION
~A   DEPT      SPR        ILD        ILM       SFLU         CALD       GRD       CORR        RHOB 
# ...
 1872.5000   -49.5430     6.6080     7.3910    12.1940     8.3200   166.3010     0.1320     2.4720
 1873.0000   -49.4910     6.5970     7.5630    12.4490     8.3360   164.9680     0.1070     2.4560
 1873.5000   -49.4390     6.5850     7.7350    12.8330     8.3530   165.6930     0.0980     2.4750
 1874.0000   -49.4060     6.5560     7.9070    12.7810     8.3700   166.2810     0.0850     2.4830
 1874.5000   -49.4280     6.5300     8.0790    12.2110     8.3860   166.8660     0.0720     2.4620
 1875.0000   -49.4500     6.5020     8.2510    11.7560     8.4020   167.3850     0.0600     2.4380
 1875.5000   -49.4730     6.4750     8.4230    12.3250     8.4230   168.2520     0.0480     2.4270
 1876.0000   -49.4950     6.4480     8.5630    12.9050     8.4050   169.8190     0.0340     2.4460
 1876.5000   -49.5180     6.4200     8.2750    13.6470     8.3360   169.8650     0.0330     2.4930
 1877.0000   -49.5400     6.3930     7.9070    13.4680     8.2730   169.8830     0.0410     2.5050
 1877.5000   -49.5630     6.3660     7.3760    12.5290     8.2700   169.8880     0.0490     2.5060
 1878.0000   -49.5850     6.3540     7.3960    11.1170     8.2680   169.8640     0.0460     2.5050
 1878.5000   -49.6080     6.3540     7.4310    11.3500     8.2700   169.8730     0.0360     2.4850
 1879.0000   -49.6300     6.3540     7.4660    12.1700     8.2690   170.0490     0.0260     2.4630
 1879.5000   -49.6530     6.3540     7.5010    12.1000     8.2690   172.1640     0.0160     2.4570
 1880.0000   -49.6750     6.3540     7.5360    11.9770     8.2690   174.4210     0.0150     2.4620
 1880.5000   -49.6980     6.3540     7.5710    12.9050     8.2690   172.7540     0.0190     2.4680
 1881.0000   -49.7210     6.3540     7.6060    12.6900     8.2690   170.8270     0.0230     2.4740
 1881.5000   -49.7430     6.3540     7.6410    12.2660     8.2690   168.7420     0.0260     2.4810
 1882.0000   -49.7650     6.3540     7.6760    11.6310     8.2690   166.7780     0.0300     2.4890
 1882.5000   -49.7890     6.3540     7.7110    11.7560     8.2690   165.1210     0.0300     2.4980
 1883.0000   -49.8010     6.3540     7.7460    11.9180     8.2690   165.0790     0.0300     2.5010
 1883.5000   -49.8000     6.3540     7.7820    12.1030     8.2690   165.0420     0.0300     2.4950
 1884.0000   -49.8000     6.3540     7.8010    12.2030     8.2690   165.1020     0.0300     2.4890
 1884.5000   -49.8000     6.3540     7.8010    11.8470     8.2690   164.5870     0.0300     2.4930
 1885.0000   -49.8000     6.3540     7.8010    11.5100     8.2690   163.5450     0.0300     2.5020
 1885.5000   -49.8000     6.3540     7.9450    11.1170     8.2690   162.4090     0.0300     2.5030
 1886.0000   -49.8000     6.3540     8.0840    11.4040     8.2690   162.3310     0.0300     2.4990
 1886.5000   -49.8000     6.3540     8.2490    12.2030     8.2690   164.0380     0.0300     2.5160
 1887.0000   -49.8000     6.3540     8.1690    12.4050     8.2690   165.7370     0.0410     2.5200
 1887.5000   -49.8000     6.3540     8.0710    12.6540     8.2690   165.7320     0.0580     2.5150
 1888.0000   -49.8000     6.3540     7.9730    12.9050     8.2690   165.5100     0.0740     2.5150
 1888.5000   -49.8000     6.3540     7.8750    12.6190     8.2680   165.2240     0.0910     2.5220
 1889.0000   -49.8000     6.3540     7.7770    12.3320     8.2660   164.9890     0.1010     2.5290
 1889.5000   -49.8000     6.3600     7.6660    12.0450     8.2640   164.7350     0.0990     2.5350
 1890.0000   -49.8000     6.3710     7.6840    11.9770     8.2630   164.5080     0.0980     2.5330
 1890.5000   -49.8000     6.3810     7.7200    11.9770     8.2610   164.1910     0.0960     2.5260
 1891.0000   -49.8000     6.3920     7.7550    11.1170     8.2600   164.6990     0.0940     2.5190
 1891.5000   -49.8000     6.4030     7.7910    11.7520     8.2580   165.0910     0.0790     2.5090
 1892.0000   -49.8000     6.4130     7.7320    12.2030     8.2560   165.6590     0.0600     2.4930
 1892.5000   -49.8000     6.4240     7.6400    12.4160     8.2550   161.3550     0.0430     2.4800
 1893.0000   -49.8000     6.4340     7.5470    12.6660     8.2530   161.0590     0.0240     2.4650
 1893.5000   -49.8000     6.4450     7.4540    12.3230     8.2520   161.9260     0.0210     2.4700
 1894.0000   -49.8000     6.4550     7.3620    11.7560     8.2500   164.4160     0.0190     2.4780
 1894.5000   -49.8000     6.4660     7.2400    11.8480     8.2480   166.6690     0.0180     2.4840
 1895.0000   -49.8000     6.4740     7.2990    12.0340     8.2470   167.4330     0.0160     2.4790
 1895.5000   -49.8010     6.4740     7.3860    12.2200     8.2450   166.9950     0.0150     2.4740
 1896.0000   -49.7850     6.4740     7.4730    12.4320     8.2430   166.6230     0.0140     2.4670
 1896.5000   -49.7270     6.4740     7.5600    12.3030     8.2420   166.2720     0.0120     2.4680
 1897.0000   -49.6710     6.4740     7.6470    11.9770     8.2400   165.8510     0.0110     2.4710
 1897.5000   -49.6140     6.4740     7.7340    11.9770     8.2390   165.5490     0.0090     2.4700
 1898.0000   -49.5570     6.4740     7.9470    12.3100     8.2370   165.1390     0.0080     2.4670
 1898.5000   -49.5010     6.4740     7.9930    12.6290     8.2350   167.1290     0.0070     2.4640
 1899.0000   -49.4440     6.4740     8.0990    12.9490     8.2350   169.6620     0.0060     2.4610
 1899.5000   -49.3870     6.4740     8.2060    13.3950     8.2310   172.1960     0.0070     2.4650
 1900.0000   -49.3300     6.4730     8.3130    13.2100     8.2300   174.9400     0.0080     2.4700
 1900.5000   -49.2730     6.4740     8.4190    12.9050     8.2370   176.1020     0.0090     2.4690
 1901.0000   -49.2160     6.4760     8.5260    13.0710     8.2730   175.0180     0.0100     2.4660
 1901.5000   -49.1600     6.4740     8.6320    13.3490     8.2660   174.1790     0.0110     2.4630
 1902.0000   -49.1020     6.4740     8.7390    13.6260     8.2670   173.3030     0.0120     2.4710
 1902.5000   -49.0450     6.4740     8.8880    13.9040     8.2650   171.8340     0.0140     2.4780
 1903.0000   -49.0060     6.5990     8.8390    13.1480     8.2640   170.2280     0.0150     2.4850
 1903.5000   -49.0590     6.8080     8.7240    13.2710     8.2630   168.5950     0.0160     2.4810
 1904.0000   -49.1030     6.9750     8.7430    13.3950     8.2620   166.8460     0.0170     2.4780
 1904.5000   -49.1530     6.8970     8.7740    14.1660     8.2600   165.8070     0.0180     2.4750
 1905.0000   -49.2000     6.8330     8.8060    14.1300     8.2590   166.7100     0.0190     2.4760
 1905.5000   -49.2470     6.7680     8.8370    14.0700     8.2580   167.5300     0.0200     2.4780
 1906.0000   -49.2970     6.7030     8.8880    14.0110     8.2570   168.4200     0.0210     2.4790
 1906.5000   -49.3410     6.6390     8.8480    13.9510     8.2560   169.2890     0.0220     2.4810
 1907.0000   -49.3950     6.5740     8.7470    13.9040     8.2540   170.1390     0.0230     2.4810
 1907.5000   -49.3620     6.5090     8.6460    13.6490     8.2530   171.0880     0.0260     2.4800
 1908.0000   -49.3150     6.4450     8.5460    13.3950     8.2520   171.2710     0.0290     2.4790
 1908.5000   -49.2660     6.3540     8.4450    12.9390     8.2510   170.5690     0.0320     2.4930
 1909.0000   -49.2190     6.3750     8.4040    11.8000     8.2500   170.0140     0.0340     2.5020
 1909.5000   -49.1710     6.4110     8.2990    11.1170     8.2480   169.4570     0.0300     2.4990
 1910.0000   -49.1240     6.4460     8.2110    14.1660     8.2470   168.1320     0.0280     2.4880
 1910.5000   -49.0760     6.4820     8.1230    14.1660     8.2460   169.7820     0.0240     2.4760
 1911.0000   -49.0290     6.5170     8.0350    13.6460     8.2450   172.5470     0.0210     2.4700
 1911.5000   -48.9810     6.5530     7.9470    12.7790     8.2440   172.2190     0.0180     2.4740
 1912.0000   -48.9330     6.5960     8.0860    12.4320     8.2420   172.2920     0.0190     2.4820
 1912.5000   -48.8860     6.6710     8.2250    14.4320     8.2410   172.1320     0.0280     2.4900
