~VERSION INFORMATION
 VERS.                2.0:   CWLS LOG ASCII STANDARD - VERSION 2.0
 WRAP.                 NO:   ONE LINE PER DEPTH STEP
~WELL INFORMATION
#MNEM.UNIT      DATA TYPE    INFORMATION
#----------   ------------   ------------------------------
 STRT.F          216.0000:   START DEPTH
 STOP.F         3241.0000:   STOP DEPTH
 STEP.F            0.5000:   STEP LENGTH
 NULL.          -999.2500:   NO VALUE
 COMP.    FENIX & SCISSON:   COMPANY
 WELL.    FENIX "A" #72-4:   WELL
 FLD .             NPR #3:   FIELD
 LOC .       S4 T38N R78W:   LOCATION
 CNTY.            NATRONA:   COUNTY
 STAT.            WYOMING:   STATE
 CTRY. UNITED STATES OF AMERICA:   COUNTRY
 SRVC.              WELEX:   SERVICE COMPANY
 DATE.        09-JUL-1977:   LOGDATE
 API .     49025103900000:   API NUMBER
~CURVE INFORMATION
#MNEM.UNIT       API CODE    CURVE DESCRIPTION
#----------   ------------   ------------------------------
 DEPT.F                  :   
 CORR.G/C3   45 356 01 00:   DENSITY CORRECTION
 GRD .GAPI   45 310 01 00:   GAMMA RAY FROM DENSITY LOG
 RHOB.G/C3   45 350 01 00:   BULK DENSITY
 CALD.IN     45 280 60 00:   CALIPER FROM DENSITY LOG
 SPR .MV     07 010 01 00:   SPONTANEOUS POTENTIAL
 ILD .OHMM   07 120 46 00:   DEEP INDUCTION RESISTIVITY
 ILM .OHMM   07 120 44 00:   INDUCTION LOG MEDIUM RESISTIVITY
 SGRD.OHMM   07 220 05 00:   SHALLOW SHORT GUARD RESISTIVITY
~PARAMETER INFORMATION
#MNEM.UNIT          VALUE    DESCRIPTION
#----------   ------------   ------------------------------
 EKB .F         5192.0000:   Kelly bushing
 EGL .F         5182.0000:   Ground level
 TD  .F         3243.0000:   Total depth
 CLNT.            A2DTECH:   Client Code
 SL  . 990' FNL & 990' FEL:   Surface Location
 PD  .                 GL:   Permanent Datum
 EPD .F              5182:   Elevation Permanent Datum
 LMF .                 KB:   Log Measured From
 DMF .                 KB:   Drilling Measured From
 DAPD.F                10:   Feet Above Permanent Datum
 DATE.        09-JUL-1977:   Date Logged [DD-MMM-YYYY]
 DD  .F              3230:   Depth driller
 DL  .F              3243:   Depth logger
 BLI .F              3241:   Bottom log interval
 TLI .F               224:   Top log interval
 CS1 .IN            8.625:   Casing size
 CBD1.      8.625" @ 221':   Casing driller 1
 CBL1.F               224:   Casing logger 1
 BS1 .IN            7.875:   Bit size
 BSD1.F              3230:   Depth drilled with bit1
 DFT .                KCL:   Type fluid in hole
 DFD .                8.9:   Density
 DFV .                 44:   Viscosity
 DFPH.                7.5:   pH
 DFL .                5.8:   Fluid loss
 MSS .            MUD PIT:   Source of sample
 RMS .OHMM           0.24:   Rm
 MST .F                68:   Rm Meas. temp.
 RMF .OHMM           0.20:   Rmf
 MFST.F                68:   Rmf Meas. temp.
 MFSS.               MEAS:   Source Rmf.
 RMC .OHMM           0.31:   Rmc
 MCST.F                68:   Rmc Meas. temp.
 MCSS.               MEAS:   Source Rmc.
 RMB .OHMM           0.13:   Rm. at BHT
 BHT .F               117:   BHT.
 TCS .HRS               3:   Time Circ. stopped
 MRT .F               117:   Maximum recorded temp.
 LUN .               8766:   Logging unit number
 LUL .             CASPER:   Logging unit location
 ENGI.          T. JOYNER:   Recorded By
 WITN.         HARRINGTON:   Witnessed by
 ORIG.           5" PRINT:   Origin of data
 UWI .     49025103900000:   Unique Well ID
 DICO. A2D TECHNOLOGIES, INC.:   Digitizing Company
~OTHER INFORMATION
~A   DEPT     CORR         GRD        RHOB     CALD        SPR        ILD        ILM       SGRD   
# ...
 1026.0000     0.0297    96.6343     2.5110    10.0328   -72.8800     8.2375     8.2058     9.8980
 1026.5000     0.0275    96.0674     2.5140    10.0493   -72.8189     8.1842     8.2104     9.9047
 1027.0000     0.0246    95.2012     2.5074    10.0510   -72.7579     8.1331     8.2158     9.8416
 1027.5000     0.0209    95.2316     2.4969    10.0686   -72.6970     8.0813     8.3347     9.5110
 1028.0000     0.0165    98.5395     2.4826    10.0838   -72.6360     8.0303     8.4553     9.3837
 1028.5000     0.0142    97.0291     2.4758    10.0880   -72.5750     7.8164     8.6971     9.2594
 1029.0000     0.0136    95.6173     2.4709    10.1017   -72.5140     7.7121     8.6418     9.2657
 1029.5000     0.0145    96.2499     2.4687    10.1179   -72.4530     7.6114     8.6465     9.4003
 1030.0000     0.0153    96.8752     2.4702    10.1194   -72.3921     7.5112     8.6511     9.5369
 1030.5000     0.0153    95.7122     2.4725    10.1210   -72.3311     7.5159     8.6558     9.6755
 1031.0000     0.0154    95.1452     2.4748    10.1523   -72.2701     7.4168     8.7207     9.6808
 1031.5000     0.0147    96.3667     2.4741    10.1388   -72.2091     7.4224     8.8578     9.6202
 1032.0000     0.0133    97.8862     2.4727    10.1253   -72.1481     7.4270     9.0383     9.6349
 1032.5000     0.0141    97.0212     2.4698    10.1119   -72.0872     7.5354     9.1679     9.6978
 1033.0000     0.0164    95.2620     2.4653    10.0984   -72.0262     7.6454     8.5611     9.7706
 1033.5000     0.0187    94.6945     2.4585    10.0555   -71.9652     7.7570     7.9384     9.7759
 1034.0000     0.0204    94.1282     2.4625    10.0271   -71.9043     7.8702     8.0533     9.8493
 1034.5000     0.0226    92.3197     2.4670    10.0132   -71.8434     7.9851     8.5159     9.8547
 1035.0000     0.0234    91.2059     2.4693    10.0151   -71.8003     8.2149     8.9431     9.8600
 1035.5000     0.0235    91.3113     2.4701    10.0165   -71.7750     8.3929     9.2629     9.8654
 1036.0000     0.0236    91.8678     2.4709    10.0180   -71.7497     8.5811     9.4690    10.2308
 1036.5000     0.0229    92.4931     2.4680    10.0194   -71.7245     8.8307     9.7338    11.0363
 1037.0000     0.0237    93.7145     2.4598    10.0209   -71.6993     9.0767    10.1516    11.3545
 1037.5000     0.0238    93.7437     2.4599    10.0224   -71.6741     9.2734    10.5874    11.4398
 1038.0000     0.0238    92.5807     2.4614    10.0239   -71.6488     9.3437    10.9657    11.3653
 1038.5000     0.0232    92.9079     2.4600     9.9954   -71.6236     9.5461    11.1244    11.5319
 1039.0000     0.0232    94.7255     2.4638     9.9973   -71.5984     9.7529    11.2854    11.5382
 1039.5000     0.0225    96.5431     2.4691     9.9689   -71.5732     9.8948    11.3698    11.5445
 1040.0000     0.0226    96.5723     2.4662     9.9852   -71.5480    10.0397    11.3760    11.5507
 1040.5000     0.0218    95.1112     2.4632    10.0016   -71.5228    10.1158    11.3822    11.6375
 1041.0000     0.0212    95.1416     2.4633     9.9882   -71.4975    10.1925    11.3885    11.6438
 1041.5000     0.0213    96.3691     2.4641     9.9896   -71.4724    10.1988    11.3159    11.6502
 1042.0000     0.0214    95.8022     2.4664     9.9911   -71.4471    10.2052    11.3235    11.6567
 1042.5000     0.0215    94.9299     2.4672     9.9827   -71.4195    10.2127    11.3296    11.5821
 1043.0000     0.0215    95.2645     2.4688     9.9940   -71.4823    10.2190    11.3357    11.5890
 1043.5000     0.0216    96.1805     2.4696     9.9805   -71.5779    10.2252    11.3418    11.5963
 1044.0000     0.0216    94.1233     2.4696     9.9821   -71.6745    10.2315    11.3480    11.6025
 1044.5000     0.0217    95.9482     2.4675     9.9838   -71.7711    10.0966    11.2756    11.6088
 1045.0000     0.0218    97.1696     2.4645     9.9851   -71.8672    10.0329    11.2042    11.5332
 1045.5000     0.0196    96.9008     2.4586     9.9867   -71.9634     9.9693    11.1330    11.4610
 1046.0000     0.0189    95.7377     2.4549     9.9731   -72.0116     9.8381    11.0622    11.3881
 1046.5000     0.0190    94.2766     2.4602     9.9594   -72.0118     9.6404    10.9177    11.3144
 1047.0000     0.0198    95.5985     2.4633     9.9613   -72.0121     9.4346    10.7721    11.0117
 1047.5000     0.0206    96.1234     2.4603     9.9329   -72.0120     9.0699    10.5566    10.5697
 1048.0000     0.0207    94.6695     2.4611     9.9343   -72.0120     8.9489    10.2755    10.2858
 1048.5000     0.0208    94.3934     2.4665     9.9209   -72.0120     8.8214    10.0700    10.1482
 1049.0000     0.0208    95.0187     2.4711     9.9074   -72.0120     8.7154     9.8006    10.0137
 1049.5000     0.0209    95.6513     2.4688     9.9092   -72.0120     8.4818     9.2782    10.0205
 1050.0000     0.0195    97.7670     2.4588     9.9107   -72.0120     8.2548     9.2192    10.0958
 1050.5000     0.0165    98.9884     2.4525     9.9122   -72.0120     8.2027     9.0614    10.1716
 1051.0000     0.0155    98.7196     2.4379     9.9136   -72.0120     8.1509     9.1321    10.1771
 1051.5000     0.0091    97.5207     2.4237     9.9141   -72.0119     8.1571     9.1382    10.1748
 1052.0000     0.0062    97.5382     2.4267     9.9147   -72.0119     8.1599     9.1059     9.9043
 1052.5000     0.0077    98.4551     2.4388     9.9158   -72.0049     8.1645     9.0701     9.8388
 1053.0000     0.0115    99.6860     2.4485     9.9317   -71.9912     8.1689     9.0344    10.0509
 1053.5000     0.0138    99.9762     2.4561     9.9477   -71.9775     8.1733     9.0146    10.1955
 1054.0000     0.0161    99.3969     2.4636     9.9337   -71.9638     8.1777     9.0184    10.2707
 1054.5000     0.0169    99.4189     2.4697     9.9348   -71.9500     8.1822     9.0215    10.2749
 1055.0000     0.0192   100.3307     2.4742     9.9358   -71.9363     8.1866     9.0245    10.2791
 1055.5000     0.0200   100.0458     2.4803     9.9369   -71.9226     8.1910     9.0277    10.2834
 1056.0000     0.0208   101.8561     2.4818     9.9528   -71.9088     8.1954     9.0313    10.2884
 1056.5000     0.0193   101.2732     2.4773     9.9539   -71.8951     8.1999     9.0339    10.2203
 1057.0000     0.0193   100.6946     2.4744     9.9551   -71.8814     8.0912     9.0374    10.2255
 1057.5000     0.0194   100.1205     2.4744     9.9562   -71.8676     8.0959     9.0405    10.3009
 1058.0000     0.0202    99.5419     2.4752     9.9572   -71.8539     8.1011     9.0435    10.2327
 1058.5000     0.0217   100.1556     2.4768     9.9582   -71.8402     8.1055     8.9834    10.2379
 1059.0000     0.0218   100.1732     2.4791     9.9742   -71.8264     8.1098     8.9252    10.2421
 1059.5000     0.0226   100.1908     2.4821     9.9752   -71.8127     8.0944     8.8651    10.1753
 1060.0000     0.0226   100.8048     2.4859     9.9610   -71.7990     8.0614     8.8085    10.1091
 1060.5000     0.0227    98.6954     2.4867     9.9922   -71.7852     8.0109     8.7507    10.1142
 1061.0000     0.0234   102.6324     2.4852     9.9931   -71.7715     7.9599     8.6933    10.1183
 1061.5000     0.0235   101.7558     2.4823     9.9942   -71.7578     7.9091     8.5767    10.1224
 1062.0000     0.0235    99.3889     2.4786    10.0102   -71.7440     7.9145     8.5211    10.1265
 1062.5000     0.0221   100.3006     2.4749    10.0261   -71.7303     7.9188     8.3489    10.1304
 1063.0000     0.0214   102.4046     2.4719    10.0272   -71.7165     7.8672     8.2369    10.1346
 1063.5000     0.0207   100.6338     2.4705    10.0282   -71.7028     7.8181     8.2397    10.1388
 1064.0000     0.0222   100.0509     2.4728    10.0293   -71.6891     7.8223     8.2425    10.0727
 1064.5000     0.0230   101.8612     2.4752    10.0278   -71.6753     7.8265     8.2453    10.0071
 1065.0000     0.0223   101.5764     2.4766    10.0164   -71.6616     7.7764     8.1918    10.0122
 1065.5000     0.0224   100.7041     2.4737    10.0176   -71.6479     7.7808     8.2515    10.0860
 1066.0000     0.0209    99.5295     2.4797    10.0187   -71.6341     7.8393     8.3693    10.1604
