~VERSION INFORMATION
 VERS.                2.0:   CWLS LOG ASCII STANDARD - VERSION 2.0
 WRAP.                 NO:   ONE LINE PER DEPTH STEP
~WELL INFORMATION
#MNEM.UNIT      DATA TYPE    INFORMATION
#----------   ------------   ------------------------------
 STRT.F           40.0000:   START DEPTH
 STOP.F         1336.0000:   STOP DEPTH
 STEP.F            0.5000:   STEP LENGTH
 NULL.          -999.2500:   NO VALUE
 COMP. LAWRENCE - ALLISON WEST:   COMPANY
 WELL. LAWRENCE NPR 3 "AX" #54-23:   WELL
 FLD .              N P R:   FIELD
 LOC .      S23 T38N R78W:   LOCATION
 CNTY.            NATRONA:   COUNTY
 STAT.            WYOMING:   STATE
 CTRY. UNITED STATES OF AMERICA:   COUNTRY
 SRVC.       SCHLUMBERGER:   SERVICE COMPANY
 DATE.        13-MAY-1982:   LOGDATE
 API .     49025108880000:   API NUMBER
~CURVE INFORMATION
#MNEM.UNIT       API CODE    CURVE DESCRIPTION
#----------   ------------   ------------------------------
 DEPT.F                  :   
 NPOR.DEC    42 890 03 00:   ALPHA PROCESSED NEUTRON POROSITY
 TEND.LBS    45 635 01 00:   TENSION FROM DENSITY LOG
 CORR.G/C3   45 356 01 00:   DENSITY CORRECTION
 RHOB.G/C3   45 350 01 00:   BULK DENSITY
 GRD .GAPI   45 310 01 00:   GAMMA RAY FROM DENSITY LOG
 CALD.IN     45 280 60 00:   CALIPER FROM DENSITY LOG
 SPR .MV     07 010 01 00:   SPONTANEOUS POTENTIAL
 TENR.LBS    07 635 01 00:   TENSION
 ILD .OHMM   07 120 46 00:   DEEP INDUCTION RESISTIVITY
 ILM .OHMM   07 120 44 00:   INDUCTION LOG MEDIUM RESISTIVITY
 SFL .OHMM   07 220 01 00:   SHALLOW FOCUSED LOG RESISTIVITY
~PARAMETER INFORMATION
#MNEM.UNIT          VALUE    DESCRIPTION
#----------   ------------   ------------------------------
 EKB .F         5342.0000:   Kelly bushing
 EGL .F         5332.0000:   Ground level
 EDF .F            0.0000:   Drilling floor
 TD  .F         1325.0000:   Total depth
 DATE.        13-MAY-1982:   Date logged
 CLNT.            A2DTECH:   Client Code
 SL  . 2278' FSL & 2665' FWL:   Surface Location
 PD  .                 GL:   Permanent Datum
 DD  .F              1325:   Depth driller
 DL  .F              1314:   Depth logger
 BLI .F              1308:   Bottom log interval
 CS1 .IN             15.5:   Casing size
 CBD1.        15.5" @ 40':   Casing driller 1
 CBL1.F                54:   Casing logger 1
 BS1 .IN            12.25:   Bit size
 DFT .             LT/GEL:   Type fluid in hole
 DFD .                8.9:   Density
 DFV .                 33:   Viscosity
 DFPH.                8.8:   pH
 DFL .                 16:   Fluid loss
 MSS .                PIT:   Source of sample
 RMS .OHMM           2.47:   Rm
 MST .F                61:   Rm Meas. temp.
 RMF .OHMM           2.12:   Rmf
 MFST.F                62:   Rmf Meas. temp.
 MFSS.               MEAS:   Source Rmf.
 RMB .OHMM           1.73:   Rm. at BHT
 BHT .F                87:   BHT.
 TCS .HRS            2300:   Time Circ. stopped
 MRT .F                87:   Maximum recorded temp.
 LUN .               8043:   Logging unit number
 LUL .               CSPR:   Logging unit location
 ENGI.        WAGNER/CSPR:   Recorded By
 WITN.           JENNINGS:   Witnessed by
 ORIG.           5" PRINT:   Origin of data
 UWI .     49025108880000:   Unique Well ID
 DICO. A2D TECHNOLOGIES, INC.:   Digitizing Company
 BSD1.F              1325:   Depth drilled with bit1
 EPD .F              5332:   Elevation Permanent Datum
 LMF .                 KB:   Log Measured From
 DMF .                 KB:   Drilling Measured From
 TLI .F                54:   Top log interval
 DAPD.F                10:   Feet Above Permanent Datum
~OTHER INFORMATION
~A   DEPT     NPOR       TEND       CORR       RHOB        GRD       CALD        SPR       TENR        ILD        ILM        SFL   
# ...
  467.0000     0.1390   147.7360     0.0030     2.4640   137.2560    13.2070   -24.2600    -7.6710     7.9110     7.7030     7.6530
  467.5000     0.1350   148.2390     0.0020     2.4600   139.0050    13.2070   -26.0290    -7.9760     7.9490     7.8080     7.6530
  468.0000     0.1430   148.7420     0.0010     2.4550   138.3990    13.2080   -26.0310    -8.2820     7.9860     7.8310     7.6530
  468.5000     0.1510   149.2460    -0.0010     2.4490   135.4180    13.2080   -26.0540    -8.5880     8.0230     7.8540     7.6530
  469.0000     0.1590   149.7490    -0.0050     2.4430   132.8270    13.2090   -25.0760    -8.8940     8.0610     7.8780     7.6530
  469.5000     0.1590   150.2530    -0.0090     2.4380   133.2000    13.2090   -24.1150    -9.2000     8.0980     7.9010     7.6530
  470.0000     0.1530   150.7560    -0.0030     2.4370   134.6260    13.2100   -23.7760    -9.5050     8.0980     7.9240     7.6530
  470.5000     0.1470   151.2600     0.0020     2.4500   136.2600    13.2100   -24.9650    -9.8110     8.0990     7.9470     7.6550
  471.0000     0.1430   151.7630     0.0070     2.4640   138.1160    13.2110   -25.2690   -10.1170     8.0990     7.9080     7.6390
  471.5000     0.1410   152.2670     0.0100     2.4740   139.3810    13.2110   -25.3960   -10.4230     8.0990     7.8690     7.6110
  472.0000     0.1390   152.7700     0.0070     2.4690   139.6580    13.2120   -24.3590   -10.7290     8.1010     7.8300     7.5850
  472.5000     0.1360   153.2740    -0.0060     2.4590   139.3260    13.2120   -22.6180   -11.0340     8.0970     7.7910     7.5590
  473.0000     0.1350   153.7770    -0.0020     2.4490   137.7510    13.2130   -20.7770   -11.3400     8.0320     7.7520     7.5330
  473.5000     0.1350   154.2810     0.0010     2.4400   135.1740    13.2130   -20.6140   -11.6460     7.9670     7.7130     7.5070
  474.0000     0.1370   154.7840    -0.0040     2.4310   132.6750    13.2160   -21.7750   -11.9520     7.9020     7.6740     7.4800
  474.5000     0.1420   155.2880    -0.0080     2.4230   131.0460    13.2210   -23.3470   -12.2580     7.8360     7.6350     7.4540
  475.0000     0.1470   155.7910    -0.0080     2.4300   131.6520    13.2270   -23.7040   -12.5630     7.7700     7.5960     7.4280
  475.5000     0.1520   156.2950    -0.0010     2.4420   132.5820    13.2320   -22.8310   -12.8690     7.7050     7.5570     7.4020
  476.0000     0.1570   156.7980     0.0050     2.4510   133.3800    13.2370   -21.4640   -13.1750     7.6390     7.5110     7.3700
  476.5000     0.1510   157.3010     0.0120     2.4510   133.9260    13.2430   -21.6830   -13.4810     7.5740     7.4360     7.2690
  477.0000     0.1450   157.8050     0.0140     2.4480   134.4700    13.2480   -22.5240   -13.7860     7.5080     7.3420     7.1430
  477.5000     0.1430   158.3080     0.0100     2.4470   135.0170    13.2530   -23.2750   -14.0920     7.4430     7.2480     7.0160
  478.0000     0.1560   158.8120     0.0060     2.4510   135.5420    13.2550   -23.2120   -14.3980     7.3770     7.1540     6.8900
  478.5000     0.1650   159.3150     0.0020     2.4520   136.1010    13.2550   -21.6570   -14.7040     7.3120     7.0600     6.7630
  479.0000     0.1630   159.8190     0.0010     2.4520   136.6440    13.2550   -20.4110   -14.6570     7.2330     6.9670     6.6370
  479.5000     0.1600   160.3220     0.0020     2.4580   137.1850    13.2550   -19.2280   -14.3760     7.1450     6.8730     6.5110
  480.0000     0.1610   160.8260     0.0100     2.4640   137.5290    13.2550   -20.9770   -14.0950     7.0360     6.7790     6.4240
  480.5000     0.1640   161.3290     0.0130     2.4640   137.5100    13.2550   -22.9380   -13.8130     6.9270     6.6850     6.3630
  481.0000     0.1670   161.8330     0.0110     2.4570   137.2800    13.2550   -23.9770   -13.5320     6.8170     6.5910     6.3030
  481.5000     0.1670   162.3360     0.0060     2.4450   137.2020    13.2550   -24.4870   -13.2510     6.7080     6.4980     6.2420
  482.0000     0.1660   160.4850     0.0000     2.4300   136.8750    13.2550   -24.2550   -12.9690     6.7080     6.4600     6.1820
  482.5000     0.1620   158.1400    -0.0040     2.4180   136.5880    13.2550   -24.2010   -12.6880     6.7080     6.4600     6.1210
  483.0000     0.1570   155.7940    -0.0060     2.4220   137.0870    13.2550   -25.3990   -12.4060     6.7080     6.4600     6.0610
  483.5000     0.1520   153.4480    -0.0080     2.4290   137.9190    13.2550   -26.1820   -12.1250     6.7080     6.4600     6.0000
  484.0000     0.1450   151.1030    -0.0090     2.4320   138.8390    13.2550   -25.4380   -11.8440     6.7080     6.3620     5.9400
  484.5000     0.1430   148.7570    -0.0080     2.4260   139.4380    13.2550   -24.2120   -11.5620     6.5540     6.2640     5.8790
  485.0000     0.1470   146.4110    -0.0070     2.4300   141.1610    13.2550   -23.0630   -11.2810     6.4260     6.1650     5.8790
  485.5000     0.1500   144.0660    -0.0030     2.4360   142.7420    13.2550   -21.9020   -11.0000     6.2980     6.0670     5.8790
  486.0000     0.1480   141.7200     0.0020     2.4430   141.8820    13.2560   -21.0310   -10.7180     6.1700     5.9690     5.8790
  486.5000     0.1430   139.3740     0.0100     2.4500   139.5200    13.2630   -22.1770   -10.4370     6.0420     5.8710     5.8050
  487.0000     0.1470   137.0290     0.0200     2.4530   137.2050    13.2700   -23.2730   -10.1550     5.9910     5.7720     5.6180
  487.5000     0.1540   134.6830     0.0220     2.4510   134.9020    13.2750   -23.4040    -9.8740     5.8710     5.6740     5.4310
  488.0000     0.1600   132.3370     0.0130     2.4430   132.5970    13.2680   -22.5070    -9.5930     5.7710     5.5560     5.2440
  488.5000     0.1630   129.9920     0.0040     2.4370   130.2970    13.2050   -20.7960    -9.3110     5.6710     5.4650     5.0570
  489.0000     0.1570   127.6460     0.0010     2.4370   128.0150    13.1410   -20.0910    -9.0300     5.5710     5.3500     5.1540
  489.5000     0.1610   125.3000     0.0050     2.4420   126.4050    13.1060   -20.6010    -8.7490     5.4710     5.2360     5.2510
  490.0000     0.1670   122.9550     0.0060     2.4410   129.0940    13.0970   -21.2130    -8.4670     5.3510     5.1220     5.0220
  490.5000     0.1730   122.4490     0.0020     2.4340   133.4220    13.0870   -22.9320    -8.1860     5.2730     5.0070     4.7920
  491.0000     0.1730   124.0950     0.0020     2.4310   136.6290    13.0780   -24.6990    -7.9040     5.1760     4.8700     4.5170
  491.5000     0.1610   125.7410     0.0070     2.4330   138.7970    13.0700   -24.9440    -7.6230     5.0790     4.6970     4.5920
  492.0000     0.1520   127.3870     0.0140     2.4350   136.0430    13.0700   -24.5620    -7.3420     4.9630     4.3500     4.6850
  492.5000     0.1590   129.0320     0.0150     2.4290   131.9690    13.0700   -23.8350    -7.0600     5.0000     4.4360     4.7790
  493.0000     0.1660   130.6780     0.0100     2.4230   128.6190    13.0700   -23.1680    -6.7790     5.0570     4.6530     4.8720
  493.5000     0.1730   132.3240     0.0040     2.4250   127.3370    13.0700   -22.9780    -6.4980     5.1160     4.8700     4.9660
  494.0000     0.1810   133.9700     0.0020     2.4350   128.9090    13.0700   -24.2520    -6.2160     5.1890     4.8890     5.0600
  494.5000     0.1880   135.6150     0.0010     2.4450   130.7990    13.0700   -24.9540    -5.9350     5.2630     4.9090     5.1530
  495.0000     0.1920   137.2610     0.0000     2.4560   132.9980    13.0700   -24.8670    -5.6540     5.3510     4.9280     5.1660
  495.5000     0.1880   138.9070     0.0030     2.4600   136.2200    13.0700   -24.6850    -5.3720     5.3680     4.9470     5.1790
  496.0000     0.1730   140.5530     0.0060     2.4510   139.3610    13.0700   -24.5130    -5.0910     5.3890     4.9630     5.1920
  496.5000     0.1510   142.1980     0.0070     2.4380   142.9400    13.0700   -24.3270    -4.8090     5.4100     4.9630     5.2050
  497.0000     0.1560   143.8440     0.0020     2.4250   143.2910    13.0690   -24.1280    -4.5280     5.4320     4.9630     5.2180
