~VERSION INFORMATION
 VERS.                2.0:   CWLS LOG ASCII STANDARD - VERSION 2.0
 WRAP.                 NO:   ONE LINE PER DEPTH STEP
~WELL INFORMATION
#MNEM.UNIT      DATA TYPE    INFORMATION
#----------   ------------   ------------------------------
 STRT.F            0.0000:   START DEPTH
 STOP.F         1165.5000:   STOP DEPTH
 STEP.F            0.5000:   STEP LENGTH
 NULL.          -999.2500:   NO VALUE
 COMP.   JOHN BROWN E & C:   COMPANY
 WELL. BROWN NPR 3 "X" 1 #63-14:   WELL
 FLD .                NPR:   FIELD
 LOC .      S14 T38N R78W:   LOCATION
 CNTY.            NATRONA:   COUNTY
 STAT.            WYOMING:   STATE
 CTRY. UNITED STATES OF AMERICA:   COUNTRY
 SRVC.     ATLAS WIRELINE:   SERVICE COMPANY
 DATE.        15-JAN-1992:   LOGDATE
 API .     49025224960000:   API NUMBER
~CURVE INFORMATION
#MNEM.UNIT       API CODE    CURVE DESCRIPTION
#----------   ------------   ------------------------------
 DEPT.F                  :   
 GRR .GAPI   07 310 01 00:   GAMMA RAY FROM RESISTIVITY
 RILD.OHMM   07 120 46 00:   INDUCTION LOG DEEP RESISTIVITY
 RILM.OHMM   07 120 44 00:   INDUCTION LOG MEDIUM RESISTIVITY
 TENR.LBS    07 635 01 00:   TENSION
~PARAMETER INFORMATION
#MNEM.UNIT          VALUE    DESCRIPTION
#----------   ------------   ------------------------------
 EKB .F         5270.0000:   Kelly bushing
 EGL .F         5260.0000:   Ground level
 EDF .F         5269.0000:   Drilling floor
 TD  .F         1160.0000:   Total depth
 DATE.        15-JAN-1992:   Date logged
 CLNT.            A2DTECH:   Client Code
 SL  . 1893' FNL & 1971' FEL:   Surface Location
 PD  .                 GL:   Permanent Datum
 EPD .F              5260:   Elevation Permanent Datum
 LMF .                 KB:   Log Measured From
 DMF .                 KB:   Drilling Measured From
 DAPD.F                10:   Feet Above Permanent Datum
 DD  .F              1160:   Depth driller
 DL  .F              1158:   Depth logger
 BLI .F              1150:   Bottom log interval
 CS1 .IN            9.625:   Casing size
 CBD1.       9.625" @ 50':   Casing driller 1
 CBL1.F                48:   Casing logger 1
 BS1 .IN             8.75:   Bit size
 BSD1.F              1160:   Depth drilled with bit1
 DFT .                AIR:   Type fluid in hole
 MRT .F                90:   Maximum recorded temp.
 LUN .            HL-6274:   Logging unit number
 LUL .             CASPER:   Logging unit location
 ENGI.             RAUTIO:   Recorded By
 WITN.        GARY STRONG:   Witnessed by
 ORIG.           5" PRINT:   Origin of data
 UWI .     49025224960000:   Unique Well ID
 DICO. A2D TECHNOLOGIES, INC.:   Digitizing Company
 TLI .F                 0:   Top log interval
~OTHER INFORMATION
~A    DEPT      GRR      RILD       RILM       TENR   
# ...
  219.0000   127.9800     6.0450     6.1610    16.0480
  219.5000   127.5500     6.0450     6.1730    16.1250
  220.0000   128.1170     6.0450     6.1860    16.2010
  220.5000   131.3160     6.0450     6.1980    16.2780
  221.0000   132.9230     6.0440     6.2100    16.3540
  221.5000   128.7850     6.0460     6.2410    16.4310
  222.0000   123.4590     6.1820     6.3810    16.5070
  222.5000   126.0460     6.3220     6.5200    16.5840
  223.0000   130.0370     6.4610     6.6600    16.6600
  223.5000   132.7840     6.5710     6.7990    16.7370
  224.0000   130.5560     6.6320     6.8830    16.8130
  224.5000   126.7610     6.6320     6.8360    16.8680
  225.0000   122.9640     6.5660     6.7390    16.8680
  225.5000   120.6590     6.4310     6.6320    16.8680
  226.0000   120.6860     6.2960     6.5880    16.8680
  226.5000   120.6780     6.1610     6.4510    16.8680
  227.0000   120.4300     6.0290     6.3140    16.8680
  227.5000   119.7670     5.8980     6.1780    16.8680
  228.0000   118.0020     5.7670     6.0410    16.8680
  228.5000   120.0560     5.6370     5.9040    16.8680
  229.0000   122.1160     5.5870     5.7710    16.8680
  229.5000   123.9500     5.5270     5.7370    16.8680
  230.0000   123.9060     5.4590     5.6830    16.8680
  230.5000   123.8860     5.4770     5.6130    16.8680
  231.0000   123.1300     5.4980     5.6270    16.8680
  231.5000   120.9390     5.5190     5.6480    16.8680
  232.0000   118.7830     5.5400     5.6690    16.8680
  232.5000   117.1350     5.5610     5.6910    16.8680
  233.0000   117.7840     5.5830     5.7120    16.8680
  233.5000   117.5050     5.6130     5.7330    16.8680
  234.0000   117.0130     5.6040     5.7540    16.8680
  234.5000   115.4900     5.5890     5.7710    16.8680
  235.0000   115.4930     5.5740     5.7450    16.8680
  235.5000   117.2110     5.5590     5.7190    16.8680
  236.0000   119.8880     5.5440     5.6930    16.8680
  236.5000   122.6180     5.5290     5.6670    16.8680
  237.0000   123.0130     5.5140     5.6410    16.8680
  237.5000   121.4030     5.4790     5.6150    16.8680
  238.0000   120.6120     5.4350     5.5890    16.8680
  238.5000   120.4480     5.3900     5.5630    16.8680
  239.0000   120.2330     5.3460     5.5360    16.8680
  239.5000   118.5910     5.3090     5.5090    16.8680
  240.0000   117.0110     5.4180     5.5660    16.8680
  240.5000   114.9780     5.4740     5.6240    16.8680
  241.0000   113.0950     5.5300     5.6820    16.8680
  241.5000   113.2040     5.5860     5.7400    16.8680
  242.0000   113.3610     5.6420     5.7990    16.8680
  242.5000   112.8810     5.6970     5.8570    16.8680
  243.0000   111.6910     5.7530     5.9150    16.8680
  243.5000   110.4030     5.8130     5.9620    16.8680
  244.0000   108.6400     5.8740     6.0020    16.8680
  244.5000   106.8340     5.9360     6.0430    16.8680
  245.0000   104.9680     5.9890     6.0840    16.8680
  245.5000   104.6990     5.9890     6.1240    16.8680
  246.0000   108.1670     5.9890     6.1580    16.8680
  246.5000   111.8610     5.9890     6.1510    16.8680
  247.0000   115.4360     5.9890     6.1430    16.8680
  247.5000   116.3970     5.9800     6.1350    16.8680
  248.0000   114.9460     5.9690     6.1270    16.8680
  248.5000   110.5540     5.9580     6.1190    16.8680
  249.0000   108.8570     5.9460     6.1120    16.8680
  249.5000   110.2000     5.9350     6.1040    16.8680
  250.0000   113.0280     5.8890     6.0830    16.8680
  250.5000   116.4070     5.8370     6.0190    16.8680
  251.0000   119.8190     5.7860     5.9550    16.8680
  251.5000   123.0330     5.7350     5.8920    16.8680
  252.0000   124.7660     5.6840     5.8280    16.8680
  252.5000   125.2210     5.6330     5.7650    16.8680
  253.0000   125.3860     5.6090     5.7010    16.8680
  253.5000   125.7880     5.6020     5.6650    16.8680
  254.0000   127.1970     5.5950     5.6870    16.8680
  254.5000   128.5840     5.5880     5.7050    16.8680
  255.0000   127.7580     5.5810     5.7240    16.8680
  255.5000   126.6520     5.5750     5.7420    16.8680
  256.0000   125.5630     5.5680     5.7600    16.8680
  256.5000   126.2740     5.5610     5.7780    16.8680
  257.0000   127.1500     5.6260     5.7960    16.8680
  257.5000   124.2440     5.6440     5.8140    16.8680
  258.0000   120.5800     5.6620     5.8290    16.8680
  258.5000   117.0880     5.6800     5.8460    16.8680
  259.0000   115.7340     5.6980     5.8630    16.8680
  259.5000   115.5780     5.7160     5.8790    16.8680
  260.0000   116.8450     5.8690     6.0670    16.8680
  260.5000   120.4380     6.0410     6.2420    16.8680
  261.0000   123.9540     6.2130     6.4170    16.8680
  261.5000   127.3650     6.3840     6.5910    16.8680
  262.0000   126.3160     6.5560     6.7660    16.8680
  262.5000   120.6940     6.7260     6.9400    16.8680
  263.0000   114.4460     6.8870     7.1430    16.8680
  263.5000   115.4970     6.9470     7.1430    16.8680
  264.0000   118.5460     6.8620     7.0380    16.8680
  264.5000   121.5130     6.8030     6.9640    16.8680
  265.0000   123.0330     6.7430     6.8900    16.8680
  265.5000   123.2690     6.6840     6.8160    16.8680
  266.0000   123.4190     6.6210     6.7430    16.8680
  266.5000   125.6130     6.5360     6.6690    16.8680
  267.0000   127.8330     6.4510     6.5950    16.8680
  267.5000   126.0860     6.3660     6.5210    16.8680
  268.0000   120.7540     6.2810     6.4470    16.8680
  268.5000   120.1650     6.2160     6.3910    16.8680
  269.0000   129.4620     6.3790     6.5130    16.8680
  269.5000   135.3270     6.5050     6.6580    16.8680
  270.0000   135.8110     6.6310     6.8030    16.8680
  270.5000   133.4920     6.7560     6.9480    16.8680
  271.0000   131.1990     6.8820     7.0920    16.8680
  271.5000   131.2350     7.0080     7.2370    16.8680
  272.0000   131.9000     7.1330     7.3820    16.8680
  272.5000   132.1580     7.2650     7.4900    16.8680
  273.0000   131.7030     7.4060     7.6210    16.8680
  273.5000   130.9710     7.5470     7.7520    16.8680
  274.0000   129.8200     7.6880     7.8830    16.8680
  274.5000   127.5530     7.8290     8.0140    16.8680
  275.0000   125.2320     7.9840     8.2100    16.8680
  275.5000   125.6800     7.9640     8.1740    16.8680
  276.0000   127.0350     7.9350     8.1040    16.8680
  276.5000   127.1140     7.9110     8.0330    16.8680
  277.0000   127.4430     7.8160     7.9630    16.8680
  277.5000   129.5140     7.7190     7.8930    16.8680
  278.0000   131.5570     7.6230     7.8380    16.8680
  278.5000   132.7050     7.3950     7.6060    16.8680
  279.0000   132.6080     7.1190     7.3790    16.8680
  279.5000   132.5240     6.8430     7.1520    16.8680
  280.0000   132.4370     6.7570     6.9470    16.8680
  280.5000   132.3340     6.7920     6.9700    16.8680
  281.0000   133.0800     6.8240     6.9910    16.8680
  281.5000   134.1690     6.8570     7.0120    16.8680
  282.0000   132.4560     6.8830     7.0120    16.8680
  282.5000   129.9990     6.8040     6.9680    16.8680
  283.0000   127.4910     6.7370     6.9240    16.8680
  283.5000   127.1820     6.6690     6.8790    16.8680
  284.0000   129.2150     6.5680     6.8340    16.8680
  284.5000   131.2840     6.4250     6.6820    16.8680
  285.0000   133.4370     6.2830     6.5230    16.8680
  285.5000   133.2040     6.1400     6.3630    16.8680
  286.0000   132.2100     5.9890     6.2040    16.8680
  286.5000   131.8530     5.9890     6.1010    16.8680
  287.0000   132.8530     5.9850     6.1010    16.8680
  287.5000   133.8300     5.9780     6.1010    16.8680
  288.0000   134.8220     5.9710     6.1010    16.8680
  288.5000   135.8520     5.9650     6.1010    16.8680
  289.0000   134.9790     5.9580     6.1010    16.8680
  289.5000   130.7140     5.9510     6.1010    16.8680
  290.0000   126.4820     5.9440     6.1010    16.7670
  290.5000   122.2520     5.9370     6.1010    16.6510
  291.0000   120.3040     5.9080     6.0940    16.5360
  291.5000   121.8420     5.8590     6.0410    16.4210
