~VERSION INFORMATION
 VERS.                2.0:   CWLS LOG ASCII STANDARD - VERSION 2.0
 WRAP.                 NO:   ONE LINE PER DEPTH STEP
~WELL INFORMATION
#MNEM.UNIT      DATA TYPE    INFORMATION
#----------   ------------   ------------------------------
 STRT.F           50.0000:   START DEPTH
 STOP.F         3270.0000:   STOP DEPTH
 STEP.F            0.5000:   STEP LENGTH
 NULL.          -999.2500:   NO VALUE
 COMP.   LAWRENCE ALLISON:   COMPANY
 WELL. LAWRENCE NPR 3 "AX" #12-11:   WELL
 FLD .                NPR:   FIELD
 LOC .      S11 T38N R78W:   LOCATION
 CNTY.            NATRONA:   COUNTY
 STAT.            WYOMING:   STATE
 CTRY. UNITED STATES OF AMERICA:   COUNTRY
 SRVC.      DRESSER ATLAS:   SERVICE COMPANY
 DATE.        18-JUL-1985:   LOGDATE
 API .     49025110460000:   API NUMBER
~CURVE INFORMATION
#MNEM.UNIT       API CODE    CURVE DESCRIPTION
#----------   ------------   ------------------------------
 DEPT.F                  :   
 TEND.LBS    45 635 01 00:   TENSION FROM DENSITY LOG
 RHOB.G/C3   45 350 01 00:   BULK DENSITY
 CORR.G/C3   45 356 01 00:   DENSITY CORRECTION
 NPHI.DEC    42 890 03 00:   NEUTRON POROSITY SANDSTONE
 TENR.LBS    07 635 01 00:   TENSION
 GRR .GAPI   07 310 01 00:   GAMMA RAY FROM RESISTIVITY
 RFOC.OHMM   07 220 01 00:   RESISTIVITY FOCUSED LOG RES.
 RILD.OHMM   07 120 46 00:   INDUCTION LOG DEEP RESISTIVITY
 RILM.OHMM   07 120 44 00:   INDUCTION LOG MEDIUM RESISTIVITY
 SN  .OHMM   01 040 00 00:   SHORT NORMAL
 ILD .OHMM   07 120 46 00:   INDUCTION LOG DEEP RESISTIVITY
 TENS.LBS    60 635 01 00:   TENSION FROM SONIC LOG
 DT  .US/F   60 520 00 00:   DELTA TIME
 SPR .MV     07 010 01 00:   SPONTANEOUS POTENTIAL
~PARAMETER INFORMATION
#MNEM.UNIT          VALUE    DESCRIPTION
#----------   ------------   ------------------------------
 EKB .F         5152.0000:   Kelly bushing
 EGL .F         5140.0000:   Ground level
 EDF .F            0.0000:   Drilling floor
 TD  .F         3271.0000:   Total depth
 DATE.        18-JUL-1985:   Date logged
 CLNT.            A2DTECH:   Client Code
 SL  . 1050' FNL & 150' FWL:   Surface Location
 PD  .                 GL:   Permanent Datum
 EPD .F              5140:   Elevation Permanent Datum
 LMF .                 KB:   Log Measured From
 DMF .                 KB:   Drilling Measured From
 DAPD.F                12:   Feet Above Permanent Datum
 DD  .F              3271:   Depth driller
 DL  .F              3262:   Depth logger
 BLI .F              3259:   Bottom log interval
 CS1 .IN            8.625:   Casing size
 CBD1.      8.625" @ 560':   Casing driller 1
 CBL1.F               560:   Casing logger 1
 BS1 .IN            7.875:   Bit size
 BSD1.F              3271:   Depth drilled with bit1
 DFT .            GEL/KCL:   Type fluid in hole
 DFD .                8.8:   Density
 DFV .                 40:   Viscosity
 DFPH.                  8:   pH
 DFL .                  8:   Fluid loss
 MSS .           MUD/TANK:   Source of sample
 RMS .OHMM            .31:   Rm
 MST .F                82:   Rm Meas. temp.
 RMF .OHMM            .25:   Rmf
 MFST.F                82:   Rmf Meas. temp.
 RMC .OHMM            .39:   Rmc
 MCST.F                82:   Rmc Meas. temp.
 MFSS.               MEAS:   Source Rmf.
 MCSS.               CALC:   Source Rmc.
 RMB .OHMM           .198:   Rm. at BHT
 BHT .F               128:   BHT.
 TCS .HRS               3:   Time Circ. stopped
 MRT .F               128:   Maximum recorded temp.
 LUN .            HL-6274:   Logging unit number
 LUL .           GILLETTE:   Logging unit location
 ENGI.             RAUTIO:   Recorded By
 WITN.             STRONG:   Witnessed by
 ORIG.           5" PRINT:   Origin of data
 UWI .     49025110460000:   Unique Well ID
 DICO. A2D TECHNOLOGIES, INC.:   Digitizing Company
~OTHER INFORMATION
~A   DEPT     TEND       RHOB       CORR       NPHI       TENR        GRR       RFOC       RILD       RILM           SN        ILD     TENS         DT         SPR  
# ...
 2206.0000  -999.2500  -999.2500  -999.2500  -999.2500   -69.3700   102.2020     5.3080     6.0800     5.2350  -999.2500  -999.2500   -56.1210    96.1320    60.8560
 2206.5000  -999.2500  -999.2500  -999.2500  -999.2500   -69.4410   106.4200     6.5500     6.1170     5.6240  -999.2500  -999.2500   -56.3100    93.4640    60.7370
 2207.0000  -999.2500  -999.2500  -999.2500  -999.2500   -69.5120   109.2290     7.7910     6.2040     6.0130  -999.2500  -999.2500   -56.5620    92.4400    60.6180
 2207.5000  -999.2500  -999.2500  -999.2500  -999.2500   -69.5830   111.6220     8.2070     6.4320     6.1740  -999.2500  -999.2500   -56.8140    92.6700    60.4990
 2208.0000  -999.2500  -999.2500  -999.2500  -999.2500   -69.6540   112.4880     8.0970     6.6600     6.1740  -999.2500  -999.2500   -57.0660    93.2020    60.3810
 2208.5000  -999.2500  -999.2500  -999.2500  -999.2500   -69.7250   111.8290     7.9120     6.7680     6.1740  -999.2500  -999.2500   -57.3180    93.8420    60.2590
 2209.0000  -999.2500  -999.2500  -999.2500  -999.2500   -69.7960   111.0530     7.6610     6.4680     5.7390  -999.2500  -999.2500   -57.5700    94.4820    60.3110
 2209.5000  -999.2500  -999.2500  -999.2500  -999.2500   -69.8670   111.3710     7.4890     6.0960     5.3050  -999.2500  -999.2500   -57.8220    95.1210    60.4520
 2210.0000  -999.2500  -999.2500  -999.2500  -999.2500   -69.9380   111.6620     7.3180     5.7230     4.8920  -999.2500  -999.2500   -58.0740    95.7610    60.5940
 2210.5000  -999.2500  -999.2500  -999.2500  -999.2500   -70.0090   109.3810     7.1510     5.3510     4.4140  -999.2500  -999.2500   -58.3260    96.4010    60.7460
 2211.0000  -999.2500  -999.2500  -999.2500  -999.2500   -70.0800   106.6850     6.0370     5.0580     4.1980  -999.2500  -999.2500   -58.5780    97.0410    60.9740
 2211.5000  -999.2500  -999.2500  -999.2500  -999.2500   -70.1510   103.9710     4.9510     4.8720     4.2730  -999.2500  -999.2500   -58.8300    97.7190    60.9650
 2212.0000  -999.2500  -999.2500  -999.2500  -999.2500   -70.2220   101.3010     4.5180     4.7310     4.3620  -999.2500  -999.2500   -59.0820    97.4360    60.8880
 2212.5000  -999.2500  -999.2500  -999.2500  -999.2500   -70.2930   101.3330     4.9130     4.6740     4.4520  -999.2500  -999.2500   -59.3340    96.3130    60.8110
 2213.0000  -999.2500  -999.2500  -999.2500  -999.2500   -70.3640   101.8030     5.3810     4.6440     4.5180  -999.2500  -999.2500   -59.5860    95.1900    60.7360
 2213.5000  -999.2500  -999.2500  -999.2500  -999.2500   -70.4350   105.2690     5.8490     4.6870     4.5180  -999.2500  -999.2500   -59.8380    94.1590    60.6610
 2214.0000  -999.2500  -999.2500  -999.2500  -999.2500   -70.5060   109.1640     6.0060     4.8170     4.5580  -999.2500  -999.2500   -60.0900    94.0160    60.5860
 2214.5000  -999.2500  -999.2500  -999.2500  -999.2500   -70.5770   109.4640     5.7220     5.0910     4.6020  -999.2500  -999.2500   -60.3420    94.2510    60.5110
 2215.0000  -999.2500  -999.2500  -999.2500  -999.2500   -70.6480   109.5540     5.5300     4.9940     4.5290  -999.2500  -999.2500   -60.5950    94.4860    60.4340
 2215.5000  -999.2500  -999.2500  -999.2500  -999.2500   -70.7180   109.6520     5.9050     4.8510     4.3750  -999.2500  -999.2500   -60.8470    94.7310    60.4170
 2216.0000  -999.2500  -999.2500  -999.2500  -999.2500   -70.7890   109.0380     6.2880     4.7080     4.2220  -999.2500  -999.2500   -61.0990    94.9960    60.4150
 2216.5000  -999.2500  -999.2500  -999.2500  -999.2500   -70.8600   106.7100     5.8710     4.5650     4.0690  -999.2500  -999.2500   -61.3510    95.3230    60.4190
 2217.0000  -999.2500  -999.2500  -999.2500  -999.2500   -70.9310   106.0900     5.2680     4.4210     3.9010  -999.2500  -999.2500   -61.6030    95.9130    60.4370
 2217.5000  -999.2500  -999.2500  -999.2500  -999.2500   -71.0020   108.1320     5.0450     4.2780     3.8300  -999.2500  -999.2500   -61.8550    96.5240    60.2190
 2218.0000  -999.2500  -999.2500  -999.2500  -999.2500   -71.0730   109.9880     4.9530     4.1730     3.8300  -999.2500  -999.2500   -62.1070    96.7830    60.2190
 2218.5000  -999.2500  -999.2500  -999.2500  -999.2500   -71.1440   107.4210     4.6630     4.2850     3.9700  -999.2500  -999.2500   -62.3590    97.0520    60.1120
 2219.0000  -999.2500  -999.2500  -999.2500  -999.2500   -71.2150   104.6660     4.2370     4.3980     4.1220  -999.2500  -999.2500   -62.6110    97.1750    60.0030
 2219.5000  -999.2500  -999.2500  -999.2500  -999.2500   -71.2860   103.1700     4.5240     4.5180     4.2740  -999.2500  -999.2500   -62.8630    96.8230    59.8950
 2220.0000  -999.2500  -999.2500  -999.2500  -999.2500   -71.3570   105.7380     5.0860     4.5180     4.4360  -999.2500  -999.2500   -63.1150    95.6270    59.7870
 2220.5000  -999.2500  -999.2500  -999.2500  -999.2500   -71.4280   109.4990     5.8770     4.5180     4.3830  -999.2500  -999.2500   -63.3670    94.3990    59.6780
 2221.0000  -999.2500  -999.2500  -999.2500  -999.2500   -71.4990   111.6940     6.6680     4.5360     4.3110  -999.2500  -999.2500   -63.6190    93.6830    59.5720
 2221.5000  -999.2500  -999.2500  -999.2500  -999.2500   -71.5700   111.6850     7.0210     4.6510     4.2370  -999.2500  -999.2500   -63.8710    94.6030    59.4800
 2222.0000  -999.2500  -999.2500  -999.2500  -999.2500   -71.6410   109.8730     5.8530     4.7660     4.1980  -999.2500  -999.2500   -64.1230    96.1010    59.0030
 2222.5000  -999.2500  -999.2500  -999.2500  -999.2500   -71.7120   105.7490     4.6340     4.8810     4.3870  -999.2500  -999.2500   -64.3750    96.8940    58.5050
 2223.0000  -999.2500  -999.2500  -999.2500  -999.2500   -71.7830   102.1140     4.3550     4.9970     4.5500  -999.2500  -999.2500   -64.6270    96.6100    58.0010
 2223.5000  -999.2500  -999.2500  -999.2500  -999.2500   -71.8540    99.0650     4.8760     5.0910     4.7130  -999.2500  -999.2500   -64.8790    95.5460    57.5000
 2224.0000  -999.2500  -999.2500  -999.2500  -999.2500   -71.9250    99.8860     5.7060     5.1850     4.8760  -999.2500  -999.2500   -65.1310    94.4810    57.0100
 2224.5000  -999.2500  -999.2500  -999.2500  -999.2500   -71.9960   102.6070     6.7060     5.2830     5.0380  -999.2500  -999.2500   -65.3830    93.7990    56.8160
 2225.0000  -999.2500  -999.2500  -999.2500  -999.2500   -72.0670   105.2430     6.5260     5.4490     5.2010  -999.2500  -999.2500   -65.6350    93.7080    57.2650
 2225.5000  -999.2500  -999.2500  -999.2500  -999.2500   -72.1380   106.6890     6.2880     5.6320     5.4290  -999.2500  -999.2500   -75.6630    93.5810    57.6510
 2226.0000  -999.2500  -999.2500  -999.2500  -999.2500   -72.2090   106.4790     6.5920     5.7930     5.6800  -999.2500  -999.2500   -75.4870    93.3030    57.8560
 2226.5000  -999.2500  -999.2500  -999.2500  -999.2500   -72.2800   105.0010     6.7680     5.9540     5.6600  -999.2500  -999.2500   -75.3120    93.3380    57.9300
 2227.0000  -999.2500  -999.2500  -999.2500  -999.2500   -72.3510   105.1700     6.5620     6.1740     5.6200  -999.2500  -999.2500   -75.1370    93.8370    58.0010
 2227.5000  -999.2500  -999.2500  -999.2500  -999.2500   -72.4220   104.3830     6.3100     6.0230     5.5810  -999.2500  -999.2500   -74.9620    94.3360    58.0430
 2228.0000  -999.2500  -999.2500  -999.2500  -999.2500   -72.4930   101.0430     6.1170     5.6690     5.2910  -999.2500  -999.2500   -74.7870    94.1420    58.4650
 2228.5000  -999.2500  -999.2500  -999.2500  -999.2500   -72.5640    96.5680     6.7190     5.3300     5.0110  -999.2500  -999.2500   -74.6120    93.5010    58.9250
 2229.0000  -999.2500  -999.2500  -999.2500  -999.2500   -72.6350    93.9810     7.1510     5.2820     4.6870  -999.2500  -999.2500   -74.4370    92.8590    59.3850
 2229.5000  -999.2500  -999.2500  -999.2500  -999.2500   -72.7060    96.7630     6.5100     5.4510     4.7760  -999.2500  -999.2500   -74.2610    93.0640    59.8410
 2230.0000  -999.2500  -999.2500  -999.2500  -999.2500   -72.7770   100.6980     5.5240     5.5860     4.9720  -999.2500  -999.2500   -74.0860    93.9510    60.2230
