~VERSION INFORMATION
 VERS.                2.0:   CWLS LOG ASCII STANDARD - VERSION 2.0
 WRAP.                 NO:   ONE LINE PER DEPTH STEP
~WELL INFORMATION
#MNEM.UNIT      DATA TYPE    INFORMATION
#----------   ------------   ------------------------------
 STRT.F           31.5000:   START DEPTH
 STOP.F         3370.0000:   STOP DEPTH
 STEP.F            0.5000:   STEP LENGTH
 NULL.          -999.2500:   NO VALUE
 COMP. LAWRENCE ALLISON & ASSOC - WEST:   COMPANY
 WELL. LAWRENCE "AX" #46-34:   WELL
 FLD .             NPR #3:   FIELD
 LOC .      S34 T39N R78W:   LOCATION
 CNTY.            NATRONA:   COUNTY
 STAT.            WYOMING:   STATE
 CTRY. UNITED STATES OF AMERICA:   COUNTRY
 SRVC.       SCHLUMBERGER:   SERVICE COMPANY
 DATE.        30-APR-1986:   LOGDATE
 API .     49025111380000:   API NUMBER
~CURVE INFORMATION
#MNEM.UNIT       API CODE    CURVE DESCRIPTION
#----------   ------------   ------------------------------
 DEPT.F                  :   
 TENR.LBS    07 635 01 00:   TENSION FROM RESISTIVITY
 GRR .GAPI   07 310 01 00:   GAMMA RAY FROM RESISTIVITY
 CALR.IN     07 280 01 00:   CALIPER FROM RESISTIVITY
 SPR .MV     07 010 01 00:   SPONTANEOUS POTENTIAL
 TEND.LBS    45 635 01 00:   TENSION FROM DENSITY LOG
 DEN .G/C3   45 350 01 00:   BULK DENSITY
 CORR.G/C3   45 356 01 00:   DENSITY CORRECTION
 CNC .DEC    42 890 03 00:   NEUTRON PORISITY SANDSTONE
 RFOC.OHMM   07 220 04 00:   RESISTIVITY FOCUSED LOG
 RILD.OHMM   07 120 46 00:   RESISTIVITY INDUCTION LOG DEEP
 RILM.OHMM   07 120 44 00:   RESISTIVITY INDUCTION LOG MEDIUM
~PARAMETER INFORMATION
#MNEM.UNIT          VALUE    DESCRIPTION
#----------   ------------   ------------------------------
 EKB .F         5094.0000:   Kelly bushing
 EGL .F         5082.0000:   Ground level
 EDF .F            0.0000:   Drilling floor
 TD  .F         3370.0000:   Total depth
 DATE.        30-APR-1986:   Date logged
 CLNT.            A2DTECH:   Client Code
 SL  . 2462' FWL & 1545' FSL:   Surface Location
 PD  .                 GL:   Permanent Datum
 EPD .F              5082:   Elevation Permanent Datum
 LMF .                 KB:   Log Measured From
 DMF .                 KB:   Drilling Measured From
 DAPD.F                12:   Feet Above Permanent Datum
 DD  .F              3370:   Depth driller
 DL  .F              3369:   Depth logger
 BLI .F              3367:   Bottom log interval
 CS1 .IN            8.625:   Casing size
 CBD1.      8.625" @ 642':   Casing driller 1
 CBL1.F               642:   Casing logger 1
 BS1 .IN            7.875:   Bit size
 BSD1.F              3370:   Depth drilled with bit1
 DFT .        POLYMER/KCL:   Type fluid in hole
 DFD .                8.9:   Density
 DFV .                 36:   Viscosity
 DFPH.                8.5:   pH
 DFL .               10.2:   Fluid loss
 MSS .           FLOWLINE:   Source of sample
 RMS .OHMM           .319:   Rm
 MST .F                79:   Rm Meas. temp.
 RMF .OHMM            .24:   Rmf
 MFST.F                79:   Rmf Meas. temp.
 RMC .OHMM            .40:   Rmc
 MCST.F                79:   Rmc Meas. temp.
 MFSS.               CALC:   Source Rmf.
 MCSS.               CALC:   Source Rmc.
 RMB .OHMM            .21:   Rm. at BHT
 BHT .F               117:   BHT.
 TCS .HRS               4:   Time Circ. stopped
 MRT .F               117:   Maximum recorded temp.
 LUN .            HL-6264:   Logging unit number
 LUL .           GILLETTE:   Logging unit location
 ENGI.     P. M. FAHLSING:   Recorded By
 WITN.             STRONG:   Witnessed by
 ORIG.        2" 5" PRINT:   Origin of data
 UWI .     49025111380000:   Unique Well ID
 DICO. A2D TECHNOLOGIES, INC.:   Digitizing Company
 TLI .                  0:   Top log interval
~OTHER INFORMATION
~A   DEPT     TENR        GRR       CALR        SPR       TEND        DEN       CORR        CNC       RFOC       RILD       RILM   
# ...
 2624.0000   -44.3830   118.2070    10.3540   -84.5460   -92.7200     2.5900     0.0800     0.2530     7.5060     6.1070     5.9430
 2624.5000   -44.3830   120.5600    10.3370   -84.6520   -90.8860     2.5810     0.0600     0.2620     7.0620     5.9940     5.8450
 2625.0000   -44.3830   123.6110    10.3200   -84.7030   -89.0520     2.5800     0.0720     0.2670     6.6180     5.8810     5.7660
 2625.5000   -45.8800   126.4000    10.3100   -84.6970   -87.2180     2.5800     0.0840     0.2630     6.0950     5.7680     5.7150
 2626.0000   -49.5270   124.2330    10.3100   -84.6200   -85.3830     2.5760     0.0950     0.2550     6.4410     5.6550     5.6640
 2626.5000   -53.1740   120.6310    10.2810   -84.5290   -80.6140     2.5710     0.0810     0.2460     6.9950     5.5420     5.6130
 2627.0000   -56.8200   120.0570    10.2500   -84.4560   -64.3670     2.5660     0.0530     0.2380     7.4010     5.4290     5.5620
 2627.5000   -60.4670   121.3490    10.2520   -84.3630   -68.1720     2.5650     0.0490     0.2380     7.0510     5.3160     5.5050
 2628.0000   -64.1140   124.4580    10.2560   -84.2910   -71.9760     2.5620     0.0460     0.2450     6.7250     5.2030     5.3870
 2628.5000   -67.7600   127.1030    10.2590   -84.1980   -75.7800     2.5590     0.0360     0.2520     6.5020     5.0900     5.2550
 2629.0000   -71.4070   129.9100    10.2630   -84.1050   -79.5850     2.5580     0.0250     0.2580     6.5020     4.9770     5.1230
 2629.5000   -74.4730   135.8890    10.2650   -84.0950   -83.3890     2.5600     0.0240     0.2590     6.5020     4.8820     4.9910
 2630.0000   -65.3690   139.5030    10.2690   -84.0530   -81.8790     2.5580     0.0350     0.2530     6.1430     4.9940     4.8820
 2630.5000   -57.5150   139.3810    10.2720   -84.0000   -79.0250     2.5520     0.0530     0.2500     5.6750     5.1110     4.9560
 2631.0000   -56.7900   137.6400    10.2760   -83.9640   -76.1720     2.5420     0.0710     0.2490     5.3050     5.2280     5.0310
 2631.5000   -60.7170   132.3070    10.2790   -83.9120   -73.7660     2.5310     0.0890     0.2470     5.8230     5.3450     5.1070
 2632.0000   -64.6440   124.9640    10.2820   -83.9840   -73.1620     2.5300     0.0850     0.2410     6.2490     5.4620     5.1820
 2632.5000   -68.5710   118.7650    10.2850   -84.1560   -69.7380     2.5440     0.0570     0.2380     6.5630     5.5780     5.3760
 2633.0000   -72.4980   114.0490    10.2880   -84.3430   -66.3140     2.5550     0.0450     0.2400     6.6470     5.6950     5.6300
 2633.5000   -74.4730   109.6180    10.2900   -84.4960   -63.6960     2.5630     0.0370     0.2410     6.7250     5.8120     5.8850
 2634.0000   -74.4730   107.2790    10.2860   -84.5030   -65.9750     2.5600     0.0300     0.2410     6.9230     5.9290     6.2090
 2634.5000   -70.3830   106.7150    10.2820   -84.4160   -68.6780     2.5560     0.0220     0.2420     7.2640     6.0460     6.2360
 2635.0000   -66.7360   106.8820    10.2780   -84.3100   -71.3810     2.5580     0.0370     0.2450     7.6040     6.1630     6.2720
 2635.5000   -63.0890   110.0410    10.2740   -84.1940   -93.9070     2.5610     0.0540     0.2460     7.5700     6.2790     6.3090
 2636.0000   -59.4430   113.7320    10.2700   -84.0860   -88.6480     2.5570     0.0730     0.2300     7.2520     6.3960     6.2770
 2636.5000   -55.7960   115.8330    10.2660   -83.9730   -82.9420     2.5460     0.0880     0.2190     6.9370     6.4310     6.1560
 2637.0000   -54.4130   116.0520    10.2620   -83.8620   -77.2350     2.5370     0.0610     0.2170     7.2260     6.4010     6.0390
 2637.5000   -44.3830   114.7060    10.2580   -83.7510   -71.5280     2.5320     0.0320     0.2180     7.5110     6.3710     6.0260
 2638.0000   -47.0610   114.6570    10.2540   -83.6390   -65.8220     2.5330     0.0040     0.2200     7.6090     6.3410     6.0110
 2638.5000   -49.6140   117.7820    10.2500   -83.5290   -67.7240     2.5370     0.0120     0.2260     7.6090     6.3110     5.9970
 2639.0000   -52.1660   120.6270    10.2460   -83.4150   -74.1440     2.5430     0.0210     0.2340     7.6090     6.2820     5.9830
 2639.5000   -54.4130   120.2400    10.2420   -83.3070   -80.5640     2.5510     0.0310     0.2480     7.6090     6.2520     6.0390
 2640.0000   -60.6820   119.9640    10.2380   -83.1930   -81.5480     2.5590     0.0410     0.2500     7.2970     6.2220     6.1250
 2640.5000   -53.5910   119.4910    10.2340   -83.1010   -76.8790     2.5610     0.0460     0.2440     7.0190     6.2510     6.2020
 2641.0000   -46.5010   118.3190    10.2300   -83.0990   -72.2100     2.5580     0.0440     0.2320     6.7400     6.3280     6.2790
 2641.5000   -39.4100   116.5770    10.2320   -83.1880   -67.5410     2.5560     0.0350     0.2240     6.8460     6.4060     6.3560
 2642.0000   -32.3190   115.7590    10.2340   -83.3380   -54.6320     2.5570     0.0390     0.2190     7.2260     6.4830     6.4330
 2642.5000   -25.2280   114.9910    10.2360   -83.4850   -45.4280     2.5620     0.0750     0.2150     7.6070     6.5600     6.5100
 2643.0000   -18.1380   107.2340    10.2380   -83.6390   -47.8170     2.5650     0.1000     0.2120     7.9700     6.6370     6.5870
 2643.5000   -14.2930   102.6640    10.2400   -83.7820   -50.2060     2.5710     0.0920     0.2130     8.0690     6.7150     6.6640
 2644.0000   -23.1590   104.9200    10.2420   -83.9420   -52.5950     2.5680     0.0680     0.2140     8.1070     6.7920     6.7410
 2644.5000   -34.3530   104.6790    10.2440   -84.0930   -54.9840     2.5650     0.0410     0.2150     8.1450     6.8690     6.8100
 2645.0000   -34.3530   107.7220    10.2460   -83.8850   -57.3730     2.5670     0.0340     0.2170     8.1940     6.9370     6.6410
 2645.5000   -32.1760   111.4030    10.2480   -83.4910   -59.7610     2.5720     0.0390     0.2210     8.1270     6.7620     6.4870
 2646.0000   -29.1730   111.1390    10.2500   -83.5090   -62.1500     2.5710     0.0560     0.2260     8.0010     6.6060     6.3330
 2646.5000   -26.1700   110.5040    10.2490   -83.6920   -62.2740     2.5680     0.0700     0.2240     7.8960     6.4490     6.1800
 2647.0000   -24.3230   110.4070    10.2470   -83.7070   -53.2110     2.5590     0.0570     0.2230     7.4680     6.2920     6.0260
 2647.5000   -12.7170   112.9230    10.2460   -83.6960   -44.1470     2.5480     0.0430     0.2220     7.1030     6.1360     5.8740
 2648.0000    -4.2630   117.9430    10.2440   -83.4940   -35.0840     2.5380     0.0530     0.2300     6.7470     5.9830     5.8460
 2648.5000    -4.2630   120.6600    10.2430   -83.2400   -36.7080     2.5390     0.0710     0.2410     6.9440     5.9550     5.8190
 2649.0000   -10.9330   118.1010    10.2410   -82.9800   -41.8450     2.5410     0.0540     0.2510     7.1360     5.9270     5.7920
 2649.5000   -17.3140   114.7850    10.2390   -82.7060   -46.9830     2.5410     0.0320     0.2550     7.1260     5.9000     5.7650
 2650.0000   -24.3230   114.9070    10.2380   -82.6930   -52.1200     2.5410     0.0150     0.2580     7.0170     5.8720     5.7380
 2650.5000   -24.3230   116.2940    10.2370   -82.7070   -54.7250     2.5430     0.0020     0.2550     6.9080     5.8450     5.7110
 2651.0000   -26.4820   115.0850    10.2350   -82.6650   -56.8730     2.5470     0.0230     0.2500     6.8000     5.8180     5.6840
 2651.5000   -29.4800   111.9470    10.2340   -82.6340   -59.0210     2.5450     0.0490     0.2420     6.6850     5.7900     5.6570
 2652.0000   -32.4770   109.5670    10.2320   -82.5880   -61.1700     2.5360     0.0580     0.2340     6.7480     5.7630     5.6300
 2652.5000   -35.4740   109.8860    10.2300   -82.5500   -63.3180     2.5320     0.0660     0.2310     6.8620     5.7350     5.6080
 2653.0000   -38.4710   110.6800    10.2360   -82.5010   -63.6960     2.5320     0.0690     0.2390     6.9750     5.7130     5.5620
 2653.5000   -41.4690   111.3800    10.2450   -82.4990   -63.6960     2.5350     0.0750     0.2460     7.0880     5.6410     5.5230
 2654.0000   -44.3830   114.0650    10.2530   -82.5020   -63.6960     2.5350     0.0800     0.2460     7.1990     5.5800     5.4840
