~VERSION INFORMATION
 VERS.                2.0:   CWLS LOG ASCII STANDARD - VERSION 2.0
 WRAP.                 NO:   ONE LINE PER DEPTH STEP
~WELL INFORMATION
#MNEM.UNIT      DATA TYPE    INFORMATION
#----------   ------------   ------------------------------
 STRT.F           10.0000:   START DEPTH
 STOP.F         3180.0000:   STOP DEPTH
 STEP.F            0.5000:   STEP LENGTH
 NULL.          -999.2500:   NO VALUE
 COMP. LAWRENCE - ALLISON WEST:   COMPANY
 WELL. LAWRENCE ALLISON NPR 3 "AX" #17-2:   WELL
 FLD .                NPR:   FIELD
 LOC .       S2 T38N R78W:   LOCATION
 CNTY.            NATRONA:   COUNTY
 STAT.            WYOMING:   STATE
 CTRY. UNITED STATES OF AMERICA:   COUNTRY
 SRVC.      DRESSER ATLAS:   SERVICE COMPANY
 DATE.        16-FEB-1987:   LOGDATE
 API .     49025111210000:   API NUMBER
~CURVE INFORMATION
#MNEM.UNIT       API CODE    CURVE DESCRIPTION
#----------   ------------   ------------------------------
 DEPT.F                  :   
 DEN .LBS    45 350 01 00:   BULK DENSITY
 CORR.G/C3   45 356 01 00:   DENSITY CORRECTION
 TEND.LBS    45 635 01 00:   TENSION FROM DENSITY LOG
 CNC .DEC    42 890 01 00:   NEUTRON PORISITY LIMESTONE
 CALR.IN     07 280 01 00:   CALIPER FROM RESISTIVITY
 SPR .MV     07 010 01 00:   SPONTANEOUS POTENTIAL
 GRR .GAPI   07 310 01 00:   GAMMA RAY FROM RESISTIVITY
 RFOC.OHMM   07 220 04 00:   RESISTIVITY FOCUSED LOG RES.
 ILD .OHMM   07 120 46 00:   DEEP INDUCTION RESISTIVITY
 ILM .OHMM   07 120 44 00:   INDUCTION LOG MEDIUM RESISTIVITY
 TENR.LBS    07 635 01 00:   TENSION FROM RESISTIVITY
~PARAMETER INFORMATION
#MNEM.UNIT          VALUE    DESCRIPTION
#----------   ------------   ------------------------------
 EKB .F         5141.0000:   Kelly bushing
 EGL .F         5129.0000:   Ground level
 EDF .F            0.0000:   Drilling floor
 EPD .F            0.0000:   Permanent datum
 TD  .F         3161.0000:   Total depth
 DATE.        16-FEB-1987:   Date logged
 CLNT.            A2DTECH:   Client Code
 SL  . 1125' FSL & 220' FWL:   Surface Location
 PD  .                 GL:   Permanent Datum
 DAPD.F                12:   Feet Above Permanent Datum
 DD  .F              3161:   Depth driller
 DL  .F              3158:   Depth logger
 BLI .F              3156:   Bottom log interval
 TLI .F                12:   Top log interval
 CS1 .IN            8.625:   Casing size
 CBD1.      8.625" @ 626':   Casing driller 1
 CBL1.F               626:   Casing logger 1
 BS1 .IN            7.875:   Bit size
 BSD1.F              3161:   Depth drilled with bit1
 DFT .        KCL/POLYMER:   Type fluid in hole
 DFD .                8.8:   Density
 DFV .                 39:   Viscosity
 DFPH.                 10:   pH
 DFL .                8.4:   Fluid loss
 MSS .           FLOWLINE:   Source of sample
 RMS .OHMM           .292:   Rm
 MST .F                82:   Rm Meas. temp.
 RMF .OHMM           .231:   Rmf
 MFST.F                82:   Rmf Meas. temp.
 RMC .OHMM           .365:   Rmc
 MCST.F                82:   Rmc Meas. temp.
 MFSS.               MEAS:   Source Rmf.
 MCSS.               CALC:   Source Rmc.
 RMB .OHMM           .203:   Rm. at BHT
 BHT .F               118:   BHT.
 TCS .HRS               3:   Time Circ. stopped
 MRT .F               118:   Maximum recorded temp.
 LUN .            HL-6274:   Logging unit number
 LUL .           GALLETTE:   Logging unit location
 ENGI.            PANASUK:   Recorded By
 WITN.             STRONG:   Witnessed by
 ORIG.           5" PRINT:   Origin of data
 UWI .     49025111210000:   Unique Well ID
 DICO. A2D TECHNOLOGIES, INC.:   Digitizing Company
~OTHER INFORMATION
~A   DEPT      DEN       CORR       TEND        CNC       CALR        SPR          GRR     RFOC        ILD        ILM       TENR   
# ...
 1962.0000  -999.2500  -999.2500  -999.2500  -999.2500     9.1393   -20.4759   113.3225     9.9889     7.7685     7.8872   -75.0000
 1962.5000  -999.2500  -999.2500  -999.2500  -999.2500     9.1393   -20.0783   116.5034     9.9889     7.8403     7.8872   -85.0000
 1963.0000  -999.2500  -999.2500  -999.2500  -999.2500     9.1393   -20.4759   116.5034    10.0813     7.9128     7.8872   -85.0000
 1963.5000  -999.2500  -999.2500  -999.2500  -999.2500     9.1393   -20.4759   116.1058    10.1744     7.9860     7.8872   -85.0000
 1964.0000  -999.2500  -999.2500  -999.2500  -999.2500     9.1393   -20.6748   117.2986    10.5558     7.9128     7.8872   -85.0000
 1964.5000  -999.2500  -999.2500  -999.2500  -999.2500     9.1256   -21.2712   118.8891    10.5558     7.8403     7.8872   -85.0000
 1965.0000  -999.2500  -999.2500  -999.2500  -999.2500     9.1194   -21.4700   120.0819    10.5558     7.7685     7.8150   -85.0000
 1965.5000  -999.2500  -999.2500  -999.2500  -999.2500     9.1194   -21.4700   120.8771    10.5558     7.6268     7.7435   -85.0000
 1966.0000  -999.2500  -999.2500  -999.2500  -999.2500     9.1194   -21.4700   122.4676    10.3634     7.4876     7.6024   -85.0000
 1966.5000  -999.2500  -999.2500  -999.2500  -999.2500     9.1194   -21.4700   124.8533     9.8975     7.4190     7.5328   -85.0000
 1967.0000  -999.2500  -999.2500  -999.2500  -999.2500     9.1194   -21.6688   124.8533     9.4525     7.2169     7.5328   -75.0000
 1967.5000  -999.2500  -999.2500  -999.2500  -999.2500     9.1194   -21.6688   123.2628     8.9448     7.2837     7.5328   -75.0000
 1968.0000  -999.2500  -999.2500  -999.2500  -999.2500     9.1194   -21.4700   122.0700     9.3659     7.1508     7.4638   -75.0000
 1968.5000  -999.2500  -999.2500  -999.2500  -999.2500     9.0995   -21.4700   120.8771     9.8068     7.2169     7.3955   -85.0000
 1969.0000  -999.2500  -999.2500  -999.2500  -999.2500     9.0796   -21.2712   117.6962    10.0813     7.5569     7.3955   -81.4081
 1969.5000  -999.2500  -999.2500  -999.2500  -999.2500     9.0796   -21.0724   112.5272     9.9889     7.5569     7.5328   -77.8163
 1970.0000  -999.2500  -999.2500  -999.2500  -999.2500     9.0796   -21.0724   110.1416     9.8068     7.5569     7.6726   -85.0000
 1970.5000  -999.2500  -999.2500  -999.2500  -999.2500     9.0796   -21.0724   113.3225     9.9889     7.7685     7.8872   -85.0000
 1971.0000  -999.2500  -999.2500  -999.2500  -999.2500     9.0597   -21.0724   118.4915     9.9889     7.9128     8.0336   -95.0000
 1971.5000  -999.2500  -999.2500  -999.2500  -999.2500     9.0399   -21.0724   121.2748    10.0813     7.9860     8.0336   -95.0000
 1972.0000  -999.2500  -999.2500  -999.2500  -999.2500     9.0399   -21.0724   121.2748    10.2685     8.0599     8.1827   -85.0000
 1972.5000  -999.2500  -999.2500  -999.2500  -999.2500     9.0796   -20.8736   119.2867    10.9516     8.1344     8.4116   -85.0000
 1973.0000  -999.2500  -999.2500  -999.2500  -999.2500     9.0796   -20.6748   116.9010    10.9516     8.2855     8.4893   -95.0000
 1973.5000  -999.2500  -999.2500  -999.2500  -999.2500     9.0597   -20.6748   116.1058    11.0528     8.1344     8.4893   -95.0000
 1974.0000  -999.2500  -999.2500  -999.2500  -999.2500     9.0597   -21.2712   115.7082    11.0528     8.3622     8.4893   -85.0000
 1974.5000  -999.2500  -999.2500  -999.2500  -999.2500     9.0597   -21.8676   116.5034    10.9516     8.4395     8.4893   -85.0000
 1975.0000  -999.2500  -999.2500  -999.2500  -999.2500     9.0539   -22.2243   119.2867    10.9516     8.4395     8.4893   -85.0000
 1975.5000  -999.2500  -999.2500  -999.2500  -999.2500     9.0480   -22.2652   121.6724    10.9516     8.4395     8.5677   -85.0000
 1976.0000  -999.2500  -999.2500  -999.2500  -999.2500     9.0995   -22.2652   123.6604    10.9516     8.4395     8.5677   -85.0000
 1976.5000  -999.2500  -999.2500  -999.2500  -999.2500     9.0995   -21.8676   124.0581    11.1549     8.1344     8.5677   -85.0000
 1977.0000  -999.2500  -999.2500  -999.2500  -999.2500     9.0200   -21.8676   121.6724    11.1549     8.2855     8.5677   -85.0000
 1977.5000  -999.2500  -999.2500  -999.2500  -999.2500     9.0200   -21.6688   117.6962    10.9516     8.0599     8.4116   -85.0000
 1978.0000  -999.2500  -999.2500  -999.2500  -999.2500     9.0200   -21.6688   110.5392    10.3634     8.0599     8.4116   -85.0000
 1978.5000  -999.2500  -999.2500  -999.2500  -999.2500     9.0200   -21.2712   112.5272    10.0813     8.0599     8.2583   -85.0000
 1979.0000  -999.2500  -999.2500  -999.2500  -999.2500     9.0200   -21.2712   116.9010    10.1744     8.0599     8.2583   -95.0000
 1979.5000  -999.2500  -999.2500  -999.2500  -999.2500     9.0200   -20.5315   120.8771    10.7519     8.0599     8.2583   -95.0000
 1980.0000  -999.2500  -999.2500  -999.2500  -999.2500     9.0001   -20.8736   123.2628    10.8513     8.1344     8.3346   -85.0000
 1980.5000  -999.2500  -999.2500  -999.2500  -999.2500     9.0001   -21.0724   121.2748    10.8513     8.1344     8.3346   -85.0000
 1981.0000  -999.2500  -999.2500  -999.2500  -999.2500     8.9802   -21.0724   120.0819    10.9516     8.2855     8.4116   -85.0000
 1981.5000  -999.2500  -999.2500  -999.2500  -999.2500     8.9802   -21.4700   118.4915    10.9516     8.1344     8.4893   -85.0000
 1982.0000  -999.2500  -999.2500  -999.2500  -999.2500     8.9603   -21.4700   117.2986    10.9516     8.4395     8.5677   -85.0000
 1982.5000  -999.2500  -999.2500  -999.2500  -999.2500     9.0001   -21.6688   122.8652    10.8513     8.6758     8.7267   -95.0000
 1983.0000  -999.2500  -999.2500  -999.2500  -999.2500     8.9603   -21.6688   128.4318    11.0528     8.7560     8.9708   -95.0000
 1983.5000  -999.2500  -999.2500  -999.2500  -999.2500     8.9603   -21.3946   127.2390    11.3621     8.7560     8.9708   -95.0000
 1984.0000  -999.2500  -999.2500  -999.2500  -999.2500     8.9603   -21.2712   126.4437    11.5731     8.6758     8.9708   -95.0000
 1984.5000  -999.2500  -999.2500  -999.2500  -999.2500     8.9603   -21.0724   124.8533    11.5731     8.7560     8.9708   -95.0000
 1985.0000  -999.2500  -999.2500  -999.2500  -999.2500     8.9603   -21.0724   124.4557    11.4671     8.6758     8.9708   -95.0000
 1985.5000  -999.2500  -999.2500  -999.2500  -999.2500     8.9603   -21.0724   122.4676    11.3621     8.3622     8.8073   -95.0000
 1986.0000  -999.2500  -999.2500  -999.2500  -999.2500     8.9802   -21.0724   121.2748    11.1549     8.0599     8.4893   -85.0000
 1986.5000  -999.2500  -999.2500  -999.2500  -999.2500     8.9603   -21.4700   119.6843    11.1549     8.1344     8.4116   -95.0000
 1987.0000  -999.2500  -999.2500  -999.2500  -999.2500     8.9603   -21.6688   118.8891    10.7519     8.0599     8.4116   -95.0000
 1987.5000  -999.2500  -999.2500  -999.2500  -999.2500     9.0001   -21.6688   116.5034    10.5558     8.0599     8.4116   -95.0000
 1988.0000  -999.2500  -999.2500  -999.2500  -999.2500     9.0001   -21.2712   116.1058    10.2685     8.0599     8.4116   -95.0000
 1988.5000  -999.2500  -999.2500  -999.2500  -999.2500     9.0200   -21.2712   116.1058    10.7519     8.2096     8.4116   -95.0000
 1989.0000  -999.2500  -999.2500  -999.2500  -999.2500     9.0200   -21.4700   115.3105    10.9516     8.2096     8.8073   -95.0000
 1989.5000  -999.2500  -999.2500  -999.2500  -999.2500     9.0200   -21.6688   116.1058    11.0528     8.4395     8.9708   -85.0000
 1990.0000  -999.2500  -999.2500  -999.2500  -999.2500     9.0200   -21.8676   117.2986    11.1549     8.3622     8.9708   -85.0000
 1990.5000  -999.2500  -999.2500  -999.2500  -999.2500     8.9405   -21.6688   120.4795    11.2580     8.4395     8.9708   -85.0000
 1991.0000  -999.2500  -999.2500  -999.2500  -999.2500     8.9405   -21.4700   117.6962    11.2580     8.5175     8.8887   -85.0000
 1991.5000  -999.2500  -999.2500  -999.2500  -999.2500     8.9405   -21.2712   112.9249    11.2580     8.5175     8.7267   -95.0000
 1992.0000  -999.2500  -999.2500  -999.2500  -999.2500     8.8609   -20.8736   113.7201    11.1549     8.5175     8.7267   -85.0000
