~VERSION INFORMATION
 VERS.                2.0:   CWLS LOG ASCII STANDARD - VERSION 2.0
 WRAP.                 NO:   ONE LINE PER DEPTH STEP
~WELL INFORMATION
#MNEM.UNIT      DATA TYPE    INFORMATION
#----------   ------------   ------------------------------
 STRT.F          208.0000:   START DEPTH
 STOP.F         2950.0000:   STOP DEPTH
 STEP.F            0.5000:   STEP LENGTH
 NULL.          -999.2500:   NO VALUE
 COMP.    FENIX & SCISSON:   COMPANY
 WELL.     FENIX A #56-28:   WELL
 FLD .                NPR:   FIELD
 LOC .      S28 T39N R78W:   LOCATION
 CNTY.            NATRONA:   COUNTY
 STAT.            WYOMING:   STATE
 CTRY. UNITED STATES OF AMERICA:   COUNTRY
 SRVC.              WELEX:   SERVICE COMPANY
 DATE.        20-AUG-1977:   LOGDATE
 API .     49025104140000:   API NUMBER
~CURVE INFORMATION
#MNEM.UNIT       API CODE    CURVE DESCRIPTION
#----------   ------------   ------------------------------
 DEPT.F                  :   
 SPR .MV     07 010 01 00:   SPONTANEOUS POTENTIAL
 RILM.OHMM   07 120 44 00:   INDUCTION LOG MEDIUM RESISTIVITY
 RILD.OHMM   07 120 46 00:   INDUCTION LOG DEEP RESISTIVITY
 SGRD.OHMM   07 220 05 00:   SHALLOW GUARD LOG RESISTIVITY
 CALD.IN     45 280 60 00:   CALIPER FROM DENSITY LOG
 DCOR.G/C3   45 356 01 00:   DENSITY CORRECTION
 GRD .GAPI   45 310 01 00:   GAMMA RAY FROM DENSITY LOG
 RHOB.G/C3   45 350 01 00:   BULK DENSITY
~PARAMETER INFORMATION
#MNEM.UNIT          VALUE    DESCRIPTION
#----------   ------------   ------------------------------
 EKB .F         5088.0000:   Kelly bushing
 EGL .F         5078.0000:   Ground level
 EDF .F            0.0000:   Drilling floor
 EPD .F         5078.0000:   Permanent datum
 TD  .F         2960.0000:   Total depth
 DATE.        20-AUG-1977:   Date logged
 CLNT.            A2DTECH:   Client Code
 SL  . 1650' FSL & 2310' FEL:   Surface Location
 PD  .                 GL:   Permanent Datum
 LMF .                 KB:   Log Measured From
 DMF .                 KB:   Drilling Measured From
 DAPD.F                10:   Feet Above Permanent Datum
 DD  .F              2960:   Depth driller
 DL  .F              2952:   Depth logger
 BLI .F              2950:   Bottom log interval
 TLI .F               210:   Top log interval
 CS1 .IN            8.625:   Casing size
 CBD1.      8.625" @ 215':   Casing driller 1
 CBL1.F               218:   Casing logger 1
 BS1 .IN            7.875:   Bit size
 BSD1.F              2960:   Depth drilled with bit1
 DFT .            KCL MUD:   Type fluid in hole
 DFD .                8.9:   Density
 DFV .                 60:   Viscosity
 DFPH.                 11:   pH
 DFL .                7.2:   Fluid loss
 MSS .           FLOWLINE:   Source of sample
 RMS .OHMM            .78:   Rm
 MST .F                81:   Rm Meas. temp.
 RMF .OHMM            .46:   Rmf
 MFST.F                81:   Rmf Meas. temp.
 RMC .OHMM           1.66:   Rmc
 MCST.F                81:   Rmc Meas. temp.
 MFSS.               CALC:   Source Rmf.
 MCSS.               CALC:   Source Rmc.
 RMB .OHMM            .56:   Rm. at BHT
 BHT .F               112:   BHT.
 TCS .HRS             2.5:   Time Circ. stopped
 MRT .F               112:   Maximum recorded temp.
 LUN .               8611:   Logging unit number
 LUL .             CASPER:   Logging unit location
 ENGI.             C DOAK:   Recorded By
 WITN.       B HARRINGTON:   Witnessed by
 ORIG.           5" PRINT:   Origin of data
 UWI .     49025104140000:   Unique Well ID
 DICO. A2D TECHNOLOGIES, INC.:   Digitizing Company
~OTHER INFORMATION
~A   DEPT      SPR       RILM       RILD       SGRD         CALD     DCOR        GRD       RHOB   
# ...
  937.0000   -76.9240     9.7480     8.1880    12.0320     9.9200     0.0000   112.1560     2.4960
  937.5000   -76.9020    10.2980     8.1780    12.1110     9.9090     0.0020   113.1910     2.5030
  938.0000   -76.8790     9.8370     8.1690    12.2100     9.8980     0.0040   114.1760     2.5070
  938.5000   -76.8560     9.9280     8.1590    12.3680     9.8870     0.0070   115.1540     2.5050
  939.0000   -76.8330     9.8070     8.1500    12.2460     9.8760     0.0090   116.0730     2.5000
  939.5000   -76.8100     9.5140     8.1400    11.9490     9.8720     0.0110   116.8700     2.4890
  940.0000   -76.7870     9.2270     8.1310    11.6530     9.8850     0.0080   117.1890     2.4770
  940.5000   -76.7660     9.3140     8.1220    11.5560     9.8990     0.0060   116.2340     2.4660
  941.0000   -76.7830     9.4000     8.1120    11.4940     9.9120     0.0040   115.3060     2.4670
  941.5000   -76.8020     9.4840     8.1030    11.6810     9.9250     0.0020   116.1470     2.4650
  942.0000   -76.8200     9.3970     8.0930    12.0320     9.9390    -0.0010   117.1670     2.4690
  942.5000   -76.8380     9.4430     8.0840    11.9690     9.9520     0.0000   116.3940     2.4800
  943.0000   -76.8560    10.3930     8.0740    11.8240     9.9660     0.0020   115.4520     2.4920
  943.5000   -76.8750    10.1240     8.0650    11.6000     9.9640     0.0030   114.5070     2.4990
  944.0000   -76.8930     9.3120     8.0550    11.6440     9.9620     0.0050   113.7620     2.5020
  944.5000   -76.9110     9.3970     8.0460    11.7420     9.9590     0.0040   115.3720     2.5010
  945.0000   -76.9290     9.5210     8.0370    11.8140     9.9560     0.0030   116.9440     2.4980
  945.5000   -76.9470     9.6380     8.0270    11.7060     9.9540     0.0020   118.4930     2.4920
  946.0000   -76.9530     9.7480     8.0180    11.7450     9.9510     0.0010   119.6850     2.4940
  946.5000   -76.9210     9.3120     8.0080    11.8290     9.9490     0.0020   119.9440     2.4950
  947.0000   -76.8890     9.3900     7.9990    11.9170     9.9490     0.0030   120.2190     2.4910
  947.5000   -76.8570     9.5060     7.9890    11.8860     9.9560     0.0040   120.4940     2.4880
  948.0000   -76.8250     9.6590     7.9800    11.8440     9.9630     0.0040   120.7800     2.4860
  948.5000   -76.7920     9.5110     7.9700    11.7510     9.9700     0.0020   121.2920     2.4870
  949.0000   -76.7710     9.2950     7.9900    11.5300     9.9760    -0.0010   122.5110     2.4800
  949.5000   -76.9070     9.1430     8.0130    11.3080     9.9830    -0.0030   123.7010     2.4610
  950.0000   -77.0390     9.2270     8.0370    11.4840     9.9900    -0.0060   123.4650     2.4500
  950.5000   -77.1360    10.3930     8.0600    11.7050     9.9970    -0.0060   121.8000     2.4580
  951.0000   -76.9550     9.2270     8.0830    11.9260    10.0040    -0.0040   120.1740     2.4650
  951.5000   -76.7670     9.9300     8.1070    12.2550    10.0090    -0.0010   120.4780     2.4720
  952.0000   -76.5780    10.2980     8.1300    12.1460    10.0140     0.0010   120.8980     2.4760
  952.5000   -76.6860    10.0190     8.1530    11.9340    10.0190     0.0030   119.5710     2.4780
  953.0000   -76.8190     9.9470     8.1760    11.7060    10.0240     0.0050   118.2590     2.4780
  953.5000   -76.9550     9.8680     8.2000    11.9180    10.0280     0.0070   116.9940     2.4780
  954.0000   -76.9620     9.7900     8.2230    12.2550    10.0330     0.0100   118.2790     2.4780
  954.5000   -76.9610     9.7110     8.2460    12.2140    10.0380     0.0120   119.9140     2.4780
  955.0000   -76.9610     9.6590     8.2700    12.1390    10.0430     0.0150   121.5540     2.4820
  955.5000   -76.9610     9.7930     8.2930    12.0630    10.0470     0.0170   123.0910     2.4860
  956.0000   -76.9520     9.8940     8.3160    11.9870    10.0520     0.0200   124.3420     2.4900
  956.5000   -76.8870     9.9940     8.3390    11.9230    10.0570     0.0230   123.4980     2.4930
  957.0000   -76.8220    10.0900     8.3630    12.1370    10.0620     0.0240   122.3470     2.4970
  957.5000   -76.7560    10.1840     8.3860    12.3680    10.0660     0.0200   121.1900     2.5010
  958.0000   -76.6910    10.2790     8.4190    11.9230    10.0710     0.0170   120.0480     2.5000
  958.5000   -76.6250    10.3730     8.4150    12.0630    10.0760     0.0130   119.2610     2.4900
  959.0000   -76.5600    10.4880     8.4090    12.3680    10.0810     0.0090   119.6670     2.4800
  959.5000   -76.4940    10.4250     8.4020    12.0670    10.0840     0.0060   120.0820     2.4700
  960.0000   -76.4290    10.3130     8.3950    12.1510    10.0810     0.0050   118.8860     2.4680
  960.5000   -76.3700    10.2020     8.3880    12.5960    10.0780     0.0060   117.8150     2.4730
  961.0000   -76.3500    10.1110     8.3810    12.4630    10.0750     0.0060   119.7120     2.4770
  961.5000   -76.3310    10.1530     8.3750    12.1430    10.0720     0.0060   121.5320     2.4820
  962.0000   -76.3120    10.1960     8.3680    12.1800    10.0690     0.0070   122.8460     2.4840
  962.5000   -76.2930    10.2390     8.3610    12.2550    10.0660     0.0060   122.4500     2.4840
  963.0000   -76.2740    10.2980     8.3540    12.1330    10.0630     0.0050   121.5100     2.4860
  963.5000   -76.2540    10.2660     8.3470    11.9370    10.0600     0.0040   120.5400     2.4910
  964.0000   -76.2350    10.1860     8.3400    12.0030    10.0570     0.0030   120.0510     2.5010
  964.5000   -76.2160    10.1060     8.3330    12.1340    10.0540     0.0020   120.1980     2.4960
  965.0000   -76.1960    10.0260     8.3270    12.2650    10.0510     0.0010   120.3390     2.5000
  965.5000   -76.1780     9.9470     8.3200    12.3680    10.0480     0.0020   120.4830     2.5010
  966.0000   -76.2320     9.8420     8.3130    12.2760    10.0450     0.0040   120.2980     2.4900
  966.5000   -76.2900     9.8590     8.3060    12.2010    10.0420     0.0060   119.6710     2.4840
  967.0000   -76.3480     9.8940     8.2990    12.1430    10.0390     0.0080   119.0460     2.4900
  967.5000   -76.4060     9.9280     8.2920    12.2120    10.0360     0.0090   118.4140     2.5030
  968.0000   -76.4640     9.8880     8.2860    12.2550    10.0330     0.0110   117.8530     2.5150
  968.5000   -76.5210     9.8490     8.2790    12.0260    10.0300     0.0130   118.5080     2.5210
  969.0000   -76.5540     9.8110     8.2720    11.8140    10.0270     0.0150   117.9340     2.5150
  969.5000   -76.4530     9.7730     8.2600    11.9750    10.0230     0.0130   117.1260     2.5100
  970.0000   -76.3540     9.7340     8.2330    12.2280    10.0200     0.0100   117.4270     2.5050
  970.5000   -76.2570     9.6960     8.2070    11.9230    10.0160     0.0080   118.3630     2.5010
  971.0000   -76.1740     9.6570     8.1800    11.9430    10.0120     0.0060   119.3060     2.4980
  971.5000   -76.1760     9.6190     8.1530    11.9850    10.0080     0.0030   120.2470     2.4970
  972.0000   -76.1770     9.5800     8.1270    12.0270    10.0040     0.0010   121.1830     2.5020
  972.5000   -76.1760     9.5420     8.1000    11.8930    10.0010    -0.0010   121.8420     2.5050
  973.0000   -76.1760     9.5030     8.0730    11.7850     9.9970     0.0000   122.0760     2.4990
  973.5000   -76.1760     9.4550     8.0470    11.6780     9.9930     0.0010   122.3130     2.4980
  974.0000   -76.1760     9.3960     8.0200    11.5700     9.9890     0.0020   122.5460     2.4950
  974.5000   -76.1760     9.3370     7.9930    11.4940     9.9840     0.0030   122.7780     2.4900
  975.0000   -76.1760     9.2780     7.9690    11.5860     9.9750     0.0020   123.0120     2.4880
  975.5000   -76.1760     9.2190     7.8610    11.6570     9.9660     0.0010   123.2430     2.4870
  976.0000   -76.1760     9.1600     7.7620    11.7060     9.9570     0.0020   123.4510     2.4840
  976.5000   -76.1760     9.0640     7.6630    11.4920     9.9480     0.0030   124.3700     2.4820
  977.0000   -76.1780     8.9520     7.5640    11.3270     9.9390     0.0050   125.4350     2.4880
