~VERSION INFORMATION
 VERS.                2.0:   CWLS LOG ASCII STANDARD - VERSION 2.0
 WRAP.                 NO:   ONE LINE PER DEPTH STEP
~WELL INFORMATION
#MNEM.UNIT      DATA TYPE    INFORMATION
#----------   ------------   ------------------------------
 STRT.F           50.5000:   START DEPTH
 STOP.F         5694.0000:   STOP DEPTH
 STEP.F            0.5000:   STEP LENGTH
 NULL.          -999.2500:   NO VALUE
 COMP. LAWRENCE ALLISON AND ASSOCIATES WEST:   COMPANY
 WELL. LAWRENCE "TX" #57-28:   WELL
 FLD .        TEAPOT DOME:   FIELD
 LOC .      S28 T39N R78W:   LOCATION
 CNTY.            NATRONA:   COUNTY
 STAT.            WYOMING:   STATE
 CTRY. UNITED STATES OF AMERICA:   COUNTRY
 SRVC.       SCHLUMBERGER:   SERVICE COMPANY
 DATE.        26-FEB-1982:   LOGDATE
 API .     49025108850000:   API NUMBER
~CURVE INFORMATION
#MNEM.UNIT       API CODE    CURVE DESCRIPTION
#----------   ------------   ------------------------------
 DEPT.F                  :   
 GRR .GAPI   11 310 01 00:   GAMMA RAY FROM RES.
 CALD.IN     45 280 60 00:   CALIPER FROM DENSITY LOG
 TEND.LBS    45 635 01 00:   TENSION FORM DENSITY LOG
 CORR.G/C3   45 356 01 00:   DENSITY CORRECTION
 RHOB.G/C3   45 350 01 00:   BULK DENSITY
 NPHI.DEC    42 890 03 00:   NEUTRON POROSITY SANDSTONE
 TENR.LBS    06 635 01 00:   TENSION FROM RESISTIVITY
 SPR .MV     11 010 01 00:   SPONTANEOUS POTENTIAL FROM RES.
 LLS .OHMM   11 220 09 00:   LATEROLOG LOG SHALLOW
 LLD .OHMM   11 220 10 00:   LATEROLOG DEEP
 MSFL.OHMM   11 270 04 00:   MICRO SPHERICALLY FOCUSED
~PARAMETER INFORMATION
#MNEM.UNIT          VALUE    DESCRIPTION
#----------   ------------   ------------------------------
 EKB .F         5101.0000:   Kelly bushing
 EGL .F         5091.0000:   Ground level
 EDF .F            0.0000:   Drilling floor
 TD  .F         3248.0000:   Total depth
 CLNT.            A2DTECH:   Client Code
 SL  . 950' FSL & 2100' FEL:   Surface Location
 PD  .                 GL:   Permanent Datum
 EPD .F              5091:   Elevation Permanent Datum
 LMF .                 KB:   Log Measured From
 DMF .                 KB:   Drilling Measured From
 DAPD.F                10:   Feet Above Permanent Datum
 DATE.        26-FEB-1982:   Date Logged [DD-MMM-YYYY]
 DD  .F              3243:   Depth driller
 DL  .F              3248:   Depth logger
 BLI .F              3216:   Bottom log interval
 TLI .F                 0:   Top log interval
 CS1 .IN            9.625:   Casing size
 CBD1.      9.625" @ 401':   Casing driller 1
 CBL1.F               401:   Casing logger 1
 BS1 .IN            7.875:   Bit size
 BSD1.F              3243:   Depth drilled with bit1
 DFT .           CHEM GEL:   Type fluid in hole
 DFD .                8.9:   Density
 DFV .                 55:   Viscosity
 DFPH.                9.5:   pH
 DFL .                 10:   Fluid loss
 MSS .            MUD PIT:   Source of sample
 RMS .OHMM           1.82:   Rm
 MST .F                76:   Rm Meas. temp.
 RMF .OHMM           1.64:   Rmf
 MFST.F                75:   Rmf Meas. temp.
 MFSS.               MEAS:   Source Rmf.
 RMB .OHMM           1.15:   Rm. at BHT
 BHT .F               120:   BHT.
 TCS .HRS            1330:   Time Circ. stopped
 TLAB.HRS            1715:   Time logger at bottom
 MRT .F               120:   Maximum recorded temp.
 LUN .               8043:   Logging unit number
 LUL .               CSPR:   Logging unit location
 ENGI.             TAYLOR:   Recorded By
 WITN.       FIVAS/STRONG:   Witnessed by
 ORIG.      1" 2.5" PRINT:   Origin of data
 UWI .     49025108850000:   Unique Well ID
 DICO. A2D TECHNOLOGIES, INC.:   Digitizing Company
~OTHER INFORMATION
~A   DEPT       GRR      CALD       TEND       CORR       RHOB       NPHI       TENR        SPR        LLS        LLD       MSFL   
# ...
 1514.5000   100.6057     9.7271   737.2776     0.0144     2.5330     0.3288   818.6738   -79.4712     7.8538     8.9830     8.7915
 1515.0000    98.6992     9.7308   737.3952     0.0113     2.5269     0.3018   820.0000   -79.4801     7.7430     8.6162     8.5440
 1515.5000    98.6036     9.7638   737.5128     0.0113     2.5285     0.2901   820.0000   -79.4893     7.8496     8.6150     8.3149
 1516.0000   101.3385     9.7860   737.6304     0.0143     2.5353     0.2839   820.0000   -79.4985     7.9577     8.6138     8.3132
 1516.5000   103.7630     9.8157   737.7480     0.0205     2.5481     0.2781   820.0000   -79.6162     8.0671     8.6126     8.3115
 1517.0000   105.5793     9.8455   737.8655     0.0269     2.5439     0.2855   820.0000   -79.8226     8.0649     8.7871     8.3098
 1517.5000   108.0023     9.8445   737.9831     0.0308     2.5353     0.3037   820.0000   -80.0025     8.0626     8.7303     8.3080
 1518.0000   109.8170     9.8744   738.1007     0.0244     2.5280     0.3140   820.0000   -80.4541     7.9129     8.6088     8.4217
 1518.5000   111.0792     9.8735   738.2183     0.0140     2.5236     0.3177   820.0000   -80.4628     7.7902     8.6077     8.4200
 1519.0000   112.8368     9.9034   738.3358     0.0033     2.5251     0.3150   820.0000   -80.7774     7.7261     8.6066     8.5357
 1519.5000   111.8464     9.8688   738.4534     0.0048     2.5296     0.3089   820.0000   -80.7861     7.7235     8.6054     8.6528
 1520.0000   108.1702     9.8338   738.5710     0.0108     2.5357     0.3049   820.0000   -81.1006     7.7215     8.7324     8.7715
 1520.5000   104.5551     9.7989   738.6885     0.0168     2.5467     0.2977   820.0000   -80.8035     7.9376     8.9891     8.7696
 1521.0000   105.4544     9.7332   738.8062     0.0168     2.5538     0.2947   820.0000   -80.8134     8.1598     9.1261     8.8902
 1521.5000   107.8790     9.7142   738.9237     0.0169     2.5528     0.2971   820.0000   -80.8226     8.3925     9.2176     9.0585
 1522.0000   110.3035     9.7131   739.0413     0.0185     2.5407     0.3013   820.0000   -80.4777     8.5201     9.3447     9.1957
 1522.5000   112.7280     9.6814   739.1589     0.0232     2.5278     0.3059   820.0000   -80.2727     8.6206     9.3434     9.2607
 1523.0000   105.3726     9.6805   739.2764     0.0306     2.5273     0.3120   820.0000   -80.2385     8.6179     9.3842     9.2585
 1523.5000   102.3323     9.7104   739.3940     0.0511     2.5612     0.3113   820.0000   -79.9429     8.4963     9.2122     9.2567
 1524.0000   102.4472     9.7095   739.5116     0.0571     2.5809     0.3039   820.0000   -79.9516     8.3663     9.0843     9.0024
 1524.5000   103.1037     9.7086   739.6292     0.0453     2.5687     0.2939   820.0000   -79.9603     8.0309     8.7134     8.7551
 1525.0000   104.9797     9.7154   739.7468     0.0315     2.5502     0.2948   820.0000   -79.9694     7.8081     8.5924     8.5048
 1525.5000   107.1716     9.7485   739.8643     0.0254     2.5489     0.2985   820.0000   -79.9786     7.5915     8.5912     8.2805
 1526.0000   109.5704     9.7674   739.9819     0.0255     2.5524     0.3018   820.0000   -79.9878     7.5895     8.5900     8.2788
 1526.5000   107.7266     9.7665   740.0995     0.0340     2.5577     0.3056   820.0000   -79.9969     7.5932     8.5888     8.1634
 1527.0000   105.2731     9.7654   740.2170     0.0457     2.5648     0.3162   820.0000   -80.0061     7.7086     8.5876     8.2174
 1527.5000   105.2586     9.7527   740.3347     0.0536     2.5745     0.3229   820.0000   -80.3229     7.9071     8.5862     8.2736
 1528.0000   105.8862     9.7021   740.4522     0.0615     2.5749     0.3198   820.0000   -80.6374     8.0160     8.5851     8.2717
 1528.5000   107.7459     9.7012   740.5698     0.0599     2.5684     0.3096   820.0000   -80.9520     8.1258     8.5839     8.5020
 1529.0000   109.4834     9.6388   740.6874     0.0524     2.5562     0.3026   820.0000   -80.9607     8.4191     8.7025     8.7387
 1529.5000   101.9499     9.6071   740.8049     0.0462     2.5501     0.3005   820.0000   -80.9694     8.4679     9.4553     9.2339
 1530.0000    95.5889     9.6062   740.9225     0.0340     2.5506     0.2974   820.0000   -80.9786     8.3482    10.4458    10.3557
 1530.5000    92.9726     9.6052   741.0401     0.0385     2.5675     0.2902   820.0000   -80.9878     8.1166    10.8875    10.9268
 1531.0000    98.4425     9.6200   741.1577     0.0434     2.5955     0.2841   820.0000   -80.9969     7.6745    11.0070    10.6119
 1531.5000   102.6963     9.7263   741.2752     0.0835     2.6386     0.2902   820.0000   -81.0061     7.2493     9.8846     9.1789
 1532.0000   105.1208     9.9408   741.3928     0.1144     2.6152     0.2951   820.0000   -81.0153     7.1541     8.2835     8.0332
 1532.5000   106.9355    10.0322   741.5104     0.0988     2.5772     0.3023   820.0000   -81.0262     7.1797     7.7820     7.5988
 1533.0000   107.5308    10.0314   741.6280     0.0673     2.5498     0.3097   820.0000   -80.7291     7.2887     8.2243     8.0294
 1533.5000   108.1261    10.0305   741.7455     0.0306     2.5498     0.3061   820.0000   -80.7378     7.5033     8.4765     8.0703
 1534.0000   108.8700    10.0295   741.8631     0.0139     2.5372     0.2955   820.0000   -80.4404     7.5557     7.7790     7.7000
 1534.5000   110.1362    10.0286   741.9807     0.0047     2.5224     0.2825   820.0000   -80.4495     7.7668     7.4599     7.3841
 1535.0000   111.6768    10.0169   742.0983     0.0016     2.5262     0.2878   820.0000   -80.1524     7.9841     7.3578     7.2827
 1535.5000   113.0050     9.9960   742.2158     0.0061     2.5325     0.2964   820.0000   -80.1621     7.9820     7.5864     7.3827
 1536.0000   107.4365     9.9778   742.3334     0.0125     2.5389     0.3268   820.0000   -80.1713     8.0919     7.7020     7.5510
 1536.5000   101.9342     9.9325   742.4510     0.0222     2.5429     0.3348   820.0000   -79.8746     7.9777     7.7736     7.8450
 1537.0000   100.7002     9.9316   742.5685     0.0302     2.5465     0.3317   820.0000   -79.8838     7.9339     7.6656     7.8494
 1537.5000   104.9540     9.8999   742.6862     0.0354     2.5495     0.3255   820.0000   -79.8946     7.6159     7.3525     7.5830
 1538.0000   111.1098     9.8991   742.8037     0.0393     2.5510     0.3182   820.0000   -79.9033     7.4575     7.2504     7.3747
 1538.5000   113.5589     9.8674   742.9213     0.0392     2.5525     0.3190   820.0000   -79.9121     7.1787     7.0514     7.2720
 1539.0000   114.6665     9.8665   743.0389     0.0392     2.5448     0.3241   820.0000   -80.2266     7.0273     7.1488     7.1707
 1539.5000   113.5944     9.8964   743.1564     0.0391     2.5470     0.3247   820.0000   -80.5509     6.9282     7.3518     7.0708
 1540.0000   111.6257     9.8954   743.2740     0.0406     2.5508     0.3199   820.0000   -80.8563     7.0235     7.6593     7.0825
 1540.5000   109.0478     9.8945   743.3916     0.0436     2.5582     0.3184   820.0000   -80.8654     7.1203     7.8991     7.3674
 1541.0000   105.4549     9.9241   743.5092     0.0483     2.5622     0.3264   820.0000   -80.8746     7.4225     8.1314     7.6438
 1541.5000   101.7819     9.9233   743.6268     0.0511     2.5522     0.3331   820.0000   -80.7372     7.5353     8.5532     7.9884
 1542.0000    99.9381     9.9224   743.7443     0.0474     2.5325     0.3222   820.0000   -80.5872     7.6279     8.6713     8.2859
 1542.5000    99.9236     9.9215   743.8619     0.0177     2.5279     0.3094   820.0000   -80.5963     7.4879     8.3170     8.3784
 1543.0000   102.4875     9.9206   743.9795     0.0159     2.5354     0.3028   820.0000   -80.4919     7.2698     7.6528     8.2204
 1543.5000   105.7075     9.9197   744.0970     0.0189     2.5466     0.2979   820.0000   -80.3089     7.1084     7.3404     7.8848
 1544.0000   107.1972     9.8880   744.2147     0.0249     2.5575     0.3019   820.0000   -80.3183     7.1060     7.2384     7.6682
 1544.5000   102.6788     9.8871   744.3322     0.0462     2.5722     0.3059   820.0000   -80.3272     7.1042     7.2375     7.4525
