~VERSION INFORMATION
 VERS.                2.0:   CWLS LOG ASCII STANDARD - VERSION 2.0
 WRAP.                 NO:   ONE LINE PER DEPTH STEP
~WELL INFORMATION
#MNEM.UNIT      DATA TYPE    INFORMATION
#----------   ------------   ------------------------------
 STRT.F           31.0000:   START DEPTH
 STOP.F         2926.0000:   STOP DEPTH
 STEP.F            0.5000:   STEP LENGTH
 NULL.          -999.2500:   NO VALUE
 COMP. LAWERNCE ALLISON AND ASSOCIATES:   COMPANY
 WELL.   FENIX "X" #17-21:   WELL
 FLD .             NPR #3:   FIELD
 LOC .      S21 T39N R78W:   LOCATION
 CNTY.            NATRONA:   COUNTY
 STAT.            WYOMING:   STATE
 CTRY. UNITED STATES OF AMERICA:   COUNTRY
 SRVC.      WESTERN ATLAS:   SERVICE COMPANY
 DATE.        02-NOV-1987:   LOGDATE
 API .     49025111960000:   API NUMBER
~CURVE INFORMATION
#MNEM.UNIT       API CODE    CURVE DESCRIPTION
#----------   ------------   ------------------------------
 DEPT.F                  :   
 CALD.IN     45 280 60 00:   CALIPER FROM DENSITY LOG
 TEND.LBS    45 635 01 00:   TENSION FROM DENSITY LOG
 CORR.G/C3   45 356 01 00:   DENSITY CORRECTION
 RHOB.G/C3   45 350 01 00:   BULK DENSITY
 CNC .DEC    42 890 03 00:   NEUTRON POROSITY SANDSTONE
 SPR .MV     07 010 01 00:   SPONTANEOUS POTENTIAL
 GRR .GAPI   07 310 01 00:   GAMMA RAY FROM RESISTIVITY
 TENR.LBS    07 635 01 00:   TENSION FROM RESISTIVITY
 RFOC.OHMM   07 220 04 00:   RESISTIVITY FOCUSED LOG RES.
 RILD.OHMM   07 120 46 00:   DEEP INDUCTION RESISTIVITY
 RILM.OHMM   07 120 44 00:   INDUCTION LOG MEDIUM RESISTIVITY
~PARAMETER INFORMATION
#MNEM.UNIT          VALUE    DESCRIPTION
#----------   ------------   ------------------------------
 EKB .F         5006.0000:   Kelly bushing
 EGL .F         4995.0000:   Ground level
 EDF .F            0.0000:   Drilling floor
 TD  .F         2915.0000:   Total depth
 DATE.        02-NOV-1987:   Date logged
 CLNT.            A2DTECH:   Client Code
 SL  . 1824' FSL & 399' FWL:   Surface Location
 PD  .                 GL:   Permanent Datum
 DD  .F              2911:   Depth driller
 DL  .F              2915:   Depth logger
 BLI .F              2913:   Bottom log interval
 CS1 .IN            8.625:   Casing size
 CBD1.      8.625" @ 350':   Casing driller 1
 CBL1.F               350:   Casing logger 1
 BS1 .IN            7.875:   Bit size
 DFT .        KCL-POLYMER:   Type fluid in hole
 DFD .                8.8:   Density
 DFV .                 42:   Viscosity
 DFPH.                9.5:   pH
 DFL .                 11:   Fluid loss
 MSS .           FLOWLINE:   Source of sample
 RMS .OHMM           0.41:   Rm
 MST .F                78:   Rm Meas. temp.
 RMF .OHMM           0.29:   Rmf
 MFST.F                78:   Rmf Meas. temp.
 RMC .OHMM           0.51:   Rmc
 MCST.F                78:   Rmc Meas. temp.
 MFSS.               MEAS:   Source Rmf.
 RMB .OHMM           0.29:   Rm. at BHT
 BHT .F               108:   BHT.
 TCS .HRS               5:   Time Circ. stopped
 MRT .F               108:   Maximum recorded temp.
 LUN .            HL-6274:   Logging unit number
 LUL .           GILLETTE:   Logging unit location
 WITN.             STRONG:   Witnessed by
 ORIG.           5" PRINT:   Origin of data
 UWI .     49025111960000:   Unique Well ID
 DICO. A2D TECHNOLOGIES, INC.:   Digitizing Company
 DAPD.                 11:   Feet Above Permanent Datum
 BSD1.               2911:   Depth drilled with bit1
 MCSS.               CALC:   Source Rmc.
 EPD .               4995:   Elevation Permanent Datum
 LMF .                 KB:   Log Measured From
 DMF .                 KB:   Drilling Measured From
 TLI .                 11:   Top log interval
~OTHER INFORMATION
~A   DEPT     CALD       TEND       CORR       RHOB        CNC        SPR         GRR      TENR       RFOC       RILD       RILM   
# ...
  885.0000  -999.2500  -999.2500  -999.2500  -999.2500  -999.2500   -24.6580    99.2780   -74.1130     9.6090     9.9480     9.8880
  885.5000  -999.2500  -999.2500  -999.2500  -999.2500  -999.2500   -24.6820   102.2940   -74.2350     9.5770     9.8900     9.8170
  886.0000  -999.2500  -999.2500  -999.2500  -999.2500  -999.2500   -24.7230   105.7270   -74.3560     9.5000     9.8320     9.7450
  886.5000  -999.2500  -999.2500  -999.2500  -999.2500  -999.2500   -24.6670   106.9670   -74.4780     9.4240     9.7740     9.6740
  887.0000  -999.2500  -999.2500  -999.2500  -999.2500  -999.2500   -25.0280   106.1550   -74.5990     9.3490     9.7160     9.6020
  887.5000  -999.2500  -999.2500  -999.2500  -999.2500  -999.2500   -25.0660   106.9260   -74.7210     9.2740     9.6580     9.5310
  888.0000  -999.2500  -999.2500  -999.2500  -999.2500  -999.2500   -25.0250   108.1580   -74.8420     9.1980     9.6010     9.4590
  888.5000  -999.2500  -999.2500  -999.2500  -999.2500  -999.2500   -24.9590   109.2820   -74.9640     9.1230     9.5430     9.3880
  889.0000  -999.2500  -999.2500  -999.2500  -999.2500  -999.2500   -24.9200   109.3340   -75.0850     9.0470     9.4850     9.3160
  889.5000  -999.2500  -999.2500  -999.2500  -999.2500  -999.2500   -24.8680   111.9450   -75.2070     8.9720     9.4270     9.1960
  890.0000  -999.2500  -999.2500  -999.2500  -999.2500  -999.2500   -24.8180   114.2790   -75.3280     8.8970     9.3690     8.9440
  890.5000  -999.2500  -999.2500  -999.2500  -999.2500  -999.2500   -24.7700   112.6540   -75.4500     8.8210     9.3120     8.8740
  891.0000  -999.2500  -999.2500  -999.2500  -999.2500  -999.2500   -24.7200   111.1010   -75.5720     8.7460     9.2690     8.7870
  891.5000  -999.2500  -999.2500  -999.2500  -999.2500  -999.2500   -24.6710   113.1450   -75.6930     8.6710     9.0240     8.7010
  892.0000  -999.2500  -999.2500  -999.2500  -999.2500  -999.2500   -24.6210   115.2070   -75.8150     8.5950     8.7470     8.6140
  892.5000  -999.2500  -999.2500  -999.2500  -999.2500  -999.2500   -24.5720   117.7510   -75.9360     8.5200     8.6290     8.5280
  893.0000  -999.2500  -999.2500  -999.2500  -999.2500  -999.2500   -24.5230   117.9360   -76.0580     8.3260     8.6290     8.4410
  893.5000  -999.2500  -999.2500  -999.2500  -999.2500  -999.2500   -24.4740   117.2300   -76.1790     8.2750     8.5660     8.3550
  894.0000  -999.2500  -999.2500  -999.2500  -999.2500  -999.2500   -24.4200   116.3410   -76.3010     8.1790     8.4690     8.2680
  894.5000  -999.2500  -999.2500  -999.2500  -999.2500  -999.2500   -24.3810   116.6840   -76.4220     8.0340     8.3720     8.1790
  895.0000  -999.2500  -999.2500  -999.2500  -999.2500  -999.2500   -24.3250   116.8720   -76.5440     8.0050     8.2760     8.1480
  895.5000  -999.2500  -999.2500  -999.2500  -999.2500  -999.2500   -24.5300   117.0500   -76.6650     7.9570     8.1790     8.1170
  896.0000  -999.2500  -999.2500  -999.2500  -999.2500  -999.2500   -24.7950   117.1450   -76.7870     7.9080     8.0820     8.0850
  896.5000  -999.2500  -999.2500  -999.2500  -999.2500  -999.2500   -24.9950   117.1350   -76.9080     7.8590     8.0340     8.0530
  897.0000  -999.2500  -999.2500  -999.2500  -999.2500  -999.2500   -25.4190   116.3240   -77.0300     7.8100     8.0340     8.0220
  897.5000  -999.2500  -999.2500  -999.2500  -999.2500  -999.2500   -25.4850   113.3980   -77.1510     7.7510     8.0080     7.9900
  898.0000  -999.2500  -999.2500  -999.2500  -999.2500  -999.2500   -25.4920   113.1610   -77.2730     7.7530     7.9820     7.9580
  898.5000  -999.2500  -999.2500  -999.2500  -999.2500  -999.2500   -25.4010   111.2770   -77.3950     7.7520     7.9550     7.9270
  899.0000  -999.2500  -999.2500  -999.2500  -999.2500  -999.2500   -25.3380   109.6710   -77.5160     7.7520     7.9290     7.8950
  899.5000  -999.2500  -999.2500  -999.2500  -999.2500  -999.2500   -25.2600   107.8940   -77.6380     7.7510     7.9020     7.8630
  900.0000  -999.2500  -999.2500  -999.2500  -999.2500  -999.2500   -25.1850   108.6990   -77.7590     7.7510     7.8910     7.8320
  900.5000  -999.2500  -999.2500  -999.2500  -999.2500  -999.2500   -25.1120   109.2900   -77.8810     7.7520     7.8910     7.8000
  901.0000  -999.2500  -999.2500  -999.2500  -999.2500  -999.2500   -25.0360   111.4010   -78.0020     7.7630     7.8910     7.7680
  901.5000  -999.2500  -999.2500  -999.2500  -999.2500  -999.2500   -24.9620   112.6090   -78.1240     7.8090     7.9430     7.7510
  902.0000  -999.2500  -999.2500  -999.2500  -999.2500  -999.2500   -24.8880   113.1480   -78.2450     7.8540     8.0040     7.8350
  902.5000  -999.2500  -999.2500  -999.2500  -999.2500  -999.2500   -24.8140   112.5350   -78.3670     7.9000     8.0340     7.9570
  903.0000  -999.2500  -999.2500  -999.2500  -999.2500  -999.2500   -24.7370   111.2570   -78.4880     7.9460     8.1980     8.0800
  903.5000  -999.2500  -999.2500  -999.2500  -999.2500  -999.2500   -24.7060   109.3890   -78.6100     7.9920     8.2560     8.2030
  904.0000  -999.2500  -999.2500  -999.2500  -999.2500  -999.2500   -24.7350   109.2300   -78.7310     8.0380     8.3130     8.3260
  904.5000  -999.2500  -999.2500  -999.2500  -999.2500  -999.2500   -24.7700   111.4590   -78.8530     8.0840     8.3710     8.3410
  905.0000  -999.2500  -999.2500  -999.2500  -999.2500  -999.2500   -24.8040   113.3430   -78.9740     8.1300     8.4290     8.3650
  905.5000  -999.2500  -999.2500  -999.2500  -999.2500  -999.2500   -24.8390   115.4110   -79.0960     8.1760     8.4870     8.3890
  906.0000  -999.2500  -999.2500  -999.2500  -999.2500  -999.2500   -24.8740   115.5520   -79.2180     8.2220     8.5440     8.4130
  906.5000  -999.2500  -999.2500  -999.2500  -999.2500  -999.2500   -24.9080   115.5920   -79.3390     8.2680     8.6020     8.4370
  907.0000  -999.2500  -999.2500  -999.2500  -999.2500  -999.2500   -24.9430   115.5480   -79.4610     8.3260     8.6290     8.4610
  907.5000  -999.2500  -999.2500  -999.2500  -999.2500  -999.2500   -24.9770   115.5920   -79.5820     8.2790     8.5910     8.4760
  908.0000  -999.2500  -999.2500  -999.2500  -999.2500  -999.2500   -25.0120   115.5750   -79.7040     8.1450     8.4820     8.3910
  908.5000  -999.2500  -999.2500  -999.2500  -999.2500  -999.2500   -25.0460   116.7330   -79.8250     8.0120     8.3730     8.2410
  909.0000  -999.2500  -999.2500  -999.2500  -999.2500  -999.2500   -25.0820   117.1220   -79.9470     7.8780     8.2640     8.0910
  909.5000  -999.2500  -999.2500  -999.2500  -999.2500  -999.2500   -25.1000   116.9710   -80.0680     7.7510     8.1550     7.9420
  910.0000  -999.2500  -999.2500  -999.2500  -999.2500  -999.2500   -25.1160   114.7840   -80.1900     7.7810     8.0340     7.8910
  910.5000  -999.2500  -999.2500  -999.2500  -999.2500  -999.2500   -25.1320   113.2580   -80.3110     7.8270     8.0750     7.9410
  911.0000  -999.2500  -999.2500  -999.2500  -999.2500  -999.2500   -25.1490   114.2120   -80.4330     7.8720     8.1580     7.9980
  911.5000  -999.2500  -999.2500  -999.2500  -999.2500  -999.2500   -25.1650   116.9250   -80.5540     7.9170     8.2410     8.0540
  912.0000  -999.2500  -999.2500  -999.2500  -999.2500  -999.2500   -25.1810   116.7090   -80.6760     7.9620     8.3260     8.1110
  912.5000  -999.2500  -999.2500  -999.2500  -999.2500  -999.2500   -25.1980   115.8400   -80.7970     8.0070     8.2990     8.1790
  913.0000  -999.2500  -999.2500  -999.2500  -999.2500  -999.2500   -25.2140   116.4650   -80.9190     8.0340     8.2710     8.1470
  913.5000  -999.2500  -999.2500  -999.2500  -999.2500  -999.2500   -25.2310   119.3490   -81.0410     8.0070     8.2430     8.1070
  914.0000  -999.2500  -999.2500  -999.2500  -999.2500  -999.2500   -25.2470   119.6820   -81.1620     7.9640     8.2160     8.0670
  914.5000  -999.2500  -999.2500  -999.2500  -999.2500  -999.2500   -25.2630   120.0320   -81.2840     7.9200     8.1880     8.0270
  915.0000  -999.2500  -999.2500  -999.2500  -999.2500  -999.2500   -25.2800   120.5650   -81.4050     7.8760     8.1600     7.9870
